     2.11           OBSERVATION DATA    G                   RINEX VERSION / TYPE
SPIDER V4,0,0,3554                      2015 04 15 00:25    PGM / RUN BY / DATE 
CABS                                                        MARKER NAME         
CABS                                                        MARKER NUMBER       
                                                            OBSERVER / AGENCY   
462287              LEICA GRX1200PRO    8.10/2.127          REC # / TYPE / VERS 
103298              LEIAT504                                ANT # / TYPE        
  5116912.3402   671231.6412  3737143.4301                  APPROX POSITION XYZ 
        0.0600        0.0000        0.0000                  ANTENNA: DELTA H/E/N
     1     1                                                WAVELENGTH FACT L1/2
     4    C1    L1    P2    L2                              # / TYPES OF OBSERV 
    30.000                                                  INTERVAL            
  2015    01    20    11    35    0.0000000     GPS         TIME OF FIRST OBS   
  2015    01    20    23    59   30.0000000     GPS         TIME OF LAST OBS    
    16                                                      LEAP SECONDS        
    23                                                      # OF SATELLITES     
   G 1    63    63    63    63                              PRN / # OF OBS      
   G 2   911   911   911   911                              PRN / # OF OBS      
   G 3   211   211   211   211                              PRN / # OF OBS      
   G 5   646   646   646   646                              PRN / # OF OBS      
   G 6   654   654   654   654                              PRN / # OF OBS      
   G 7   587   587   587   587                              PRN / # OF OBS      
   G 9   510   510   510   510                              PRN / # OF OBS      
   G10   644   644   644   644                              PRN / # OF OBS      
   G12   731   731   731   731                              PRN / # OF OBS      
   G13   793   793   793   793                              PRN / # OF OBS      
   G14   433   433   433   433                              PRN / # OF OBS      
   G15   698   698   698   698                              PRN / # OF OBS      
   G17   537   537   537   537                              PRN / # OF OBS      
   G18   318   318   318   318                              PRN / # OF OBS      
   G20   415   415   415   415                              PRN / # OF OBS      
   G21    94    94    94    94                              PRN / # OF OBS      
   G23   323   323   323   323                              PRN / # OF OBS      
   G24   817   817   817   817                              PRN / # OF OBS      
   G25   547   547   547   547                              PRN / # OF OBS      
   G28   603   603   603   603                              PRN / # OF OBS      
   G29   393   393   393   393                              PRN / # OF OBS      
   G30   711   711   711   711                              PRN / # OF OBS      
   G31   208   208   208   208                              PRN / # OF OBS      
BIT 2 OF LLI FLAGS DATA COLLECTED UNDER A/S CONDITION       COMMENT             
SNR is mapped to RINEX snr flag value [2-9]                 COMMENT             
Lx:     = 25dBHz -> 1; 26-27dBHz -> 2; 28-31dBHz -> 3       COMMENT             
       32-35dBHz -> 4; 36-38dBHz -> 5; 39-41dBHz -> 6       COMMENT             
       42-44dBHz -> 7; 45-48dBHz -> 8; >=49dBHz -> 9        COMMENT             
                                                            END OF HEADER       
 15 01 20 11 35  0.0000000  0  9G01G03G06G07G09G10G17G20G23
  23520276.840   123599888.93306  23520288.680    96311647.12046
  21752039.460   114307738.95508  21752046.620    89070994.68148
  21545252.240   113221063.69708  21545259.080    88224233.35648
  23028156.860   121013781.00207  23028164.720    94296485.68647
  20443523.860   107431442.52209  20443529.280    83712834.56349
  22705574.960   119318601.20507  22705580.660    92975557.70146
  23283506.020   122355648.88307  23283513.100    95342092.55446
  20283037.980   106588083.44908  20283041.060    83055662.24549
  20748394.920   109033551.60409  20748396.280    84961213.44448
 15 01 20 11 35 30.0000000  0  9G01G03G06G07G09G10G17G20G23
  23540158.740   123704369.07506  23540170.460    96393059.94845
  21761641.340   114358196.98308  21761648.480    89110312.60348
  21533001.260   113156684.39108  21533008.060    88174067.69448
  23009299.680   120914685.68107  23009307.360    94219268.78647
  20439861.060   107412194.45409  20439866.460    83697836.09149
  22690834.560   119241140.38507  22690840.340    92915198.72146
  23297090.660   122427036.30107  23297097.800    95397718.94846
  20281253.660   106578706.96508  20281256.800    83048355.89649
  20754817.260   109067301.17109  20754818.620    84987511.79548
 15 01 20 11 36  0.0000000  0  9G01G03G06G07G09G10G17G20G23
  23560074.960   123809029.21506  23560086.780    96474612.99946
  21771281.880   114408857.95308  21771288.960    89149788.65448
  21520830.940   113092729.05908  21520837.760    88124232.40348
  22990472.740   120815749.42007  22990480.200    94142175.86046
  20436276.380   107393357.10909  20436281.820    83683157.65949
  22676114.480   119163786.90907  22676120.360    92854923.39846
  23310724.660   122498683.45707  23310731.980    95453547.72746
  20279522.840   106569611.46308  20279526.000    83041268.49049
  20761299.800   109101366.97809  20761301.120    85014056.57048
 15 01 20 11 36 30.0000000  0  9G01G03G06G07G09G10G17G20G23
  23580025.760   123913869.81906  23580037.520    96556306.67746
  21780961.620   114459724.64708  21780968.560    89189425.01748
  21508742.200   113029202.63808  21508749.100    88074731.33448
  22971677.060   120716977.99307  22971684.240    94065211.34546
  20432770.260   107374932.40909  20432775.700    83668800.77049
  22661415.560   119086544.24107  22661421.500    92794734.40045
  23324408.120   122570590.48307  23324415.620    95509578.99546
  20277846.200   106560800.46908  20277849.340    83034402.77849
  20767842.720   109135750.06809  20767844.000    85040848.57448
 15 01 20 11 37  0.0000000  0  9G01G03G06G07G09G10G17G20G23
  23600010.140   124018886.27707  23600021.760    96638137.37046
  21790680.080   114510794.61808  21790686.820    89229219.77148
  21496735.020   112966104.98308  21496742.060    88025564.36548
  22952912.560   120618371.02107  22952919.600    93988375.01246
  20429342.040   107356917.19609  20429347.520    83654762.95649
  22646737.440   119009410.71506  22646743.380    92734630.45446
  23338140.020   122642751.43207  23338147.520    95565808.13446
  20276223.300   106552271.98708  20276226.380    83027757.20649
  20774445.220   109170446.29809  20774446.460    85067884.58948
 15 01 20 11 37 30.0000000  0  9G01G03G06G07G09G10G17G20G23
  23620028.160   124124079.26506  23620039.680    96720105.62046
  21800437.680   114562070.83208  21800444.380    89269175.21948
  21484810.400   112903441.20308  21484817.540    87976735.48648
  22934180.440   120519934.63407  22934187.340    93911671.60246
  20425992.140   107339313.48609  20425997.640    83641045.78849
  22632080.760   118932389.69107  22632086.660    92674614.16046
  23351920.300   122715166.13807  23351927.700    95622235.00046
  20274654.840   106544029.67508  20274657.920    83021334.62349
  20781107.540   109205456.95509  20781108.800    85095165.60848
 15 01 20 11 38  0.0000000  0  9G01G03G06G07G09G10G17G20G23
  23640078.520   124229442.90206  23640089.920    96802206.82446
  21810233.760   114613549.61108  21810240.500    89309288.52348
  21472968.120   112841209.89008  21472975.300    87928243.59548
  22915480.480   120421667.51807  22915487.320    93835100.07347
  20422719.760   107322117.06609  20422725.260    83627645.98849
  22617445.000   118855478.05307  22617450.840    92614683.11046
  23365747.540   122787827.57107  23365754.800    95678854.12546
  20273140.240   106536070.47108  20273143.340    83015132.65049
  20787828.640   109240776.69209  20787829.980    85122687.46948
 15 01 20 11 38 30.0000000  0  9G01G03G06G07G09G10G17G20G23
  23660161.400   124334978.09506  23660172.660    96884441.71846
  21820068.960   114665234.13908  21820075.780    89349562.15448
  21461209.160   112779416.39608  21461216.340    87880092.85548
  22896813.820   120323575.52307  22896820.740    93758665.01046
  20419525.300   107305330.14409  20419530.820    83614565.27449
  22602830.800   118778679.72207  22602836.580    92554840.34246
  23379621.660   122860735.77107  23379629.000    95735665.52046
  20271680.180   106528398.03508  20271683.320    83009154.12349
  20794608.820   109276406.95909  20794610.220    85150451.30348
 15 01 20 11 39  0.0000000  0  9G01G03G06G07G09G10G17G20G23
  23680276.280   124440681.65206  23680287.420    96966807.79446
  21829943.040   114717123.44708  21829950.020    89389995.35048
  21449533.820   112718061.96008  21449540.940    87832284.23948
  22878180.900   120225660.20507  22878187.940    93682367.61547
  20416408.440   107288950.96309  20416413.940    83601802.28249
  22588238.100   118701994.31407  22588243.780    92495085.56546
  23393541.820   122933886.24507  23393549.240    95792665.70445
  20270274.600   106521011.63608  20270277.740    83003398.49149
  20801447.520   109312344.89909  20801449.020    85178454.88048
 15 01 20 11 39 30.0000000  0  9G01G03G06G07G09G10G17G20G23
  23700422.680   124546550.89706  23700433.800    97049302.96045
  21839856.080   114769217.16508  21839863.160    89430587.83648
  21437942.380   112657148.40508  21437949.440    87784819.16648
  22859582.180   120127924.06007  22859589.360    93606209.82847
  20413368.940   107272978.31709  20413374.440    83589356.07149
  22573666.880   118625422.09107  22573672.520    92435418.97846
  23407507.480   123007275.77907  23407514.960    95849852.17145
  20268923.580   106513911.80008  20268926.660    82997866.14949
  20808344.480   109348588.90209  20808346.020    85206696.95348
 15 01 20 11 40  0.0000000  0  9G01G03G06G07G09G10G17G20G23
  23720600.320   124652584.01506  23720611.380    97131925.83345
  21849808.160   114821515.67208  21849815.260    89471339.89448
  21426435.280   112596678.24408  21426442.320    87737699.59748
  22841018.220   120030370.20907  22841025.500    93530194.06647
  20410406.740   107257411.70409  20410412.220    83577226.25649
  22559117.420   118548964.14507  22559123.020    92375841.44546
  23421518.120   123080901.75107  23421525.640    95907222.85845
  20267627.280   106507099.54208  20267630.340    82992557.90049
  20815299.440   109385137.57909  20815300.980    85235176.43548
 15 01 20 11 40 30.0000000  0  9G01G03G06G07G09G10G17G20G23
  23740808.900   124758779.35606  23740819.820    97214675.10745
  21859799.380   114874019.61208  21859806.480    89512252.02048
  21415013.040   112536654.32308  21415020.140    87690927.74748
  22822489.540   119933001.78607  22822496.900    93454322.77047
  20407521.780   107242250.95009  20407527.240    83565412.69049
  22544589.820   118472621.52207  22544595.460    92316353.76346
  23435573.240   123154761.23807  23435580.740    95964775.52246
  20266385.860   106500575.74208  20266388.940    82987474.41549
  20822312.140   109421989.58209  20822313.660    85263892.27348
 15 01 20 11 41  0.0000000  0  9G01G03G06G07G09G10G17G20G23
  23761047.540   124865132.64306  23761058.620    97297547.42445
  21869829.340   114926726.94508  21869836.380    89553322.64348
  21403675.720   112477076.74508  21403682.860    87644503.69648
  22803996.260   119835819.30808  22804003.600    93378596.36147
  20404713.500   107227493.13209  20404718.920    83553913.10049
  22530083.920   118396392.77907  22530089.520    92256954.81846
  23449671.780   123228848.81106  23449679.260    96022505.92346
  20265199.080   106494339.26308  20265202.160    82982614.82549
  20829381.900   109459141.30409  20829383.360    85292841.66348
 15 01 20 11 41 30.0000000  0  9G01G03G06G07G09G10G17G20G23
  23781316.240   124971644.50206  23781327.640    97380543.30145
  21879898.580   114979640.54808  21879905.520    89594553.99848
  21392424.320   112417950.56508  21392431.500    87598431.38248
  22785539.300   119738828.07508  22785546.640    93303018.96046
  20401982.240   107213140.25809  20401987.660    83542729.06149
  22515600.400   118320281.66707  22515606.000    92197647.54646
  23463813.660   123303164.19606  23463821.120    96080413.81046
  20264067.600   106488393.38408  20264070.700    82977981.68049
  20836508.940   109496593.94409  20836510.360    85322025.53648
 15 01 20 11 42  0.0000000  0  9G01G03G06G07G09G10G17G20G23
  23801614.380   125078311.34905  23801626.080    97463659.95045
  21890006.820   115032759.09308  21890013.740    89635945.04348
  21381259.020   112359276.59108  21381266.160    87552711.43548
  22767119.020   119642029.65407  22767126.300    93227591.78647
  20399327.580   107199190.12009  20399333.040    83531858.84049
  22501139.200   118244287.58507  22501144.740    92138431.46446
  23477998.140   123377702.94306  23478005.560    96138495.74846
  20262991.360   106482737.69708  20262994.440    82973574.66149
  20843692.640   109534344.51909  20843694.060    85351441.56448
 15 01 20 11 42 30.0000000  0  9G01G03G06G07G09G10G17G20G23
  23821941.680   125185131.41106  23821953.760    97546895.98345
  21900154.140   115086083.08908  21900161.040    89677496.18048
  21370180.260   112301057.46408  21370187.340    87507345.91748
  22748736.000   119545427.22808  22748743.220    93152317.34247
  20396749.480   107185642.35209  20396754.960    83521302.15649
  22486700.500   118168411.95407  22486705.960    92079307.66846
  23492224.620   123452462.30206  23492231.980    96196749.59646
  20261970.460   106477372.89708  20261973.560    82969394.30549
  20850932.780   109572392.03209  20850934.280    85381088.97748
 15 01 20 11 43  0.0000000  0  9G01G03G06G07G09G10G17G20G23
  23842297.820   125292102.30406  23842310.160    97630249.54346
  21910340.420   115139612.43108  21910347.400    89719207.32948
  21359188.480   112243295.20708  21359195.500    87462336.40148
  22730390.760   119449023.28207  22730397.880    93077197.54147
  20394247.740   107172495.93009  20394253.260    83511058.21349
  22472284.460   118092655.25507  22472289.860    92020276.55546
  23506492.440   123527438.84707  23506499.740    96255172.66846
  20261005.060   106472299.70408  20261008.180    82965441.18249
  20858229.060   109610734.58609  20858230.640    85410966.29248
 15 01 20 11 43 30.0000000  0  9G01G03G06G07G09G10G17G20G23
  23862682.540   125399222.69406  23862695.020    97713719.57146
  21920565.980   115193347.98008  21920572.980    89761079.15648
  21348284.160   112185992.79808  21348291.120    87417685.19948
  22712083.940   119352821.24207  22712090.920    93002235.07747
  20391822.360   107159750.83709  20391827.920    83501126.99049
  22457891.260   118017018.78307  22457896.600    91961339.11946
  23520801.020   123602630.04306  23520808.340    96313763.00645
  20260095.380   106467519.39508  20260098.520    82961716.28549
  20865581.360   109649371.37009  20865582.980    85441072.87948
 15 01 20 11 44  0.0000000  0  9G01G03G06G07G09G10G17G20G23
  23883095.100   125506488.38306  23883107.540    97797302.81846
  21930830.420   115247287.86008  21930837.380    89803110.20847
  21337467.360   112129150.44808  21337474.300    87373392.48748
  22693815.680   119256821.94107  22693822.540    92927430.57647
  20389472.840   107147404.25809  20389478.420    83491506.29949
  22443520.700   117941501.36707  22443526.000    91902494.46346
  23535149.480   123678030.97706  23535156.880    96372516.76945
  20259241.200   106463030.79408  20259244.340    82958218.69449
  20872988.940   109688298.63409  20872990.580    85471405.81648
 15 01 20 11 44 30.0000000  0  9G01G03G06G07G09G10G17G20G23
  23903535.480   125613900.27806  23903547.920    97880999.98146
  21941134.340   115301435.24408  21941141.280    89845302.93948
  21326739.100   112072773.43908  21326746.080    87329462.38048
  22675587.160   119161031.08208  22675593.840    92852788.51847
  20387199.580   107135458.42209  20387205.180    83482197.87849
  22429173.500   117866106.96307  22429178.780    91843745.64646
  23549537.800   123753641.47806  23549545.360    96431433.85345
  20258443.240   106458837.54608  20258446.380    82954951.24449
  20880452.100   109727517.83809  20880453.700    85501966.24548
 15 01 20 11 45  0.0000000  0  9G01G03G06G07G09G10G17G20G23
  23924003.240   125721456.14606  23924015.660    97964809.31546
  21951477.760   115355790.19908  21951484.660    89887657.41347
  21316099.880   112016863.96108  21316106.880    87285896.58348
  22657398.920   119065451.56408  22657405.400    92778311.11947
  20385002.440   107123912.48609  20385008.040    83473201.07049
  22414849.820   117790836.16907  22414855.160    91785093.16146
  23563965.320   123829458.13406  23563973.100    96490511.55246
  20257701.580   106454940.30108  20257704.760    82951914.44949
  20887970.540   109767027.56509  20887972.120    85532753.05248
 15 01 20 11 45 30.0000000  0  9G01G03G06G07G09G10G17G20G23
  23944497.580   125829152.55606  23944510.140    98048728.14046
  21961860.480   115410351.49808  21961867.300    89930172.67648
  21305549.800   111961422.85108  21305556.800    87242695.74548
  22639251.180   118970084.60708  22639257.500    92703999.36447
  20382881.020   107112764.26709  20382886.580    83464514.17149
  22400549.600   117715688.72007  22400555.000    91726536.77346
  23578431.320   123905476.68106  23578439.200    96549746.56046
  20257016.180   106451338.50008  20257019.360    82949107.86949
  20895543.700   109806825.00209  20895545.300    85563764.04848
 15 01 20 11 46  0.0000000  0  9G01G03G06G07G09G10G17G20G23
  23965018.140   125936987.29706  23965030.840    98132754.76046
  21972282.440   115465119.22308  21972289.260    89972848.79647
  21295089.240   111906452.24708  21295096.260    87199861.53948
  22621144.460   118874932.91208  22621150.660    92629855.33247
  20380835.140   107102012.89809  20380840.620    83456136.50749
  22386272.980   117640665.16907  22386278.420    91668076.93946
  23592935.220   123981694.09406  23592943.060    96609136.52545
  20256387.080   106448032.72008  20256390.260    82946531.95549
  20903171.340   109846908.43209  20903172.900    85594997.89948
 15 01 20 11 46 30.0000000  0 10G01G02G03G06G07G09G10G17G20G23
  23985564.740   126044959.39006  23985577.620    98216888.39446
  24841296.240   130541888.08405  24841299.860   101720973.89445
  21982743.960   115520094.70008  21982750.820    90015686.80248
  21284718.860   111851955.55108  21284725.900    87157396.61348
  22603079.500   118780000.70708  22603085.660    92555882.33447
  20378864.840   107091658.78409  20378870.300    83448068.39749
  22372020.400   117565767.81607  22372025.860    91609715.43846
  23607476.520   124058108.13806  23607484.300    96668679.72246
  20255814.720   106445025.05108  20255817.920    82944188.32849
  20910853.320   109887277.20409  20910854.840    85626454.09448
 15 01 20 11 47  0.0000000  0 10G01G02G03G06G07G09G10G17G20G23
  24006137.280   126153068.18406  24006150.300    98301128.56245
  24821795.280   130439410.59405  24821799.120   101641121.45644
  21993245.240   115575279.52808  21993252.260    90058687.93648
  21274439.320   111797936.38008  21274446.360    87115303.78548
  22585056.980   118685292.21408  22585063.280    92482083.66047
  20376970.240   107081702.49409  20376975.660    83440310.27349
  22357792.340   117490999.05007  22357797.740    91551454.14746
  23622054.940   124134717.41906  23622062.660    96728375.04345
  20255299.520   106442317.62708  20255302.660    82942078.66049
  20918589.680   109927931.71109  20918591.140    85658132.93548
 15 01 20 11 47 30.0000000  0 10G01G02G03G06G07G09G10G17G20G23
  24026734.020   126261303.59806  24026747.020    98385467.38745
  24802313.520   130337034.28105  24802317.380   101561347.82945
  22003784.840   115630665.85108  22003792.020    90101846.07148
  21264249.560   111744388.97408  21264256.580    87073578.57348
  22567075.880   118590802.27207  22567082.480    92408455.27747
  20375149.640   107072135.31009  20375155.060    83432855.34949
  22343587.420   117416351.78107  22343592.760    91493287.51946
  23636668.360   124211510.74806  23636676.120    96788213.74046
  20254840.040   106439903.23308  20254843.180    82940197.32449
  20926378.580   109968862.16609  20926379.960    85690026.80348
 15 01 20 11 48  0.0000000  0 10G01G02G03G06G07G09G10G17G20G23
  24047355.960   126369670.60406  24047368.660    98469908.72245
  24782852.740   130234768.83405  24782856.880   101481660.59545
  22014364.160   115686261.00508  22014371.460    90145166.94048
  21254151.380   111691322.67508  21254158.340    87032228.24348
  22549138.060   118496540.21507  22549144.920    92335004.46747
  20373404.260   107062963.47809  20373409.700    83425708.49849
  22329407.140   117341833.95707  22329412.380    91435221.75046
  23651317.580   124288492.00106  23651325.320    96848198.88345
  20254437.860   106437789.82308  20254441.000    82938550.52049
  20934221.080   110010074.26109  20934222.360    85722140.12648
 15 01 20 11 48 30.0000000  0 10G01G02G03G06G07G09G10G17G20G23
  24068002.240   126478165.24606  24068014.800    98554449.51545
  24763413.160   130132614.40806  24763417.540   101402059.89045
  22024982.900   115742063.23108  22024990.320    90188649.16347
  21244144.800   111638737.72608  21244151.680    86991252.99148
  22531243.860   118402507.27308  22531250.820    92261732.19247
  20371733.600   107054184.29809  20371739.060    83418867.60149
  22315251.320   117267444.60208  22315256.460    91377256.08646
  23666001.660   124365656.47707  23666009.420    96908326.78845
  20254092.680   106435975.84008  20254095.780    82937137.03049
  20942116.460   110051564.58509  20942117.680    85754470.25148
 15 01 20 11 49  0.0000000  0 10G01G02G03G06G07G09G10G17G20G23
  24088672.060   126586783.98606  24088684.540    98639086.98745
  24743995.080   130030572.08405  24743999.340   101322546.50045
  22035640.920   115798071.34708  22035648.300    90232291.81547
  21234229.980   111586634.94808  21234236.820    86950653.45648
  22513393.740   118308705.16608  22513400.560    92188639.76847
  20370137.240   107045795.58209  20370142.700    83412330.96649
  22301119.820   117193183.16608  22301124.920    91319390.11246
  23680719.740   124442999.80006  23680727.700    96968594.04446
  20253804.420   106434461.02108  20253807.540    82935956.66649
  20950064.240   110093330.47109  20950065.460    85787015.09748
 15 01 20 11 49 30.0000000  0 10G01G02G03G06G07G09G10G17G20G23
  24109365.260   126695525.97006  24109377.740    98723820.47844
  24724599.040   129928645.37206  24724603.180   101243123.20844
  22046338.400   115854286.62308  22046345.700    90276095.88047
  21224407.500   111535017.65408  21224414.340    86910432.21748
  22495588.440   118215137.70108  22495594.940    92115730.22147
  20368615.260   107037797.64209  20368620.700    83406098.83149
  22287013.100   117119051.98608  22287018.160    91261625.62246
  23695471.600   124520520.31006  23695479.760    97028999.36845
  20253573.500   106433247.31508  20253576.580    82935010.92849
  20958064.320   110135371.28109  20958065.540    85819774.16848
 15 01 20 11 50  0.0000000  0 10G01G02G03G06G07G09G10G17G20G23
  24130081.640   126804389.82906  24130094.300    98808648.90044
  24705225.680   129826837.83806  24705229.700   101163792.78645
  22057075.520   115910710.12308  22057082.680    90320062.19447
  21214677.980   111483888.83908  21214684.840    86870591.61248
  22477828.460   118121808.21608  22477834.620    92043006.11347
  20367167.660   107030190.48709  20367173.080    83400171.20549
  22272931.440   117045052.64708  22272936.520    91203963.86946
  23710256.560   124598214.99506  23710264.920    97089540.41946
  20253400.140   106432336.29708  20253403.220    82934301.05649
  20966116.600   110177686.47909  20966117.880    85852747.03748
 15 01 20 11 50 30.0000000  0 10G01G02G03G06G07G09G10G17G20G23
  24150820.580   126913372.11506  24150833.440    98893569.62545
  24685875.180   129725150.27706  24685879.020   101084555.86244
  22067852.060   115967340.61908  22067859.000    90364189.79647
  21205041.560   111433249.24908  21205048.420    86831132.21748
  22460114.040   118028718.16308  22460119.980    91970468.57547
  20365794.020   107022971.87309  20365799.400    83394546.33749
  22258874.800   116971184.82508  22258879.960    91146404.60746
  23725073.840   124676079.51806  23725082.360    97150213.78646
  20253284.220   106431727.18608  20253287.300    82933826.43249
  20974220.520   110220273.21809  20974221.880    85885931.49948
 15 01 20 11 51  0.0000000  0 10G01G02G03G06G07G09G10G17G20G23
  24171581.800   127022470.56106  24171594.780    98978580.86545
  24666547.900   129623585.09806  24666551.680   101005414.31345
  22078668.020   116024178.18608  22078674.800    90408478.76147
  21195498.620   111383100.99508  21195505.480    86792055.68548
  22442445.660   117935870.59108  22442451.600    91898119.98447
  20364494.140   107016140.93109  20364499.500    83389223.55449
  22244843.360   116897449.41507  22244848.580    91088948.51746
  23739922.880   124754110.96406  23739931.560    97211017.22845
  20253225.880   106431420.71808  20253228.960    82933587.63549
  20982375.780   110263129.80609  20982377.220    85919326.23648
 15 01 20 11 51 30.0000000  0 10G01G02G03G06G07G09G10G17G20G23
  24192365.000   127131683.62206  24192378.100    99063681.39745
  24647244.420   129522145.06406  24647248.200   100926370.26345
  22089523.420   116081223.37308  22089530.160    90452929.50448
  21186049.660   111333446.53808  21186056.520    86753363.92748
  22424823.880   117843268.55608  22424830.040    91825962.70047
  20363267.920   107009697.10409  20363273.220    83384202.42349
  22230837.420   116823848.02208  22230842.660    91031596.85246
  23754803.260   124832306.68206  23754812.040    97271948.66646
  20253225.360   106431418.18508  20253228.460    82933585.67449
  20990582.240   110306255.45409  20990583.760    85952930.62348
 15 01 20 11 52  0.0000000  0 10G01G02G03G06G07G09G10G17G20G23
  24213169.820   127241009.90606  24213182.920    99148870.14545
  24627965.300   129420833.56105  24627969.180   100847426.36545
  22100418.520   116138477.21308  22100425.280    90497542.82647
  21176695.260   111284288.86808  21176702.120    86715059.27648
  22407249.420   117750915.68208  22407255.920    91753999.55347
  20362115.360   107003640.45009  20362120.600    83379482.97749
  22216857.340   116750382.50807  22216862.620    90974351.07246
  23769714.520   124910664.25606  23769723.280    97333006.20346
  20253282.940   106431720.99308  20253286.060    82933821.63949
  20998839.780   110349649.25609  20998841.360    85986743.96648
 15 01 20 11 52 30.0000000  0 10G01G02G03G06G07G09G10G17G20G23
  24233995.580   127350446.72606  24234008.900    99234145.00845
  24608711.000   129319652.32805  24608715.020   100768583.98946
  22111353.180   116195939.20508  22111360.040    90542318.35347
  21167435.660   111235629.37308  21167442.520    86677142.81848
  22389722.660   117658813.92308  22389729.600    91682232.07447
  20361036.160   106997969.38109  20361041.400    83375063.99349
  22202903.080   116677052.84407  22202908.360    90917211.13246
  23784656.020   124989180.59006  23784664.580    97394187.43845
  20253398.740   106432329.48408  20253401.860    82934295.79849
  21007147.980   110393309.04509  21007149.580    86020764.57248
 15 01 20 11 53  0.0000000  0 10G01G02G03G06G07G09G10G17G20G23
  24254842.100   127459992.76706  24254855.720    99319504.92345
  24589482.040   129218604.46005  24589486.240   100689845.53045
  22122327.620   116253610.33908  22122334.560    90587256.84247
  21158271.420   111187470.99308  21158278.260    86639616.82848
  22372244.500   117566966.98308  22372251.680    91610663.14347
  20360030.360   106992683.86609  20360035.580    83370945.43949
  22188975.100   116603861.06507  22188980.340    90860178.64246
  23799627.180   125067852.67206  23799635.420    97455490.03845
  20253572.980   106433245.16308  20253576.080    82935009.32449
  21015506.720   110437234.51209  21015508.380    86054992.19248
 15 01 20 11 53 30.0000000  0 11G01G02G03G06G07G09G10G17G20G23G30
  24275708.260   127569642.49005  24275722.120    99404945.63345
  24570278.360   129117689.09205  24570282.560   100611210.31346
  22133341.240   116311487.38708  22133348.260    90632355.79347
  21149202.280   111139812.39908  21149209.100    86602480.28348
  22354814.860   117475374.07708  22354822.060    91539292.17647
  20359097.080   106987779.63909  20359102.340    83367123.99749
  22175072.880   116530804.69507  22175078.060    90803251.66046
  23814626.760   125146674.27606  23814634.880    97516909.15446
  20253805.180   106434465.34608  20253808.260    82935960.12649
  21023915.100   110481420.49009  21023916.720    86089422.82448
  24704584.060   129823471.35505  24704605.120   101161221.82844
 15 01 20 11 54  0.0000000  0 10G01G02G03G06G07G09G10G17G20G23
  24296594.480   127679398.03106  24296608.600    99490468.80145
  24551101.100   129016912.95305  24551105.340   100532683.58345
  22144394.860   116369574.73308  22144401.880    90677618.59947
  21140229.400   111092659.84308  21140236.200    86565738.05248
  22337435.160   117384042.64308  22337442.080    91468124.95047
  20358236.980   106983260.00309  20358242.260    83363602.23449
  22161197.420   116457888.99407  22161202.560    90746434.28446
  23829654.940   125225646.65206  23829663.160    97578445.74346
  20254096.280   106435995.11008  20254099.380    82937152.15749
  21032373.580   110525869.77109  21032375.140    86124058.62248
 15 01 20 11 54 30.0000000  0 10G01G02G03G06G07G09G10G17G20G23
  24317499.920   127789254.99405  24317514.420    99576070.98046
  24531950.480   128916276.42805  24531954.740   100454265.63746
  22155488.220   116427870.27608  22155495.080    90723043.64947
  21131352.760   111046013.12908  21131359.600    86529389.99048
  22320105.300   117292972.86508  22320111.760    91397161.61747
  20357449.460   106979121.78409  20357454.760    83360377.67849
  22147348.440   116385112.63007  22147353.580    90689725.49746
  23844710.720   125304764.42206  23844719.160    97640095.63846
  20254445.900   106437832.58108  20254449.020    82938583.96249
  21040881.460   110570578.68509  21040882.960    86158896.73548
 15 01 20 11 55  0.0000000  0 10G01G02G03G06G07G09G10G17G20G23
  24338424.360   127899212.48105  24338439.140    99661751.48345
  24512827.200   128815783.18705  24512831.500   100375959.34645
  22166621.460   116486375.33008  22166628.180    90768631.93347
  21122573.040   110999875.44208  21122579.860    86493438.56848
  22302825.900   117202168.72408  22302831.940    91326405.27547
  20356734.600   106975365.25109  20356739.900    83357450.54049
  22133526.400   116312477.99007  22133531.580    90633127.14746
  23859793.800   125384025.82806  23859802.580    97701857.43045
  20254854.540   106439980.09608  20254857.680    82940257.36549
  21049438.660   110615546.81009  21049440.100    86193936.82748
 15 01 20 11 55 30.0000000  0 10G01G02G03G06G07G09G10G17G20G23
  24359367.120   128009266.54206  24359382.300    99747507.16244
  24493731.300   128715433.66305  24493735.620   100297765.05345
  22177794.180   116545088.22308  22177800.880    90814382.16947
  21113890.220   110954246.99908  21113897.000    86457883.96048
  22285597.120   117111631.17908  22285602.880    91255856.65747
  20356091.860   106971987.68209  20356097.140    83354818.69149
  22119731.220   116239984.30007  22119736.460    90576638.62146
  23874903.180   125463425.72506  23874912.300    97763727.15846
  20255322.000   106442436.59408  20255325.120    82942171.52949
  21058044.540   110660771.03009  21058045.940    86229176.48248
 15 01 20 11 56  0.0000000  0 10G01G02G03G06G07G09G10G17G20G23
  24380327.980   128119415.04405  24380343.540    99833336.48545
  24474663.240   128615230.47806  24474667.500   100219684.78046
  22189006.520   116604009.12508  22189013.240    90860294.50347
  21105304.660   110909129.75008  21105311.440    86422727.68248
  22268419.440   117021362.92008  22268425.180    91185517.87947
  20355521.020   106968988.13609  20355526.300    83352481.40849
  22105963.040   116167632.50707  22105968.280    90520260.67246
  23890038.440   125542961.09906  23890047.780    97825702.43746
  20255848.440   106445202.98108  20255851.500    82944327.17049
  21066698.800   110706249.72609  21066700.240    86264614.42648
 15 01 20 11 56 30.0000000  0 10G01G02G03G06G07G09G10G17G20G23
  24401306.780   128229657.02805  24401322.460    99919238.60944
  24455623.700   128515177.08605  24455627.920   100141721.22346
  22200258.640   116663139.33108  22200265.560    90906369.92147
  21096816.960   110864526.87208  21096823.800    86387972.21948
  22251293.680   116931367.73408  22251299.580    91115391.87547
  20355022.160   106966366.84909  20355027.460    83350438.86849
  22092222.380   116095424.99608  22092227.580    90463995.15346
  23905199.340   125622630.38507  23905208.640    97887782.04846
  20256434.140   106448280.87108  20256437.200    82946725.54249
  21075401.460   110751982.77509  21075402.920    86300250.57548
 15 01 20 11 57  0.0000000  0 11G01G02G03G06G07G09G10G17G20G23G30
  24422302.800   128339988.99105  24422318.700   100005210.79845
  24436612.840   128415274.88106  24436616.940   100063875.47046
  22211550.400   116722477.54708  22211557.520    90952607.43448
  21088427.260   110820438.84808  21088434.120    86353617.94848
  22234220.200   116841647.03708  22234226.280    91045479.76247
  20354594.820   106964121.43809  20354600.140    83348689.21649
  22078509.060   116023361.03908  22078514.180    90407841.49447
  23920384.820   125702428.58407  23920394.040    97949962.11346
  20257079.000   106451669.58808  20257082.040    82949366.11149
  21084151.920   110797966.95509  21084153.420    86336082.40648
  24556481.720   129045227.84905  24556502.740   100554807.67045
 15 01 20 11 57 30.0000000  0 11G01G02G03G06G07G09G10G17G20G23G30
  24443315.860   128450409.85905  24443331.760   100091252.26545
  24417631.380   128315527.28206  24417635.460    99986150.21145
  22222882.000   116782025.06008  22222889.260    90999008.03847
  21080136.120   110776868.79708  21080143.040    86319667.28348
  22217199.800   116752204.89108  22217206.020    90975784.71647
  20354239.040   106962252.06909  20354244.360    83347232.58349
  22064823.500   115951443.02008  22064828.620    90351801.55347
  23935594.480   125782354.04507  23935603.660    98012241.32846
  20257783.360   106455371.08808  20257786.380    82952250.41149
  21092950.120   110844202.14508  21092951.680    86372109.82848
  24535312.940   128933986.59105  24535333.800   100468127.18445
 15 01 20 11 58  0.0000000  0 11G01G02G03G06G07G09G10G17G20G23G30
  24464345.220   128560916.48105  24464361.260   100177360.51845
  24398679.640   128215935.73106  24398683.600    99908546.52245
  22234253.200   116841780.89308  22234260.580    91045570.98047
  21071943.740   110733817.53108  21071950.620    86286120.86748
  22200232.780   116663042.74608  22200239.000    90906307.83947
  20353954.440   106960756.71209  20353959.760    83346067.38849
  22051165.760   115879671.25408  22051170.860    90295875.57546
  23950827.580   125862402.68706  23950836.720    98074616.54145
  20258547.260   106459385.34208  20258550.240    82955378.40949
  21101795.620   110890685.88108  21101797.240    86408330.92148
  24514142.340   128822736.50505  24514162.940   100381439.79044
 15 01 20 11 58 30.0000000  0 11G01G02G03G06G07G09G10G17G20G23G30
  24485390.600   128671506.86306  24485406.640   100263534.02745
  24379758.140   128116502.81406  24379761.980    99831066.43345
  22245664.060   116901745.29608  22245671.500    91092296.43247
  21063850.460   110691287.08908  21063857.320    86252980.28748
  22183319.660   116574163.52208  22183325.760    90837051.42447
  20353740.880   106959634.52009  20353746.200    83345192.97049
  22037536.020   115808046.61008  22037541.120    90240064.24247
  23966083.600   125942572.01006  23966092.860    98137085.78545
  20259370.700   106463712.70008  20259373.700    82958750.38949
  21110688.180   110937416.93108  21110689.880    86444744.72448
  24492970.640   128711480.42305  24492990.780   100294747.63444
 15 01 20 11 59  0.0000000  0 11G01G02G03G06G07G09G10G17G20G23G30
  24506451.660   128782179.81805  24506467.760   100349771.86845
  24360867.480   128017232.00906  24360871.140    99753712.70344
  22257114.820   116961919.37808  22257122.240    91139185.27847
  21055856.800   110649280.31709  21055863.640    86220247.76048
  22166461.100   116485570.91508  22166466.940    90768018.35347
  20353598.340   106958885.49609  20353603.640    83344609.33349
  22023934.660   115736570.88308  22023939.660    90184368.93447
  23981361.840   126022858.98606  23981371.240    98199646.68646
  20260254.120   106468355.10408  20260257.120    82962367.84649
  21119627.700   110984394.36809  21119629.400    86481350.51548
  24471798.480   128600221.93106  24471818.020   100208053.57145
 15 01 20 11 59 30.0000000  0 11G01G02G03G06G07G09G10G17G20G23G30
  24527527.960   128892932.78806  24527544.080   100436071.96545
  24342008.040   127918125.40606  24342011.500    99676486.89345
  22268605.500   117022302.85708  22268612.800    91186237.29047
  21047963.100   110607798.72808  21047969.900    86187924.46248
  22149657.460   116397267.12508  22149663.020    90699210.33447
  20353526.560   106958508.26109  20353531.840    83344315.40449
  22010361.840   115665245.12308  22010366.740    90128790.48546
  23996661.760   126103260.04306  23996671.340    98262296.48246
  20261197.520   106473312.69408  20261200.500    82966230.90849
  21128613.860   111031616.77809  21128615.520    86518147.19748
  24450626.220   128488963.39806  24450645.360   100121359.44544
 15 01 20 12 00  0.0000000  0 11G01G02G03G06G07G09G10G17G20G23G30
  24548619.000   129003762.53705  24548635.040   100522431.88945
  24323180.040   127819184.50205  24323183.520    99599390.21645
  22280135.860   117082894.74608  22280143.020    91233451.68947
  21040169.440   110566843.00709  21040176.240    86156010.93248
  22132908.980   116309253.75508  22132914.320    90630628.60947
  20353525.100   106958500.69609  20353530.400    83344309.52849
  21996817.500   115594069.31208  21996822.300    90073328.88346
  24011982.820   126183771.76706  24011992.520    98325032.51346
  20262200.880   106478585.33608  20262203.820    82970339.45849
  21137646.120   111079081.29409  21137647.720    86555132.52948
  24429454.180   128377706.29306  24429473.020   100034666.45044
 15 01 20 12 00 30.0000000  0 11G01G02G03G06G07G09G10G17G20G23G30
  24569724.400   129114667.53005  24569740.300   100608850.38144
  24304384.020   127720412.43705  24304387.800    99522425.09345
  22291706.060   117143695.72908  22291713.100    91280829.02447
  21032476.360   110526415.65609  21032483.140    86124509.11948
  22116216.340   116221534.30208  22116221.620    90562275.92147
  20353593.900   106958862.39209  20353599.220    83344591.39449
  21983302.020   115523044.98508  21983306.680    90017985.31247
  24027324.620   126264391.60406  24027334.360    98387852.78946
  20263264.380   106484174.32908  20263267.380    82974694.51449
  21146724.240   111126786.88409  21146725.760    86592305.72148
  24408282.940   128266453.94806  24408301.640    99947977.16844
 15 01 20 12 01  0.0000000  0 11G01G02G03G06G07G09G10G17G20G23G30
  24590843.840   129225646.50106  24590859.720   100695326.48645
  24285620.860   127621812.60905  24285624.860    99445594.22445
  22303316.240   117204706.78308  22303323.220    91328370.05447
  21024884.340   110486519.28309  21024891.100    86093421.05649
  22099580.200   116134112.03608  22099585.580    90494154.80047
  20353732.960   106959593.20509  20353738.280    83345160.88049
  21969815.700   115452174.14708  21969820.300    89962761.34047
  24042686.580   126345117.05707  24042696.320    98450755.35145
  20264388.340   106490081.10508  20264391.420    82979297.19449
  21155848.180   111174733.41509  21155849.660    86629666.66048
  24387113.220   128155209.82806  24387131.820    99861294.30145
 15 01 20 12 01 30.0000000  0 11G01G02G03G06G07G09G10G17G20G23G30
  24611976.820   129336696.65705  24611992.740   100781858.01444
  24266890.940   127523386.48305  24266894.940    99368898.67045
  22314966.240   117265927.35008  22314973.240    91376074.34447
  21017393.600   110447155.07309  21017400.320    86062747.66249
  22083001.060   116046989.07408  22083006.560    90426266.90547
  20353941.940   106960691.44709  20353947.260    83346016.67449
  21956358.640   115381457.14508  21956363.240    89907657.24246
  24058067.980   126425944.71307  24058077.700    98513737.53646
  20265572.800   106496305.71308  20265575.920    82984147.53849
  21165017.540   111222918.62509  21165018.980    86667213.57748
  24365945.320   128043975.96706  24365964.000    99774619.48445
 15 01 20 12 02  0.0000000  0 11G01G02G03G06G07G09G10G17G20G23G30
  24633123.040   129447815.88505  24633138.780   100868443.32044
  24248194.680   127425137.02905  24248198.700    99292340.77345
  22326656.020   117327357.58508  22326663.160    91423942.01147
  21010004.440   110408324.88309  21010011.180    86032490.39049
  22066479.540   115960168.21308  22066485.080    90358614.40748
  20354220.680   106962156.20409  20354225.980    83347158.06549
  21942931.120   115310895.43508  21942935.760    89852674.15247
  24073468.140   126506871.47706  24073477.960    98576796.95546
  20266817.920   106502849.04108  20266821.080    82989246.24149
  21174232.040   111271341.18309  21174233.480    86704945.44548
  24344779.900   127932755.10405  24344798.700    99687954.81445
 15 01 20 12 02 30.0000000  0 11G01G02G03G06G07G09G10G17G20G23G30
  24654281.940   129559002.56905  24654297.860   100955081.15644
  24229532.620   127327067.25706  24229536.500    99215922.88846
  22338385.660   117388998.09407  22338393.020    91471973.53647
  21002717.320   110370030.94809  21002724.100    86002650.97849
  22050016.220   115873652.71708  22050021.740    90291199.85348
  20354569.080   106963986.89809  20354574.320    83348584.60349
  21929533.480   115240490.47208  21929538.120    89797813.19346
  24088886.680   126587894.75406  24088896.620    98639931.58146
  20268123.940   106509712.28808  20268127.100    82994594.23249
  21183491.520   111320000.10609  21183492.960    86742861.49048
  24323617.600   127821550.31406  24323636.300    99601302.71144
 15 01 20 12 03  0.0000000  0 11G01G02G03G06G07G09G10G17G20G23G30
  24675453.000   129670253.70905  24675469.220   101041769.18544
  24210905.040   127229178.70006  24210908.800    99139646.19945
  22350155.120   117450848.08607  22350162.700    91520168.28547
  20995532.380   110332274.10409  20995539.200    85973230.08649
  22033611.260   115787443.98808  22033616.760    90224024.33348
  20354986.760   106966181.63209  20354991.960    83350294.80649
  21916165.660   115170242.25608  21916170.260    89743074.37547
  24104322.840   126669010.58006  24104332.860    98703138.32346
  20269490.860   106516895.46708  20269494.020    83000191.52749
  21192795.520   111368892.99509  21192796.980    86780959.84748
  24302458.760   127710363.44605  24302477.300    99514664.57446
 15 01 20 12 03 30.0000000  0 11G01G02G03G06G07G09G10G17G20G23G30
  24696635.820   129781566.96605  24696652.640   101128505.54944
  24192312.440   127131474.00406  24192316.120    99063512.78845
  22361964.520   117512907.52408  22361972.180    91568526.23447
  20988449.960   110295056.02008  20988456.820    85944228.99949
  22017265.120   115701544.71908  22017270.580    90157089.93447
  20355473.440   106968739.22609  20355478.640    83352287.75749
  21902827.900   115100151.97508  21902832.480    89688458.62747
  24119776.000   126750215.77106  24119786.100    98766414.68146
  20270918.720   106524398.92208  20270921.900    83006038.38349
  21202143.740   111418018.17809  21202145.200    86819239.21548
  24281303.780   127599196.92506  24281322.200    99428042.33345
 15 01 20 12 04  0.0000000  0 11G01G02G03G06G07G09G10G17G20G23G30
  24717830.080   129892940.06705  24717847.300   101215288.53144
  24173755.200   127033955.37006  24173758.760    98987524.34645
  22373813.940   117575176.27408  22373821.400    91617047.27647
  20981470.360   110258378.12409  20981477.180    85915648.84149
  22000978.180   115615957.12508  22000983.620    90090398.40948
  20356028.920   106971658.42709  20356034.120    83354562.47749
  21889520.360   115030220.55408  21889524.920    89633966.66847
  24135245.500   126831507.11506  24135255.720    98829758.16446
  20272407.640   106532223.22608  20272410.820    83012135.24949
  21211535.900   111467374.23609  21211537.340    86857698.48348
  24260153.140   127488053.22206  24260171.360    99341437.83545
 15 01 20 12 04 30.0000000  0 11G01G02G03G06G07G09G10G17G20G23G30
  24739035.320   130004370.45905  24739053.100   101302116.03044
  24155233.740   126936624.87506  24155237.180    98911682.51445
  22385703.240   117637654.04708  22385710.420    91665731.19847
  20974593.840   110222241.79609  20974600.620    85887490.68248
  21984751.020   115530683.93608  21984756.420    90023951.88847
  20356652.960   106974937.79609  20356658.120    83357117.84349
  21876243.160   114960448.74608  21876247.760    89579599.08747
  24150730.780   126912881.19206  24150741.080    98893166.09446
  20273957.740   106540368.73808  20273960.860    83018482.41049
  21220971.640   111516959.34209  21220973.040    86896336.23448
  24239007.240   127376934.61906  24239025.200    99254852.87745
 15 01 20 12 05  0.0000000  0 11G01G02G03G06G07G09G10G17G20G23G30
  24760251.340   130115856.58005  24760269.480   101388986.97744
  24136748.700   126839485.97706  24136752.060    98835989.97245
  22397632.440   117700341.50708  22397639.440    91714578.50247
  20967820.800   110186649.24409  20967827.540    85859756.24449
  21968584.280   115445728.21008  21968589.600    89957752.72647
  20357345.440   106978576.85209  20357350.580    83359953.48649
  21862996.640   114890838.25008  21863001.280    89525357.20147
  24166231.380   126994335.60306  24166241.740    98956636.61945
  20275569.160   106548836.40808  20275572.160    83025080.59649
  21230450.760   111566772.46709  21230452.160    86935151.65448
  24217866.680   127265844.31006  24217884.440    99168289.94945
 15 01 20 12 05 30.0000000  0 11G01G02G03G06G07G09G10G17G20G23G30
  24781477.700   130227395.96905  24781496.120   101475899.36144
  24118300.360   126742540.31806  24118303.780    98760448.01045
  22409601.440   117763238.38007  22409608.400    91763588.99747
  20961151.460   110151601.80709  20961158.200    85832446.57449
  21952478.480   115361092.19108  21952483.720    89891802.68647
  20358106.120   106982574.21909  20358111.220    83363068.33449
  21849780.960   114821389.85308  21849785.660    89471241.62746
  24181746.600   127075866.82906  24181757.020    99020166.99246
  20277242.040   106557627.03408  20277244.940    83031930.43949
  21239972.960   111616811.86109  21239974.360    86974143.38948
  24196731.880   127154784.62706  24196749.420    99081750.85045
 15 01 20 12 06  0.0000000  0 11G01G02G03G06G07G09G10G17G20G23G30
  24802714.220   130338988.23505  24802732.720   101562852.88745
  24099889.660   126645792.34605  24099893.160    98685060.07646
  22421610.520   117826346.48207  22421617.660    91812764.09447
  20954586.520   110117102.89909  20954593.280    85805564.32849
  21936434.460   115276780.19908  21936439.580    89826105.13048
  20358935.120   106986930.59809  20358940.160    83366462.93049
  21836596.720   114752106.59108  21836601.440    89417254.73247
  24197276.140   127157473.32906  24197286.520    99083755.98745
  20278976.760   106566742.94708  20278979.660    83039033.74749
  21249538.300   111667077.89309  21249539.680    87013311.72048
  24175603.760   127043760.01605  24175621.100    98995239.04446
 15 01 20 12 06 30.0000000  0 10G02G03G06G07G09G10G17G20G23G30
  24081516.420   126549241.27206  24081519.880    98609825.57745
  22433659.060   117889662.31307  22433666.400    91862101.06247
  20948125.600   110083150.47709  20948132.340    85779107.90849
  21920451.960   115192791.21408  21920456.980    89760659.27048
  20359831.520   106991641.25409  20359836.540    83370133.59149
  21823443.420   114682985.88008  21823448.140    89363394.49747
  24212818.900   127239149.07606  24212829.340    99147398.96445
  20280772.760   106576181.00908  20280775.660    83046388.08149
  21259145.880   111717565.70709  21259147.220    87052652.86848
  24154482.200   126932769.56505  24154499.320    98908753.78746
 15 01 20 12 07  0.0000000  0 10G02G03G06G07G09G10G17G20G23G30
  24063182.720   126452897.64805  24063186.100    98534752.73446
  22445748.620   117953193.87407  22445756.200    91911606.13947
  20941770.520   110049754.15909  20941777.200    85753084.81749
  21904532.920   115109135.85008  21904537.940    89695473.37048
  20360796.660   106996713.16509  20360801.680    83374085.74849
  21810322.760   114614036.88708  21810327.540    89309668.07347
  24228375.800   127320898.99606  24228386.280    99211099.70946
  20282631.720   106585949.94408  20282634.640    83054000.24549
  21268796.860   111768281.58709  21268798.140    87092171.73348
  24133369.320   126821823.95305  24133386.140    98822303.44145
 15 01 20 12 07 30.0000000  0 10G02G03G06G07G09G10G17G20G23G30
  24044887.100   126356753.74506  24044890.280    98459835.49946
  22457877.380   118016931.12407  22457885.080    91961271.48047
  20935519.600   110016905.33209  20935526.260    85727488.34949
  21888675.860   115025806.67408  21888680.980    89630541.63548
  20361828.360   107002135.01609  20361833.420    83378310.58949
  21797233.100   114545250.62008  21797237.880    89256068.44347
  24243944.180   127402709.67806  24243954.760    99274847.78246
  20284551.860   106596040.50508  20284554.820    83061863.02649
  21278489.040   111819214.15509  21278490.300    87131859.44048
  24112263.580   126710915.58906  24112280.120    98735882.07445
 15 01 20 12 08  0.0000000  0 10G02G03G06G07G09G10G17G20G23G30
  24026630.320   126260814.20206  24026633.480    98385077.49646
  22470045.840   118080876.21908  22470053.480    92011098.78647
  20929373.600   109984607.76809  20929380.240    85702321.43249
  21872881.660   114942808.21008  21872886.920    89565867.59348
  20362926.880   107007907.92509  20362931.960    83382808.98649
  21784175.100   114476630.64208  21784179.840    89202598.39147
  24259523.940   127484580.37106  24259534.680    99338642.61845
  20286533.740   106606455.57008  20286536.740    83069978.66749
  21288222.540   111870364.08509  21288223.800    87171716.51648
  24091166.000   126600049.46706  24091182.180    98649493.54645
 15 01 20 12 08 30.0000000  0 10G02G03G06G07G09G10G17G20G23G30
  24008413.440   126165084.33806  24008416.680    98310482.89646
  22482254.460   118145031.76808  22482261.860    92061090.05747
  20923333.280   109952865.45709  20923339.860    85677587.18249
  21857151.280   114860145.44008  21857156.680    89501455.13648
  20364092.440   107014033.26509  20364097.580    83387582.00349
  21771149.420   114408180.37908  21771154.120    89149260.58547
  24275114.980   127566510.28406  24275125.960    99402483.56045
  20288577.960   106617198.12908  20288580.980    83078349.51349
  21297997.600   111921732.53009  21297998.860    87211743.86748
  24070077.420   126489230.71406  24070093.280    98563141.90944
 15 01 20 12 09  0.0000000  0 10G02G03G06G07G09G10G17G20G23G30
  23990236.660   126069564.90606  23990240.000    98236052.27145
  22494502.780   118209395.92808  22494509.900    92111243.88547
  20917398.540   109921678.08809  20917405.100    85653285.35949
  21841485.020   114777819.38208  21841490.480    89437305.05948
  20365324.520   107020508.11509  20365329.740    83392627.37449
  21758155.900   114339899.19908  21758160.620    89096054.53647
  24290716.500   127648494.81006  24290727.740    99466367.06346
  20290684.220   106628266.71608  20290687.240    83086974.39849
  21307813.620   111973316.11809  21307814.900    87251938.86348
  24048998.040   126378460.22306  24049013.540    98476827.81745
 15 01 20 12 09 30.0000000  0 10G02G03G06G07G09G10G17G20G23G30
  23972100.780   125974259.93506  23972104.100    98161788.75946
  22506790.980   118273970.24007  22506797.940    92161561.46947
  20911569.940   109891048.63509  20911576.520    85629418.26949
  21825883.660   114695833.94508  21825889.020    89373420.40148
  20366623.180   107027332.82709  20366628.460    83397945.35649
  21745195.140   114271789.89008  21745199.860    89042982.41547
  24306328.100   127730532.20106  24306339.500    99530291.75445
  20292853.040   106639663.91308  20292856.060    83095855.34349
  21317670.620   112025115.15209  21317671.920    87292301.73948
  24027928.580   126267742.16506  24027943.820    98390554.52945
 15 01 20 12 10  0.0000000  0 10G02G03G06G07G09G10G17G20G23G30
  23954006.320   125879172.52706  23954009.520    98087694.75546
  22519119.260   118338755.56307  22519126.180    92212043.49047
  20905847.920   109860979.43009  20905854.540    85605987.74449
  21810347.840   114614192.47808  21810352.960    89309803.78048
  20367988.380   107034507.16209  20367993.700    83403535.77349
  21732267.420   114203854.43408  21732272.100    88990045.75747
  24321949.360   127812620.39306  24321960.860    99594256.00846
  20295084.680   106651391.30508  20295087.700    83104993.58349
  21327568.440   112077128.73909  21327569.800    87332831.79948
  24006869.780   126157080.02006  24006884.820    98304324.77445
 15 01 20 12 10 30.0000000  0 10G02G03G06G07G09G10G17G20G23G30
  23935953.560   125784304.10706  23935956.600    98013771.39546
  22531487.280   118403750.44107  22531494.340    92262688.79647
  20900232.460   109831470.42809  20900239.140    85582993.73349
  21794877.680   114532895.87608  21794882.560    89246455.88348
  20369419.620   107042028.48409  20369424.960    83409396.56849
  21719372.720   114136092.56508  21719377.340    88937244.36047
  24337579.460   127894755.29106  24337591.080    99658256.62545
  20297379.000   106663447.99608  20297381.980    83114388.41549
  21337506.620   112129354.30909  21337508.000    87373527.03848
  23985821.900   126046475.16806  23985836.780    98218139.62945
 15 01 20 12 11  0.0000000  0 10G02G03G06G07G09G10G17G20G23G30
  23917942.760   125689656.58606  23917945.600    97940020.16645
  22543895.140   118468954.60007  22543902.380    92313497.17946
  20894723.840   109802522.72809  20894730.560    85560437.10549
  21779473.600   114451946.85808  21779478.340    89183378.83048
  20370916.620   107049895.34309  20370921.940    83415526.61749
  21706511.300   114068505.42508  21706515.840    88884579.12247
  24353217.820   127976933.43106  24353229.620    99722290.94845
  20299735.940   106675833.98608  20299738.920    83124039.84449
  21347484.860   112181790.24308  21347486.260    87414386.19548
  23964785.420   125935929.82906  23964800.180    98132000.83245
 15 01 20 12 11 30.0000000  0 10G02G03G06G07G09G10G17G20G23G30
  23899974.520   125595233.21506  23899977.300    97866443.59946
  22556342.980   118534368.46507  22556350.340    92364468.96847
  20889322.440   109774138.18509  20889329.140    85538319.29949
  21764136.020   114371347.98308  21764140.820    89120574.60248
  20372479.260   107058107.05609  20372484.540    83421925.37949
  21693683.440   114001094.62108  21693687.920    88832051.29447
  24368864.040   128059152.09206  24368875.920    99786356.82945
  20302155.860   106688550.76208  20302158.800    83133949.03249
  21357502.880   112234435.37008  21357504.320    87455408.36348
  23943761.040   125825447.30406  23943775.480    98045910.94445
 15 01 20 12 12  0.0000000  0 10G02G03G06G07G09G10G17G20G23G30
  23882049.060   125501034.38206  23882051.800    97793042.00146
  22568830.440   118599989.91107  22568837.780    92415602.49947
  20884028.060   109746315.98009  20884034.740    85516639.67149
  21748865.080   114291099.52608  21748870.020    89058043.42548
  20374106.880   107066660.28609  20374112.160    83428590.25349
  21680888.860   113933858.85208  21680893.280    88779659.85347
  24384516.980   128141405.92806  24384528.900    99850450.09245
  20304638.340   106701596.40808  20304641.280    83144114.47549
  21367559.980   112287285.99208  21367561.540    87496590.65248
  23922748.860   125715028.05206  23922762.960    97959870.37245
 15 01 20 12 12 30.0000000  0 10G02G03G06G07G09G10G17G20G23G30
  23864167.240   125407065.19906  23864170.060    97719819.34946
  22581357.960   118665821.59507  22581365.240    92466899.84647
  20878841.460   109719060.17109  20878848.140    85495401.39149
  21733661.780   114211206.68608  21733666.880    88995789.34848
  20375799.760   107075556.56409  20375805.020    83435522.44149
  21668128.300   113866801.82208  21668132.680    88727407.70247
  24400176.680   128223694.77006  24400188.600    99914570.61246
  20307184.040   106714974.34708  20307187.000    83154538.85749
  21377656.460   112340343.47308  21377658.120    87537934.13248
  23901749.880   125604677.50706  23901763.500    97873883.31745
 15 01 20 12 13  0.0000000  0 10G02G03G06G07G09G10G17G20G23G30
  23846329.720   125313329.18106  23846332.700    97646778.38945
  22593925.640   118731864.25607  22593932.860    92518361.59247
  20873763.040   109692372.83409  20873769.700    85474606.07549
  21718526.900   114131672.90408  21718532.040    88933815.06248
  20377557.840   107084795.49709  20377563.100    83442721.63049
  21655402.140   113799925.82808  21655406.560    88675296.61847
  24415842.620   128306016.21406  24415854.520    99978716.53345
  20309793.240   106728685.84008  20309796.180    83165223.14649
  21387792.260   112393607.38108  21387793.900    87579438.46248
  23880764.540   125494399.09806  23880777.740    97787952.45145
 15 01 20 12 13 30.0000000  0 10G02G03G06G07G09G10G17G20G23G30
  23828536.720   125219827.67806  23828539.920    97573920.16846
  22606533.080   118798116.66107  22606540.400    92569986.77747
  20868792.800   109666254.02509  20868799.440    85454253.76749
  21703460.600   114052499.05008  21703465.620    88872121.24648
  20379380.680   107094374.69609  20379385.920    83450185.96649
  21642710.440   113733230.89108  21642714.880    88623326.61147
  24431514.100   128388366.71406  24431525.960   100042885.07445
  20312465.800   106742730.53708  20312468.800    83176167.07449
  21397966.800   112447074.88308  21397968.380    87621101.43548
  23859793.140   125384194.32806  23859806.020    97702078.98745
 15 01 20 12 14  0.0000000  0 10G02G03G06G07G09G10G17G20G23G30
  23810789.040   125126564.32206  23810792.420    97501247.52046
  22619180.480   118864579.95107  22619188.040    92621776.29447
  20863931.200   109640706.23709  20863937.840    85434346.41249
  21688463.540   113973689.14408  21688468.420    88810711.03048
  20381268.260   107104294.16209  20381273.480    83457915.44049
  21630053.640   113666719.43108  21630058.060    88571499.58147
  24447190.500   128470743.83006  24447202.520   100107074.33445
  20315202.140   106757110.24308  20315205.160    83187372.04649
  21408180.040   112500745.75108  21408181.560    87662922.87848
  23838836.400   125274067.10306  23838849.140    97616265.95745
 15 01 20 12 14 30.0000000  0 10G02G03G06G07G09G10G17G20G23G30
  23793087.000   125033540.08906  23793090.280    97428761.19246
  22631867.640   118931252.53807  22631875.460    92673728.90047
  20859178.160   109615729.13209  20859184.860    85414883.74149
  21673535.880   113895243.87108  21673540.620    88749584.94248
  20383220.080   107114551.10809  20383225.280    83465907.88449
  21617431.720   113600391.12008  21617436.140    88519815.26247
  24462870.980   128553143.18006  24462883.280   100171280.89845
  20318002.060   106771823.77508  20318005.080    83198837.13749
  21418431.480   112554617.12409  21418432.880    87704900.55748
  23817894.500   125164018.50006  23817907.300    97530514.19145
 15 01 20 12 15  0.0000000  0 10G02G03G06G07G09G10G17G20G23G30
  23775430.700   124940755.44607  23775433.720    97356461.53846
  22644594.320   118998132.18407  22644602.220    92725842.85547
  20854533.580   109591321.78109  20854540.280    85395865.03649
  21658677.620   113817163.48208  21658682.280    88688743.17948
  20385235.480   107125142.22509  20385240.660    83474160.71849
  21604844.420   113534244.87208  21604848.840    88468272.80547
  24478554.620   128635559.76706  24478567.180   100235500.88445
  20320865.220   106786869.54808  20320868.240    83210561.12149
  21428720.460   112608685.63009  21428721.760    87747031.84848
  23796967.500   125054049.12906  23796980.560    97444824.18245
 15 01 20 12 15 30.0000000  0 10G02G03G06G07G09G10G17G20G23G30
  23757821.020   124848215.59007  23757823.840    97284352.64646
  22657361.120   119065221.59807  22657368.920    92778120.25047
  20849998.200   109567488.12709  20850004.860    85377293.36649
  21643889.680   113739453.02908  21643894.360    88628189.67748
  20387314.760   107136069.03309  20387319.940    83482675.12949
  21592292.520   113468284.64608  21592296.960    88416875.29747
  24494241.460   128717992.91706  24494254.320   100299733.76845
  20323792.200   106802250.86408  20323795.240    83222546.56849
  21439047.080   112662952.23709  21439048.360    87789317.50048
  23776056.580   124944164.39506  23776069.920    97359200.17146
 15 01 20 12 16  0.0000000  0 10G02G03G06G07G09G10G17G20G23G30
  23740258.120   124755921.71007  23740260.800    97212435.42046
  22670167.760   119132519.28307  22670175.240    92830559.94547
  20845571.920   109544227.87109  20845578.580    85359168.50449
  21629172.260   113662113.05908  21629177.000    88567924.85748
  20389457.440   107147328.89509  20389462.580    83491449.06649
  21579776.040   113402510.38108  21579780.440    88365622.69847
  24509930.680   128800438.28906  24509943.740   100363976.14544
  20326782.840   106817967.07208  20326785.940    83234792.97249
  21449410.920   112717414.40309  21449412.180    87831755.53648
  23755162.020   124834365.57106  23755175.560    97273643.09646
 15 01 20 12 16 30.0000000  0 10G02G03G06G07G09G10G17G20G23G30
  23722742.600   124663876.94407  23722745.120    97140712.32046
  22683014.160   119200025.79908  22683021.360    92883162.35247
  20841255.120   109521542.84509  20841261.740    85341491.86649
  21614526.040   113585147.06608  21614530.820    88507951.45348
  20391663.340   107158921.21409  20391668.500    83500482.05649
  21567295.340   113336923.86508  21567299.680    88314516.39047
  24525622.000   128882894.04906  24525635.200   100428226.56645
  20329837.380   106834019.01408  20329840.540    83247300.98549
  21459811.780   112772071.28309  21459813.080    87874345.30348
  23734284.540   124724655.90706  23734298.180    97188155.54746
 15 01 20 12 17  0.0000000  0 10G02G03G06G07G09G10G17G20G23G30
  23705275.180   124572085.31607  23705277.700    97069186.46346
  22695900.420   119267742.45707  22695907.540    92935928.50747
  20837048.240   109499435.50709  20837054.840    85324265.38149
  21599951.800   113508559.09108  21599956.600    88448272.60748
  20393932.560   107170846.15409  20393937.740    83509774.23149
  21554850.800   113271527.75808  21554855.180    88263558.44947
  24541315.100   128965357.99406  24541328.260   100492483.36746
  20332956.220   106850408.82308  20332959.420    83260072.27149
  21470249.720   112826922.78909  21470251.040    87917086.72848
  23713424.900   124615039.47406  23713438.560    97102740.66946
 15 01 20 12 17 30.0000000  0  9G02G03G06G07G09G10G20G23G30
  23687856.200   124480548.19507  23687858.700    96997858.93046
  22708826.260   119335668.07807  22708833.420    92988857.49946
  20832951.300   109477905.95309  20832957.880    85307489.11349
  21585449.700   113432350.20408  21585454.500    88388889.15548
  20396264.680   107183101.45909  20396269.820    83519323.83049
  21542442.480   113206322.00308  21542446.880    88212748.83847
  20336139.280   106867135.93808  20336142.420    83273106.39049
  21480724.300   112881966.82909  21480725.640    87959978.17548
  23692583.300   124505517.93506  23692596.940    97017399.73246
 15 01 20 12 18  0.0000000  0  9G02G03G06G07G09G10G20G23G30
  23670486.500   124389270.11307  23670488.960    96926733.24046
  22721792.060   119403804.52707  22721799.360    93041950.78247
  20828964.840   109456957.10309  20828971.420    85291165.34449
  21571020.420   113356524.24408  21571025.240    88329804.08848
  20398659.780   107195687.78109  20398664.900    83529131.36449
  21530071.080   113141310.18608  21530075.440    88162090.34747
  20339387.020   106884202.89808  20339390.140    83286405.32449
  21491235.520   112937203.30809  21491236.840    88003019.58148
  23671760.580   124396095.82606  23671774.180    96932136.26946
 15 01 20 12 18 30.0000000  0  9G02G03G06G07G09G10G20G23G30
  23653166.300   124298252.30707  23653168.700    96855810.36246
  22734797.600   119472150.54107  22734805.240    93095207.34947
  20825088.900   109436588.90909  20825095.460    85275294.03749
  21556664.300   113281082.62308  21556669.040    88271018.50448
  20401117.440   107208602.76109  20401122.520    83539194.99549
  21517736.600   113076492.23708  21517740.940    88111582.91647
  20342699.360   106901609.12308  20342702.420    83299968.62049
  21501782.960   112992630.19509  21501784.260    88046209.35848
  23650957.060   124286774.70307  23650970.540    96846951.49546
 15 01 20 12 19  0.0000000  0  9G02G03G06G07G09G10G20G23G30
  23635895.540   124207494.63906  23635897.980    96785090.19046
  22747842.600   119540703.07507  22747850.380    93148624.82647
  20821323.100   109416799.41809  20821329.640    85259873.66849
  21542381.160   113206024.47908  21542385.780    88212531.72648
  20403636.820   107221842.18209  20403641.880    83549511.43349
  21505438.640   113011866.31608  21505442.960    88061225.12047
  20346075.700   106919351.58308  20346078.700    83313793.91249
  21512365.720   113048243.10609  21512367.060    88089544.09148
  23630172.700   124177554.20906  23630186.060    96761845.10546
 15 01 20 12 19 30.0000000  0  9G02G03G06G07G09G10G20G23G30
  23618675.180   124117001.94306  23618677.660    96714576.48246
  22760927.500   119609464.64607  22760935.260    93202205.18846
  20817668.080   109397592.24409  20817674.620    85244907.05049
  21528172.000   113131355.21008  21528176.540    88154347.97248
  20406218.180   107235407.46509  20406223.240    83560081.78749
  21493177.900   112947436.07008  21493182.180    88011019.78947
  20349516.760   106937434.34408  20349519.700    83327884.37349
  21522984.040   113104042.96409  21522985.440    88133024.49848
  23609408.540   124068439.75107  23609421.700    96676821.35245
 15 01 20 12 20  0.0000000  0  9G02G03G06G07G09G10G20G23G30
  23601505.460   124026775.47807  23601508.020    96644270.22945
  22774052.060   119678433.69707  22774059.640    93255947.22347
  20814123.800   109378966.95409  20814130.360    85230393.85149
  21514036.920   113057075.32008  21514041.420    88096467.62848
  20408861.040   107249295.88809  20408866.120    83570903.93949
  21480954.420   112883201.49408  21480958.660    87960966.93247
  20353022.320   106955855.90308  20353025.180    83342238.83249
  21533637.440   113160027.36908  21533638.940    88176648.70648
  23588664.860   123959432.46907  23588677.660    96591881.07345
 15 01 20 12 20 30.0000000  0  9G02G03G06G07G09G10G20G23G30
  23584387.160   123936818.40607  23584389.760    96574173.89846
  22787216.220   119747610.65007  22787223.600    93309851.26146
  20810690.540   109360925.02409  20810697.080    85216335.21949
  21499976.460   112983187.66408  21499981.000    88038892.91748
  20411565.280   107263506.76209  20411570.360    83581977.34849
  21468768.540   112819164.46708  21468772.760    87911068.01647
  20356592.580   106974617.63808  20356595.420    83356858.35849
  21544325.800   113216195.40008  21544327.320    88220416.00147
  23567942.240   123850535.62407  23567954.600    96507026.82146
 15 01 20 12 21  0.0000000  0  9G02G03G06G07G09G10G20G23G30
  23567320.840   123847134.30007  23567323.380    96504290.25945
  22800420.000   119816996.51007  22800427.440    93363918.09447
  20807368.680   109343468.52209  20807375.200    85202732.76349
  21485991.280   112909695.57808  21485995.920    87981626.44548
  20414330.900   107278039.96209  20414335.940    83593301.92549
  21456620.660   112755327.25808  21456624.880    87861324.79747
  20360227.800   106993720.78008  20360230.600    83371743.92749
  21555048.980   113272546.56208  21555050.580    88264325.99947
  23547241.400   123741753.00907  23547253.320    96422261.55845
 15 01 20 12 21 30.0000000  0  9G02G03G06G07G09G10G20G23G30
  23550306.920   123757725.80207  23550309.400    96434621.38745
  22813663.420   119886591.14107  22813671.020    93418147.59946
  20804158.380   109326598.31809  20804164.880    85189587.16249
  21472081.880   112836601.42408  21472086.540    87924670.04548
  20417157.580   107292894.22409  20417162.620    83604876.68149
  21444511.040   112691691.30908  21444515.280    87811738.40747
  20363928.100   107013166.00608  20363930.860    83386896.05149
  21565806.840   113329079.76308  21565808.460    88308377.84247
  23526562.820   123633087.33807  23526574.400    96337587.40546
 15 01 20 12 22  0.0000000  0  9G02G03G06G07G09G10G20G23G30
  23533346.000   123668595.67307  23533348.280    96365169.43745
  22826946.500   119956394.44507  22826954.340    93472539.71946
  20801059.820   109310315.35909  20801066.300    85176899.15749
  21458248.600   112763907.47808  21458253.280    87868025.49048
  20420045.140   107308068.35709  20420050.140    83616700.68949
  21432440.060   112628258.03008  21432444.320    87762309.94247
  20367693.600   107032953.86308  20367696.340    83402315.16349
  21576599.100   113385793.54608  21576600.680    88352570.40047
  23505906.920   123524541.32507  23505918.260    96253006.45046
 15 01 20 12 22 30.0000000  0  9G02G03G06G07G09G10G20G23G30
  23516438.220   123579744.72407  23516440.240    96295935.00145
  22840269.060   120026405.21207  22840277.100    93527093.50047
  20798072.940   109294619.46209  20798079.440    85164668.59649
  21444491.680   112691614.72408  21444496.360    87811693.56048
  20422993.120   107323560.02509  20422998.100    83628772.13349
  21420407.660   112565027.40208  21420411.880    87713039.38647
  20371524.200   107053083.76008  20371526.940    83418000.79949
  21587425.300   113442685.54308  21587426.860    88396901.82647
  23485274.020   123416116.59006  23485285.260    96168519.96846
 15 01 20 12 23  0.0000000  0  9G02G03G06G07G09G10G20G23G30
  23499584.140   123491175.87307  23499585.920    96226920.40245
  22853631.180   120096623.35607  22853639.240    93581808.87346
  20795197.960   109279511.47409  20795204.440    85152896.15649
  21430811.540   112619725.39308  21430816.200    87755675.98548
  20426001.280   107339368.00509  20426006.260    83641090.06049
  21408414.100   112502000.89008  21408418.280    87663927.87547
  20375419.940   107073556.05908  20375422.680    83433953.24049
  21598285.160   113499754.47408  21598286.680    88441371.12148
  23464664.620   123307815.87406  23464675.920    96084130.10246
 15 01 20 12 23 30.0000000  0  9G02G03G06G07G09G10G20G23G30
  23482784.340   123402892.64007  23482786.120    96158128.34945
  22867032.960   120167049.68307  22867040.920    93636686.46746
  20792435.180   109264993.05409  20792441.660    85141583.11849
  21417208.780   112548242.71408  21417213.380    87699975.28048
  20429069.540   107355491.90109  20429074.540    83653654.15749
  21396459.720   112439180.46708  21396463.900    87614976.96647
  20379381.100   107094372.29508  20379383.900    83450173.67549
  21609178.660   113557000.00508  21609180.120    88485978.02147
  23444079.540   123199642.72206  23444090.940    95999839.61046
 15 01 20 12 24  0.0000000  0  9G02G03G06G07G09G10G20G23G30
  23466039.160   123314896.69607  23466041.080    96089560.16645
  22880474.220   120237683.21107  22880481.940    93691725.51246
  20789784.660   109251064.41209  20789791.120    85130729.64549
  21403683.680   112477168.22508  21403688.200    87644592.64448
  20432197.540   107371929.82809  20432202.580    83666462.95849
  21384544.700   112376566.92408  21384548.840    87566187.25247
  20383407.740   107115532.39408  20383410.580    83466662.06049
  21620105.380   113614420.19408  21620106.820    88530721.02047
  23423519.180   123091599.22706  23423530.700    95915650.13646
 15 01 20 12 24 30.0000000  0  9G02G03G06G07G09G10G20G23G30
  23449349.160   123227190.86607  23449351.280    96021218.04546
  22893954.920   120308523.89807  22893962.440    93746925.97846
  20787246.480   109237726.28809  20787252.960    85120336.31649
  21390236.580   112406503.86008  21390241.060    87589529.57048
  20435385.040   107388680.58009  20435390.160    83679515.51449
  21372669.280   112314161.60208  21372673.420    87517559.78747
  20387499.860   107137036.69308  20387502.760    83483418.65049
  21631065.140   113672013.84308  21631066.540    88575599.18447
  23402984.100   122983688.08207  23402995.640    95831563.78046
 15 01 20 12 25  0.0000000  0  9G02G03G06G07G09G10G20G23G30
  23432714.720   123139777.21607  23432717.020    95953103.60945
  22907474.940   120379571.23407  22907482.360    93802287.45347
  20784820.740   109224979.10409  20784827.280    85110403.46249
  21376867.940   112336251.69508  21376872.360    87534787.70148
  20438631.760   107405742.49809  20438636.900    83692810.54449
  21360833.680   112251965.50108  21360837.820    87469095.35447
  20391657.480   107158885.23108  20391660.440    83500443.47749
  21642057.520   113729778.95808  21642058.920    88620610.95947
  23382474.800   122875911.70107  23382486.200    95747582.41746
 15 01 20 12 25 30.0000000  0  9G02G03G06G07G09G10G20G23G30
  23416136.640   123052659.58507  23416139.080    95885219.83046
  22921034.480   120450826.36707  22921041.900    93857810.84546
  20782507.860   109212824.91909  20782514.420    85100932.68249
  21363578.460   112266415.48708  21363582.880    87480369.95848
  20441937.740   107423115.65809  20441942.860    83706348.10249
  21349038.380   112189981.22208  21349042.560    87420795.98447
  20395880.980   107181079.93608  20395883.980    83517738.04249
  21653082.540   113787715.61408  21653083.920    88665756.40047
  23361992.000   122768274.06507  23362003.180    95663709.17246
 15 01 20 12 26  0.0000000  0  9G02G03G06G07G09G10G20G23G30
  23399615.160   122965838.70007  23399617.600    95817567.29346
  22934633.180   120522287.26407  22934640.640    93913494.57546
  20780307.620   109201262.51909  20780314.180    85091923.03749
  21350368.120   112196994.96108  21350372.540    87426276.12348
  20445302.340   107440796.90809  20445307.460    83720125.73649
  21337283.320   112128208.27808  21337287.520    87372661.28847
  20400170.080   107203619.22208  20400173.080    83535301.11049
  21664139.600   113845820.55408  21664140.940    88711032.97947
  23341535.760   122660776.04007  23341546.700    95579944.69746
 15 01 20 12 26 30.0000000  0  9G02G03G06G07G09G10G20G23G30
  23383150.920   122879318.75807  23383153.400    95750149.26146
  22948271.300   120593955.51907  22948278.880    93969339.89747
  20778220.420   109190294.34809  20778227.000    85083376.43149
  21337237.580   112127993.92508  21337242.020    87372509.16448
  20448725.680   107458786.75209  20448730.780    83734143.82549
  21325569.080   112066649.70708  21325573.280    87324693.63447
  20404525.140   107226505.11908  20404528.120    83553134.26649
  21675228.780   113904094.40708  21675230.100    88756441.17647
  23321106.940   122553422.05807  23321117.680    95496292.48146
 15 01 20 12 27  0.0000000  0  9G02G03G06G07G09G10G20G23G30
  23366744.480   122793102.59407  23366747.000    95682967.92946
  22961948.780   120665831.22207  22961956.600    94025346.85247
  20776246.460   109179921.32909  20776253.060    85075293.57949
  21324187.460   112059415.36308  21324191.900    87319071.42048
  20452207.520   107477084.19209  20452212.620    83748401.59549
  21313895.920   112005307.02108  21313900.140    87276894.20847
  20408946.400   107249738.75108  20408949.320    83571238.38449
  21686349.900   113962536.22408  21686351.240    88801980.24647
  23300706.060   122446215.14407  23300716.660    95412754.86746
 15 01 20 12 27 30.0000000  0  9G02G03G06G07G09G10G20G23G30
  23350396.320   122707193.03307  23350398.880    95616025.51046
  22975665.640   120737914.17307  22975673.700    94081515.31347
  20774385.860   109170144.04909  20774392.460    85067674.94649
  21311218.080   111991261.01308  21311222.520    87265964.21248
  20455747.680   107495687.96309  20455752.780    83762898.06549
  21302264.140   111944181.57308  21302268.320    87229264.05647
  20413433.880   107273320.34608  20413436.760    83589613.63849
  21697502.660   114021144.58608  21697504.060    88847649.09847
  23280333.580   122339157.95307  23280344.180    95329333.93146
 15 01 20 12 28  0.0000000  0  9G02G03G06G07G09G10G20G23G30
  23334106.540   122621590.10507  23334109.060    95549322.02646
  22989421.580   120810202.21507  22989429.800    94137843.57046
  20772638.380   109160961.15809  20772644.980    85060519.46749
  21298329.420   111923530.84208  21298333.840    87213187.53448
  20459345.540   107514594.81909  20459350.600    83777630.70649
  21290673.560   111883272.78808  21290677.700    87181802.72248
  20417987.260   107297248.46208  20417990.100    83608258.89849
  21708686.520   114079916.49008  21708688.020    88893445.38947
  23259989.680   122232251.26207  23260000.380    95246030.28446
 15 01 20 12 28 30.0000000  0  9G02G03G06G07G09G10G20G23G30
  23317875.920   122536297.97607  23317878.400    95482860.70646
  23003216.740   120882696.50707  23003225.120    94194332.53047
  20771004.380   109152374.55609  20771010.980    85053828.62349
  21285522.120   111856228.30708  21285526.520    87160744.07848
  20463001.080   107533804.80909  20463006.120    83792599.54849
  21279124.660   111822583.11908  21279128.760    87134512.13648
  20422606.860   107321524.55808  20422609.660    83627175.32249
  21719901.480   114138851.91308  21719903.060    88939369.09547
  23239675.180   122125499.07907  23239685.980    95162847.03746
 15 01 20 12 29  0.0000000  0  9G02G03G06G07G09G10G20G23G30
  23301704.960   122451319.00307  23301707.240    95416643.40245
  23017051.140   120955396.79307  23017059.520    94250982.00946
  20769483.960   109144384.78709  20769490.540    85047602.84149
  21272796.620   111789355.66108  21272801.020    87108635.59848
  20466714.060   107553316.70509  20466719.080    83807803.64849
  21267617.700   111762114.13308  21267621.820    87087393.50348
  20427292.780   107346149.16008  20427295.560    83646363.31449
  21731147.300   114197949.44808  21731148.960    88985419.12047
  23219390.560   122018904.08907  23219401.480    95079786.28346
 15 01 20 12 29 30.0000000  0  9G02G03G06G07G09G10G20G23G30
  23285593.960   122366655.09507  23285596.060    95350671.60046
  23030924.640   121028302.17307  23030932.800    94307791.29446
  20768077.100   109136991.65709  20768083.640    85041841.96849
  21260153.180   111722914.13808  21260157.520    87056863.06048
  20470484.080   107573128.48909  20470489.120    83823241.42249
  21256152.880   111701866.46708  21256156.980    87040447.32448
  20432044.980   107371122.11608  20432047.780    83665822.75049
  21742423.700   114257207.16708  21742425.360    89031593.95847
  23199136.160   121912468.29407  23199147.200    94996849.60246
 15 01 20 12 30  0.0000000  0  9G02G03G06G07G09G10G20G23G30
  23269543.400   122282309.34207  23269545.500    95284947.71046
  23044837.280   121101412.94607  23044845.120    94364760.65046
  20766783.960   109130196.18109  20766790.480    85036546.80249
  21247592.220   111656906.08908  21247596.480    87005428.28948
  20474311.060   107593239.42009  20474316.100    83838912.29649
  21244730.560   111641842.08608  21244734.640    86993675.13248
  20436863.660   107396444.30408  20436866.500    83685554.32249
  21753730.460   114316624.47608  21753732.100    89077893.14847
  23178912.640   121806194.91007  23178923.700    94914039.47246
 15 01 20 12 30 30.0000000  0  9G02G03G06G07G09G10G20G23G30
  23253553.780   122198284.00307  23253555.860    95219473.48146
  23058788.960   121174728.83807  23058796.600    94421889.83145
  20765604.620   109123998.72609  20765611.140    85031717.62349
  21235114.120   111591333.27008  21235118.300    86954332.65648
  20478194.680   107613648.12809  20478199.720    83854815.20549
  21233350.940   111582041.94508  21233354.960    86947077.67248
  20441748.820   107422115.95108  20441751.700    83705558.19949
  21765067.320   114376199.81208  21765068.940    89124315.47547
  23158720.540   121700086.51107  23158731.580    94831357.90446
 15 01 20 12 31  0.0000000  0  9G02G03G06G07G09G10G20G23G30
  23237625.840   122114582.66207  23237627.920    95154251.72746
  23072779.760   121248250.46307  23072787.420    94479179.31446
  20764539.340   109118400.60009  20764545.880    85027355.45349
  21222719.460   111526199.09708  21222723.640    86903578.82648
  20482134.920   107634354.22909  20482139.960    83870949.84449
  21222014.460   111522468.49308  21222018.460    86900656.85248
  20446700.700   107448138.31608  20446703.620    83725835.37349
  21776434.180   114435933.04408  21776435.820    89170860.82647
  23138560.540   121594146.59807  23138571.500    94748807.62646
 15 01 20 12 31 30.0000000  0  9G02G03G06G07G09G10G20G23G30
  23221759.680   122031205.68307  23221761.640    95089282.72646
  23086809.300   121321975.62107  23086817.080    94536627.40546
  20763587.800   109113400.31809  20763594.360    85023459.13349
  21210408.260   111461503.50708  21210412.440    86853166.74548
  20486131.120   107655354.44909  20486136.160    83887313.66649
  21210721.040   111463121.22808  21210725.000    86854412.27748
  20451719.020   107474509.90008  20451721.980    83746384.66749
  21787830.360   114495820.62908  21787832.040    89217526.45247
  23118432.900   121488376.03007  23118443.620    94666389.31246
 15 01 20 12 32  0.0000000  0  9G02G03G06G07G09G10G20G23G30
  23205955.600   121948154.72707  23205957.480    95024567.75746
  23100877.440   121395903.37607  23100885.260    94594233.35646
  20762749.960   109108997.48109  20762756.540    85020028.35349
  21198180.700   111397247.57908  21198184.880    86803097.25948
  20490182.920   107676646.80709  20490187.940    83903905.13049
  21199470.760   111404000.70708  21199474.660    86808344.39448
  20456803.660   107501230.06308  20456806.680    83767205.58149
  21799255.620   114555860.87808  21799257.300    89264311.03747
  23098337.880   121382776.65707  23098348.340    94584104.40046
 15 01 20 12 32 30.0000000  0  9G02G03G06G07G09G10G20G23G30
  23190214.760   121865436.14407  23190216.580    94960111.78646
  23114984.720   121470037.02507  23114992.580    94651999.75446
  20762026.560   109105196.06709  20762033.160    85017066.21549
  21186037.780   111333436.62408  21186041.980    86753374.50848
  20494290.740   107698233.60709  20494295.760    83920726.02649
  21188264.560   111345111.91808  21188268.440    86762457.07948
  20461955.400   107528303.05208  20461958.500    83788301.42749
  21810710.440   114616056.23408  21810712.100    89311216.48147
  23078276.660   121277354.81007  23078286.860    94501957.80146
 15 01 20 12 33  0.0000000  0  9G02G03G06G07G09G10G20G23G30
  23174537.420   121783051.70007  23174539.280    94895916.19746
  23129130.880   121544375.48007  23129138.920    94709925.72446
  20761417.520   109101995.54309  20761424.100    85014572.29849
  21173979.760   111270071.88008  21173984.020    86703999.45448
  20498454.180   107720112.72409  20498459.200    83937774.70149
  21177102.500   111286455.22508  21177106.380    86716750.61448
  20467174.100   107555727.98908  20467177.260    83809671.52049
  21822194.380   114676404.60408  21822196.040    89358241.15647
  23058249.560   121172112.29607  23058259.580    94419950.94046
 15 01 20 12 33 30.0000000  0  9G02G03G06G07G09G10G20G23G30
  23158924.020   121701003.41207  23158925.980    94831982.53846
  23143315.920   121618918.36307  23143324.120    94768010.98946
  20760922.900   109099396.11309  20760929.420    85012546.76849
  21162007.100   111207155.45208  21162011.380    86654973.73948
  20502672.980   107742282.76509  20502678.020    83955050.07149
  21165984.900   111228032.19008  21165988.800    86671226.22848
  20472459.840   107583505.32608  20472463.120    83831316.20349
  21833707.180   114736904.63808  21833708.820    89405384.00247
  23038256.980   121067051.71907  23038266.980    94338085.83446
 15 01 20 12 34  0.0000000  0  9G02G03G06G07G09G10G20G23G30
  23143374.840   121619292.58407  23143376.900    94768311.84546
  23157539.600   121693663.99006  23157547.840    94826254.25146
  20760542.400   109097396.66209  20760548.920    85010988.74849
  21150119.820   111144687.45608  21150124.040    86606297.45148
  20506946.620   107764741.03909  20506951.660    83972550.03649
  21154911.760   111169842.57208  21154915.660    86625883.71948
  20477812.540   107611634.31408  20477815.920    83853234.89549
  21845248.280   114797553.32008  21845249.940    89452642.68747
  23018299.240   120962174.32007  23018309.300    94256363.46346
 15 01 20 12 34 30.0000000  0  9G02G03G06G07G09G10G20G23G30
  23127890.580   121537922.64607  23127892.740    94704906.78247
  23171802.040   121768613.45306  23171810.220    94884656.32646
  20760276.380   109095998.77009  20760282.900    85009899.48149
  21138318.480   111082670.97208  21138322.620    86557972.99448
  20511275.100   107787487.59209  20511280.180    83990274.63649
  21143883.600   111111889.06408  21143887.400    86580725.18348
  20483232.520   107640116.42308  20483235.860    83875428.75249
  21856817.740   114858351.17908  21856819.420    89500017.61647
  22998377.120   120857484.10007  22998387.280    94174786.93346
 15 01 20 12 35  0.0000000  0  9G02G03G06G07G09G10G20G23G30
  23112471.620   121456895.37407  23112473.800    94641768.73846
  23186102.900   121843765.28406  23186111.180    94943216.08646
  20760124.700   109095201.51809  20760131.200    85009278.24449
  21126603.180   111021106.96008  21126607.280    86510001.11248
  20515658.020   107810519.99709  20515663.100    84008221.98149
  21132900.420   111054171.97908  21132904.160    86535750.87748
  20488719.480   107668950.33208  20488722.760    83897896.73549
  21868415.180   114919296.04308  21868416.840    89547507.09847
  22978490.940   120752982.58807  22978501.180    94093357.44746
 15 01 20 12 35 30.0000000  0  9G02G03G06G07G09G10G20G23G30
  23097118.360   121376213.17807  23097120.480    94578899.56446
  23200442.240   121919119.16606  23200450.600    95001933.30246
  20760087.340   109095005.09509  20760093.840    85009125.19349
  21114974.260   110959997.16108  21114978.360    86462383.15948
  20520095.100   107833836.93109  20520100.140    84026391.03549
  21121962.480   110996692.69308  21121966.160    86490961.87048
  20494273.540   107698136.78608  20494276.720    83920639.43649
  21880040.320   114980386.46408  21880041.980    89595109.99447
  22958641.200   120648672.48007  22958651.400    94012077.08347
 15 01 20 12 36  0.0000000  0  9G02G03G06G07G09G10G20G23G30
  23081831.360   121295879.25107  23081833.400    94516301.78146
  23214820.240   121994675.94306  23214828.720    95060808.61846
  20760164.580   109095410.79409  20760171.060    85009441.32349
  21103432.300   110899344.40408  21103436.440    86415121.34048
  20524586.260   107857438.24109  20524591.300    84044781.68349
  21111070.180   110939453.57008  21111073.860    86446359.99448
  20499894.960   107727677.11108  20499898.020    83943657.87449
  21891693.080   115041622.06808  21891694.720    89642826.03147
  22938828.560   120544557.50807  22938838.760    93930948.77746
 15 01 20 12 36 30.0000000  0  9G02G03G06G07G09G10G20G23G30
  23066611.100   121215896.26107  23066613.080    94453977.45146
  23229236.820   122070435.31906  23229245.460    95119841.78646
  20760356.400   109096418.74409  20760362.860    85010226.73449
  21091977.740   110839150.78608  21091981.880    86368217.29848
  20529131.300   107881322.62209  20529136.320    84063392.90549
  21100223.880   110882456.12308  21100227.580    86401946.44248
  20505583.780   107757571.67808  20505586.760    83966952.34849
  21903373.240   115103001.88908  21903374.960    89690654.44447
  22919053.560   120440640.36607  22919063.760    93849974.60846
 15 01 20 12 37  0.0000000  0  9G02G03G06G07G09G10G20G23G30
  23051458.100   121136267.07407  23051460.060    94391928.81946
  23243692.020   122146397.36906  23243700.760    95179032.86945
  20760662.900   109098029.48109  20760669.380    85011481.85849
  21080611.000   110779418.36708  21080615.100    86321672.62348
  20533730.060   107905489.22409  20533735.080    84082224.03649
  21089423.940   110825702.37308  21089427.660    86357722.78048
  20511340.120   107787821.10508  20511343.040    83990523.33249
  21915080.700   115164525.37408  21915082.540    89738594.80047
  22899316.760   120336924.11407  22899326.880    93769156.97546
 15 01 20 12 37 30.0000000  0  9G02G03G06G07G09G10G20G23G30
  23036372.460   121056992.17007  23036374.500    94330156.24146
  23258185.460   122222559.79407  23258194.080    95238380.10646
  20761083.740   109100241.10209  20761090.240    85013205.19349
  21069332.020   110720146.81708  21069336.000    86275487.06548
  20538381.900   107929934.74509  20538386.900    84101272.50649
  21078670.280   110769191.61908  21078673.980    86313688.46148
  20517163.580   107818423.46508  20517166.480    84014369.32749
  21926814.940   115226189.29208  21926816.820    89786644.58447
  22879618.280   120233409.44007  22879628.360    93688496.40147
 15 01 20 12 38  0.0000000  0  9G02G03G06G07G09G10G20G23G30
  23021354.660   120978073.72907  23021356.740    94268661.42246
  23272716.980   122298922.04907  23272725.400    95297883.05446
  20761618.900   109103053.49209  20761625.420    85015396.66949
  21058141.040   110661337.79608  21058144.900    86229661.92048
  20543086.540   107954657.70009  20543091.500    84120537.15749
  21067963.080   110712924.94208  21067966.760    86269844.33048
  20523054.200   107849379.12108  20523057.140    84038490.61349
  21938575.680   115287992.22508  21938577.560    89834802.69947
  22859958.760   120130098.81207  22859968.620    93607994.83346
 15 01 20 12 38 30.0000000  0  9G02G03G06G07G09G10G20G23G30
  23006405.440   120899515.46607  23006407.560    94207447.25847
  23287286.760   122375485.16207  23287294.960    95357542.52445
  20762268.640   109106468.02209  20762275.200    85018057.33849
  21047038.600   110602994.34008  21047042.400    86184199.54648
  20547843.980   107979658.17709  20547848.920    84140018.05649
  21057302.820   110656905.03408  21057306.500    86226192.48948
  20529012.320   107880689.55808  20529015.280    84062888.35248
  21950362.940   115349934.31308  21950364.740    89883069.25147
  22840338.920   120026996.23807  22840348.460    93527655.39746
 15 01 20 12 39  0.0000000  0  9G02G03G06G07G09G10G20G23G30
  22991525.380   120821320.35707  22991527.480    94146516.06946
  23301894.620   122452249.10707  23301902.700    95417358.47346
  20763033.040   109110485.01109  20763039.620    85021187.46149
  21036025.140   110545118.46208  21036028.920    86139101.51848
  20552654.040   108004935.14209  20552658.960    84159714.40349
  21046689.860   110601133.71908  21046693.560    86182734.35448
  20535038.100   107912355.25308  20535041.020    84087562.91248
  21962176.460   115412014.53008  21962178.240    89931443.43247
  22820759.320   119924104.65607  22820768.460    93447480.36946
 15 01 20 12 39 30.0000000  0  9G02G03G06G07G09G10G20G23G30
  22976715.100   120743491.99107  22976717.140    94085870.65347
  23316540.840   122529215.07407  23316548.920    95477331.85746
  20763912.400   109115105.97409  20763918.980    85024788.21649
  21025101.320   110487713.52408  21025105.080    86094370.45348
  20557516.720   108030488.89009  20557521.660    84179626.42249
  21036124.740   110545613.93308  21036128.460    86139472.22248
  20541131.840   107944378.03408  20541134.740    84112515.71948
  21974016.360   115474233.54108  21974018.160    89979925.76947
  22801220.700   119821428.22607  22801229.460    93367472.99546
 15 01 20 12 40  0.0000000  0  9G02G03G06G07G09G10G20G23G30
  22961974.720   120666030.95507  22961976.720    94025511.46647
  23331224.940   122606380.81106  23331233.160    95537460.89046
  20764906.340   109120329.01109  20764912.900    85028858.11749
  21014267.040   110430779.17908  21014270.800    86050006.08648
  20562431.440   108056316.21409  20562436.420    84199751.60849
  21025607.460   110490345.29308  21025611.120    86096405.78448
  20547293.220   107976756.28108  20547296.120    84137745.51248
  21985882.100   115536588.30908  21985883.900    90028513.89947
  22781723.060   119718967.73507  22781731.580    93287633.88947
 15 01 20 12 40 30.0000000  0  9G02G03G06G07G09G10G20G23G30
  22947304.800   120588940.18207  22947306.760    93965440.79747
  23345947.040   122683746.44906  23345955.360    95597745.70546
  20766014.900   109126154.46509  20766021.460    85033397.44049
  21003522.720   110374317.64408  21003526.500    86006010.14048
  20567398.080   108082416.31009  20567403.100    84220089.34549
  21015138.260   110435329.65108  21015141.940    86053536.49148
  20553522.320   108009490.53208  20553525.260    84163252.71148
  21997773.600   115599078.16408  21997775.300    90077207.28647
  22762266.960   119616726.29907  22762275.500    93207965.46546
 15 01 20 12 41  0.0000000  0  9G02G03G06G07G09G10G20G23G30
  22932705.960   120512223.14807  22932707.900    93905661.35247
  23360707.400   122761312.60406  23360715.740    95658186.75045
  20767238.260   109132583.27609  20767244.860    85038406.91149
  20992868.820   110318331.48608  20992872.640    85962384.61448
  20572416.620   108108788.87109  20572421.620    84240639.39649
  21004717.700   110380569.42508  21004721.380    86010866.22448
  20559819.440   108042582.18208  20559822.420    84189038.40148
  22009690.760   115661702.86908  22009692.380    90126005.75747
  22742853.040   119514707.53107  22742861.840    93128470.54647
 15 01 20 12 41 30.0000000  0  9G02G03G06G07G09G10G20G23G30
  22918178.120   120435878.99207  22918180.000    93846172.46247
  23375505.380   122839075.66306  23375513.560    95718781.24745
  20768575.760   109139612.07709  20768582.400    85043883.90749
  20982305.060   110262818.92308  20982308.920    85919128.12648
  20577486.160   108135429.40409  20577491.160    84261398.25849
  20994345.400   110326062.63909  20994349.040    85968393.44348
  20566183.940   108076028.24408  20566187.020    84215100.26248
  22021632.760   115724458.04208  22021634.320    90174905.88647
  22723481.340   119412910.83307  22723490.520    93049148.66947
 15 01 20 12 42  0.0000000  0  9G02G03G06G07G09G10G20G23G30
  22903722.000   120359911.63407  22903723.820    93786977.18847
  23390341.060   122917036.82806  23390349.180    95779530.09646
  20770027.720   109147242.27609  20770034.360    85049829.52149
  20971832.120   110207783.57808  20971836.020    85876243.49148
  20582606.740   108162338.18109  20582611.760    84282366.13649
  20984021.960   110271812.52008  20984025.580    85926120.66248
  20572616.220   108109830.25608  20572619.340    84241439.48848
  22033599.660   115787344.09308  22033601.160    90223908.00147
  22704152.740   119311340.43007  22704162.220    92970003.12647
 15 01 20 12 42 30.0000000  0  9G02G03G06G07G09G10G20G23G30
  22889338.360   120284324.95107  22889340.060    93728078.53347
  23405214.620   122995197.28506  23405222.800    95840434.22446
  20771594.380   109155475.29809  20771601.040    85056244.86949
  20961450.540   110153228.36708  20961454.460    85833732.98848
  20587778.420   108189515.51409  20587783.440    84303543.28149
  20973747.880   110217821.84608  20973751.500    85884050.04048
  20579116.640   108143990.17808  20579119.720    84268057.60948
  22045591.560   115850361.62408  22045592.980    90273012.55947
  22684868.140   119210000.48707  22684877.760    92891037.16247
 15 01 20 12 43  0.0000000  0  9G02G03G06G07G09G10G20G23G30
  22875027.340   120209119.80707  22875028.960    93669477.18447
  23420125.620   123073555.10606  23420134.020    95901492.13746
  20773275.460   109164309.38609  20773282.080    85063128.57649
  20951160.360   110099153.29208  20951164.260    85791596.62248
  20593000.660   108216958.57109  20593005.660    84324927.48449
  20963523.120   110164090.58308  20963526.760    85842181.56448
  20585684.940   108178506.59608  20585687.920    84294953.51348
  22057607.940   115913507.84608  22057609.300    90322217.40147
  22665627.820   119108892.12507  22665637.260    92812251.65947
 15 01 20 12 43 30.0000000  0  9G02G03G06G07G09G10G20G23G30
  22860789.280   120134298.27307  22860790.860    93611174.75447
  23435074.080   123152109.40706  23435082.660    95962703.17246
  20775070.800   109173743.88709  20775077.380    85070480.14049
  20940961.760   110045559.46108  20940965.620    85749835.25048
  20598273.140   108244665.64009  20598278.120    84346517.41749
  20953347.960   110110619.86108  20953351.560    85800516.10348
  20592321.040   108213379.13508  20592323.880    84322126.91448
  22069648.500   115976781.28508  22069649.820    90371521.36747
  22646432.080   119008017.46808  22646441.160    92733648.26146
 15 01 20 12 44  0.0000000  0  9G02G03G06G07G09G10G20G23G30
  22846625.260   120059866.37107  22846626.900    93553175.92847
  23450060.520   123230863.64706  23450069.320    96024070.01046
  20776981.060   109183782.34309  20776987.600    85078302.31649
  20930855.820   109992452.54008  20930859.620    85708453.29148
  20603596.320   108272639.26609  20603601.300    84368315.05649
  20943223.300   110057414.81308  20943226.920    85759057.66148
  20599025.620   108248611.76208  20599028.400    84349580.90148
  22081713.760   116040184.68308  22081715.040    90420926.59647
  22627282.060   118907382.97708  22627290.700    92655232.00646
 15 01 20 12 44 30.0000000  0  9G02G03G06G07G09G10G20G23G30
  22832535.060   119985822.55107  22832536.760    93495479.50247
  23465084.200   123309813.60806  23465093.220    96085589.34946
  20779005.480   109194420.65709  20779011.980    85086591.91749
  20920842.080   109939830.01009  20920845.800    85667448.77848
  20608969.300   108300874.35309  20608974.240    84390316.43749
  20933148.800   110004473.33908  20933152.460    85717804.60148
  20605798.040   108284201.09608  20605800.840    84377312.84348
  22093802.780   116103713.08308  22093804.100    90470429.23147
  22608177.460   118806987.43208  22608185.660    92577001.93846
 15 01 20 12 45  0.0000000  0  9G02G03G06G07G09G10G20G23G30
  22818519.580   119912171.14307  22818521.320    93438088.85247
  23480145.480   123388960.90306  23480154.600    96147262.45046
  20781144.380   109205660.60009  20781150.860    85095350.31849
  20910921.200   109887695.44708  20910924.840    85626824.49848
  20614392.160   108329371.69109  20614397.120    84412522.16549
  20923125.140   109951798.86608  20923128.780    85676759.59448
  20612638.720   108320149.37208  20612641.600    84405324.48248
  22105915.800   116167367.66908  22105917.160    90520030.19047
  22589119.080   118706835.52108  22589127.080    92498961.70547
 15 01 20 12 45 30.0000000  0  9G02G03G06G07G09G10G20G23G30
  22804578.920   119838912.65907  22804580.660    93381004.37447
  23495243.920   123468303.18406  23495253.060    96209087.50146
  20783397.340   109217499.88309  20783403.800    85104575.73449
  20901092.980   109836047.85508  20901096.560    85586579.67448
  20619864.340   108358128.07509  20619869.280    84434929.74949
  20913152.160   109899390.72808  20913155.780    85635922.12548
  20619547.300   108356454.52008  20619550.280    84433614.20848
  22118052.160   116231145.22508  22118053.620    90569726.97147
  22570107.040   118606927.91107  22570115.100    92421111.82247
 15 01 20 12 46  0.0000000  0  9G02G03G06G07G09G10G20G23G30
  22790713.800   119766051.39507  22790715.560    93324229.41947
  23510379.740   123547841.84206  23510388.780    96271065.54846
  20785764.620   109229939.96209  20785771.080    85114269.30749
  20891358.120   109784891.12808  20891361.720    85546717.34548
  20625385.880   108387144.04009  20625390.820    84457539.60649
  20903230.380   109847251.94308  20903234.060    85595294.53548
  20626524.160   108393118.45008  20626527.260    84462183.49748
  22130212.000   116295046.37008  22130213.640    90619520.05947
  22551142.240   118507269.03307  22551150.580    92343455.74247
 15 01 20 12 46 30.0000000  0  9G02G03G06G07G09G10G20G23G30
  22776924.620   119693588.90907  22776926.320    93267765.18947
  23525552.660   123627575.85206  23525561.680    96333195.82246
  20788246.000   109242979.82609  20788252.500    85124430.24049
  20881716.900   109734226.40608  20881720.520    85507238.39048
  20630956.460   108416417.67809  20630961.380    84480350.24549
  20893360.120   109795383.71808  20893363.820    85554877.77348
  20633569.260   108430140.53008  20633572.380    84491031.86048
  22142395.180   116359069.65208  22142396.840    90669408.31647
  22532225.120   118407860.80607  22532233.760    92265994.97247
 15 01 20 12 47  0.0000000  0  9G02G03G06G07G09G10G20G23G30
  22763211.560   119621526.77907  22763213.300    93211612.93547
  23540762.580   123707504.12406  23540771.600    96395477.48046
  20790841.320   109256618.50309  20790847.860    85135057.78349
  20872169.360   109684053.98108  20872173.000    85468143.04949
  20636575.720   108445947.19309  20636580.600    84503360.27249
  20883541.580   109743786.89708  20883545.240    85514672.49148
  20640682.500   108467520.45908  20640685.540    84520159.06348
  22154601.360   116423213.58508  22154603.020    90719390.58547
  22513356.220   118308705.31008  22513365.000    92188731.13647
 15 01 20 12 47 30.0000000  0  9G02G03G06G07G09G10G20G23G30
  22749575.380   119549868.77107  22749577.140    93155775.57346
  23556009.580   123787627.67406  23556018.680    96457911.28545
  20793550.780   109270856.97709  20793557.360    85146152.69949
  20862716.060   109634376.80909  20862719.720    85429433.61449
  20642243.720   108475732.73709  20642248.560    84526569.80249
  20873775.180   109692464.25308  20873778.800    85474680.84948
  20647864.140   108505259.89008  20647867.120    84549566.40248
  22166830.540   116487478.21708  22166832.180    90769466.90047
  22494536.320   118209806.48308  22494545.080    92111667.29747
 15 01 20 12 48  0.0000000  0  9G02G03G06G07G09G10G20G23G30
  22736015.860   119478613.39607  22736017.560    93100251.94646
  23571293.040   123867942.16706  23571302.120    96520493.88946
  20796373.540   109285690.91509  20796380.180    85157711.61849
  20853356.520   109585192.15209  20853360.180    85391107.95649
  20647959.460   108505769.14309  20647964.260    84549974.81049
  20864060.560   109641413.46708  20864064.140    85434901.04748
  20655113.440   108543354.93008  20655116.400    84579250.83648
  22179081.780   116551858.85208  22179083.440    90819633.60647
  22475765.140   118111163.09308  22475773.700    92034802.50047
 15 01 20 12 48 30.0000000  0  9G02G03G06G07G09G10G20G23G30
  22722534.060   119407766.09007  22722535.700    93045046.28847
  23586613.400   123948450.19906  23586622.440    96583227.29745
  20799310.140   109301122.87609  20799316.800    85169736.52149
  20844091.660   109536504.83709  20844095.280    85353169.83849
  20653723.280   108536058.26109  20653728.080    84573576.73349
  20854398.540   109590639.06209  20854402.080    85395336.60848
  20662431.000   108581808.62308  20662433.960    84609214.73748
  22191355.500   116616357.29208  22191357.100    90869892.10447
  22457043.660   118012780.79208  22457051.960    91958141.14247
 15 01 20 12 49  0.0000000  0  9G02G03G06G07G09G10G20G23G30
  22709130.260   119337328.58008  22709131.880    92990159.96546
  23601970.560   124029151.09806  23601979.440    96646110.98845
  20802360.400   109317152.14009  20802367.080    85182226.86049
  20834921.640   109488316.05709  20834925.220    85315620.19049
  20659534.900   108566598.60609  20659539.720    84597374.42349
  20844789.320   109540142.20008  20844792.840    85355988.43448
  20669816.740   108620621.10108  20669819.800    84639458.22048
  22203651.460   116680972.49108  22203653.040    90920241.58147
  22438372.260   117914661.93008  22438380.300    91881685.06147
 15 01 20 12 49 30.0000000  0  9G02G03G06G07G09G10G20G23G30
  22695805.420   119267305.78708  22695806.960    92935596.78746
  23617364.720   124110046.94306  23617373.540    96709146.58045
  20805524.780   109333780.69309  20805531.380    85195184.17949
  20825847.140   109440629.50608  20825850.720    85278461.88349
  20665394.580   108597391.45309  20665399.400    84621368.86449
  20835233.640   109489926.76209  20835237.120    85316859.55048
  20677271.260   108659795.02608  20677274.420    84669983.34248
  22215969.860   116745705.85508  22215971.440    90970683.13447
  22419751.760   117816811.59308  22419759.780    91805438.20947
 15 01 20 12 50  0.0000000  0  9G02G03G06G07G09G10G20G23G30
  22682559.540   119197698.12608  22682561.020    92881357.08747
  23632795.400   124191135.07306  23632804.140    96772331.98846
  20808802.660   109351005.80909  20808809.200    85208606.34449
  20816867.980   109393444.20108  20816871.580    85241694.16049
  20671301.660   108628433.40309  20671306.460    84645557.41249
  20825731.380   109439992.24608  20825734.880    85277949.57048
  20684794.100   108699327.92208  20684797.300    84700788.18848
  22228310.160   116810554.43708  22228311.740    91021214.47347
  22401182.280   117719230.20107  22401190.460    91729400.91647
 15 01 20 12 50 30.0000000  0  9G02G03G06G07G09G10G20G23G30
  22669393.000   119128507.68008  22669394.520    92827442.49846
  23648262.520   124272415.10306  23648271.240    96835666.92446
  20812193.960   109368826.99009  20812200.440    85222492.97749
  20807984.440   109346761.59808  20807988.100    85205318.15549
  20677255.900   108659723.31009  20677260.720    84669939.16449
  20816282.860   109390340.11209  20816286.380    85239259.62848
  20692385.360   108739220.34908  20692388.620    84731873.18148
  22240672.140   116875517.08308  22240673.800    91071834.68347
  22382664.440   117621920.42408  22382672.900    91653575.26347
 15 01 20 12 51  0.0000000  0  9G02G03G06G07G09G10G20G23G30
  22656306.200   119059736.21108  22656307.680    92773854.38147
  23663765.940   124353886.13306  23663774.640    96899150.71445
  20815698.420   109387243.19809  20815704.920    85236843.26549
  20799196.800   109300582.79508  20799200.460    85169334.72349
  20683257.000   108691259.51409  20683261.860    84694512.84249
  20806888.240   109340971.34508  20806891.780    85200790.48648
  20700044.920   108779471.69008  20700048.180    84763237.84248
  22253055.620   116940592.50008  22253057.300    91122542.77847
  22364198.860   117524884.41008  22364207.460    91577962.93447
 15 01 20 12 51 30.0000000  0  9G02G03G06G07G09G10G20G23G30
  22643299.560   118991386.11408  22643301.020    92720594.61047
  23679305.540   124435547.58406  23679314.340    96962782.89345
  20819315.920   109406253.67809  20819322.500    85251656.62249
  20790505.240   109254908.83008  20790508.900    85133744.67249
  20689304.760   108723040.68909  20689309.620    84719277.40049
  20797547.800   109291887.35808  20797551.360    85162543.25148
  20707772.820   108820081.93708  20707776.020    84794882.17248
  22265460.320   117005779.73308  22265462.100    91173337.99847
  22345786.020   117428124.60008  22345794.620    91502565.82347
 15 01 20 12 52  0.0000000  0  9G02G03G06G07G09G10G20G23G30
  22630373.580   118923459.86408  22630374.980    92667665.09347
  23694881.360   124517399.38906  23694890.320    97026563.38045
  20823046.480   109425858.26009  20823053.140    85266932.91649
  20781910.140   109209741.36709  20781913.760    85098549.29949
  20695398.980   108755066.06509  20695403.820    84744232.24549
  20788261.980   109243090.25809  20788265.560    85124519.56248
  20715569.100   108861051.35508  20715572.200    84826806.37348
  22277886.040   117071077.85008  22277887.980    91224219.61047
  22327426.460   117331643.98008  22327434.860    91427386.26047
 15 01 20 12 52 30.0000000  0  9G02G03G06G07G09G10G20G23G30
  22617528.640   118855959.33908  22617530.020    92615067.31247
  23710493.380   124599440.92106  23710502.500    97090491.72046
  20826889.960   109446056.07609  20826896.660    85282671.47049
  20773411.640   109165081.42908  20773415.220    85063749.40549
  20701539.380   108787334.23509  20701544.240    84769376.27749
  20779031.060   109194581.49009  20779034.640    85086720.55048
  20723433.800   108902380.18808  20723436.820    84859010.64048
  22290332.780   117136485.91808  22290334.780    91275186.90947
  22309120.520   117235444.99108  22309128.660    91352426.16347
 15 01 20 12 53  0.0000000  0  9G02G03G06G07G09G10G20G23G30
  22604764.760   118788884.89108  22604766.120    92562801.54947
  23726141.280   124681669.81406  23726150.400    97154566.04145
  20830845.880   109466844.57909  20830852.620    85298870.29749
  20765009.600   109120928.55808  20765013.180    85029344.62649
  20707725.380   108819842.16809  20707730.320    84794707.13249
  20769854.900   109146360.51809  20769858.480    85049145.78848
  20731366.520   108944066.39608  20731369.440    84891493.37548
  22302799.960   117202001.17808  22302801.960    91326237.73347
  22290868.220   117139528.32908  22290876.180    91277686.04947
 15 01 20 12 53 30.0000000  0  9G02G03G06G07G09G10G20G23G30
  22592083.040   118722241.79008  22592084.320    92510871.89147
  23741825.240   124764088.21606  23741834.420    97218788.02545
  20834914.600   109488225.68109  20834921.300    85315530.88149
  20756704.740   109077286.32208  20756708.280    84995337.74249
  20713957.300   108852591.27609  20713962.280    84820225.91149
  20760734.280   109098431.32309  20760737.800    85011798.38848
  20739367.720   108986112.46508  20739370.540    84924256.52348
  22315287.920   117267625.59308  22315289.880    91377373.60847
  22272670.480   117043899.16408  22272678.340    91203169.96647
 15 01 20 12 54  0.0000000  0  9G02G03G06G07G09G10G20G23G30
  22579483.860   118656032.77008  22579485.080    92459280.48047
  23757545.320   124846696.45406  23757554.460    97283157.92345
  20839096.120   109510199.43609  20839102.780    85332653.27649
  20748497.480   109034157.01809  20748500.960    84961730.54849
  20720235.060   108885581.18809  20720240.040    84845932.32849
  20751669.580   109050796.14208  20751673.100    84974680.09448
  20747437.620   109028519.90008  20747440.440    84957301.25748
  22327796.580   117333358.85608  22327798.500    91428594.30047
  22254527.960   116948560.87008  22254535.820    91128880.53347
 15 01 20 12 54 30.0000000  0  9G02G03G06G07G09G10G20G23G30
  22566967.360   118590258.47908  22566968.620    92408027.82047
  23773301.080   124929492.43606  23773310.180    97347674.10745
  20843390.000   109532763.57809  20843396.600    85350235.71049
  20740387.740   108991540.14209  20740391.180    84928522.64949
  20726558.160   108918809.23209  20726563.120    84871824.30649
  20742660.880   109003455.09609  20742664.320    84937790.98848
  20755575.820   109071286.61308  20755578.700    84990625.94048
  22340325.460   117399198.21508  22340327.280    91479897.66246
  22236440.920   116853514.49908  22236448.840    91054818.56747
 15 01 20 12 55  0.0000000  0  9G02G03G06G07G09G10G20G23G30
  22554534.080   118524921.47208  22554535.420    92357115.89947
  23789092.440   125012476.04606  23789101.540    97412336.50945
  20847796.120   109555917.60809  20847802.680    85368277.79149
  20732375.820   108949437.22309  20732379.220    84895715.23349
  20732926.360   108952274.47709  20732931.340    84897901.11149
  20733708.580   108956410.43709  20733711.980    84901132.83448
  20763782.520   109114413.06008  20763785.400    85024230.94248
  22352874.500   117465143.36108  22352876.240    91531283.44247
  22218410.040   116758762.87608  22218418.000    90980986.26847
 15 01 20 12 55 30.0000000  0  9G02G03G06G07G09G10G20G23G30
  22542184.400   118460023.63608  22542185.780    92306546.19246
  23804919.220   125095646.46806  23804928.420    97477144.47846
  20852314.280   109579660.47109  20852320.820    85386778.70049
  20724461.860   108907849.11909  20724465.260    84863308.97649
  20739339.480   108985975.57709  20739344.460    84924161.69349
  20724812.900   108909663.28409  20724816.260    84864706.50248
  20772057.620   109157898.98608  20772060.520    85058116.05648
  22365443.460   117531193.33708  22365445.100    91582750.91546
  22200435.840   116664308.31408  22200443.720    90907385.45047
 15 01 20 12 56  0.0000000  0  9G02G03G06G07G09G10G20G23G30
  22529918.780   118395567.54108  22529920.180    92256320.70047
  23820781.440   125179003.55606  23820790.880    97542097.89445
  20856944.380   109603991.67109  20856950.920    85405738.05549
  20716646.160   108866777.35409  20716649.580    84831305.06349
  20745797.320   109019911.64509  20745802.280    84950605.37449
  20715974.180   108863215.42809  20715977.520    84828513.38848
  20780401.160   109201744.74808  20780404.120    85092281.55848
  22378032.200   117597347.43608  22378033.820    91634299.50946
  22182518.840   116570153.68608  22182526.620    90834018.34647
 15 01 20 12 56 30.0000000  0  9G02G03G06G07G09G10G20G23G30
  22517737.320   118331553.63408  22517738.660    92206439.76446
  23836678.820   125262545.02006  23836688.440    97607194.97245
  20861685.900   109628908.55909  20861692.460    85425153.78649
  20708928.520   108826221.02409  20708931.960    84799702.77949
  20752299.300   109054079.78309  20752304.240    84977229.88549
  20707192.320   108817066.49209  20707195.640    84792553.20148
  20788812.800   109245948.42208  20788815.820    85126725.95548
  22390640.260   117663602.98708  22390641.920    91685927.16546
  22164659.080   116476299.72208  22164666.760    90760885.52647
 15 01 20 12 57  0.0000000  0  9G02G03G06G07G09G10G20G23G30
  22505640.380   118267983.90408  22505641.620    92156904.93847
  23852611.360   125346270.15006  23852620.880    97672435.18245
  20866538.700   109654410.12609  20866545.280    85445025.11749
  20701309.120   108786181.26209  20701312.600    84768503.01749
  20758845.180   109088478.63809  20758850.140    85004034.17849
  20698467.620   108771217.96609  20698470.940    84756827.09548
  20797292.640   109290510.10808  20797295.640    85161449.32448
  22403267.460   117729958.97408  22403269.120    91737633.08646
  22146856.920   116382748.84208  22146864.560    90687988.87247
 15 01 20 12 57 30.0000000  0  9G02G03G06G07G09G10G20G23G30
  22493628.920   118204863.33408  22493630.140    92107720.10347
  23868579.380   125430181.51106  23868588.780    97737820.51045
  20871503.180   109680498.57709  20871509.760    85465353.76149
  20693788.800   108746662.11509  20693792.320    84737708.92449
  20765435.380   109123110.22809  20765440.340    85031019.82849
  20689800.960   108725674.41509  20689804.260    84721338.63648
  20805841.100   109335432.72408  20805844.120    85196453.93948
  22415914.120   117796417.55008  22415915.820    91789418.94647
  22129113.440   116289506.66408  22129121.040    90615332.75948
 15 01 20 12 58  0.0000000  0  9G02G03G06G07G09G10G20G23G30
  22481702.940   118142192.06008  22481704.140    92058885.37947
  23884582.420   125514276.54006  23884591.700    97803348.92045
  20876578.760   109707170.84009  20876585.340    85486137.32749
  20686367.380   108707662.62909  20686370.900    84707319.75749
  20772069.240   109157971.24309  20772074.180    85058184.24749
  20681192.160   108680435.03209  20681195.480    84686087.18548
  20814457.880   109380714.19308  20814460.900    85231738.17848
  22428579.760   117862975.84508  22428581.460    91841282.51846
  22111428.580   116196573.58508  22111436.340    90542917.49747
 15 01 20 12 58 30.0000000  0  9G02G03G06G07G09G10G20G23G30
  22469863.020   118079973.12608  22469864.260    92010403.11947
  23900620.400   125598555.37206  23900629.660    97869020.57245
  20881765.380   109734426.73609  20881771.960    85507375.66549
  20679045.180   108669184.63109  20679048.720    84677336.94549
  20778746.680   109193061.34309  20778751.620    85085527.17249
  20672641.760   108635502.50809  20672645.100    84651074.84348
  20823143.060   109426355.22408  20823146.140    85267302.59648
  22441264.320   117929633.73408  22441266.040    91893223.68846
  22093803.140   116103952.89908  22093811.040    90470745.66547
 15 01 20 12 59  0.0000000  0  9G02G03G06G07G09G10G20G23G30
  22458109.640   118018208.81008  22458110.940    91962275.10347
  23916693.220   125683017.98906  23916702.540    97934835.42045
  20887062.960   109762265.78609  20887069.580    85529068.41049
  20671822.500   108631229.44109  20671826.020    84647761.51149
  20785467.620   109228379.82909  20785472.540    85113048.06649
  20664150.180   108590878.93809  20664153.480    84616303.24448
  20831896.700   109472356.13908  20831899.820    85303147.44048
  22453967.840   117996390.80408  22453969.500    91945242.15346
  22076237.840   116011647.55408  22076245.700    90398819.54747
 15 01 20 12 59 30.0000000  0  9G02G03G06G07G09G10G20G23G30
  22446442.900   117956899.90308  22446444.220    91914501.95647
  23932800.620   125767662.44006  23932810.060    98000791.97546
  20892471.040   109790685.54809  20892477.680    85551213.66149
  20664699.240   108593796.56509  20664702.700    84618593.07749
  20792231.540   109263924.22209  20792236.440    85140744.98749
  20655717.320   108546564.00909  20655720.640    84581772.14648
  20840718.600   109518715.59408  20840721.740    85339271.67648
  22466689.800   118063244.92908  22466691.480    91997336.23946
  22058732.920   115919658.67308  22058740.580    90327140.03147
 15 01 20 13 00  0.0000000  0  9G02G03G06G07G09G10G20G23G30
  22434863.200   117896048.59507  22434864.600    91867085.37547
  23948942.600   125852488.12706  23948952.120    98066889.72946
  20897989.460   109819685.04609  20897996.080    85573810.65049
  20657675.660   108556887.27209  20657679.000    84589832.60349
  20799038.200   109299693.30909  20799043.060    85168616.99749
  20647343.520   108502559.44309  20647346.860    84547482.89048
  20849608.740   109565433.61108  20849611.920    85375675.30548
  22479430.000   118130195.20308  22479431.780    92049505.23546
  22041288.780   115827988.72608  22041296.220    90255709.03847
 15 01 20 13 00 30.0000000  0  9G02G03G06G07G09G10G20G23G30
  22423371.320   117835658.69107  22423372.780    91820028.33447
  23965119.240   125937496.37906  23965128.960    98133129.72045
  20903618.320   109849264.99409  20903624.960    85596859.94049
  20650752.200   108520504.12809  20650755.440    84561482.14049
  20805887.760   109335687.86409  20805892.620    85196664.70049
  20639029.440   108458868.66109  20639032.800    84513438.13648
  20858567.440   109612511.67308  20858570.620    85412359.49148
  22492188.680   118197242.83708  22492190.560    92101750.09346
  22023906.160   115736642.03908  22023913.420    90184529.93548
 15 01 20 13 01  0.0000000  0  9G02G03G06G07G09G10G20G23G30
  22411967.420   117775731.18707  22411968.940    91773331.59947
  23981330.240   126022685.40406  23981340.140    98199510.58845
  20909357.240   109879423.17309  20909363.880    85620359.80549
  20643928.780   108484647.01409  20643932.040    84533541.58749
  20812779.800   109371905.60009  20812784.640    85224886.30749
  20630775.120   108415491.96609  20630778.480    84479638.12948
  20867594.420   109659948.70808  20867597.600    85449323.40048
  22504965.480   118264385.54408  22504967.400    92154069.04146
  22006585.160   115645619.95408  22006592.400    90113603.76148
 15 01 20 13 01 30.0000000  0  9G02G03G06G07G09G10G20G23G30
  22400651.720   117716267.16307  22400653.260    91726996.01547
  23997575.360   126108053.81505  23997585.360    98266031.23445
  20915205.860   109910157.62909  20915212.500    85644308.72249
  20637205.420   108449315.99709  20637208.760    84506010.95149
  20819713.940   109408344.53309  20819718.760    85253280.27949
  20622580.660   108372430.08309  20622584.080    84446083.43148
  20876689.560   109707743.76508  20876692.700    85486566.27948
  22517760.160   118331621.91608  22517762.060    92206460.96846
  21989326.100   115554924.06108  21989333.480    90042931.76048
 15 01 20 13 02  0.0000000  0  9G02G03G06G07G09G10G20G23G30
  22389424.920   117657269.95207  22389426.440    91681024.18647
  24013854.740   126193602.20105  24013864.780    98332692.11745
  20921164.120   109941468.45409  20921170.800    85668706.75349
  20630582.600   108414513.26809  20630585.980    84478891.97549
  20826690.160   109445004.76909  20826694.980    85281846.69049
  20614446.620   108329685.72909  20614450.100    84412776.15748
  20885853.080   109755898.30608  20885856.200    85524089.28448
  22530572.760   118398952.32608  22530574.640    92258926.16746
  21972129.720   115464558.03808  21972137.320    89972516.79448
 15 01 20 13 02 30.0000000  0  9G02G03G06G07G09G10G20G23G30
  22378287.040   117598739.97107  22378288.520    91635416.43247
  24030167.960   126279328.43305  24030178.080    98399491.56546
  20927231.540   109973352.92709  20927238.260    85693551.78949
  20624060.140   108380237.75409  20624063.540    84452183.81749
  20833707.960   109481883.62009  20833712.800    85310583.45149
  20606373.040   108287258.83209  20606376.500    84379716.25048
  20895084.580   109804410.03208  20895087.720    85561890.61348
  22543402.900   118466374.74108  22543404.700    92311463.05646
  21954996.340   115374522.75508  21955004.060    89902359.55247
 15 01 20 13 03  0.0000000  0  9G02G03G06G07G09G10G20G23G30
  22367238.540   117540679.63307  22367239.980    91590174.62847
  24046514.940   126365231.91205  24046525.020    98466429.13245
  20933407.900   110005809.87109  20933414.640    85718842.90649
  20617638.240   108346490.38409  20617641.600    84425887.19549
  20840767.160   109518980.04809  20840772.040    85339489.75049
  20598360.220   108245151.26309  20598363.660    84346905.16948
  20904384.040   109853278.95108  20904387.200    85599970.27348
  22556250.300   118533887.92608  22556252.020    92364070.69046
  21937926.520   115284820.72208  21937934.180    89832461.98248
 15 01 20 13 03 30.0000000  0  9G02G03G06G07G09G10G20G23G30
  22356279.800   117483090.94408  22356281.200    91545300.34647
  24062895.740   126451312.67405  24062905.760    98533504.84645
  20939693.120   110038838.72309  20939699.840    85744579.66149
  20611317.180   108313272.87709  20611320.520    84400003.46249
  20847867.680   109556293.49609  20847872.560    85368565.15249
  20590408.500   108203364.89508  20590411.960    84314344.37348
  20913751.560   109902505.48808  20913754.700    85638328.60748
  22569114.960   118601491.60008  22569116.580    92416748.83746
  21920920.780   115195454.93108  21920928.260    89762826.43248
 15 01 20 13 04  0.0000000  0  9G02G03G06G07G09G10G20G23G30
  22345411.120   117425975.40908  22345412.500    91500794.75447
  24079310.240   126537569.77806  24079320.000    98600717.94244
  20946086.880   110072437.91909  20946093.540    85770760.84149
  20605097.000   108280585.56809  20605100.320    84374532.87149
  20855009.260   109593822.60809  20855014.120    85397808.60549
  20582518.120   108161900.91809  20582521.600    84282034.78648
  20923187.080   109952089.40908  20923190.220    85676965.42348
  22581996.680   118669185.30408  22581998.300    92469497.13746
  21903979.460   115106427.50408  21903986.700    89693454.54248
 15 01 20 13 04 30.0000000  0  9G02G03G06G07G09G10G20G23G30
  22334632.980   117369335.69308  22334634.320    91456659.91947
  24095758.440   126624003.21906  24095767.760    98668068.44645
  20952589.040   110106606.83009  20952595.660    85797385.95249
  20598977.940   108248429.82509  20598981.240    84349476.48449
  20862191.780   109631566.87109  20862196.600    85427219.70749
  20574689.540   108120761.56809  20574693.020    84249978.16048
  20932690.700   110002031.12508  20932693.860    85715881.03748
  22594895.420   118736968.47708  22594897.100    92522315.15346
  21887103.080   115017741.47408  21887110.180    89624348.67748
 15 01 20 13 05  0.0000000  0  9G02G03G06G07G09G10G20G23G30
  22323945.700   117313173.37908  22323946.980    91412897.09247
  24112239.940   126710611.57406  24112248.980    98735555.24945
  20959199.240   110141343.42309  20959205.800    85824453.41149
  20592959.980   108216805.49209  20592963.260    84324834.19049
  20869414.880   109669524.47809  20869419.720    85456797.05149
  20566922.980   108079947.93309  20566926.420    84218175.33448
  20942262.240   110052329.58408  20942265.360    85755074.63648
  22607810.920   118804839.57008  22607812.660    92575201.67346
  21870291.860   114929398.50808  21870298.940    89555510.12948
 15 01 20 13 05 30.0000000  0  9G02G03G06G07G09G10G20G23G30
  22313350.040   117257492.59008  22313351.240    91369509.47147
  24128754.920   126797396.66906  24128763.940    98803179.76145
  20965917.640   110176648.80109  20965924.220    85851964.07849
  20587043.740   108185715.89509  20587047.060    84300608.56749
  20876678.800   109707696.72709  20876683.640    85486541.64149
  20559219.100   108039463.60209  20559222.520    84186629.11048
  20951902.120   110102987.21708  20951905.240    85794548.10548
  22620743.520   118872800.16408  22620745.220    92628157.95046
  21853546.760   114841403.40908  21853553.940    89486942.64748
 15 01 20 13 06  0.0000000  0  9G02G03G06G07G09G10G20G23G30
  22302846.220   117202294.63808  22302847.400    91326498.09747
  24145303.080   126884357.33305  24145312.260    98870941.06744
  20972743.900   110212521.09009  20972750.560    85879916.50149
  20581229.320   108155161.26909  20581232.640    84276799.81749
  20883983.240   109746082.01309  20883988.120    85516452.23749
  20551578.060   107999309.53709  20551581.460    84155340.23048
  20961610.140   110154003.23008  20961613.280    85834300.83148
  22633692.900   118940849.28408  22633694.640    92681183.19746
  21836868.220   114753758.00708  21836875.500    89418647.65348
 15 01 20 13 06 30.0000000  0  9G02G03G06G07G09G10G20G23G30
  22292434.520   117147580.90608  22292435.700    91283864.03247
  24161884.220   126971492.15805  24161893.800    98938838.08845
  20979677.660   110248958.24209  20979684.380    85908309.07649
  20575516.700   108125141.45309  20575520.020    84253407.77349
  20891327.860   109784678.51709  20891332.800    85546527.41449
  20544000.000   107959486.65509  20544003.400    84124309.41948
  20971386.140   110205376.68808  20971389.300    85874332.07648
  22646658.860   119008985.45408  22646660.580    92734276.27146
  21820256.620   114666463.95908  21820263.920    89350626.43848
 15 01 20 13 07  0.0000000  0  9G02G03G06G07G09G10G20G23G30
  22282115.300   117093353.23808  22282116.560    91241608.71947
  24178498.360   127058800.56305  24178508.400    99006870.37645
  20986718.640   110285958.94609  20986725.420    85937140.78049
  20569905.980   108095657.08609  20569909.300    84230432.98749
  20898712.540   109823485.27009  20898717.500    85576766.42849
  20536485.280   107919996.63709  20536488.700    84093537.98948
  20981230.160   110257107.53008  20981233.320    85914641.80748
  22659641.200   119077207.81708  22659642.920    92787436.51546
  21803712.420   114579523.68808  21803719.660    89282880.90148
 15 01 20 13 07 30.0000000  0  9G02G03G06G07G09G10G20G23G30
  22271888.560   117039611.54308  22271889.880    91199732.08847
  24195145.000   127146280.01705  24195155.580    99075035.94646
  20993866.240   110323519.94309  20993873.060    85966409.07549
  20564396.960   108066707.08509  20564400.260    84207874.59149
  20906136.660   109862499.36809  20906141.640    85607167.00749
  20529033.840   107880839.14309  20529037.260    84063025.66248
  20991141.840   110309193.82008  20991145.020    85955228.50448
  22672639.400   119145514.00508  22672641.200    92840662.06346
  21787235.680   114492937.76108  21787242.820    89215411.48148
 15 01 20 13 08  0.0000000  0  9G02G03G06G07G09G10G20G23G30
  22261755.060   116986359.81508  22261756.440    91158237.24147
  24211824.520   127233931.86105  24211835.520    99143335.82546
  21001120.560   110361641.78109  21001127.400    85996114.38649
  20558990.180   108038294.29609  20558993.440    84185734.79949
  20913600.400   109901721.66009  20913605.400    85637729.81449
  20521646.280   107842017.21609  20521649.720    84032774.82248
  21001121.380   110361636.68108  21001124.580    85996093.05448
  22685653.680   119213905.06808  22685655.660    92893953.74346
  21770827.100   114406710.41408  21770834.140    89148221.46848
 15 01 20 13 08 30.0000000  0  9G02G03G06G07G09G10G20G23G30
  22251714.900   116933598.55208  22251716.320    91117124.57547
  24228536.620   127321754.40005  24228547.880    99211768.69445
  21008481.140   110400322.02409  21008488.000    86026254.81749
  20553685.480   108010417.76809  20553688.700    84164012.86949
  20921103.400   109941150.12309  20921108.400    85668453.27749
  20514322.720   107803531.51709  20514326.120    84002785.97248
  21011168.680   110414435.33108  21011171.920    86037234.84348
  22698683.740   119282379.41207  22698685.940    92947310.32046
  21754486.960   114320843.03008  21754493.920    89081311.95048
 15 01 20 13 09  0.0000000  0  9G02G03G06G07G09G10G20G23G30
  22241768.180   116881328.26408  22241769.580    91076394.49147
  24245281.020   127409745.52605  24245292.140    99280332.91945
  21015947.480   110439557.73209  21015954.280    86056828.07449
  20548482.680   107983076.80909  20548485.880    84142708.26749
  20928645.120   109980782.25709  20928650.180    85699335.44649
  20507063.200   107765382.36109  20507066.560    83973059.36948
  21021283.320   110467587.94908  21021286.640    86078652.44748
  22711729.260   119350934.92907  22711731.700    93000730.14846
  21738215.440   114235336.47108  21738222.340    89014683.58848
 15 01 20 13 09 30.0000000  0  9G02G03G06G07G09G10G20G23G30
  22231915.140   116829549.92708  22231916.460    91036047.74647
  24262057.380   127497903.69905  24262068.200    99349027.33145
  21023519.060   110479346.62409  21023525.860    86087832.38149
  20543381.740   107956271.09409  20543384.860    84121820.73149
  20936225.240   110020616.18009  20936230.320    85730374.84849
  20499867.800   107727570.50509  20499871.200    83943595.59548
  21031465.160   110521093.79808  21031468.520    86120345.30248
  22724789.980   119419570.01407  22724792.620    93054211.97746
  21722012.880   114150192.21608  21722019.760    88948337.54048
 15 01 20 13 10  0.0000000  0  9G02G03G06G07G09G10G20G23G30
  22222156.700   116778268.80808  22222157.920    90996088.44347
  24278866.160   127586231.71505  24278876.540    99417854.05744
  21031196.320   110519690.63009  21031203.080    86119269.24849
  20538383.420   107930004.86809  20538386.480    84101353.57649
  20943844.260   110060654.31709  20943849.300    85761573.38149
  20492737.520   107690100.90109  20492740.940    83914398.50848
  21041714.760   110574955.67008  21041718.120    86162315.57648
  22737866.460   119488287.49607  22737869.200    93107758.01846
  21705880.360   114065416.06408  21705887.240    88882278.32148
 15 01 20 13 10 30.0000000  0  9G02G03G06G07G09G10G20G23G30
  22212492.820   116727484.73608  22212493.960    90956516.44547
  24295706.820   127674726.91105  24295716.780    99486811.06244
  21038978.560   110560586.27809  21038985.280    86151135.96449
  20533487.500   107904276.79809  20533490.520    84081305.76349
  20951501.600   110100893.69409  20951506.600    85792928.72449
  20485672.280   107652973.08809  20485675.720    83885467.75648
  21052031.680   110629171.28808  21052035.000    86204561.49648
  22750958.220   119557084.67308  22750960.880    93161366.16546
  21689818.020   113981008.36708  21689824.900    88816506.20148
 15 01 20 13 11  0.0000000  0  9G02G03G06G07G09G10G20G23G30
  22202924.280   116677201.74308  22202925.380    90917334.90247
  24312579.460   127763390.91305  24312589.240    99555899.60442
  21046865.920   110602034.31609  21046872.620    86183433.11249
  20528694.440   107879089.29709  20528697.440    84061679.17049
  20959197.480   110141335.60709  20959202.460    85824441.88849
  20478672.880   107616190.86109  20478676.240    83856806.28148
  21062416.360   110683743.02608  21062419.600    86247084.90548
  22764065.500   119625963.01208  22764068.000    93215037.55046
  21673826.740   113896973.73408  21673833.580    88751024.78148
 15 01 20 13 11 30.0000000  0  9G02G03G06G07G09G10G20G23G30
  22193451.420   116627421.73808  22193452.540    90878545.29647
  24329483.960   127852223.15205  24329493.760    99625119.23645
  21054858.120   110644033.35809  21054864.780    86216159.61649
  20524004.400   107854443.16209  20524007.400    84042474.42149
  20966931.720   110181979.17009  20966936.700    85856112.18949
  20471739.560   107579755.81909  20471742.860    83828415.34948
  21072868.720   110738670.53008  21072871.900    86289885.53148
  22777188.300   119694922.46708  22777190.640    93268772.14646
  21657906.900   113813314.58908  21657913.720    88685835.94848
 15 01 20 13 12  0.0000000  0  9G02G03G06G07G09G10G20G23G30
  22184074.040   116578143.48908  22184075.200    90840146.66947
  24346419.640   127941219.98605  24346429.580    99694467.11544
  21062954.340   110686578.84809  21062960.920    86249311.91949
  20519416.880   107830335.75309  20519419.900    84023689.44949
  20974703.560   110222820.46009  20974708.540    85887936.55649
  20464872.000   107543666.38709  20464875.240    83800293.71648
  21083388.140   110793950.60508  21083391.360    86332960.89048
  22790325.860   119763959.40508  22790328.000    93322567.11146
  21642058.400   113730030.29308  21642065.180    88620939.19648
 15 01 20 13 12 30.0000000  0  9G02G03G06G07G09G10G20G23G30
  22174793.060   116529371.53608  22174794.240    90802142.56447
  24363386.860   128030383.43404  24363397.060    99763944.81644
  21071154.740   110729671.90709  21071161.280    86282890.89648
  20514932.520   107806770.44209  20514935.580    84005326.89449
  20982513.380   110263861.18309  20982518.340    85919916.32249
  20458071.060   107507927.18009  20458074.280    83772444.99048
  21093975.060   110849585.50308  21093978.360    86376312.73248
  22803478.440   119833075.54908  22803480.420    93376423.80246
  21626282.160   113647125.80008  21626288.880    88556338.40348
 15 01 20 13 13  0.0000000  0  9G02G03G06G07G09G10G20G23G30
  22165608.580   116481106.69408  22165609.780    90764533.60747
  24380385.340   128119711.91405  24380396.080    99833551.07944
  21079458.860   110773310.06609  21079465.340    86316894.62549
  20510551.220   107783746.81809  20510554.320    83987386.42249
  20990360.800   110305099.52009  20990365.740    85952050.07549
  20451336.840   107472538.74409  20451340.120    83744869.59348
  21104629.340   110905574.26908  21104632.740    86419940.31348
  22816645.760   119902269.61608  22816647.660    93430341.20546
  21610578.460   113564602.56508  21610585.100    88492034.69048
 15 01 20 13 13 30.0000000  0  9G02G03G06G07G09G10G20G23G30
  22156520.660   116433349.46808  22156521.900    90727320.19647
  24397415.020   128209203.66505  24397426.220    99903284.59645
  21087866.140   110817490.60809  21087872.660    86351320.98849
  20506272.880   107761264.12109  20506276.020    83969867.45749
  20998245.440   110346533.40409  20998250.360    85984336.20249
  20444669.440   107437501.39109  20444672.760    83717567.77048
  21115350.740   110961915.45408  21115354.140    86463842.50248
  22829827.560   119971539.81708  22829829.400    93484317.93446
  21594947.440   113482461.75508  21594954.080    88428028.96448
 15 01 20 13 14  0.0000000  0  9G02G03G06G07G09G10G20G23G30
  22147529.560   116386100.90308  22147530.800    90690503.15547
  24414475.560   128298857.25605  24414487.020    99973144.19944
  21096376.160   110862211.17708  21096382.760    86386168.15949
  20502097.380   107739322.08009  20502100.580    83952769.78249
  21006167.000   110388161.18109  21006171.880    86016773.41449
  20438069.040   107402816.08709  20438072.380    83690540.26848
  21126139.100   111018608.32408  21126142.440    86508018.73848
  22843023.580   120040885.01008  22843025.380    93538353.09046
  21579389.520   113400704.96708  21579396.120    88364322.47848
 15 01 20 13 14 30.0000000  0  9G02G03G06G07G09G10G20G23G30
  22138635.620   116339362.93008  22138636.820    90654083.96147
  24431567.020   128388672.30405  24431578.660   100043129.58745
  21104988.660   110907470.42508  21104995.340    86421435.07449
  20498024.900   107717921.29809  20498028.120    83936093.86849
  21014125.300   110429982.20609  21014130.160    86049361.20949
  20431535.980   107368484.63209  20431539.300    83663788.49648
  21136994.400   111075652.63808  21136997.620    86552468.81648
  22856233.740   120110304.93508  22856235.540    93592446.48346
  21563905.200   113319334.73308  21563911.720    88300917.20048
 15 01 20 13 15  0.0000000  0  9G02G03G06G07G09G10G20G23G30
  22129839.340   116293138.23008  22129840.520    90618064.72247
  24448689.280   128478649.04504  24448701.100   100113240.98145
  21113703.560   110953267.58108  21113710.300    86457121.14549
  20494055.760   107697063.37609  20494058.920    83919840.96049
  21022120.380   110471996.46909  21022125.220    86082099.57649
  20425070.800   107334509.73509  20425074.100    83637314.55448
  21147916.680   111133048.91108  21147919.840    86597193.14748
  22869458.080   120179799.61308  22869459.900    93646598.12146
  21548495.040   113238354.21708  21548501.520    88237815.60148
 15 01 20 13 15 30.0000000  0 10G02G03G05G06G07G09G10G20G23G30
  22121141.040   116247428.29208  22121142.200    90582446.60147
  24465842.260   128568786.59005  24465854.120   100183477.63445
  24673374.560   129659458.52106  24673380.500   101033368.12645
  21122520.500   110999600.79509  21122527.240    86493224.92249
  20490189.860   107676748.14009  20490192.960    83904010.92649
  21030152.020   110514202.88609  21030156.860    86114987.67249
  20418673.660   107300892.56109  20418676.960    83611119.36448
  21158905.860   111190796.82908  21158908.980    86642191.49148
  22882696.660   120249368.98807  22882698.540    93700807.96446
  21533159.480   113157765.53908  21533165.920    88175019.32148
 15 01 20 13 16  0.0000000  0 10G02G03G05G06G07G09G10G20G23G30
  22112540.640   116202232.87708  22112541.800    90547229.40747
  24483025.480   128659082.54605  24483037.280   100253837.73744
  24655306.460   129564509.26806  24655312.240   100959381.77145
  21131438.840   111046466.67809  21131445.540    86529743.76348
  20486427.020   107656974.23709  20486430.060    83888602.71949
  21038219.740   110556598.85409  21038224.580    86148023.47149
  20412344.580   107267633.13409  20412347.880    83585202.94048
  21169961.440   111248894.08108  21169964.600    86687462.03448
  22895948.980   120319010.35007  22895950.900    93755073.91346
  21517898.560   113077569.24408  21517904.980    88112528.78948
 15 01 20 13 16 30.0000000  0 10G02G03G05G06G07G09G10G20G23G30
  22104038.880   116157555.81908  22104040.040    90512416.12147
  24500239.120   128749538.24905  24500251.000   100324322.32645
  24637236.400   129469550.71406  24637242.260   100885388.16446
  21140458.560   111093865.51908  21140465.240    86566677.89448
  20482767.660   107637744.22909  20482770.640    83873618.32049
  21046323.720   110599185.48809  21046328.600    86181207.83948
  20406084.160   107234734.62309  20406087.500    83559567.74248
  21181083.900   111307342.91408  21181087.120    86733006.54248
  22909215.200   120388725.23507  22909217.240    93809397.12946
  21502713.100   112997769.55708  21502719.500    88050347.30348
 15 01 20 13 17  0.0000000  0 10G02G03G05G06G07G09G10G20G23G30
  22095635.660   116113396.69408  22095636.820    90478006.41847
  24517482.640   128840150.95705  24517494.500   100394929.21244
  24619164.540   129374582.52806  24619170.400   100811387.02945
  21149578.940   111141793.57608  21149585.640    86604024.40148
  20479211.480   107619056.43209  20479214.440    83859056.42049
  21054463.440   110641959.94508  21054468.320    86214538.56449
  20399892.380   107202196.77009  20399895.780    83534213.57748
  21192272.720   111366140.67808  21192275.980    86778822.95148
  22922494.920   120458511.13707  22922497.120    93863775.68646
  21487603.160   112918366.76708  21487609.600    87988475.08348
 15 01 20 13 17 30.0000000  0 10G02G03G05G06G07G09G10G20G23G30
  22087331.780   116069759.81008  22087332.960    90444003.65347
  24534756.320   128930922.85605  24534768.360   100465660.13744
  24601091.500   129279608.72606  24601097.500   100737381.52945
  21158800.260   111190252.01108  21158806.960    86641784.18848
  20475759.040   107600913.77909  20475761.980    83844919.31149
  21062639.260   110684924.18208  21062644.120    86248017.17048
  20393770.100   107170024.13509  20393773.560    83509143.99748
  21203528.460   111425290.04908  21203531.740    86824913.34148
  22935788.680   120528370.45107  22935790.980    93918211.45146
  21472569.760   112839365.96408  21472576.200    87926916.10248
 15 01 20 13 18  0.0000000  0 10G02G03G05G06G07G09G10G20G23G30
  22079126.960   116026643.48908  22079128.180    90410406.52647
  24552059.460   129021849.81205  24552071.520   100536511.87946
  24583017.100   129184627.46306  24583023.140   100663370.22245
  21168121.520   111239235.56308  21168128.220    86679953.15948
  20472409.760   107583313.20409  20472412.720    83831204.59649
  21070850.380   110728073.90108  21070855.260    86281640.30148
  20387716.960   107138214.68809  20387720.400    83484357.42348
  21214850.300   111484786.97408  21214853.640    86871274.54748
  22949095.720   120598299.29208  22949098.120    93972701.39846
  21457612.600   112760765.88908  21457619.040    87865669.37448
 15 01 20 13 18 30.0000000  0 10G02G03G05G06G07G09G10G20G23G30
  22071021.820   115984050.83808  22071023.040    90377217.43947
  24569392.280   129112932.73805  24569404.400   100607485.09046
  24564941.820   129089641.43806  24564947.840   100589355.19545
  21177542.720   111288744.09008  21177549.380    86718531.19948
  20469164.040   107566256.87009  20469167.000    83817913.96849
  21079096.940   110771409.85608  21079101.860    86315408.54748
  20381733.580   107106771.63809  20381736.960    83459856.34749
  21226238.540   111544632.82708  21226241.960    86917907.64148
  22962416.320   120668298.95208  22962418.700    94027246.52946
  21442732.460   112682570.39308  21442738.860    87804737.90348
 15 01 20 13 19  0.0000000  0 10G02G03G05G06G07G09G10G20G23G30
  22063016.540   115941982.77608  22063017.700    90344437.12947
  24586754.600   129204170.04905  24586766.640   100678578.62445
  24546865.720   128994651.26506  24546871.660   100515336.94445
  21187063.300   111338774.96508  21187069.940    86757516.26848
  20466021.700   107549743.69109  20466024.640    83805046.57449
  21087378.600   110814930.42808  21087383.580    86349320.65448
  20375820.060   107075695.73109  20375823.360    83435641.36148
  21237693.020   111604826.54108  21237696.460    86964811.80048
  22975750.200   120738368.04508  22975752.500    94081845.77346
  21427929.580   112604780.87608  21427935.940    87744122.78148
 15 01 20 13 19 30.0000000  0 10G02G03G05G06G07G09G10G20G23G30
  22055111.100   115900439.35108  22055112.220    90312065.62747
  24604145.960   129295559.68505  24604157.980   100749790.82445
  24528788.880   128899657.08906  24528794.800   100441315.59045
  21196682.680   111389324.98308  21196689.320    86796905.86348
  20462982.540   107533772.76109  20462985.460    83792601.70849
  21095694.940   110858633.37108  21095700.000    86383374.86248
  20369976.420   107044987.18209  20369979.720    83411712.62648
  21249213.380   111665366.43608  21249216.800    87011985.71548
  22989097.000   120808504.81208  22989099.220    94136497.73946
  21413204.100   112527398.14808  21413210.420    87683824.63148
 15 01 20 13 20  0.0000000  0 10G02G03G05G06G07G09G10G20G23G30
  22047306.520   115859425.79108  22047307.600    90280106.99847
  24621566.920   129387104.80705  24621578.780   100821124.15345
  24510712.220   128804664.10406  24510718.220   100367295.15845
  21206401.240   111440396.18908  21206407.920    86836701.58048
  20460047.300   107518348.08609  20460050.240    83780582.51449
  21104046.640   110902521.72908  21104051.720    86417573.55349
  20364203.760   107014651.56009  20364207.040    83388074.48549
  21260800.300   111726256.05408  21260803.720    87059432.14848
  23002457.200   120878712.29108  23002459.380    94191204.81946
  21398557.120   112450428.23208  21398563.460    87623848.15748
 15 01 20 13 20 30.0000000  0  9G02G05G06G07G09G10G20G23G30
  22039602.040   115818938.18308  22039603.100    90248558.21347
  24492635.100   128709668.15606  24492641.040   100293272.42345
  21216217.500   111491980.96308  21216224.280    86876897.48548
  20457214.960   107503464.06009  20457217.900    83768984.58649
  21112432.440   110946588.92809  21112437.440    86451911.60548
  20358501.300   106984684.91209  20358504.600    83364723.85248
  21272452.540   111787489.00908  21272456.000    87107146.10548
  23015829.640   120948984.54107  23015831.760    94245962.35746
  21383988.020   112373867.55208  21383994.360    87564190.56648
 15 01 20 13 21  0.0000000  0  9G02G05G06G07G09G10G20G23G30
  22032000.280   115778990.58608  22032001.360    90217430.21147
  24474560.040   128614683.29806  24474565.900   100219258.32645
  21226133.600   111544090.43108  21226140.460    86917502.24348
  20454488.060   107489134.17209  20454491.020    83757818.45349
  21120854.580   110990847.14409  21120859.500    86486398.50049
  20352871.720   106955101.35809  20352875.040    83341671.73148
  21284172.640   111849078.03808  21284176.040    87155137.52348
  23029216.660   121019334.02108  23029218.800    94300780.06446
  21369499.660   112297731.26808  21369505.980    87504863.67248
 15 01 20 13 21 30.0000000  0  9G02G05G06G07G09G10G20G23G30
  22024498.360   115739567.71508  22024499.520    90186711.09147
  24456484.180   128519694.25906  24456490.000   100145240.97745
  21236145.960   111596705.63008  21236152.860    86958501.07048
  20451863.320   107475341.15209  20451866.300    83747070.65849
  21129309.660   111035278.51309  21129314.520    86521020.32248
  20347312.100   106925885.34009  20347315.420    83318906.00848
  21295957.220   111911005.87808  21295960.520    87203392.95148
  23042615.120   121089743.34307  23042617.240    94355644.41345
  21355089.260   112222004.45709  21355095.540    87445855.84348
 15 01 20 13 22  0.0000000  0  9G02G05G06G07G09G10G20G23G30
  22017097.640   115700676.89408  22017098.920    90156406.56047
  24438408.920   128424708.27106  24438414.720   100071226.02245
  21246255.340   111649830.70408  21246262.280    86999897.20248
  20449341.920   107462091.16309  20449344.920    83736746.00649
  21137798.720   111079888.27609  21137803.540    86555781.15149
  20341823.860   106897044.44609  20341827.160    83296432.58548
  21307807.320   111973277.95608  21307810.480    87251916.62048
  23056026.080   121160218.17207  23056028.180    94410559.78945
  21340758.340   112146695.27208  21340764.600    87387173.43948
 15 01 20 13 22 30.0000000  0  9G02G05G06G07G09G10G20G23G30
  22009798.760   115662320.93408  22009800.040    90126518.80147
  24420334.820   128329728.09806  24420340.520    99997215.58846
  21256461.640   111703464.93408  21256468.520    87041690.07748
  20446924.100   107449385.54909  20446927.120    83726845.52749
  21146321.720   111124676.81409  21146326.560    86590681.28649
  20336407.540   106868581.56409  20336410.800    83274253.72148
  21319723.040   112035895.01208  21319726.080    87300709.09848
  23069449.620   121230759.13307  23069451.700    94465526.69946
  21326507.540   112071807.08109  21326513.760    87328819.08448
 15 01 20 13 23  0.0000000  0  9G02G05G06G07G09G10G20G23G30
  22002601.940   115624501.07508  22002603.180    90097048.78047
  24402262.080   128234755.42406  24402267.780    99923211.01346
  21266764.480   111757606.35508  21266771.280    87083878.16748
  20444609.920   107437224.49009  20444612.940    83717369.39249
  21154878.560   111169643.39908  21154883.440    86625720.15948
  20331063.480   106840498.23909  20331066.700    83252370.61548
  21331704.300   112098856.91108  21331707.320    87349770.28347
  23082885.700   121301365.97307  23082887.700    94520544.94345
  21312337.260   111997341.97509  21312343.440    87270794.40148
 15 01 20 13 23 30.0000000  0  9G02G05G06G07G09G10G20G23G30
  21995507.340   115587218.61908  21995508.560    90067997.51447
  24384190.940   128139791.51006  24384196.720    99849213.25846
  21277163.440   111812252.97808  21277170.200    87126459.92048
  20442399.320   107425607.74809  20442402.320    83708317.41849
  21163469.140   111214787.20909  21163474.020    86660897.13548
  20325791.940   106812796.07009  20325795.180    83230784.51148
  21343751.040   112162163.06908  21343754.060    87399099.72947
  23096334.320   121372038.65707  23096336.280    94575614.49945
  21298247.880   111923302.01909  21298254.040    87213101.00648
 15 01 20 13 24  0.0000000  0  9G02G05G06G07G09G10G20G23G30
  21988514.960   115550473.31708  21988516.120    90039364.80047
  24366121.380   128044835.72306  24366127.120    99775221.82846
  21287657.840   111867401.16408  21287664.600    87169432.50048
  20440292.020   107414533.87809  20440295.020    83699688.44449
  21172092.980   111260105.77608  21172097.880    86696210.28448
  20320592.840   106785474.67809  20320596.120    83209495.12148
  21355862.920   112225811.38608  21355865.920    87448695.79247
  23109794.940   121442774.58207  23109796.960    94630733.34446
  21284239.500   111849687.61709  21284245.620    87155739.20548
 15 01 20 13 24 30.0000000  0  9G02G05G06G07G09G10G20G23G30
  21981625.100   115514266.85008  21981626.240    90011151.96947
  24348053.760   127949890.28506  24348059.560    99701238.47446
  21298247.300   111923049.03908  21298254.100    87212794.45048
  20438288.020   107404003.01809  20438291.040    83691482.58949
  21180749.940   111305598.49408  21180754.880    86731659.13348
  20315466.520   106758535.72909  20315469.800    83188503.73149
  21368039.900   112289801.57508  21368042.880    87498558.24648
  23123267.680   121513573.67007  23123269.720    94685901.40146
  21270312.520   111776501.00609  21270318.600    87098710.74148
 15 01 20 13 25  0.0000000  0  9G02G05G06G07G09G10G20G23G30
  21974838.160   115478601.38908  21974839.320    89983360.69547
  24329988.580   127854957.88006  24329994.420    99627265.26045
  21308931.640   111979195.58008  21308938.480    87256544.97148
  20436387.620   107394016.49609  20436390.660    83683700.89849
  21189440.020   111351265.57208  21189445.060    86767243.85148
  20310413.440   106731981.68609  20310416.740    83167812.27248
  21380281.960   112354133.92408  21380284.960    87548687.31848
  23136752.480   121584436.34107  23136754.560    94741119.02045
  21256467.460   111703745.17709  21256473.560    87042017.95648
 15 01 20 13 25 30.0000000  0  9G02G05G06G07G09G10G20G23G30
  21968154.580   115443479.16308  21968155.740    89955992.71847
  24311926.260   127760040.67006  24311932.220    99553303.90046
  21319710.660   112035839.88408  21319717.540    87300683.35048
  20434590.960   107384574.94909  20434593.980    83676343.86449
  21198163.380   111397107.41708  21198168.500    86802964.75048
  20305434.140   106705815.49809  20305437.480    83147423.03749
  21392589.320   112418809.41408  21392592.360    87599083.77548
  23150249.460   121655363.21907  23150251.600    94796386.66046
  21242704.980   111631423.34709  21242711.060    86985663.34648
 15 01 20 13 26  0.0000000  0  9G02G05G06G07G09G10G20G23G30
  21961574.220   115408899.34508  21961575.400    89929047.40447
  24293866.660   127665137.89106  24293872.680    99479353.77446
  21330583.560   112092977.28008  21330590.420    87345205.95848
  20432897.580   107375676.06209  20432900.600    83669409.68449
  21206919.400   111443120.66308  21206924.560    86838819.21148
  20300528.380   106680035.85209  20300531.780    83127335.00148
  21404961.360   112483824.78608  21404964.460    87649745.07848
  23163758.100   121726351.90807  23163760.460    94851702.46446
  21229024.980   111559534.94609  21229031.060    86929646.47348
 15 01 20 13 26 30.0000000  0  9G02G05G06G07G09G10G20G23G30
  21955097.140   115374862.27808  21955098.340    89902525.00847
  24275810.000   127570250.06706  24275816.000    99405415.28645
  21341549.820   112150605.11008  21341556.640    87390110.71948
  20431307.280   107367318.75609  20431310.260    83662897.51449
  21215707.820   111489303.94308  21215712.960    86874806.17248
  20295696.400   106654643.69109  20295699.800    83107548.90449
  21417397.840   112549179.05908  21417401.020    87700670.45647
  23177278.360   121797401.20407  23177280.760    94907065.49346
  21215427.760   111488081.35609  21215433.780    86873968.41248
 15 01 20 13 27  0.0000000  0  9G02G05G06G07G09G10G20G23G30
  21948723.900   115341370.67308  21948725.080    89876427.64747
  24257756.880   127475380.27606  24257762.700    99331490.84146
  21352609.260   112208722.58408  21352616.080    87435397.02248
  20429820.300   107359504.43909  20429823.220    83656808.45249
  21224528.740   111535657.86708  21224533.800    86910926.10348
  20290938.740   106629642.01409  20290942.120    83088067.07948
  21429898.940   112614873.01108  21429902.180    87751860.51647
  23190810.380   121868512.12607  23190812.740    94962476.54145
  21201913.900   111417065.87409  21201919.900    86818631.73448
 15 01 20 13 27 30.0000000  0  9G02G05G06G07G09G10G20G23G30
  21942454.480   115308424.55408  21942455.640    89850755.34647
  24239707.340   127380529.15306  24239713.040    99257580.93946
  21363761.240   112267326.50308  21363768.120    87481062.37048
  20428436.360   107352231.75609  20428439.240    83651141.44549
  21233381.760   111582180.57808  21233386.800    86947177.55648
  20286255.420   106605031.11209  20286258.820    83068889.76149
  21442464.440   112680905.04108  21442467.640    87803314.02147
  23204353.800   121939683.20807  23204356.200    95017934.46446
  21188483.620   111346489.39109  21188489.620    86763637.12848
 15 01 20 13 28  0.0000000  0  9G02G05G06G07G09G10G20G23G30
  21936289.380   115276026.41208  21936290.480    89825510.03947
  24221661.900   127285699.55706  24221667.460    99183687.80345
  21375005.660   112326416.21608  21375012.600    87527106.26548
  20427155.740   107345502.08709  20427158.600    83645897.56149
  21242267.040   111628872.84508  21242272.080    86983561.13248
  20281647.040   106580813.83209  20281650.400    83050019.15448
  21455094.460   112747275.86308  21455097.560    87855031.52447
  23217908.840   122010915.46607  23217911.300    95073440.07045
  21175137.500   111276355.35709  21175143.560    86708987.28448
 15 01 20 13 28 30.0000000  0  9G02G05G06G07G09G10G20G23G30
  21930228.420   115244175.55808  21930229.500    89800691.19547
  24203620.460   127190891.01906  24203625.940    99109811.07545
  21386341.720   112385987.46108  21386348.680    87573525.36848
  20425978.020   107339313.30309  20425980.880    83641075.15049
  21251184.040   111675731.84608  21251189.080    87020074.63648
  20277113.500   106556989.80109  20277116.840    83031454.98248
  21467788.520   112813983.33108  21467791.560    87907011.34347
  23231475.180   122082206.82207  23231477.640    95128991.70246
  21161875.560   111206663.64209  21161881.660    86654682.09648
 15 01 20 13 29  0.0000000  0  9G02G05G06G07G09G10G20G23G30
  21924272.260   115212875.81208  21924273.380    89776301.78547
  24185583.780   127096107.83606  24185589.260    99035954.10445
  21397769.480   112446040.79508  21397776.480    87620320.13148
  20424903.640   107333667.66609  20424906.500    83636675.96949
  21260133.100   111722759.57108  21260138.180    87056719.61248
  20272655.560   106533563.08609  20272658.880    83013200.40949
  21480546.940   112881029.22808  21480550.040    87959254.87447
  23245053.020   122153559.09707  23245055.580    95184590.81446
  21148698.660   111137418.87509  21148704.800    86600725.18048
 15 01 20 13 29 30.0000000  0  9G02G05G06G07G09G10G20G23G30
  21918420.520   115182125.06108  21918421.700    89752340.16947
  24167551.580   127001348.18806  24167557.080    98962115.49145
  21409287.980   112506570.88908  21409295.000    87667486.39348
  20423932.080   107328562.35709  20423934.940    83632697.82249
  21269113.560   111769952.16508  21269118.660    87093493.05648
  20268272.820   106510531.81609  20268276.180    82995253.97549
  21493369.020   112948409.99908  21493372.300    88011759.34747
  23258641.920   122224968.96207  23258644.500    95240234.79346
  21135606.620   111068619.80609  21135612.720    86547115.56148
 15 01 20 13 30  0.0000000  0  9G02G05G06G07G09G10G20G23G30
  21912673.560   115151924.98408  21912674.800    89728807.65647
  24149524.360   126906614.57006  24149529.840    98888297.14345
  21420896.900   112567576.04708  21420903.880    87715022.82648
  20423063.380   107323997.32609  20423066.200    83629140.67049
  21278125.340   111817309.39908  21278130.460    87130394.79648
  20263965.720   106487897.96109  20263969.100    82977617.21548
  21506254.860   113016125.81408  21506258.320    88064524.89047
  23272241.880   122296436.85907  23272244.400    95295924.00645
  21122599.880   111000268.83109  21122605.920    86493855.10548
 15 01 20 13 30 30.0000000  0  9G02G05G06G07G09G10G20G23G30
  21907031.860   115122277.95308  21907033.140    89705706.08747
  24131502.560   126811909.58206  24131508.160    98814501.11245
  21432596.020   112629055.20408  21432602.940    87762928.61848
  20422297.680   107319973.49209  20422300.460    83626005.23049
  21287168.520   111864831.77308  21287173.720    87167425.21948
  20259734.740   106465664.13709  20259738.140    82960292.17048
  21519204.580   113084177.07808  21519208.120    88117551.82447
  23285853.040   122367963.47507  23285855.560    95351658.98245
  21109679.000   110932369.05909  21109684.940    86440946.23848
 15 01 20 13 31  0.0000000  0  9G02G05G06G07G09G10G20G23G30
  21901495.300   115093183.14608  21901496.580    89683034.81447
  24113486.160   126717232.88506  24113491.840    98740727.13246
  21444384.620   112691004.40708  21444391.520    87811200.67348
  20421634.600   107316488.73709  20421637.300    83623289.84649
  21296242.660   111912516.81808  21296247.900    87204582.39248
  20255579.860   106443830.13209  20255583.260    82943278.66349
  21532217.720   113152561.37508  21532221.280    88170838.25747
  23299475.060   122439546.89807  23299477.540    95407438.19746
  21096844.000   110864920.55009  21096849.840    86388389.00848
 15 01 20 13 31 30.0000000  0  9G02G05G06G07G09G10G20G23G30
  21896064.420   115064643.57408  21896065.700    89660796.19947
  24095475.780   126622588.13006  24095481.540    98666978.03546
  21456262.580   112753423.21908  21456269.480    87859838.66648
  20421074.400   107313544.54009  20421077.040    83620995.67749
  21305347.980   111960365.64808  21305353.240    87241867.19248
  20251501.740   106422399.38509  20251505.140    82926579.38648
  21545294.520   113221279.92308  21545298.020    88224385.14347
  23313108.080   122511188.59207  23313110.580    95463262.83445
  21084095.540   110797927.02009  21084101.320    86336186.30448
 15 01 20 13 32  0.0000000  0  9G02G05G06G07G09G10G20G23G30
  21890739.300   115036659.59908  21890740.540    89638990.50847
  24077471.680   126527976.51906  24077477.540    98593254.76146
  21468229.380   112816308.87308  21468236.320    87908840.42548
  20420616.880   107311140.15109  20420619.480    83619122.13549
  21314484.300   112008377.13408  21314489.500    87279278.72748
  20247500.480   106401372.61409  20247503.860    82910194.89549
  21558434.720   113290331.72508  21558438.120    88278191.70547
  23326751.920   122582887.60707  23326754.560    95519132.11946
  21071433.860   110731389.79909  21071439.640    86284339.16848
 15 01 20 13 32 30.0000000  0  9G02G05G06G07G09G10G20G23G30
  21885519.880   115009230.86008  21885521.060    89617617.47047
  24059474.020   126433398.50606  24059479.800    98519557.67846
  21480284.360   112879657.87108  21480291.340    87958203.23748
  20420261.820   107309274.31109  20420264.420    83617668.23849
  21323651.200   112056549.34008  21323656.340    87316815.50348
  20243576.160   106380750.05809  20243579.500    82894125.37349
  21571637.960   113359715.03308  21571641.240    88332256.59047
  23340406.380   122654642.32307  23340409.040    95575044.83846
  21058859.140   110665309.46809  21058864.940    86232848.04648
 15 01 20 13 33  0.0000000  0  9G02G05G06G07G09G10G20G23G30
  21880406.340   114982358.63708  21880407.420    89596678.07047
  24041483.100   126338855.83006  24041488.840    98445888.11245
  21492427.120   112943468.03008  21492434.100    88007925.38848
  20420009.080   107307946.49509  20420011.720    83616633.58049
  21332848.600   112104881.76108  21332853.700    87354477.11848
  20239729.020   106360533.21909  20239732.360    82878371.99849
  21584904.120   113429429.12208  21584907.320    88386579.22147
  23354071.380   122726452.60407  23354074.140    95631000.83345
  21046371.700   110599687.97209  21046377.560    86181714.46049
 15 01 20 13 33 30.0000000  0  9G02G05G06G07G09G10G20G23G30
  21875398.640   114956042.86708  21875399.660    89576172.26947
  24023499.060   126244348.98306  24023504.680    98372246.48245
  21504656.960   113007735.95008  21504663.920    88058004.23748
  20419858.440   107307155.18709  20419861.120    83616016.97649
  21342076.160   112153372.61208  21342081.200    87392262.17948
  20235959.160   106340722.52309  20235962.500    82862935.09949
  21598232.960   113499472.63308  21598236.180    88441158.55247
  23367746.860   122798317.66007  23367749.680    95686999.51345
  21033971.720   110534526.01809  21033977.620    86130938.96049
 15 01 20 13 34  0.0000000  0  9G02G05G06G07G09G10G20G23G30
  21870497.260   114930285.78108  21870498.260    89556101.81047
  24005522.400   126149881.09906  24005527.840    98298635.19646
  21516973.800   113072460.99708  21516980.680    88108439.29448
  20419810.160   107306901.72809  20419812.860    83615819.47649
  21351334.020   112202022.90808  21351339.020    87430171.48148
  20232267.140   106321320.91409  20232270.500    82847816.96849
  21611624.580   113569846.13708  21611627.880    88495995.00547
  23381433.060   122870238.61407  23381435.880    95743041.73345
  21021659.860   110469826.99909  21021665.760    86080524.18948
 15 01 20 13 34 30.0000000  0  9G02G05G06G07G09G10G20G23G30
  21865701.960   114905086.38308  21865702.940    89536465.90547
  23987553.080   126055452.02706  23987558.460    98225054.16846
  21529376.740   113137638.70808  21529383.620    88159227.07448
  20419863.780   107307183.63709  20419866.500    83616039.14649
  21360621.700   112250829.88808  21360626.700    87468202.86748
  20228652.860   106302327.69709  20228656.200    82833017.06149
  21625078.620   113640547.31608  21625082.020    88551086.80247
  23395129.540   122942212.85207  23395132.260    95799125.48545
  21009436.080   110405590.62009  21009441.920    86030469.91549
 15 01 20 13 35  0.0000000  0  9G02G05G06G07G09G10G20G23G30
  21861013.440   114880448.18308  21861014.440    89517267.29847
  23969591.840   125961065.85206  23969597.200    98151506.56245
  21541865.800   113203269.24308  21541872.720    88210367.70348
  20420019.660   107308003.03709  20420022.440    83616677.64149
  21369939.560   112299795.42008  21369944.520    87506357.79748
  20225117.060   106283746.93209  20225120.400    82818538.54749
  21638595.380   113711577.93508  21638598.840    88606435.29847
  23408836.660   123014242.73707  23408839.180    95855252.60345
  20997301.140   110341821.11109  20997306.940    85980779.43448
 15 01 20 13 35 30.0000000  0  9G02G05G06G07G09G10G20G23G30
  21856431.580   114856370.57008  21856432.600    89498505.51947
  23951638.820   125866722.97206  23951644.240    98077992.70245
  21554440.300   113269348.76508  21554447.300    88261858.20148
  20420277.500   107309358.09209  20420280.340    83617733.52849
  21379287.140   112348917.40808  21379292.120    87544634.62748
  20221659.720   106265578.28809  20221663.060    82804381.16249
  21652174.360   113782935.45008  21652177.760    88662038.52847
  23422553.940   123086326.58207  23422556.340    95911421.77545
  20985255.100   110278518.73809  20985260.840    85931452.95348
 15 01 20 13 36  0.0000000  0  9G02G05G06G07G09G10G20G23G30
  21851956.540   114832854.29408  21851957.600    89480181.14647
  23933694.420   125772424.99206  23933699.880    98004513.82845
  21567099.820   113335874.88108  21567106.900    88313696.69448
  20420637.140   107311248.08409  20420640.000    83619206.23949
  21388664.420   112398195.24708  21388669.420    87583032.90548
  20218281.060   106247823.28609  20218284.400    82790546.10049
  21665815.400   113854619.40408  21665818.780    88717896.12047
  23436281.380   123158464.14607  23436283.760    95967632.78045
  20973298.280   110215685.20409  20973303.960    85882491.79649
 15 01 20 13 36 30.0000000  0  9G02G05G06G07G09G10G20G23G30
  21847588.420   114809899.92308  21847589.500    89462294.61547
  23915758.920   125678173.23206  23915764.300    97931070.95446
  21579843.840   113402845.12708  21579851.000    88365881.26648
  20421098.500   107313672.41909  20421101.340    83621095.32749
  21398071.200   112447628.21808  21398076.240    87621552.06348
  20214981.360   106230483.13009  20214984.680    82777034.28749
  21679518.340   113926629.05508  21679521.820    88774007.49747
  23450019.000   123230655.16707  23450021.160    96023885.45845
  20961430.940   110153322.13209  20961436.620    85833897.23849
 15 01 20 13 37  0.0000000  0  9G02G05G06G07G09G10G20G23G30
  21843327.380   114787508.00408  21843328.500    89444846.36747
  23897832.640   125583969.70406  23897837.900    97857665.66245
  21592671.860   113470256.78508  21592679.080    88418409.79048
  20421661.380   107316630.34409  20421664.220    83623400.20649
  21407507.340   112497215.40008  21407512.380    87660191.39548
  20211760.820   106213558.90509  20211764.120    82763846.57749
  21693283.120   113998963.52608  21693286.640    88830371.98347
  23463766.580   123302899.06607  23463768.680    96080179.32645
  20949653.380   110091430.86309  20949659.040    85785670.30749
 15 01 20 13 37 30.0000000  0  9G02G05G06G07G09G10G20G23G30
  21839173.580   114765679.73008  21839174.760    89427837.31647
  23879915.740   125489815.82706  23879920.920    97784299.05446
  21605583.500   113538107.74008  21605590.740    88471280.63248
  20422325.780   107320121.70009  20422328.600    83626120.77049
  21416972.780   112546956.52508  21416977.820    87698950.67748
  20208619.800   106197052.51809  20208623.060    82750984.46249
  21707109.680   114071622.41008  21707113.160    88886989.25947
  23477524.140   123375195.79507  23477526.300    96136514.36145
  20937965.980   110030013.41109  20937971.620    85737812.59149
 15 01 20 13 38  0.0000000  0  9G02G05G06G07G09G10G20G23G30
  21835127.080   114744415.07908  21835128.260    89411267.45248
  23862008.460   125395712.68006  23862013.640    97710971.96146
  21618578.140   113606394.78208  21618585.360    88524491.27348
  20423091.440   107324145.21509  20423094.240    83629255.97249
  21426467.240   112596850.15508  21426472.300    87737828.79148
  20205558.340   106180964.35609  20205561.580    82738448.22949
  21720997.740   114144604.33208  21721001.120    88943858.24847
  23491291.620   123447544.25107  23491293.800    96192889.69245
  20926368.920   109969070.58309  20926374.560    85690324.70749
 15 01 20 13 38 30.0000000  0  9G02G05G06G07G09G10G20G23G30
  21831188.120   114723715.43108  21831189.280    89395137.84448
  23844111.320   125301662.82707  23844116.540    97637686.42446
  21631655.400   113675116.05808  21631662.580    88578040.27648
  20423958.420   107328701.42609  20423961.280    83632806.26649
  21435990.760   112646896.35608  21435995.840    87776825.79448
  20202576.760   106165296.02909  20202579.980    82726239.14349
  21734947.240   114217909.04808  21734950.540    89000978.76447
  23505069.120   123519945.39207  23505071.280    96249306.09545
  20914862.620   109908604.66609  20914868.240    85643208.44649
 15 01 20 13 39  0.0000000  0  9G02G05G06G07G09G10G20G23G30
  21827356.220   114703578.71108  21827357.400    89379446.88147
  23826224.240   125207665.54207  23826229.500    97564441.85146
  21644814.320   113744266.40008  21644821.480    88631923.61648
  20424925.980   107333786.26109  20424928.880    83636768.45749
  21445542.700   112697091.80408  21445547.800    87815939.09148
  20199674.820   106150046.34109  20199678.060    82714356.26849
  21748957.440   114291532.90408  21748960.700    89058347.96247
  23518856.080   123592395.97207  23518858.240    96305761.01745
  20903446.860   109848614.53709  20903452.460    85596462.92449
 15 01 20 13 39 30.0000000  0  9G02G05G06G07G09G10G20G23G30
  21823631.940   114684007.51108  21823633.140    89364196.58947
  23808347.820   125113724.37107  23808353.160    97491241.00146
  21658054.800   113813845.17908  21658061.900    88686140.80448
  20425994.360   107339400.72809  20425997.260    83641143.36649
  21455123.260   112747437.77908  21455128.360    87855169.68248
  20196853.140   106135218.49909  20196856.400    82702802.10349
  21763028.620   114365477.35608  21763031.860    89115966.96947
  23532652.660   123664897.34807  23532654.980    96362255.51145
  20892122.260   109789103.65909  20892127.880    85550090.84649
 15 01 20 13 40  0.0000000  0  9G02G05G06G07G09G10G20G23G30
  21820015.580   114665003.39808  21820016.800    89349388.17347
  23790482.720   125019842.32707  23790488.040    97418086.22946
  21671376.560   113883851.30608  21671383.680    88740690.99248
  20427163.760   107345546.08209  20427166.680    83645931.95649
  21464732.600   112797935.11708  21464737.720    87894518.21948
  20194112.260   106120815.37209  20194115.560    82691578.88549
  21777160.940   114439743.31008  21777164.220    89173836.49047
  23546459.200   123737451.27907  23546461.700    96418790.97445
  20880889.440   109730074.95709  20880895.060    85504094.48449
 15 01 20 13 40 30.0000000  0  9G02G05G06G07G09G10G20G23G30
  21816507.220   114646566.67308  21816508.400    89335021.87547
  23772628.940   124926020.17107  23772634.200    97344978.11846
  21684779.080   113954281.63808  21684786.180    88795571.72748
  20428434.000   107352221.24109  20428436.960    83651133.37649
  21474370.520   112848582.60008  21474375.640    87933983.75748
  20191452.340   106106837.46909  20191455.640    82680687.01549
  21791354.040   114514328.58008  21791357.360    89231954.83147
  23560275.400   123810056.55407  23560278.140    96475366.45645
  20869748.540   109671529.37709  20869754.160    85458474.57749
 15 01 20 13 41  0.0000000  0  9G02G05G06G07G09G10G20G23G30
  21813106.460   114628695.38608  21813107.600    89321096.18248
  23754786.400   124832257.29807  23754791.560    97271916.18446
  21698261.300   114025130.79908  21698268.340    88850778.82048
  20429804.320   107359422.26609  20429807.300    83656744.56749
  21484036.340   112899376.83208  21484041.440    87973563.64748
  20188873.080   106093283.28009  20188876.360    82670125.30749
  21805607.360   114589230.01108  21805610.680    89290319.54847
  23574100.940   123882710.18907  23574103.780    96531979.61945
  20858699.320   109613465.64109  20858704.980    85413230.13349
 15 01 20 13 41 30.0000000  0  9G02G05G06G07G09G10G20G23G30
  21809813.700   114611391.53608  21809814.780    89307612.64547
  23736955.880   124738557.31707  23736960.920    97198903.26746
  21711823.080   114096398.11608  21711830.080    88906311.74748
  20431274.980   107367150.41809  20431277.940    83662766.50349
  21493730.340   112950319.04908  21493735.440    88013258.85448
  20186375.020   106080155.72509  20186378.280    82659896.04449
  21819921.020   114664448.64508  21819924.340    89348931.41947
  23587936.080   123955413.83607  23587938.900    96588631.74645
  20847742.460   109555887.04509  20847748.120    85368363.71949
 15 01 20 13 42  0.0000000  0  9G02G05G06G07G09G10G20G23G30
  21806628.900   114594655.27608  21806629.980    89294571.39147
  23719137.540   124644921.53207  23719142.540    97125940.37545
  21725463.800   114168080.36208  21725470.740    88962168.00048
  20432845.660   107375404.27709  20432848.620    83669198.07749
  21503452.260   113001408.09408  21503457.400    88053068.47348
  20183958.240   106067455.53409  20183961.540    82649999.79349
  21834294.760   114739982.82708  21834298.120    89407789.18047
  23601780.540   124028166.66707  23601783.360    96645322.17045
  20836878.120   109498794.46909  20836883.740    85323876.02449
 15 01 20 13 42 30.0000000  0  9G02G05G06G07G09G10G20G23G30
  21803552.280   114578487.49708  21803553.400    89281973.10947
  23701331.780   124551352.06007  23701336.840    97053029.15345
  21739183.060   114240175.47108  21739190.000    89018345.95648
  20434516.340   107384183.78009  20434519.300    83676039.24749
  21513202.080   113052643.84308  21513207.280    88092992.41148
  20181623.120   106055184.53509  20181626.480    82640437.97849
  21848728.520   114815832.53808  21848731.980    89466892.80647
  23615634.420   124100969.11607  23615637.160    96702051.28745
  20826106.640   109442189.83909  20826112.220    85279768.54649
 15 01 20 13 43  0.0000000  0  9G02G05G06G07G09G10G20G23G30
  21800584.080   114562889.60908  21800585.260    89269818.89447
  23683539.160   124457851.51607  23683544.280    96980171.66046
  21752980.520   114312681.81808  21752987.560    89074844.35648
  20436287.040   107393488.96909  20436290.000    83683290.04349
  21522979.880   113104026.76608  21522985.180    88133031.03848
  20179370.080   106043344.89609  20179373.460    82631212.28449
  21863222.300   114891997.64808  21863225.820    89526242.19147
  23629497.760   124173821.48607  23629500.380    96758819.28445
  20815428.460   109386075.64509  20815434.040    85236043.23549
 15 01 20 13 43 30.0000000  0  9G02G05G06G07G09G10G20G23G30
  21797723.800   114547858.89608  21797725.020    89258106.63247
  23665759.520   124364418.93707  23665764.600    96907367.10246
  21766855.160   114385593.72708  21766862.320    89131658.78048
  20438157.000   107403315.81209  20438159.960    83690947.31949
  21532785.000   113155553.15808  21532790.360    88173181.45148
  20177198.780   106031934.74709  20177202.160    82622321.26049
  21877775.360   114968474.28408  21877778.920    89585834.32447
  23643370.120   124246720.98807  23643372.560    96815623.99845
  20804843.220   109330450.14109  20804848.840    85192698.71549
 15 01 20 13 44  0.0000000  0  9G02G05G06G07G09G10G20G23G30
  21794971.900   114533397.62708  21794973.140    89246838.09647
  23647993.500   124271057.93007  23647998.540    96834618.30646
  21780806.900   114458910.52308  21780814.140    89188788.69848
  20440126.560   107413665.93009  20440129.520    83699012.34249
  21542617.720   113207224.43508  21542623.100    88213444.76548
  20175109.800   106020957.11509  20175113.200    82613767.26349
  21892387.840   115045263.64708  21892391.540    89645670.14247
  23657251.760   124319669.45707  23657254.040    96872466.89545
  20794351.600   109275316.67909  20794357.280    85149737.60349
 15 01 20 13 44 30.0000000  0  9G02G05G06G07G09G10G20G23G30
  21792328.500   114519506.60008  21792329.740    89236013.89748
  23630241.460   124177770.37507  23630246.380    96761926.76046
  21794835.240   114532629.66708  21794842.540    89246232.13148
  20442195.460   107424538.00709  20442198.400    83707484.09549
  21552477.940   113259040.16208  21552483.360    88253820.64648
  20173103.420   106010413.23609  20173106.760    82605551.25149
  21907059.700   115122364.89408  21907063.460    89705748.98147
  23671142.640   124392666.57106  23671144.780    96929347.68444
  20783953.900   109220676.78009  20783959.600    85107161.09149
 15 01 20 13 45  0.0000000  0  9G02G05G06G07G09G10G20G23G30
  21789793.480   114506184.74608  21789794.660    89225633.21847
  23612503.440   124084556.68706  23612508.300    96689292.75946
  21808939.420   114606747.18908  21808946.720    89303985.98548
  20444363.320   107435929.91009  20444366.220    83716360.90449
  21562365.300   113310998.42908  21562370.740    88294307.58748
  20171179.520   106000302.99209  20171182.820    82597673.14749
  21921790.540   115199775.77908  21921794.280    89766069.08947
  23685042.400   124465710.92806  23685044.620    96986265.28344
  20773650.160   109166530.44709  20773655.860    85064969.17049
 15 01 20 13 45 30.0000000  0  9G02G05G06G07G09G10G20G23G30
  21787367.120   114493433.83908  21787368.240    89215697.42347
  23594780.080   123991420.44806  23594784.940    96616719.13046
  21823119.220   114681262.02608  21823126.460    89362049.43348
  20446630.320   107447842.81509  20446633.180    83725643.69849
  21572280.000   113363100.30608  21572285.420    88334906.44248
  20169338.720   105990629.47209  20169341.980    82590135.33749
  21936580.500   115277497.27308  21936584.180    89826631.22647
  23698951.440   124538803.57106  23698953.840    97043220.51144
  20763440.940   109112880.58709  20763446.600    85023164.11349
 15 01 20 13 46  0.0000000  0  9G02G05G06G07G09G10G20G23G30
  21785048.920   114481251.32408  21785050.020    89206204.53648
  23577071.180   123898360.46506  23577076.140    96544204.90446
  21837373.520   114756168.44708  21837380.700    89420418.00948
  20448995.660   107460272.60309  20448998.480    83735329.25749
  21582221.320   113415342.18208  21582226.700    88375614.38148
  20167580.580   105981390.38209  20167583.820    82582936.05049
  21951428.780   115355525.21408  21951432.460    89887432.15647
  23712869.280   124611941.83307  23712871.820    97100211.30445
  20753325.880   109059725.48809  20753331.500    84981744.58049
 15 01 20 13 46 30.0000000  0  9G02G05G06G07G09G10G20G23G30
  21782839.080   114469638.55508  21782840.260    89197155.60448
  23559377.360   123805379.43806  23559382.480    96471752.21346
  21851701.960   114831464.75508  21851709.100    89479090.39148
  20451459.360   107473219.20509  20451462.140    83745417.53149
  21592189.380   113467724.53608  21592194.740    88416431.77948
  20165905.500   105972587.90809  20165908.760    82576076.97449
  21966335.380   115433859.37408  21966339.000    89948471.70247
  23726796.000   124685126.36607  23726798.660    97157238.14745
  20743305.400   109007067.45009  20743310.980    84940712.36949
 15 01 20 13 47  0.0000000  0  9G02G05G06G07G09G10G20G23G30
  21780738.020   114458597.62808  21780739.300    89188552.27348
  23541699.360   123712481.38406  23541704.620    96399364.17246
  21866104.360   114907150.12208  21866111.580    89538065.93548
  20454021.560   107486683.49909  20454024.280    83755909.20149
  21602184.420   113520248.69408  21602189.760    88457359.67648
  20164314.080   105964225.13109  20164317.360    82569560.52649
  21981300.520   115512501.07908  21981304.060    90009750.90047
  23740731.820   124758358.70107  23740734.600    97214302.26545
  20733380.100   108954909.59109  20733385.640    84900069.90849
 15 01 20 13 47 30.0000000  0  9G02G05G06G07G09G10G20G23G30
  21778745.500   114448127.09608  21778746.880    89180393.40248
  23524037.180   123619666.61406  23524042.560    96327041.03846
  21880579.980   114983220.34408  21880587.320    89597341.37348
  20456681.840   107500663.36009  20456684.520    83766802.61349
  21612206.060   113572912.60508  21612211.360    88498396.46948
  20162806.240   105956301.64709  20162809.620    82563386.38449
  21996323.680   115591447.99508  21996327.200    90071267.91947
  23754676.440   124831637.10206  23754679.340    97271402.25245
  20723549.880   108903251.64409  20723555.440    84859816.99149
 15 01 20 13 48  0.0000000  0  9G02G05G06G07G09G10G20G23G30
  21776861.640   114438227.40008  21776863.060    89172679.33948
  23506391.200   123526936.87006  23506396.680    96254784.15746
  21895128.380   115059672.89408  21895135.840    89656914.72548
  20459439.960   107515157.60209  20459442.640    83778096.84049
  21622254.220   113625715.96308  21622259.500    88539541.92148
  20161382.280   105948818.75509  20161385.700    82557555.55549
  22011404.740   115670699.23508  22011408.280    90133022.07147
  23768629.820   124904961.78907  23768632.820    97328538.31045
  20713815.040   108852095.05909  20713820.620    84819954.74349
 15 01 20 13 48 30.0000000  0  9G02G05G06G07G09G10G20G23G30
  21775086.220   114428897.38208  21775087.640    89165409.18247
  23488761.640   123434293.11206  23488767.080    96182594.26446
  21909748.880   115136503.79908  21909756.420    89716782.90748
  20462295.560   107530164.14409  20462298.280    83789790.26149
  21632328.620   113678657.01708  21632333.840    88580794.66548
  20160042.140   105941776.33509  20160045.560    82552067.95149
  22026543.300   115750252.58908  22026546.820    90195011.63247
  23782591.720   124978331.36707  23782594.780    97385709.33645
  20704175.580   108801439.82509  20704181.220    84780483.15949
 15 01 20 13 49  0.0000000  0  9G02G05G06G07G09G10G20G23G30
  21773419.620   114420139.12708  21773421.020    89158584.55047
  23471149.200   123341738.95707  23471154.480    96110474.18546
  21924441.280   115213712.21208  21924448.840    89776945.24348
  20465248.800   107545683.88209  20465251.600    83801883.57649
  21642429.480   113731737.13208  21642434.640    88622155.76348
  20158786.420   105935177.47909  20158789.860    82546925.98249
  22041739.500   115830108.81208  22041743.000    90257237.19347
  23796562.360   125051747.51007  23796565.480    97442916.63444
  20694632.160   108751288.98509  20694637.820    84741404.61149
 15 01 20 13 49 30.0000000  0  9G02G05G06G07G09G10G20G23G30
  21771861.580   114411951.26908  21771862.900    89152204.38247
  23453553.840   123249274.46907  23453558.920    96038423.98846
  21939204.680   115291293.77208  21939212.240    89837398.34648
  20468299.240   107561714.28609  20468302.140    83814374.80249
  21652556.400   113784954.22908  21652561.560    88663623.60348
  20157615.020   105929021.67809  20157618.440    82542129.24949
  22056992.940   115910265.61308  22056996.400    90319696.97647
  23810541.540   125125208.55507  23810544.660    97500158.95044
  20685184.660   108701642.15309  20685190.320    84702718.79549
 15 01 20 13 50  0.0000000  0  9G02G05G06G07G09G10G20G23G30
  21770412.560   114404336.62308  21770413.840    89146270.87147
  23435976.440   123156904.52507  23435981.400    95966447.44646
  21954039.020   115369248.34708  21954046.600    89898142.10748
  20471447.120   107578256.67809  20471450.080    83827264.98249
  21662709.860   113838310.41208  21662714.940    88705199.82048
  20156528.600   105923312.36009  20156532.000    82537680.42649
  22072303.820   115990724.45208  22072307.280    90382392.11647
  23824529.700   125198716.90807  23824532.880    97557438.12645
  20675833.800   108652503.08609  20675839.440    84664428.63149
 15 01 20 13 50 30.0000000  0  9G02G05G06G07G09G10G20G23G30
  21769072.160   114397292.62908  21769073.380    89140782.01847
  23418416.880   123064628.32707  23418421.720    95894543.96746
  21968943.300   115447570.65508  21968950.840    89959172.41348
  20474691.760   107595307.62609  20474694.760    83840551.43349
  21672889.180   113891802.68708  21672894.240    88746882.07848
  20155526.860   105918048.01509  20155530.220    82533578.34049
  22087671.420   116071481.69008  22087675.020    90445319.77147
  23838526.280   125272269.89406  23838529.700    97614752.08745
  20666579.300   108603870.40209  20666584.900    84626533.05649
 15 01 20 13 51  0.0000000  0  9G02G05G06G07G09G10G20G23G30
  21767840.400   114390819.67808  21767841.600    89135738.14448
  23400875.540   122972448.17607  23400880.400    95822715.32946
  21983917.080   115526258.18408  21983924.540    90020487.30848
  20478032.980   107612866.25009  20478036.060    83854233.47549
  21683094.300   113945430.83408  21683099.380    88788670.21348
  20154610.060   105913230.14109  20154613.400    82529824.14449
  22103095.720   116152536.96008  22103099.460    90508479.66647
  23852531.340   125345867.64406  23852535.040    97672100.90945
  20657421.420   108555745.50509  20657426.980    84589033.15649
 15 01 20 13 51 30.0000000  0  9G02G05G06G07G09G10G20G23G30
  21766717.120   114384916.93308  21766718.340    89131138.58247
  23383352.680   122880365.25707  23383357.620    95750962.46246
  21998959.720   115605307.39908  21998967.060    90082084.03347
  20481470.500   107630930.86009  20481473.620    83868309.78849
  21693325.040   113999193.62008  21693330.160    88830563.25748
  20153778.280   105908859.00309  20153781.620    82526418.06849
  22118576.460   116233888.60608  22118580.240    90571870.50647
  23866544.780   125419509.61406  23866548.620    97729484.20345
  20648360.240   108508128.69609  20648365.760    84551929.17049
 15 01 20 13 52  0.0000000  0  9G02G05G06G07G09G10G20G23G30
  21765702.280   114379584.32608  21765703.560    89126983.29147
  23365848.680   122788381.43107  23365853.720    95679286.81147
  22014070.640   115684715.37608  22014077.900    90143960.31148
  20485004.100   107649500.13409  20485007.220    83882779.34349
  21703581.280   114053090.46708  21703586.440    88872560.77148
  20153031.640   105904935.48009  20153035.000    82523360.77649
  22134113.360   116315535.08108  22134117.080    90635491.06046
  23880566.620   125493195.03006  23880570.520    97786901.35945
  20639395.960   108461020.98409  20639401.420    84515221.88049
 15 01 20 13 52 30.0000000  0  9G02G05G06G07G09G10G20G23G30
  21764796.060   114374822.42508  21764797.420    89123272.70548
  23348363.980   122696499.24907  23348369.100    95607690.36547
  22029249.460   115764480.06908  22029256.680    90206114.55047
  20488633.720   107668573.58009  20488636.780    83897641.76049
  21713863.060   114107121.63308  21713868.220    88914662.94648
  20152370.480   105901461.33209  20152373.900    82520653.64749
  22149706.320   116397476.07408  22149709.920    90699341.11846
  23894597.040   125566924.71806  23894600.880    97844353.01244
  20630528.860   108414424.13009  20630534.300    84478912.66249
 15 01 20 13 53  0.0000000  0  9G02G05G06G07G09G10G20G23G30
  21763998.240   114370629.77408  21763999.660    89120005.68848
  23330898.700   122604719.18707  23330903.880    95536173.49346
  22044495.340   115844597.35208  22044502.620    90268543.54048
  20492358.820   107688148.74709  20492361.800    83912895.12949
  21724170.080   114161285.37308  21724175.240    88956868.42048
  20151794.900   105898436.48609  20151798.320    82518296.62449
  22165354.980   116479709.62208  22165358.360    90763419.13746
  23908635.760   125640697.29107  23908639.520    97901838.05345
  20621758.940   108368337.89509  20621764.340    84443001.32649
 15 01 20 13 53 30.0000000  0  9G02G05G06G07G09G10G20G23G30
  21763309.200   114367008.61608  21763310.680    89117183.99447
  23313453.720   122513045.71307  23313458.960    95464739.68546
  22059808.100   115925066.20508  22059815.480    90331246.48348
  20496179.500   107708226.29109  20496182.400    83928539.95849
  21734502.620   114215583.04308  21734507.760    88999178.25048
  20151305.300   105895863.41309  20151308.680    82516291.62449
  22181059.360   116562236.28608  22181062.620    90827725.55846
  23922682.980   125714514.48007  23922686.620    97959357.86445
  20613086.720   108322765.10209  20613092.100    84407490.07849
 15 01 20 13 54  0.0000000  0  9G02G05G06G07G09G10G20G23G30
  21762728.560   114363957.05408  21762730.100    89114806.13748
  23296029.060   122421478.82507  23296034.260    95393388.92846
  22075186.940   116005882.32308  22075194.360    90394220.02448
  20500095.260   107728803.70108  20500098.120    83944574.30149
  21744860.220   114270012.69808  21744865.380    89041590.93348
  20150901.580   105893741.64009  20150904.920    82514638.29449
  22196818.940   116645053.46208  22196822.220    90892258.35946
  23936738.440   125788374.52907  23936741.860    98016911.08044
  20604512.100   108277705.25909  20604517.460    84372378.52849
 15 01 20 13 54 30.0000000  0  9G02G05G06G07G09G10G20G23G30
  21762256.620   114361476.46408  21762258.140    89112873.19047
  23278625.340   122330021.57807  23278630.460    95322123.59846
  22090631.520   116087044.22308  22090639.020    90457463.00247
  20504106.100   107749880.94708  20504108.960    83960998.11349
  21755243.120   114324575.28408  21755248.320    89084107.20048
  20150584.200   105892073.50009  20150587.480    82513338.44549
  22212633.820   116728161.54308  22212637.300    90957017.84346
  23950802.160   125862278.91207  23950805.540    98074498.85145
  20596035.520   108233160.70709  20596040.900    84337668.50849
 15 01 20 13 55  0.0000000  0  9G02G05G06G07G09G10G20G23G30
  21761893.120   114359565.80408  21761894.620    89111384.34947
  23261242.860   122238675.80007  23261247.860    95250945.13046
  22106141.260   116168548.42808  22106148.800    90520972.70647
  20508211.720   107771456.45908  20508214.620    83977810.19449
  21765651.080   114379269.70208  21765656.400    89126726.18948
  20150353.140   105890859.34009  20150356.420    82512392.34249
  22228503.760   116811558.85108  22228507.520    91022002.70147
  23964874.020   125936226.82007  23964877.500    98132120.52244
  20587657.040   108189131.76309  20587662.460    84303360.25449
 15 01 20 13 55 30.0000000  0  9G02G05G06G07G09G10G20G23G30
  21761638.240   114358226.12008  21761639.680    89110340.41948
  23243882.060   122147444.28807  23243886.980    95179855.68946
  22121715.860   116250393.09608  22121723.340    90584747.71547
  20512412.060   107793529.55008  20512414.980    83995010.00349
  21776084.260   114434096.53808  21776089.620    89169448.36648
  20150208.820   105890101.03009  20150212.140    82511801.45349
  22244428.720   116895245.19108  22244432.720    91087212.77547
  23978954.140   126010219.18607  23978957.800    98189776.85645
  20579377.060   108145620.37109  20579382.520    84269455.29449
 15 01 20 13 56  0.0000000  0  9G02G05G06G07G09G10G20G23G30
  21761491.540   114357454.92508  21761492.880    89109739.45947
  23226542.900   122056326.82907  23226547.880    95108855.12446
  22137354.240   116332573.07008  22137361.660    90648783.99147
  20516706.480   107816096.91908  20516709.420    84012594.99149
  21786542.140   114489053.08608  21786547.540    89212271.62048
  20150150.940   105889797.05309  20150154.260    82511564.58849
  22260408.120   116979217.25708  22260412.220    91152645.48947
  23993042.160   126084253.58106  23993046.000    98247465.95245
  20571195.320   108102625.16309  20571200.800    84235952.55749
 15 01 20 13 56 30.0000000  0  9G02G05G06G07G09G10G20G23G30
  21761452.960   114357252.20608  21761454.280    89109581.47447
  23209225.920   121965325.82607  23209230.880    95037945.31246
  22153055.940   116415085.87608  22153063.380    90713079.61247
  20521094.820   107839157.77008  20521097.760    84030564.47949
  21797024.720   114544139.28508  21797030.160    89255195.90648
  20150179.780   105889948.78609  20150183.140    82511682.82449
  22276441.820   117063474.43408  22276445.860    91218300.36446
  24007138.320   126158330.27706  24007142.240    98305187.99344
  20563112.060   108060147.40609  20563117.540    84202853.02849
 15 01 20 13 57  0.0000000  0  9G02G05G06G07G09G10G20G23G30
  21761522.380   114357617.18408  21761523.720    89109865.85447
  23191931.320   121874442.27407  23191936.200    94967127.01446
  22168820.260   116497927.85008  22168827.760    90777631.73048
  20525576.680   107862709.96108  20525579.640    84048916.84049
  21807531.700   114599353.99208  21807537.200    89298220.32948
  20150295.460   105890556.44209  20150298.760    82512156.32049
  22292529.440   117148014.78808  22292533.280    91284175.90346
  24021242.560   126232448.50307  24021246.580    98362942.38345
  20555127.300   108018187.22709  20555132.760    84170156.80649
 15 01 20 13 57 30.0000000  0 10G02G05G06G07G09G10G13G20G23G30
  21761701.600   114358559.00008  21761702.920    89110599.71647
  23174661.360   121783688.17407  23174666.080    94896409.58346
  22184648.480   116581105.73908  22184656.100    90842445.60647
  20530153.640   107886761.97509  20530156.620    84067658.66649
  21818064.920   114654706.42408  21818070.420    89341352.06348
  20150499.940   105891630.65809  20150503.180    82512993.36749
  24761849.700   130124402.19005  24761854.480   101395650.66844
  22308672.480   117232846.83308  22308676.180    91350278.72246
  24035356.620   126306617.80306  24035360.720    98420736.56545
  20547243.020   107976755.09809  20547248.480    84137872.05249
 15 01 20 13 58  0.0000000  0 10G02G05G06G07G09G10G13G20G23G30
  21761984.860   114360047.66708  21761986.220    89111759.70648
  23157410.720   121693035.55407  23157415.360    94825771.23146
  22200534.460   116664587.00708  22200542.180    90907495.88147
  20534819.780   107911282.46908  20534822.760    84086765.54549
  21828618.640   114710166.46508  21828624.180    89384567.65348
  20150787.680   105893142.45309  20150790.840    82514171.38349
  24746620.440   130044371.69205  24746626.040   101333289.34543
  22324865.140   117317939.90408  22324868.780    91416584.94346
  24049474.840   126380808.26006  24049478.700    98478547.24545
  20539453.740   107935822.17109  20539459.180    84105976.28649
 15 01 20 13 58 30.0000000  0 10G02G05G06G07G09G10G13G20G23G30
  21762378.440   114362115.78108  21762379.740    89113371.20347
  23140186.040   121602519.57807  23140190.700    94755239.35146
  22216483.920   116748401.51408  22216491.660    90972805.82147
  20539581.100   107936303.33309  20539584.100    84106262.32849
  21839199.080   114765766.55408  21839204.600    89427892.36748
  20151165.040   105895125.40409  20151168.180    82515716.53549
  24731408.580   129964432.39205  24731414.900   101270998.98841
  22341113.440   117403325.42608  22341117.120    91483119.05246
  24063603.420   126455052.58107  24063606.820    98536399.87744
  20531765.860   107895422.07909  20531771.300    84074495.71749
 15 01 20 13 59  0.0000000  0 10G02G05G06G07G09G10G13G20G23G30
  21762879.820   114364750.40908  21762881.080    89115424.14647
  23122985.320   121512129.56807  23122990.020    94684805.64447
  22232493.880   116832533.92808  22232501.560    91038363.47947
  20544435.020   107961810.65509  20544437.980    84126138.17249
  21849803.720   114821493.83208  21849809.180    89471316.18948
  20151629.780   105897567.87309  20151632.980    82517619.75449
  24716211.760   129884572.17005  24716217.920   101208770.30443
  22357414.880   117488989.91108  22357418.660    91549870.52946
  24077739.900   126529338.42707  24077742.840    98594284.90944
  20524177.160   107855543.13109  20524182.560    84043421.23649
 15 01 20 13 59 30.0000000  0 10G02G05G06G07G09G10G13G20G23G30
  21763489.220   114367952.34708  21763490.360    89117919.13747
  23105809.180   121421868.70807  23105813.980    94614472.57146
  22248563.920   116916982.35108  22248571.580    91104167.36747
  20549381.400   107987803.92909  20549384.320    84146392.67749
  21860432.700   114877348.90808  21860438.040    89514839.60548
  20152182.320   105900471.81109  20152185.620    82519882.56149
  24701029.940   129804792.08705  24701036.280   101146604.05543
  22373769.440   117574933.23108  22373773.300    91616839.27746
  24091884.300   126603666.93107  24091887.140    98652203.13344
  20516687.940   107816187.12409  20516693.300    84012754.24749
 15 01 20 14 00  0.0000000  0 10G02G05G06G07G09G10G13G20G23G30
  21764206.340   114371720.57208  21764207.480    89120855.39148
  23088657.960   121331738.82007  23088662.820    94544241.55847
  22264693.480   117001743.53508  22264701.080    91170214.97147
  20554419.860   108014281.21209  20554422.760    84167024.32849
  21871085.800   114933331.10808  21871091.120    89558462.06848
  20152822.780   105903837.85008  20152826.160    82522505.44149
  24685863.360   129725091.91705  24685870.060   101084500.08442
  22390176.840   117661153.91408  22390180.740    91684024.17346
  24106036.600   126678037.57006  24106039.500    98710154.21145
  20509298.320   107777354.46709  20509303.620    83982495.05449
 15 01 20 14 00 30.0000000  0 10G02G05G06G07G09G10G13G20G23G30
  21765031.160   114376054.84708  21765032.340    89124232.72547
  23071532.080   121241741.60007  23071536.860    94474113.91246
  22280882.000   117086814.57108  22280889.520    91236504.01247
  20559550.220   108041241.59108  20559553.100    84188032.41849
  21881762.940   114989440.03608  21881768.320    89602183.27348
  20153551.320   105907666.56909  20153554.760    82525488.85449
  24670712.020   129645471.89205  24670718.820   101022458.50443
  22406636.800   117747650.99408  22406640.780    91751424.42246
  24120196.800   126752450.03106  24120199.680    98768137.89544
  20502008.420   107739045.91009  20502013.680    83952644.25749
 15 01 20 14 01  0.0000000  0 10G02G05G06G07G09G10G13G20G23G30
  21765963.420   114380954.01708  21765964.660    89128050.23747
  23054431.740   121151878.63808  23054436.420    94404090.87846
  22297128.780   117172191.88408  22297136.260    91303031.71747
  20564772.120   108068682.98708  20564775.000    84209415.32349
  21892463.960   115045674.71508  21892469.440    89646002.47748
  20154367.940   105911958.19908  20154371.420    82528832.97149
  24655575.900   129565931.51005  24655582.760   100960479.05344
  22423148.920   117834422.47308  22423152.940    91819038.49246
  24134364.800   126826903.65906  24134367.700    98826153.61644
  20494818.240   107701261.54009  20494823.520    83923201.91149
 15 01 20 14 01 30.0000000  0 10G02G05G06G07G09G10G13G20G23G30
  21767002.960   114386417.17508  21767004.320    89132307.21947
  23037357.240   121062151.68508  23037361.860    94334173.83546
  22313433.260   117257871.94508  22313440.720    91369795.32647
  20570085.120   108096603.17108  20570088.020    84231171.31049
  21903188.760   115102034.17608  21903194.300    89689918.91848
  20155272.740   105916712.87709  20155276.220    82532537.90649
  24640454.900   129486470.25505  24640461.480   100898561.24343
  22439712.780   117921466.34207  22439716.820    91886864.81146
  24148540.420   126901397.98106  24148543.620    98884201.04144
  20487727.840   107664001.40509  20487733.140    83894168.05649
 15 01 20 14 02  0.0000000  0 10G02G05G06G07G09G10G13G20G23G30
  21768149.800   114392444.25908  21768151.300    89137003.63447
  23020309.120   120972563.28608  23020313.660    94264364.74646
  22329794.920   117343852.57308  22329802.460    91436793.14447
  20575489.120   108125001.61908  20575492.080    84253299.96649
  21913937.440   115158518.80508  21913943.020    89733932.89048
  20156265.960   105921932.10709  20156269.380    82536604.82649
  24625349.080   129407088.92405  24625355.840   100836705.70641
  22456328.300   118008782.45307  22456332.400    91954903.27446
  24162723.960   126975933.84806  24162727.640    98942280.93246
  20480737.460   107627266.96809  20480742.860    83865543.83949
 15 01 20 14 02 30.0000000  0 10G02G05G06G07G09G10G13G20G23G30
  21769403.640   114399033.45108  21769405.220    89142138.04747
  23003287.440   120883114.16408  23003291.960    94194664.19346
  22346212.920   117430129.34908  22346220.560    91504021.72448
  20580983.560   108153875.29408  20580986.580    84275798.91949
  21924709.640   115215126.82508  21924715.220    89778043.01348
  20157347.460   105927615.08109  20157350.780    82541033.10149
  24610258.260   129327786.46905  24610264.940   100774911.65942
  22472995.100   118096367.84007  22472999.220    92023151.55246
  24176915.120   127050509.59106  24176919.080    99000391.83445
  20473846.980   107591057.37209  20473852.420    83837328.58649
 15 01 20 14 03  0.0000000  0 10G02G05G06G07G09G10G13G20G23G30
  21770764.500   114406184.94008  21770766.140    89147710.61347
  22986292.840   120793807.11408  22986297.300    94125074.33746
  22362686.820   117516700.07008  22362694.620    91571479.35547
  20586568.360   108183223.51608  20586571.400    84298667.65149
  21935505.440   115271858.54108  21935511.000    89822249.51248
  20158517.480   105933763.42509  20158520.800    82545824.00549
  24595182.600   129248563.56405  24595189.120   100713179.65443
  22489713.180   118184222.34307  22489717.300    92091609.53046
  24191114.100   127125125.74306  24191117.960    99058534.24544
  20467056.660   107555374.00209  20467062.120    83809523.37749
 15 01 20 14 03 30.0000000  0 10G02G05G06G07G09G10G13G20G23G30
  21772232.220   114413897.65808  21772233.860    89153720.49847
  22969325.680   120704644.21808  22969330.080    94055596.81146
  22379215.980   117603561.29208  22379223.900    91639163.34747
  20592243.180   108213044.42309  20592246.140    84321904.70849
  21946324.640   115328713.23208  21946330.200    89866551.83848
  20159776.140   105940377.62309  20159779.480    82550977.91349
  24580121.940   129169419.84505  24580128.420   100651509.29744
  22506482.320   118272344.22207  22506486.340    92160275.86446
  24205320.840   127199782.29206  24205324.660    99116708.09845
  20460366.520   107520216.99209  20460371.960    83782128.32149
 15 01 20 14 04  0.0000000  0 10G02G05G06G07G09G10G13G20G23G30
  21773806.580   114422170.67308  21773808.200    89160166.97747
  22952386.240   120615626.98108  22952390.640    93986232.79846
  22395799.860   117690709.94908  22395807.820    91707071.31547
  20598007.600   108243336.20609  20598010.460    84345508.67749
  21957167.160   115385690.44408  21957172.680    89910949.64348
  20161123.460   105947457.88509  20161126.840    82556494.98849
  24565076.400   129090355.40005  24565082.560   100589900.75443
  22523302.200   118360732.32107  22523306.160    92229149.63446
  24219535.260   127274478.42507  24219539.060    99174912.82144
  20453776.600   107485586.81009  20453782.060    83755143.78449
 15 01 20 14 04 30.0000000  0 10G02G05G06G07G09G10G13G20G23G30
  21775487.620   114431004.10708  21775489.160    89167050.15047
  22935475.060   120526758.24308  22935479.480    93916984.49646
  22412437.980   117778143.62907  22412445.920    91775201.37647
  20603861.500   108274098.22109  20603864.280    84369479.06349
  21968032.980   115442790.33308  21968038.440    89955443.03848
  20162559.740   105955005.55809  20162563.160    82562376.27949
  24550045.960   129011370.65105  24550052.020   100528354.33644
  22540172.660   118449385.64708  22540176.560    92298230.06546
  24233757.460   127349215.01406  24233760.860    99233149.06744
  20447287.140   107451484.54409  20447292.600    83728570.60849
 15 01 20 14 05  0.0000000  0 10G02G05G06G07G09G10G13G20G23G30
  21777275.260   114440397.76908  21777276.700    89174369.85647
  22918592.580   120438040.41707  22918596.980    93847853.78246
  22429129.880   117865859.86908  22429137.740    91843551.60747
  20609804.620   108305329.26009  20609807.340    84393814.92349
  21978922.060   115500013.10508  21978927.620    90000032.18748
  20164085.220   105963021.90709  20164088.660    82568622.77149
  24535030.920   128932466.56205  24535037.080   100466870.76743
  22557093.460   118538303.56908  22557097.360    92367516.69346
  24247987.320   127423992.40607  24247990.220    99291417.07244
  20440898.340   107417911.26809  20440903.780    83702409.63249
 15 01 20 14 05 30.0000000  0 10G02G05G06G07G09G10G13G20G23G30
  21779169.220   114450350.40408  21779170.600    89182125.13147
  22901739.140   120349475.27008  22901743.540    93778842.03347
  22445874.920   117953855.12308  22445882.680    91912119.24047
  20615836.520   108337027.14508  20615839.260    84418514.55549
  21989834.300   115557357.89108  21989839.940    90044716.41348
  20165699.900   105971506.86109  20165703.300    82575234.41149
  24520031.160   128853642.44605  24520037.320   100405449.49443
  22574064.160   118627484.35907  22574068.160    92437008.13346
  24262224.840   127498810.20106  24262227.400    99349716.64145
  20434610.180   107384866.91909  20434615.600    83676660.80249
 15 01 20 14 06  0.0000000  0 10G02G05G06G07G09G10G13G20G23G30
  21781169.380   114460861.43208  21781170.760    89190315.51447
  22884915.140   120261064.95808  22884919.580    93709950.94446
  22462672.500   118042126.46007  22462680.200    91980902.01147
  20621956.920   108369190.36608  20621959.720    84443576.78749
  22000769.780   115614824.39508  22000775.440    90089495.48648
  20167403.980   105980461.47809  20167407.320    82582212.02249
  24505046.640   128774898.59605  24505052.960   100344090.72843
  22591084.540   118716926.57607  22591088.660    92506703.30046
  24276470.020   127573668.59606  24276472.480    99408047.71744
  20428422.800   107352352.05509  20428428.200    83651324.56049
 15 01 20 14 06 30.0000000  0 10G02G05G06G07G09G10G13G20G23G30
  21783275.760   114471930.85608  21783277.220    89198941.01947
  22868121.240   120172812.77008  22868125.680    93641183.07146
  22479522.260   118130671.98208  22479529.960    92049898.43947
  20628165.880   108401818.75008  20628168.720    84469001.48349
  22011728.600   115672413.44308  22011734.280    90134370.04948
  20169197.660   105989887.04909  20169200.960    82589556.60649
  24490077.520   128696235.98505  24490083.940   100282795.30043
  22608154.580   118806630.41507  22608158.820    92576602.32346
  24290722.920   127648568.15405  24290725.480    99466410.95544
  20422336.480   107320368.22409  20422341.860    83626402.11149
 15 01 20 14 07  0.0000000  0 10G02G05G06G07G09G10G13G20G23G30
  21785488.060   114483556.81808  21785489.640    89208000.19247
  22851357.500   120084719.00508  22851361.900    93572538.64047
  22496423.300   118219487.08907  22496431.060    92119104.92647
  20634462.700   108434908.97808  20634465.600    84494786.06449
  22022710.400   115730123.07608  22022716.080    90179338.57148
  20171080.760   105999782.76109  20171084.040    82597267.53549
  24475123.680   128617653.38305  24475130.100   100221562.20844
  22625273.780   118896592.82307  22625278.060    92646702.82346
  24304983.120   127723507.48506  24304986.000    99524805.12044
  20416351.020   107288914.27009  20416356.360    83601892.55549
 15 01 20 14 07 30.0000000  0 10G02G05G06G07G09G10G13G20G23G30
  21787806.280   114495739.14908  21787807.940    89217492.89347
  22834624.520   119996786.86508  22834628.920    93504020.15747
  22513375.200   118308569.65708  22513383.060    92188519.82847
  20640847.260   108468460.18008  20640850.200    84520929.84449
  22033715.320   115787953.90308  22033720.940    90224401.52948
  20173053.580   106010149.94809  20173056.840    82605345.85049
  24460185.140   128539151.50105  24460191.820   100160392.00044
  22642442.080   118986813.22407  22642446.280    92717004.35246
  24319251.000   127798487.55306  24319254.020    99583231.08644
  20410466.620   107257991.51309  20410471.960    83577796.91249
 15 01 20 14 08  0.0000000  0 10G02G05G06G07G09G10G13G20G23G30
  21790229.640   114508473.58808  21790231.260    89227415.79747
  22817922.080   119909015.13708  22817926.500    93435626.66446
  22530376.800   118397913.30508  22530384.720    92258138.17147
  20647318.680   108502467.67708  20647321.600    84547429.17849
  22044742.600   115845902.18308  22044748.100    90269556.01048
  20175115.560   106020985.92809  20175118.860    82613789.45749
  24445261.460   128460727.49305  24445268.160   100099282.48243
  22659658.700   119077286.99707  22659662.720    92787503.31645
  24333526.160   127873504.70306  24333529.500    99641685.94743
  20404682.740   107227596.96309  20404688.060    83554112.86649
 15 01 20 14 08 30.0000000  0 11G02G05G06G07G09G10G13G20G23G28G30
  21792758.840   114521763.96608  21792760.360    89237771.90347
  22801251.480   119821410.83708  22801255.920    93367363.63847
  22547428.460   118487519.83108  22547436.380    92327961.34747
  20653877.520   108536934.45108  20653880.400    84574286.39849
  22055793.060   115903972.44508  22055798.500    90314805.55348
  20177267.780   106032296.09909  20177271.100    82622602.56549
  24430353.500   128382385.87405  24430360.080   100038237.13843
  22676924.320   119168017.94607  22676928.200    92858202.67546
  24347809.480   127948563.80606  24347813.260    99700173.52744
  24301751.700   127706570.56304  24301768.760    99511668.10843
  20399000.340   107197735.77909  20399005.700    83530844.42549
 15 01 20 14 09  0.0000000  0 11G02G05G06G07G09G10G13G20G23G28G30
  21795392.520   114535603.25708  21795393.900    89248555.73347
  22784611.940   119733969.97608  22784616.420    93299227.96647
  22564528.400   118577380.11007  22564536.280    92397982.24547
  20660522.300   108571852.80908  20660525.160    84601495.50049
  22066865.420   115962158.32108  22066870.900    90360145.17048
  20179509.180   106044074.88609  20179512.540    82631780.83149
  24415460.080   128304120.39205  24415466.660    99977251.09543
  22694237.440   119258998.32207  22694241.240    92929096.38346
  24362099.660   128023658.95705  24362103.860    99758689.21845
  24284423.580   127615514.34105  24284440.920    99440717.02244
  20393418.320   107168402.26009  20393423.720    83507987.15249
 15 01 20 14 09 30.0000000  0 11G02G05G06G07G09G10G13G20G23G28G30
  21798131.800   114549997.75308  21798133.060    89259772.18747
  22768005.240   119646701.38408  22768009.740    93231226.52547
  22581677.340   118667497.82007  22581685.140    92468203.74547
  20667253.920   108607227.58208  20667256.780    84629060.24849
  22077960.980   116020466.19508  22077966.500    90405579.86748
  20181841.140   106056329.49409  20181844.520    82641329.86349
  24400582.400   128225938.13105  24400589.080    99916329.94143
  22711599.120   119350233.74107  22711602.940    93000188.83146
  24376398.120   128098796.89406  24376402.200    99817238.14045
  24267089.140   127524428.62505  24267107.040    99369742.91044
  20387938.040   107139603.39709  20387943.480    83485546.49149
 15 01 20 14 10  0.0000000  0 11G02G05G06G07G09G10G13G20G23G28G30
  21800975.340   114564940.63608  21800976.580    89271415.95747
  22751430.720   119559601.71408  22751435.180    93163356.70647
  22598873.540   118757864.54007  22598881.360    92538619.27247
  20674071.060   108643051.89709  20674073.920    84656975.28249
  22089078.680   116078890.37908  22089084.220    90451105.19448
  20184262.760   106069055.10909  20184266.160    82651245.91649
  24385719.540   128147833.97605  24385726.120    99855469.59743
  22729007.940   119441717.13007  22729011.920    93071474.50946
  24390703.780   128173971.80006  24390707.720    99875815.95444
  24249748.780   127433310.96805  24249766.700    99298743.79743
  20382558.520   107111334.12509  20382563.980    83463518.49849
 15 01 20 14 10 30.0000000  0 11G02G05G06G07G09G10G13G20G23G28G30
  21803923.400   114580433.18708  21803924.740    89283488.04847
  22734889.220   119472675.55508  22734893.560    93095622.09247
  22616116.840   118848479.31607  22616124.860    92609228.08847
  20680973.840   108679326.16109  20680976.720    84685240.94149
  22100218.840   116137432.66708  22100224.460    90496722.54747
  20186774.560   106082254.38709  20186777.960    82661531.05349
  24370872.020   128069809.93705  24370878.280    99794671.70444
  22746464.020   119533449.52807  22746468.340    93142954.22246
  24405016.840   128249185.96406  24405020.580    99934424.32843
  24232403.440   127342166.69505  24232421.500    99227723.86842
  20377280.260   107083596.83109  20377285.720    83441905.03249
 15 01 20 14 11  0.0000000  0 11G02G05G06G07G09G10G13G20G23G28G30
  21806976.040   114596475.43408  21806977.520    89295988.47747
  22718381.280   119385925.86608  22718385.540    93028024.98547
  22633406.920   118939339.99307  22633415.140    92680028.53047
  20687962.140   108716049.64209  20687965.000    84713856.63849
  22111381.640   116196093.67908  22111387.260    90542432.40948
  20189376.760   106095928.69109  20189380.140    82672186.35149
  24356040.000   127991867.17205  24356045.860    99733937.15844
  22763967.360   119625430.47407  22763972.000    93214627.61046
  24419337.460   128324440.33706  24419341.200    99993063.96645
  24215053.680   127250999.12605  24215071.600    99156685.72341
  20372103.460   107056392.65009  20372108.920    83420706.97749
 15 01 20 14 11 30.0000000  0 11G02G05G06G07G09G10G13G20G23G28G30
  21810133.180   114613066.68908  21810134.760    89308916.69647
  22701907.380   119299355.08408  22701911.600    92960567.28847
  22650743.440   119030444.02607  22650751.800    92751018.59547
  20695035.640   108753220.78909  20695038.440    84742821.16349
  22122567.120   116254873.56808  22122572.660    90588234.90348
  20192069.480   106110078.80409  20192072.820    82683212.40149
  24341223.440   127914006.12805  24341229.240    99673266.24143
  22781517.820   119717659.10007  22781522.740    93286493.98846
  24433665.720   128399735.09706  24433669.120   100051735.16644
  24197700.080   127159811.56505  24197717.780    99085631.96344
  20367028.240   107029722.28409  20367033.720    83399924.88449
 15 01 20 14 12  0.0000000  0 11G02G05G06G07G09G10G13G20G23G28G30
  21813394.040   114630202.53808  21813395.660    89322269.26847
  22685467.260   119212961.82808  22685471.460    92893247.91947
  22668125.220   119121785.00307  22668133.560    92822193.28647
  20702193.400   108790834.83509  20702196.200    84772130.81049
  22133774.560   116313768.71608  22133780.060    90634127.20848
  20194852.180   106124701.80209  20194855.480    82694606.94049
  24326421.800   127836223.15605  24326427.600    99612656.24843
  22799114.580   119810130.61407  22799119.500    93358549.62946
  24448001.020   128475067.18706  24448004.160   100110435.40643
  24180342.800   127068603.60305  24180358.140    99014562.16141
  20362054.040   107003582.61809  20362059.500    83379556.31949
 15 01 20 14 12 30.0000000  0 11G02G05G06G07G09G10G13G20G23G28G30
  21816758.340   114647881.69108  21816759.940    89336045.19347
  22669061.320   119126748.34408  22669065.560    92826068.63847
  22685551.560   119213359.60607  22685559.760    92893550.01347
  20709435.040   108828890.05708  20709437.880    84801784.22649
  22145003.840   116372778.59708  22145009.320    90680108.92148
  20197724.880   106139797.87409  20197728.180    82706370.10349
  24311635.180   127758518.39905  24311640.940    99552107.11944
  22816757.280   119902843.12607  22816762.040    93430793.06245
  24462344.060   128550468.17806  24462346.880   100169210.46243
  24162982.300   126977377.75305  24162996.920    98943478.36144
  20357180.800   106977973.55109  20357186.220    83359601.20449
 15 01 20 14 13  0.0000000  0 11G02G05G06G07G09G10G13G20G23G28G30
  21820227.640   114666112.28908  21820229.140    89350250.82147
  22652691.840   119040726.18608  22652696.040    92759038.43647
  22703023.580   119305173.95607  22703031.580    92965093.56547
  20716761.980   108867393.58109  20716764.860    84831786.96549
  22156256.620   116431912.12708  22156262.140    90726186.98448
  20200689.400   106155376.62109  20200692.680    82718509.37949
  24296865.220   127680901.34205  24296871.040    99491626.36744
  22834447.440   119995804.49607  22834451.860    93503230.40546
  24476693.900   128625883.31006  24476697.540   100227975.39444
  24145620.720   126886145.76605  24145635.480    98872389.74344
  20352410.320   106952904.45409  20352415.700    83340066.84749
 15 01 20 14 13 30.0000000  0 11G02G05G06G07G09G10G13G20G23G28G30
  21823799.220   114684880.47508  21823800.620    89364875.35047
  22636356.660   118954884.58208  22636360.880    92692148.94047
  22720538.080   119397212.16907  22720545.960    93036811.53647
  20724171.480   108906330.75308  20724174.340    84862127.61949
  22167530.400   116491156.14608  22167536.000    90772351.14448
  20203743.400   106171425.50209  20203746.620    82731014.99249
  24282109.360   127603358.86905  24282115.260    99431203.73444
  22852182.320   120089000.72707  22852186.380    93575850.76845
  24491050.820   128701331.84906  24491054.800   100286766.41143
  24128256.240   126794898.22905  24128269.520    98801288.87445
  20347740.160   106928362.60309  20347745.520    83320943.33349
 15 01 20 14 14  0.0000000  0 11G02G05G06G07G09G10G13G20G23G28G30
  21827473.860   114704190.64108  21827475.240    89379922.19747
  22620057.300   118869231.22208  22620061.520    92625406.12447
  22738095.540   119489476.81807  22738103.360    93108705.96147
  20731664.220   108945705.37508  20731667.040    84892809.15949
  22178826.200   116550516.08808  22178831.880    90818605.63548
  20206888.000   106187950.53109  20206891.220    82743891.62849
  24267368.780   127525896.66905  24267374.760    99370843.67144
  22869962.620   120182436.13507  22869966.440    93648657.49045
  24505415.500   128776819.11406  24505419.840   100345587.61644
  24110890.560   126703643.63406  24110903.080    98730182.48343
  20343171.420   106904353.83309  20343176.800    83302235.20849
 15 01 20 14 14 30.0000000  0 11G02G05G06G07G09G10G13G20G23G28G30
  21831251.580   114724042.82308  21831253.020    89395391.39847
  22603794.420   118783769.72308  22603798.680    92558812.80547
  22755695.640   119581966.17607  22755703.580    93180775.49247
  20739240.140   108985517.20408  20739242.920    84923831.35749
  22190144.140   116609992.98708  22190149.960    90864951.26248
  20210123.540   106204953.33009  20210126.740    82757140.55449
  24252643.740   127448516.05105  24252649.680    99310547.15144
  22887788.240   120276110.52907  22887792.100    93721650.43445
  24519787.920   128852346.57306  24519792.260   100404440.13244
  24093524.240   126612386.00405  24093536.860    98659073.64243
  20338704.400   106880879.54509  20338709.760    83283943.56449
 15 01 20 14 15  0.0000000  0 11G02G05G06G07G09G10G13G20G23G28G30
  21835131.740   114744433.52208  21835133.280    89411280.22247
  22587568.000   118698499.81508  22587572.360    92492368.79147
  22773337.440   119674674.77007  22773345.580    93253015.84947
  20746898.400   109025761.85008  20746901.200    84955190.81749
  22201483.960   116669584.20408  22201489.800    90911385.96047
  20213449.680   106222432.17209  20213452.880    82770760.42449
  24237933.660   127371215.05705  24237939.760    99250312.70044
  22905658.500   120370019.80807  22905662.600    93794826.40345
  24534167.740   128927912.01206  24534172.080   100463322.16644
  24076157.360   126521125.75205  24076169.000    98587962.74345
  20334338.680   106857937.41809  20334344.020    83266066.59449
 15 01 20 14 15 30.0000000  0 11G02G05G06G07G09G10G13G20G23G28G30
  21839114.480   114765363.23008  21839116.100    89427589.06747
  22571378.920   118613425.74708  22571383.360    92426077.36647
  22791020.760   119767601.40707  22791029.100    93325426.10947
  20754639.080   109066439.57108  20754641.880    84986887.74349
  22212845.940   116729291.34708  22212851.660    90957910.99048
  20216866.800   106240389.12409  20216870.000    82784752.84149
  24223238.940   127293995.20405  24223245.320    99190141.44144
  22923573.580   120464164.56707  22923578.000    93868185.87046
  24548555.160   129003516.89806  24548559.180   100522235.00544
  24058790.840   126429867.85505  24058802.640    98516853.56944
  20330074.580   106835529.39009  20330079.900    83248605.80549
 15 01 20 14 16  0.0000000  0 11G02G05G06G07G09G10G13G20G23G28G30
  21843199.340   114786829.26108  21843201.000    89444315.81847
  22555227.220   118528547.98008  22555231.680    92359938.91647
  22808744.740   119860741.31107  22808753.180    93398002.54747
  20762461.520   109107546.99408  20762464.380    85018919.48749
  22224229.680   116789112.50308  22224235.180    91004524.86347
  20220374.600   106258822.73009  20220377.820    82799116.68349
  24208559.440   127216855.04805  24208565.900    99130032.30344
  22941533.000   120558541.86407  22941537.680    93941726.52446
  24562949.840   129079159.81005  24562953.820   100581177.42945
  24041425.080   126338613.42605  24041436.120    98445747.11443
  20325911.800   106813653.79909  20325917.080    83231559.90349
 15 01 20 14 16 30.0000000  0 10G02G05G06G07G09G10G13G20G28G30
  21847385.720   114808828.27708  21847387.300    89461457.86347
  22539112.920   118443866.78808  22539117.340    92293953.63347
  22826508.460   119954089.52307  22826516.880    93470741.31547
  20770365.040   109149080.31908  20770367.920    85051283.11349
  22235634.660   116849045.47508  22235640.040    91051225.85747
  20223972.760   106277731.29109  20223976.040    82813850.62049
  24193894.820   127139792.60405  24193901.160    99069983.72144
  22959536.120   120653148.21007  22959540.960    94015445.66545
  24024060.120   126247363.43905  24024070.480    98374644.02143
  20321849.960   106792308.72609  20321855.240    83214927.39249
 15 01 20 14 17  0.0000000  0 10G02G05G06G07G09G10G13G20G28G30
  21851674.640   114831366.06308  21851676.140    89479019.72747
  22523037.800   118359391.62808  22523042.140    92228128.89647
  22844312.600   120047649.88807  22844320.900    93543645.37947
  20778350.620   109191044.68608  20778353.520    85083982.60748
  22247062.160   116909096.97508  22247067.480    91098019.20747
  20227662.680   106297122.15109  20227666.040    82828960.37549
  24179246.480   127062815.07905  24179252.540    99010001.28344
  22977583.940   120747989.08007  22977588.800    94089347.55846
  24006697.960   126156127.84405  24006708.660    98303552.17344
  20317890.420   106771501.12909  20317895.660    83198713.69349
 15 01 20 14 17 30.0000000  0 10G02G05G06G07G09G10G13G20G28G30
  21856064.680   114854435.19508  21856066.080    89496995.63147
  22507001.080   118275118.05108  22507005.260    92162461.22747
  22862155.320   120141413.16807  22862163.520    93616707.56346
  20786416.600   109233431.51008  20786419.520    85117011.28949
  22258510.920   116969260.60508  22258516.300    91144899.93047
  20231443.260   106316989.30909  20231446.640    82844441.27849
  24164613.080   126985916.29805  24164619.120    98950080.21043
  22995674.920   120843056.75707  22995679.720    94163426.17946
  23989337.900   126064903.15305  23989348.560    98232468.70243
  20314032.000   106751224.83209  20314037.180    83182913.99149
 15 01 20 14 18  0.0000000  0 10G02G05G06G07G09G10G13G20G28G30
  21860556.000   114878036.95208  21860557.380    89515386.56247
  22491003.700   118191051.35408  22491007.820    92096954.76347
  22880036.580   120235379.13307  22880044.680    93689927.67846
  20794563.220   109276242.12508  20794566.140    85150370.19349
  22269981.460   117029538.92308  22269986.920    91191870.02747
  20235315.080   106337335.78409  20235318.420    82860295.66649
  24149995.260   126909098.88806  24150001.160    98890222.51743
  23013809.280   120938352.80807  23013813.980    94237682.74245
  23971981.080   125973695.22606  23971991.600    98161398.29444
  20310275.200   106731482.58909  20310280.320    83167530.43749
 15 01 20 14 18 30.0000000  0 10G02G05G06G07G09G10G13G20G28G30
  21865148.060   114902168.23808  21865149.460    89534190.11247
  22475045.800   118107192.05508  22475049.840    92031609.90647
  22897955.380   120329542.85707  22897963.460    93763301.89247
  20802789.800   109319472.90808  20802792.700    85184056.50949
  22281473.440   117089929.90908  22281478.960    91238927.92447
  20239277.880   106358160.38409  20239281.220    82876522.61849
  24135392.640   126832361.66005  24135398.600    98830427.34444
  23031986.420   121033873.74507  23031990.960    94312114.53945
  23954627.460   125882505.18905  23954638.020    98090341.83744
  20306619.620   106712272.53109  20306624.740    83152561.57749
 15 01 20 14 19  0.0000000  0 10G02G05G06G07G09G10G13G20G28G30
  21869840.740   114926828.52708  21869842.240    89553405.89147
  22459127.900   118023543.07308  22459131.940    91966428.93747
  22915911.400   120423902.11707  22915919.500    93836828.45946
  20811096.180   109363123.01109  20811099.060    85218069.55849
  22292986.960   117150434.20308  22292992.560    91286074.09948
  20243331.840   106379464.00109  20243335.160    82893122.83349
  24120805.360   126755704.97105  24120811.420    98770694.93444
  23050206.200   121129619.13607  23050210.500    94386721.24645
  23937278.160   125791336.85105  23937288.640    98019302.23944
  20303065.460   106693595.40709  20303070.600    83138007.99049
 15 01 20 14 19 30.0000000  0 10G02G05G06G07G09G10G13G20G28G30
  21874633.940   114952017.54908  21874635.660    89573033.66347
  22443250.660   117940107.92108  22443254.720    91901414.58847
  22933904.240   120518454.94807  22933912.400    93910505.87146
  20819482.160   109407191.43609  20819485.040    85252408.58149
  22304522.200   117211052.64608  22304527.920    91333309.22347
  20247477.180   106401247.85409  20247480.460    82910097.25649
  24106233.660   126679129.95505  24106239.600    98711026.12844
  23068468.480   121225588.38807  23068472.580    94461502.38645
  23919933.500   125700194.05905  23919944.180    97948282.56643
  20299612.880   106675452.20209  20299618.080    83123870.44549
 15 01 20 14 20  0.0000000  0 10G02G05G06G07G09G10G13G20G28G30
  21879527.000   114977731.08408  21879528.920    89593070.14747
  22427414.000   117856886.12108  22427418.080    91836566.49147
  22951932.800   120613195.51007  22951941.080    93984329.55647
  20827946.920   109451673.87409  20827949.800    85287070.20049
  22316078.720   117271782.31108  22316084.360    91380631.01147
  20251713.420   106423509.41409  20251716.720    82927443.92049
  24091677.000   126602633.98005  24091682.740    98651418.93043
  23086772.700   121321777.36707  23086776.640    94536454.74245
  23902593.680   125609077.01005  23902604.640    97877282.86345
  20296261.360   106657840.03209  20296266.620    83110146.69449
 15 01 20 14 20 30.0000000  0 10G02G05G06G07G09G10G13G20G28G30
  21884520.140   115003970.13308  21884522.140    89613516.11647
  22411618.760   117773882.11308  22411622.880    91771888.09748
  22969997.060   120708123.07007  22970005.380    94058298.95846
  20836490.480   109496570.31209  20836493.340    85322054.42749
  22327656.840   117332625.32408  22327662.400    91428041.12047
  20256041.000   106446250.94009  20256044.320    82945164.58249
  24077135.740   126526219.78105  24077141.480    98591875.46244
  23105118.940   121418187.06407  23105122.820    94611579.08445
  23885259.940   125517991.16205  23885271.300    97806307.50544
  20293011.300   106640761.08309  20293016.600    83096838.43749
 15 01 20 14 21  0.0000000  0 10G02G05G06G07G09G10G13G20G28G30
  21889612.720   115030731.42708  21889614.720    89634369.02647
  22395865.060   117691096.46208  22395869.200    91707379.84748
  22988096.060   120803232.90307  22988104.380    94132410.39447
  20845112.180   109541877.59408  20845115.080    85357358.78048
  22339256.260   117393579.81808  22339261.620    91475538.08147
  20260459.640   106469470.96609  20260462.940    82963258.10049
  24062609.700   126449885.55405  24062615.420    98532394.30744
  23123506.520   121514814.05507  23123510.520    94686872.74145
  23867932.380   125426937.75906  23867943.980    97735357.44244
  20289862.380   106624213.55209  20289867.720    83083944.27549
 15 01 20 14 21 30.0000000  0 10G02G05G06G07G09G10G13G20G28G30
  21894804.340   115058012.87308  21894806.260    89655627.24647
  22380153.400   117608531.34708  22380157.540    91643043.44948
  23006229.080   120898521.66207  23006237.460    94206661.24646
  20853811.600   109587593.26008  20853814.500    85392981.35848
  22350876.760   117454645.32208  22350881.940    91523121.54447
  20264969.360   106493169.71209  20264972.680    82981724.64749
  24048098.900   126373631.02705  24048104.840    98472975.23244
  23141935.200   121611656.69507  23141939.400    94762334.44746
  23850611.700   125335919.40706  23850623.420    97664434.68744
  20286814.520   106608196.94509  20286819.880    83071463.82049
 15 01 20 14 22  0.0000000  0 10G02G05G06G07G09G10G13G20G28G30
  21900094.760   115085813.64808  21900096.620    89677290.13647
  22364484.180   117526189.24808  22364488.320    91578880.82348
  23024395.520   120993986.47807  23024404.000    94281049.27447
  20862588.380   109633715.56608  20862591.300    85428920.79748
  22362518.360   117515821.91208  22362523.420    91570791.57947
  20269570.220   106517347.34009  20269573.560    83000564.34749
  24033603.340   126297456.51905  24033609.320    98413618.52345
  23160404.620   121708713.54007  23160409.080    94837963.05145
  23833298.440   125244939.47206  23833309.920    97593541.86644
  20283867.700   106592711.31709  20283873.040    83059397.11349
 15 01 20 14 22 30.0000000  0 10G02G05G06G07G09G10G13G20G28G30
  21905484.000   115114134.02708  21905485.800    89699357.91947
  22348858.060   117444073.79108  22348862.260    91514894.81048
  23042595.140   121089625.83507  23042603.660    94355573.31546
  20871442.480   109680244.25708  20871445.420    85465176.89748
  22374181.280   117577110.84408  22374186.320    91618549.15047
  20274262.520   106542005.41909  20274265.820    83019778.42249
  24019123.260   126221363.52105  24019129.300    98354325.33644
  23178914.840   121805984.92907  23178919.660    94913758.84545
  23815993.340   125154002.10806  23816004.800    97522682.22544
  20281022.160   106577757.92209  20281027.460    83047745.13449
 15 01 20 14 23  0.0000000  0 10G02G05G06G07G09G10G13G20G28G30
  21910971.340   115142970.39308  21910973.100    89721827.76447
  22333275.260   117362185.78908  22333279.480    91451086.03548
  23060827.020   121185435.15907  23060835.640    94430229.79147
  20880373.260   109727175.82008  20880376.200    85501746.92448
  22385865.200   117638510.52608  22385870.340    91666393.01547
  20279045.940   106567142.61809  20279049.240    83039365.83849
  24004658.420   126145350.75205  24004664.460    98295094.63945
  23197465.260   121903467.59807  23197470.340    94989719.26645
  23798696.880   125063108.88306  23798707.640    97451856.90545
  20278277.600   106563335.04309  20278282.860    83036506.54149
 15 01 20 14 23 30.0000000  0 10G02G05G06G07G09G10G13G20G28G30
  21916556.660   115172321.76608  21916558.420    89744698.91247
  22317736.300   117280528.20308  22317740.480    91387456.80048
  23079090.800   121281412.01007  23079099.520    94505016.80646
  20889380.520   109774509.23508  20889383.440    85538630.07848
  22397570.320   117700021.34408  22397575.580    91714323.49647
  20283920.680   106592759.63909  20283924.020    83059327.14549
  23990208.960   126069418.85005  23990214.980    98235926.98345
  23216055.640   122001160.71207  23216060.980    95065843.66846
  23781409.440   124972263.41207  23781419.700    97381068.86744
  20275634.020   106549443.02609  20275639.260    83025681.60749
 15 01 20 14 24  0.0000000  0 10G02G05G06G07G09G10G13G20G28G30
  21922239.820   115202186.91008  21922241.520    89767970.40047
  22302241.680   117199103.59108  22302245.820    91324009.10648
  23097385.900   121377553.47707  23097394.660    94579932.09546
  20898463.840   109822242.46208  20898466.760    85575824.77248
  22409296.480   117761643.32708  22409302.000    91762340.59147
  20288886.780   106618856.60809  20288890.160    83079662.43149
  23975775.000   125993567.73605  23975781.000    98176822.26644
  23234685.880   122099062.91607  23234691.200    95142131.01045
  23764131.460   124881468.68806  23764141.280    97310320.32344
  20273091.420   106536081.76709  20273096.660    83015270.24949
 15 01 20 14 24 30.0000000  0 10G02G05G06G07G09G10G13G20G28G30
  21928020.560   115232564.40708  21928022.180    89791641.12347
  22286791.820   117117914.28108  22286795.940    91260744.76648
  23115711.800   121473856.58506  23115720.560    94654973.34846
  20907622.920   109870373.65008  20907625.840    85613329.56948
  22421043.780   117823376.36207  22421049.500    91810444.21647
  20293944.260   106645433.73709  20293947.640    83100371.87049
  23961356.540   125917798.29606  23961362.600    98117781.19344
  23253355.700   122197172.84407  23253360.940    95218580.19545
  23746863.640   124790727.64906  23746872.900    97239613.53643
  20270649.800   106523251.04909  20270655.040    83005272.29549
 15 01 20 14 25  0.0000000  0 10G02G05G06G07G09G10G13G20G28G30
  21933898.380   115263451.73508  21933899.920    89815709.10947
  22271387.060   117036961.90508  22271391.200    91197665.05348
  23134067.800   121570317.44607  23134076.560    94730137.51446
  20916857.280   109918900.09208  20916860.140    85651142.36148
  22432812.060   117885219.54607  22432817.920    91858633.66447
  20299092.980   106672490.21509  20299096.340    83121454.82349
  23946953.320   125842108.91205  23946959.400    98058802.49144
  23272064.580   122295487.91207  23272069.560    95295189.23745
  23729606.460   124700042.46906  23729615.500    97168950.33344
  20268308.920   106510949.71809  20268314.160    82995686.84449
 15 01 20 14 25 30.0000000  0 10G02G05G06G07G09G10G13G20G28G30
  21939872.760   115294846.79308  21939874.240    89840172.73647
  22256027.820   116956248.66408  22256031.960    91134771.67448
  23152453.220   121666933.03107  23152462.040    94805422.23446
  20926166.500   109967820.02109  20926169.320    85689261.76648
  22444601.340   117947172.63308  22444607.260    91906908.75047
  20304332.860   106700025.87009  20304336.240    83142911.16249
  23932565.480   125766500.42006  23932571.560    97999886.85344
  23290812.200   122394006.76107  23290816.980    95371957.06745
  23712360.260   124609416.28406  23712369.040    97098333.04744
  20266068.740   106499177.42109  20266073.960    82986513.62649
 15 01 20 14 26  0.0000000  0 10G02G05G06G07G09G10G13G20G28G30
  21945943.500   115326748.36108  21945945.020    89865031.04547
  22240714.480   116875776.70108  22240718.600    91072066.29948
  23170867.560   121763700.14407  23170876.400    94880825.03446
  20935550.040   110017130.71808  20935552.860    85727685.66648
  22456411.580   118009235.40308  22456417.420    91955269.29347
  20309663.940   106728040.97109  20309667.360    83164741.09649
  23918192.940   125690972.25006  23918198.880    97941033.77644
  23309598.320   122492727.65507  23309602.800    95448882.33245
  23695125.840   124518851.99406  23695134.420    97027763.99444
  20263929.180   106487933.65509  20263934.340    82977752.25449
 15 01 20 14 26 30.0000000  0 10G02G05G06G07G09G10G13G20G28G30
  21952110.140   115359154.10208  21952111.760    89890282.22747
  22225447.400   116795547.80108  22225451.460    91009550.32548
  23189310.100   121860615.10107  23189318.960    94956343.03546
  20945007.520   110066830.05008  20945010.340    85766412.39448
  22468242.580   118071407.15008  22468248.340    92003714.76047
  20315086.140   106756535.04509  20315089.600    83186944.25849
  23903835.560   125615523.83706  23903841.420    97882242.87343
  23328422.340   122591648.25807  23328426.600    95525963.22445
  23677903.760   124428351.84106  23677911.940    96957244.82844
  20261890.020   106477217.50009  20261895.140    82969401.99949
 15 01 20 14 27  0.0000000  0 10G02G05G06G07G09G10G13G20G28G30
  21958372.860   115392065.11008  21958374.640    89915927.12347
  22210227.540   116715567.04908  22210231.480    90947227.71448
  23207780.760   121957677.67907  23207789.660    95031976.04946
  20954539.200   110116919.37408  20954542.040    85805442.99648
  22480094.860   118133690.45808  22480100.500    92052247.16847
  20320600.020   106785510.70409  20320603.460    83209522.67549
  23889493.940   125540158.13905  23889499.600    97823516.44544
  23347284.540   122690770.03006  23347288.780    95603200.84745
  23660695.120   124337921.70006  23660702.800    96886780.23843
  20259951.720   106467031.28709  20259956.780    82961464.69449
 15 01 20 14 27 30.0000000  0 10G02G05G06G07G09G10G13G20G28G30
  21964730.780   115425476.61208  21964732.760    89941962.01747
  22195054.760   116635833.83308  22195058.660    90885097.98548
  23226278.400   122054882.15607  23226287.340    95107719.65247
  20964144.080   110167393.32508  20964146.920    85844773.32948
  22491967.820   118196082.59808  22491973.380    92100864.38347
  20326205.000   106814965.00709  20326208.440    83232474.06649
  23875167.480   125464872.78005  23875173.180    97764852.60544
  23366184.140   122790088.75006  23366188.480    95680591.94744
  23643499.760   124247561.80706  23643507.300    96816370.32544
  20258113.600   106457371.94609  20258118.660    82953937.93549
 15 01 20 14 28  0.0000000  0 10G02G05G06G07G09G10G13G20G28G30
  21971183.740   115459387.18008  21971185.760    89968385.78747
  22179929.660   116556351.19008  22179933.520    90823163.50948
  23244802.440   122152225.98406  23244811.480    95183571.81946
  20973821.880   110218250.53608  20973824.740    85884402.30848
  22503861.520   118258583.86208  22503867.060    92149566.62147
  20331901.200   106844898.40409  20331904.540    83255798.77649
  23860856.340   125389668.11505  23860862.200    97706251.62245
  23385121.020   122889603.30206  23385125.560    95758135.65345
  23626318.480   124157275.75206  23626325.660    96746017.92344
  20256375.740   106448239.59009  20256380.820    82946821.81449
 15 01 20 14 28 30.0000000  0 10G02G05G06G07G09G10G13G20G28G30
  21977731.440   115493795.38108  21977733.400    89995197.31947
  22164852.660   116477121.13608  22164856.500    90761425.85048
  23263352.360   122249705.86506  23263361.440    95259530.02246
  20983572.200   110269488.78808  20983575.040    85924328.20048
  22515775.900   118321193.88608  22515781.420    92198353.60847
  20337688.500   106875310.71009  20337691.820    83279496.65949
  23846560.600   125314544.13005  23846566.620    97647713.52643
  23404094.840   122989311.70106  23404099.620    95835830.39144
  23609151.860   124067066.15306  23609159.060    96675725.11044
  20254738.000   106439633.46309  20254743.100    82940115.73349
 15 01 20 14 29  0.0000000  0 10G02G05G06G07G09G10G13G20G28G30
  21984373.500   115528699.39208  21984375.360    90022395.19147
  22149824.260   116398146.63408  22149828.160    90699887.33248
  23281927.600   122347319.02306  23281936.740    95335592.07346
  20993394.740   110321106.70208  20993397.620    85964549.93748
  22527711.000   118383912.82908  22527716.500    92247225.47747
  20343566.980   106906202.16309  20343570.280    83303567.90049
  23832280.300   125239501.12506  23832286.360    97589238.53144
  23423105.420   123089212.88906  23423110.340    95913675.34445
  23592000.340   123976936.34006  23592007.640    96605494.42544
  20253200.360   106431553.37009  20253205.500    82933819.55649
 15 01 20 14 29 30.0000000  0 10G02G05G06G07G09G10G13G20G28G30
  21991109.440   115564096.83308  21991111.260    90049977.56147
  22134844.840   116319429.40608  22134848.740    90638549.27748
  23300527.500   122445061.89206  23300536.700    95411755.17346
  21003288.940   110373101.17908  21003291.880    86005065.11648
  22539666.680   118446740.09908  22539672.260    92296181.74047
  20349536.420   106937571.87109  20349539.760    83328011.81749
  23818015.380   125164538.55106  23818021.460    97530826.22344
  23442152.360   123189304.69806  23442157.400    95991668.84545
  23574864.400   123886888.86106  23574872.100    96535327.89445
  20251762.640   106423998.29509  20251767.820    82927932.48149
 15 01 20 14 30  0.0000000  0 10G02G05G06G07G09G10G13G20G28G30
  21997939.000   115599986.23708  21997940.780    90077943.27747
  22119914.780   116240971.67908  22119918.680    90577413.43148
  23319151.560   122542931.63306  23319160.800    95488017.14146
  21013254.460   110425470.69008  21013257.500    86045872.51248
  22551642.960   118509675.72808  22551648.620    92345222.44747
  20355596.900   106969419.92709  20355600.280    83352828.46949
  23803765.840   125089656.70806  23803771.920    97472476.81145
  23461235.400   123289585.74106  23461240.460    96069809.77645
  23557744.780   123796926.75606  23557752.640    96465227.87744
  20250424.780   106416967.92809  20250430.020    82922454.27049
 15 01 20 14 30 30.0000000  0 10G02G05G06G07G09G10G13G20G28G30
  22004861.880   115636366.36908  22004863.780    90106291.39347
  22105034.640   116162776.43608  22105038.540    90516482.11648
  23337799.300   122640925.79306  23337808.500    95564376.05846
  21023291.080   110478213.64408  21023294.220    86086970.90248
  22563639.900   118572720.21007  22563645.600    92394347.98447
  20361748.500   107001746.94009  20361751.960    83378018.33149
  23789531.860   125014856.10206  23789537.840    97414190.70245
  23480354.220   123390054.45006  23480359.320    96148096.96045
  23540642.240   123707053.66506  23540650.300    96395197.25845
  20249186.800   106410462.27209  20249192.060    82917384.93549
 15 01 20 14 31  0.0000000  0 10G02G05G06G07G09G10G13G20G28G30
  22011877.440   115673233.16508  22011879.440    90135018.73047
  22090204.580   116084844.29408  22090208.480    90455755.81748
  23356469.800   122739039.50706  23356478.960    95640828.12346
  21033398.100   110531326.52608  21033401.300    86128357.54948
  22575657.200   118635871.58508  22575662.960    92443556.79947
  20367990.900   107034550.92309  20367994.420    83403579.86449
  23775313.080   124940135.12306  23775318.940    97355966.63744
  23499508.140   123490708.19606  23499513.280    96226528.30945
  23523557.040   123617270.97206  23523565.140    96325237.06445
  20248048.240   106404478.97609  20248053.520    82912722.62449
 15 01 20 14 31 30.0000000  0 10G02G05G06G07G09G10G13G20G28G30
  22018985.820   115710587.46808  22018987.840    90164125.93447
  22075425.520   116007179.93308  22075429.420    90395238.18048
  23375163.000   122837272.27106  23375172.120    95717372.96246
  21043575.580   110584809.65808  21043578.880    86170032.70448
  22587695.300   118699132.32707  22587701.120    92492850.82847
  20374324.560   107067834.36309  20374328.080    83429514.99249
  23761109.900   124865496.46406  23761115.680    97297806.71244
  23518697.340   123591547.62806  23518702.660    96305104.35345
  23506490.200   123527583.77006  23506498.080    96255351.27745
  20247009.460   106399019.94809  20247014.740    82908468.83549
 15 01 20 14 32  0.0000000  0 10G02G05G06G07G09G10G13G20G28G30
  22026186.340   115748425.78908  22026188.380    90193610.29247
  22060697.600   115929784.27508  22060701.460    90334929.91848
  23393878.060   122935619.52206  23393887.180    95794007.00546
  21053822.880   110638659.53808  21053826.220    86211993.64048
  22599753.940   118762500.72908  22599759.700    92542228.74747
  20380749.140   107101595.39109  20380752.620    83455822.26649
  23746922.020   124790938.59406  23746927.660    97239709.75045
  23537921.100   123692569.48906  23537926.700    96383822.55046
  23489441.900   123437994.03906  23489449.420    96185541.45345
  20246070.040   106394083.11309  20246075.300    82904621.95349
 15 01 20 14 32 30.0000000  0 10G02G05G06G07G09G10G13G20G28G30
  22033478.600   115786746.18008  22033480.640    90223470.28647
  22046021.340   115852660.06108  22046025.180    90274833.17548
  23412614.380   123034078.29406  23412623.440    95870727.94746
  21064139.620   110692874.30208  21064142.980    86254238.90048
  22611833.080   118825976.89907  22611838.800    92591690.64247
  20387264.540   107135833.70009  20387267.960    83482501.45349
  23732749.580   124716461.81406  23732754.920    97181675.95545
  23557179.380   123793772.34206  23557185.220    96462681.77645
  23472412.680   123348504.54706  23472419.860    96115809.71945
  20245229.860   106389667.96309  20245235.100    82901181.58149
 15 01 20 14 33  0.0000000  0 10G02G05G06G07G09G10G13G20G28G30
  22040862.440   115825547.96208  22040864.460    90253705.38747
  22031397.300   115775810.47208  22031401.200    90214950.43248
  23431371.540   123132646.80006  23431380.680    95947534.39846
  21074525.580   110747452.64308  21074528.900    86296767.46948
  22623932.860   118889561.75407  22623938.620    92641237.23347
  20393870.900   107170550.40809  20393874.340    83509553.41749
  23718592.620   124642067.17006  23718597.880    97123706.18744
  23576472.040   123895155.69406  23576477.980    96541681.66045
  23455403.260   123259119.53706  23455410.120    96046159.40545
  20244489.060   106385774.95909  20244494.260    82898148.07149
 15 01 20 14 33 30.0000000  0 10G02G05G06G07G09G10G13G20G28G30
  22048337.320   115864828.54508  22048339.360    90284313.58547
  22016825.840   115699237.13008  22016829.760    90155282.93948
  23450148.840   123231321.21606  23450158.080    96024423.35946
  21084980.280   110802392.15208  21084983.500    86339577.47648
  22636053.080   118953254.59407  22636059.040    92690867.95247
  20400568.100   107205744.57409  20400571.540    83536977.43249
  23704451.060   124567753.86706  23704456.280    97065799.77644
  23595798.600   123996717.25306  23595804.620    96620820.37945
  23438413.980   123169841.30306  23438420.640    95976592.30145
  20243847.340   106382402.78209  20243852.540    82895520.40549
 15 01 20 14 34  0.0000000  0 10G02G05G06G07G09G10G13G20G28G30
  22055902.620   115904584.62308  22055904.720    90315292.30647
  22002307.240   115622941.61708  22002311.180    90095831.93548
  23468945.420   123330097.62206  23468954.900    96101391.80946
  21095503.160   110857689.84208  21095506.260    86382666.58348
  22648193.720   119017054.35607  22648199.780    92740581.99547
  20407355.920   107241414.88709  20407359.340    83564772.46949
  23690324.880   124493521.30406  23690330.080    97007956.28844
  23615158.620   124098454.17506  23615164.500    96700095.75545
  23421445.200   123080671.99506  23421451.900    95907110.08645
  20243304.400   106379549.80709  20243309.620    82893297.31049
 15 01 20 14 34 30.0000000  0 10G02G05G06G07G09G10G13G20G28G30
  22063557.900   115944813.69308  22063560.080    90346639.59047
  21987841.820   115546925.44208  21987845.700    90036598.60448
  23487760.600   123428972.22006  23487770.400    96178436.77646
  21106093.600   110913342.73308  21106096.660    86426032.47448
  22660354.640   119080960.16707  22660360.760    92790378.68147
  20414234.160   107277560.24809  20414237.580    83592937.67349
  23676213.960   124419368.77506  23676219.220    96950175.21244
  23634551.760   124200364.36506  23634557.220    96779506.17544
  23404497.540   122991613.56107  23404504.180    95837714.24344
  20242859.980   106377214.52009  20242865.220    82891477.60349
 15 01 20 14 35  0.0000000  0 10G02G05G06G07G09G10G13G20G28G30
  22071302.980   115985514.58908  22071305.160    90378354.52947
  21973430.120   115471191.58408  21973433.920    89977585.25148
  23506594.040   123527942.71506  23506604.100    96255556.44646
  21116751.360   110969349.63508  21116754.440    86469674.21048
  22672535.960   119144972.75807  22672542.080    92840258.59647
  20421202.940   107314181.27109  20421206.360    83621473.52349
  23662118.500   124345297.05606  23662123.680    96892457.07344
  23653977.620   124302446.93506  23653982.800    96859050.89845
  23387571.760   122902669.90307  23387578.500    95768407.85345
  20242514.120   106375397.03909  20242519.360    82890061.38349
 15 01 20 14 35 30.0000000  0 10G02G05G06G07G09G10G13G20G28G30
  22079137.800   116026686.64108  22079139.940    90410436.60247
  21959073.000   115395744.42808  21959076.700    89918795.30448
  23525445.560   123627007.83006  23525455.680    96332749.85146
  21127476.440   111025710.24708  21127479.520    86513591.57448
  22684737.840   119209093.72807  22684743.980    92890222.96847
  20428262.500   107351279.41009  20428265.940    83650381.15549
  23648038.740   124271307.85906  23648043.940    96834803.23944
  23673436.280   124404701.68806  23673441.120    96938729.78544
  23370668.720   122813845.82006  23370675.500    95699194.60344
  20242266.940   106374098.26809  20242272.180    82889049.35549
 15 01 20 14 36  0.0000000  0 10G02G05G06G07G09G10G13G20G28G30
  22087061.540   116068325.45008  22087063.560    90442882.38547
  21944770.340   115320583.52908  21944773.980    89860228.41048
  23544314.260   123726162.15906  23544324.240    96410012.77746
  21138267.960   111082419.96508  21138271.040    86557780.96548
  22696959.820   119273320.54007  22696965.960    92940269.81047
  20435412.260   107388851.77609  20435415.740    83679658.31149
  23633974.240   124197398.86206  23633979.500    96777211.90945
  23692926.860   124507124.64106  23692931.620    97018539.71344
  23353788.520   122725141.86706  23353795.280    95630074.95944
  20242117.900   106373315.05709  20242123.120    82888439.06149
 15 01 20 14 36 30.0000000  0 10G02G05G06G07G09G10G13G20G28G30
  22095074.100   116110430.87308  22095075.980    90475691.76447
  21930522.920   115245713.13108  21930526.560    89801887.88648
  23563199.900   123825404.62106  23563209.580    96487344.35846
  21149125.880   111139478.51008  21149128.940    86602242.17048
  22709202.320   119337655.13107  22709208.440    92990400.63347
  20442652.580   107426900.07709  20442656.100    83709306.32649
  23619925.460   124123572.24806  23619930.700    96719684.75645
  23712449.440   124609716.33406  23712454.380    97098481.12245
  23336932.080   122636562.85706  23336939.000    95561052.65545
  20242067.220   106373048.63809  20242072.400    82888231.46749
 15 01 20 14 37  0.0000000  0 10G02G05G06G07G09G10G13G20G28G30
  22103174.760   116152999.39808  22103176.540    90508861.99547
  21916331.020   115171134.38808  21916334.660    89743774.63048
  23582101.420   123924730.73406  23582110.820    96564741.13146
  21160049.540   111196882.74408  21160052.640    86646972.74248
  22721465.040   119402095.94707  22721471.140    93040614.22347
  20449983.180   107465422.70309  20449986.720    83739323.94049
  23605892.100   124049826.66206  23605897.280    96662220.76245
  23732003.580   124712473.53906  23732008.680    97178551.48944
  23320099.760   122548110.40806  23320106.700    95492128.95544
  20242114.460   106373296.72009  20242119.600    82888424.78249
 15 01 20 14 37 30.0000000  0 10G02G05G06G07G09G10G13G20G28G30
  22111363.160   116196029.36808  22111364.940    90542391.80447
  21902195.200   115096850.24708  21902198.820    89685890.93348
  23601018.220   124024138.13306  23601027.560    96642201.22546
  21171038.680   111254631.06708  21171041.760    86691971.43448
  22733748.000   119466643.48707  22733754.200    93090910.97347
  20457404.040   107504419.51709  20457407.600    83769711.05649
  23591874.380   123976163.22506  23591879.720    96604820.76445
  23751588.940   124815394.78806  23751594.260    97258749.72244
  23303292.260   122459788.17506  23303299.040    95423306.70045
  20242259.560   106374059.08409  20242264.680    82889018.83649
 15 01 20 14 38  0.0000000  0 10G02G05G06G07G09G10G13G20G28G30
  22119638.900   116239519.16408  22119640.820    90576279.92247
  21888115.960   115022863.42808  21888119.600    89628238.92048
  23619949.980   124123624.29406  23619959.300    96719722.69246
  21182093.000   111312721.75808  21182096.060    86737236.90948
  22746051.360   119531298.23807  22746057.560    93141291.25947
  20464915.220   107543890.80109  20464918.760    83800467.88249
  23577872.160   123902581.38506  23577877.560    96547484.34144
  23771205.380   124918479.25906  23771210.840    97339075.10345
  23286510.320   122371599.60506  23286516.940    95354588.61045
  20242502.480   106375335.45309  20242507.580    82890013.41849
 15 01 20 14 38 30.0000000  0 10G02G05G06G07G09G10G13G20G28G30
  22128001.220   116283464.36608  22128003.340    90610522.90647
  21874093.380   114949174.48808  21874097.040    89570819.01648
  23638895.720   124223184.10206  23638905.100    96797301.54245
  21193211.680   111371150.72908  21193214.720    86782765.97648
  22758374.700   119596057.91807  22758380.880    93191753.32747
  20472516.200   107583833.99709  20472519.720    83831592.43449
  23563885.140   123829079.64006  23563890.620    96490210.34045
  23790852.160   125021723.25606  23790857.840    97419524.78145
  23269754.160   122283545.59507  23269760.620    95285975.34645
  20242842.600   106377122.77709  20242847.700    82891406.15049
 15 01 20 14 39  0.0000000  0 10G02G05G06G07G09G10G13G20G28G30
  22136450.100   116327864.22708  22136452.300    90645120.16347
  21860128.120   114875786.72508  21860131.800    89513633.79948
  23657855.120   124322815.67806  23657864.500    96874936.31546
  21204394.460   111429916.81108  21204397.500    86828557.73448
  22770718.280   119660923.63007  22770724.400    93242298.01347
  20480207.100   107624249.99409  20480210.660    83863085.39849
  23549913.580   123755659.16206  23549919.160    96432999.66845
  23810529.240   125125125.89806  23810535.100    97500098.08045
  23253024.540   122195630.36507  23253030.680    95217470.21145
  20243279.980   106379421.35609  20243285.100    82893197.26149
 15 01 20 14 39 30.0000000  0 10G02G05G06G07G09G10G13G20G28G30
  22144985.120   116372716.19408  22144987.320    90680069.70947
  21846220.580   114802702.26908  21846224.220    89456684.92648
  23676827.560   124422515.85006  23676837.040    96952624.52046
  21215641.040   111489017.95608  21215644.060    86874610.57848
  22783082.020   119725895.17507  22783088.120    93292925.16547
  20487987.800   107665137.93809  20487991.400    83894946.11749
  23535957.580   123682320.41506  23535963.160    96375852.68045
  23830236.240   125228685.21606  23830242.080    97580793.46445
  23236321.920   122107856.66107  23236327.720    95149075.31245
  20243814.440   106382230.16509  20243819.580    82895385.95749
 15 01 20 14 40  0.0000000  0 10G02G05G06G07G09G10G13G20G28G30
  22153606.240   116418020.11208  22153608.400    90715371.41247
  21832371.540   114729925.30708  21832375.140    89399975.65148
  23695812.920   124522283.84406  23695822.520    97030365.57245
  21226951.360   111548453.99908  21226954.360    86920924.37848
  22795466.280   119790974.69607  22795472.340    93343636.45147
  20495858.660   107706499.51509  20495862.280    83927175.89749
  23522017.380   123609064.86906  23522022.900    96318770.54945
  23849973.180   125332401.99106  23849979.000    97661611.55445
  23219647.020   122020229.62207  23219652.660    95080794.71945
  20244446.220   106385550.45409  20244451.400    82897973.21249
 15 01 20 14 40 30.0000000  0 10G02G05G06G07G09G10G13G20G28G30
  22162312.600   116463771.56508  22162314.680    90751021.84847
  21818581.060   114657456.06308  21818584.620    89343506.16248
  23714810.080   124622114.08406  23714819.800    97108155.13446
  21238324.480   111608220.41108  21238327.520    86967495.60848
  22807870.660   119856159.48307  22807876.640    93394429.77147
  20503819.040   107748331.57309  20503822.640    83959772.28649
  23508092.580   123535890.20506  23508098.060    96261751.41244
  23869739.100   125436272.00506  23869745.000    97742549.02344
  23202999.960   121932749.84507  23203005.620    95012628.84645
  20245174.660   106389378.76009  20245179.880    82900956.32449
 15 01 20 14 41  0.0000000  0 10G02G05G06G07G09G10G13G20G28G30
  22171103.800   116509968.99708  22171105.840    90787019.80447
  21804849.780   114585297.90508  21804853.320    89287279.07748
  23733818.680   124722004.67606  23733828.540    97185991.71346
  21249760.340   111668316.56608  21249763.440    87014323.75848
  22820295.200   119921450.59507  22820301.160    93445305.93547
  20511869.120   107790634.78809  20511872.700    83992735.80749
  23494183.440   123462797.64306  23494188.900    96204796.28644
  23889533.980   125540294.55505  23889540.000    97823605.35444
  23186381.460   121845421.02007  23186387.220    94944580.58045
  20245999.820   106393715.19709  20246005.060    82904335.38449
 15 01 20 14 41 30.0000000  0 10G02G05G06G07G09G10G13G20G28G30
  22179979.460   116556610.50808  22179981.480    90823363.80047
  21791178.220   114513453.78508  21791181.780    89231296.69348
  23752838.220   124821953.20906  23752848.460    97263873.43346
  21261258.520   111728740.26208  21261261.700    87061407.16048
  22832740.020   119986848.56007  22832745.960    93496265.36446
  20520008.920   107833409.36309  20520012.440    84026066.62049
  23480290.120   123389788.05606  23480295.520    96147905.79744
  23909357.640   125644468.43305  23909363.880    97904779.62144
  23169792.420   121758247.05206  23169798.220    94876652.94645
  20246921.620   106398559.37809  20246926.840    82908110.09549
 15 01 20 14 42  0.0000000  0 10G02G05G06G07G09G10G13G20G28G30
  22188938.820   116603692.23608  22188940.940    90860050.82047
  21777566.500   114441923.87608  21777570.020    89175559.14948
  23771867.940   124921954.76606  23771878.480    97341796.46246
  21272818.320   111789487.65408  21272821.580    87108742.78048
  22845204.780   120052351.37607  22845210.720    93547306.48947
  20528237.860   107876652.60609  20528241.340    84059762.63349
  23466412.280   123316859.74106  23466417.640    96091078.63644
  23929209.320   125748789.97305  23929215.780    97986068.92244
  23153233.080   121671229.05607  23153238.880    94808846.84745
  20247939.520   106403908.39709  20247944.720    82912278.18549
 15 01 20 14 42 30.0000000  0 10G02G05G06G07G09G10G13G20G28G30
  22197981.480   116651211.87508  22197983.700    90897079.07547
  21764015.100   114370710.86208  21764018.580    89120068.53648
  23790907.380   125022006.61006  23790918.040    97419758.66846
  21284439.440   111850556.96308  21284442.700    87156329.25048
  22857689.540   120117959.20907  22857695.460    93598429.44747
  20536555.980   107920364.41909  20536559.460    84093823.76449
  23452549.960   123244012.66306  23452555.220    96034314.79445
  23949088.780   125853257.81405  23949095.600    98067472.23744
  23136704.100   121584370.08307  23136710.000    94741164.66945
  20249053.320   106409761.48209  20249058.500    82916839.05549
 15 01 20 14 43  0.0000000  0 10G02G05G06G07G09G10G13G20G28G30
  22207107.000   116699166.75908  22207109.260    90934446.46847
  21750524.340   114299816.61108  21750527.780    89064826.30548
  23809955.900   125122105.50606  23809966.520    97497757.53346
  21296121.380   111911945.77708  21296124.600    87204164.68648
  22870194.260   120183671.70707  22870200.120    93649633.94847
  20544963.140   107964544.11409  20544966.640    84128249.48449
  23438703.080   123171246.58607  23438708.260    95977614.08244
  23968995.960   125957869.85206  23969002.780    98148987.91445
  23120206.040   121497672.74707  23120212.000    94673608.45545
  20250262.780   106416117.31609  20250267.980    82921791.67749
 15 01 20 14 43 30.0000000  0 10G02G05G06G07G09G10G13G20G28G30
  22216315.040   116747554.88108  22216317.200    90972151.43747
  21737094.760   114229243.90208  21737098.200    89009834.63348
  23829012.900   125222248.70706  23829023.380    97575790.90945
  21307863.740   111973652.09608  21307866.900    87252247.51948
  22882719.000   120249489.12607  22882724.760    93700920.21047
  20553459.220   108009191.08709  20553462.720    84163039.31549
  23424871.740   123098562.25407  23424876.840    95920977.05344
  23988930.500   126062624.72206  23988937.140    98230614.86545
  23103739.460   121411140.49806  23103745.400    94606180.86645
  20251567.780   106422975.14809  20251572.980    82927135.46749
 15 01 20 14 44  0.0000000  0 10G02G05G06G07G09G10G13G20G28G30
  22225605.340   116796375.15608  22225607.380    91010193.14647
  21723727.040   114158996.25108  21723730.480    88955096.24648
  23848078.020   125322434.31606  23848088.320    97653857.32146
  21319666.320   112035674.88608  21319669.400    87300576.95648
  22895263.940   120315412.43007  22895269.560    93752288.98347
  20562044.200   108054305.53509  20562047.780    84198193.40749
  23411056.000   123025960.11107  23411061.020    95864404.05545
  24008892.180   126167521.46006  24008898.460    98312352.35544
  23087305.100   121324777.31407  23087311.040    94538885.03845
  20252968.280   106430334.92509  20252973.500    82932870.37649
 15 01 20 14 44 30.0000000  0 10G02G05G06G07G09G10G13G20G28G30
  22234977.040   116845623.27008  22234979.000    91048568.23647
  21710421.220   114089074.16808  21710424.740    88900611.55348
  23867150.220   125422657.58806  23867160.420    97731953.07846
  21331528.380   112098010.40608  21331531.400    87349150.08648
  22907828.660   120381439.74307  22907834.180    93803738.79447
  20570717.680   108099885.14909  20570721.320    84233709.96748
  23397255.780   122953439.26807  23397260.700    95807894.42845
  24028880.280   126272556.72106  24028885.980    98394197.76544
  23070903.100   121238584.12507  23070908.980    94471721.63944
  20254463.760   106438193.85109  20254469.020    82938994.23249
 15 01 20 14 45  0.0000000  0 10G02G05G06G07G09G10G13G20G28G30
  22244430.260   116895300.22908  22244432.260    91087277.49247
  21697178.480   114019483.47008  21697182.080    88846385.08548
  23886229.620   125522919.23406  23886239.740    97810078.70745
  21343450.200   112160660.09808  21343453.220    87397968.01848
  22920413.820   120447574.70907  22920419.280    93855272.49146
  20579480.300   108145933.11409  20579483.940    84269591.47848
  23383471.520   122881002.89507  23383476.480    95751450.59344
  24048895.020   126377732.42206  24048900.260    98476152.61044
  23054534.780   121152567.88607  23054540.480    94404696.12945
  20256054.700   106446554.44509  20256060.000    82945509.00249
 15 01 20 14 45 30.0000000  0 10G02G05G06G07G09G10G13G20G28G30
  22253964.380   116945402.42308  22253966.480    91126318.10547
  21683999.040   113950225.20508  21684002.680    88792417.65148
  23905315.480   125623214.94706  23905325.500    97888230.88646
  21355431.180   112223620.57308  21355434.240    87447028.11848
  22933019.120   120513815.99407  22933024.640    93906889.02847
  20588331.620   108192447.20709  20588335.260    84305836.20148
  23369703.020   122808649.77706  23369708.020    95695071.63245
  24068935.720   126483045.35306  24068940.780    98558214.40545
  23038200.360   121066730.13207  23038205.880    94337809.69745
  20257740.660   106455414.28509  20257745.940    82952412.78849
 15 01 20 14 46  0.0000000  0 10G02G05G06G07G09G10G13G20G28G30
  22263578.820   116995926.77008  22263581.040    91165687.66847
  21670883.160   113881300.78508  21670886.780    88738710.35648
  23924407.080   125723541.19106  23924417.080    97966406.85546
  21367470.800   112286889.20308  21367473.860    87496328.33548
  22945644.460   120580162.89007  22945650.100    93958587.86747
  20597271.460   108239426.34909  20597275.120    84342443.31248
  23355950.300   122736379.93306  23355955.400    95638757.54845
  24089001.760   126588493.05806  24089006.980    98640381.17144
  23021900.300   120981073.32207  23021905.660    94271064.26345
  20259521.280   106464771.69009  20259526.560    82959704.29149
 15 01 20 14 46 30.0000000  0 10G02G05G06G07G09G10G13G20G28G30
  22273273.220   117046871.01008  22273275.560    91205384.41147
  21657831.360   113812713.14208  21657834.960    88685265.48248
  23943503.880   125823895.15806  23943514.100    98044604.41445
  21379568.660   112350463.86508  21379571.720    87545867.01848
  22958289.920   120646615.49107  22958295.660    94010369.07146
  20606299.720   108286870.22809  20606303.400    84379412.55648
  23342213.320   122664193.03806  23342218.520    95582508.10145
  24109093.000   126694074.05905  24109098.600    98722651.85445
  23005635.280   120895600.40607  23005640.400    94204462.13745
  20261396.360   106474625.60109  20261401.640    82967382.67849
 15 01 20 14 47  0.0000000  0 10G02G05G06G07G09G10G13G20G28G30
  22283046.820   117098230.99908  22283049.140    91245405.12147
  21644843.680   113744462.83808  21644847.300    88632083.47448
  23962605.120   125924272.30306  23962615.520    98122820.02445
  21391723.960   112414340.40608  21391727.040    87595640.93048
  22970955.240   120713172.16807  22970960.940    94062231.39246
  20615415.980   108334776.26609  20615419.640    84416741.92549
  23328491.920   122592087.71606  23328497.120    95526322.23445
  24129208.820   126799784.96005  24129214.880    98805023.72244
  22989405.500   120810312.92007  22989410.460    94138004.50145
  20263365.420   106484973.29709  20263370.680    82975445.82749
 15 01 20 14 47 30.0000000  0 10G02G05G06G07G09G10G13G20G28G30
  22292899.300   117150005.34508  22292901.580    91285748.70647
  21631920.780   113676553.02908  21631924.440    88579166.78948
  23981710.460   126024670.73006  23981721.080    98201052.21345
  21403936.540   112478517.92008  21403939.620    87645649.37348
  22983640.600   120779833.94307  22983646.160    94114175.60446
  20624620.220   108383144.59809  20624623.840    84454431.52148
  23314786.300   122520065.08507  23314791.460    95470200.79644
  24149349.180   126905624.91605  24149356.040    98887496.13845
  22973211.780   120725214.75207  22973216.600    94071694.38545
  20265428.460   106495814.61109  20265433.660    82983893.62149
 15 01 20 14 48  0.0000000  0 10G02G05G06G07G09G10G13G20G28G30
  22302830.040   117202191.23208  22302832.320    91326412.96146
  21619063.040   113608985.56708  21619066.740    88526516.86248
  24000819.220   126125086.92506  24000830.000    98279298.24046
  21416205.880   112542993.69308  21416208.960    87695890.22448
  22996345.820   120846600.14607  22996351.340    94166201.18446
  20633912.220   108431974.16209  20633915.800    84492480.52449
  23301096.420   122448124.81306  23301101.500    95414143.53945
  24169513.980   127011591.77105  24169521.280    98970067.47243
  22957054.520   120640308.36107  22957059.360    94005533.71045
  20267585.140   106507147.78109  20267590.220    82992724.67949
 15 01 20 14 48 30.0000000  0 10G02G05G06G07G09G10G13G20G28G30
  22312838.360   117254785.39508  22312840.680    91367395.35847
  21606270.840   113541762.38108  21606274.560    88474135.20348
  24019930.760   126225517.42906  24019941.660    98357555.41845
  21428531.460   112607765.19508  21428534.580    87746361.51448
  23009070.800   120913470.26507  23009076.280    94218307.73546
  20643291.780   108481263.83309  20643295.340    84530888.04748
  23287422.180   122376266.19707  23287427.100    95358149.90944
  24189702.700   127117683.16705  24189710.020    99052735.79444
  22940934.120   120555596.07007  22940939.140    93939524.28445
  20269835.080   106518971.08309  20269840.080    83001937.65349
 15 01 20 14 49  0.0000000  0 10G02G05G06G07G09G10G13G20G28G30
  22322923.920   117307785.82508  22322926.340    91408694.33346
  21593544.640   113474886.09008  21593548.400    88422023.85548
  24039044.660   126325960.09606  24039055.680    98435822.04846
  21440913.100   112672831.07808  21440916.180    87797062.20048
  23021815.700   120980444.99307  23021821.120    94270495.80646
  20652758.800   108531013.44509  20652762.400    84569653.97548
  23273763.760   122304490.44007  23273768.480    95302220.84745
  24209915.160   127223897.90506  24209922.480    99135500.23044
  22924851.280   120471081.65207  22924856.520    93873669.04345
  20272178.180   106531284.04609  20272183.140    83011532.18749
 15 01 20 14 49 30.0000000  0 10G02G05G06G07G09G10G13G20G28G30
  22333086.360   117361189.85208  22333088.820    91450307.79846
  21580885.000   113408359.23808  21580888.700    88370184.78848
  24058160.380   126426411.66306  24058171.380    98514095.61345
  21453350.240   112738188.77708  21453353.320    87847990.27548
  23034580.380   121047523.92307  23034585.840    94322765.07046
  20662313.040   108581221.69609  20662316.740    84608777.27548
  23260121.020   122232797.06807  23260125.520    95246355.98345
  24230150.880   127330234.04706  24230157.940    99218359.28445
  22908806.560   120386767.57907  22908812.020    93807969.90745
  20274614.140   106544085.12609  20274619.120    83021507.06849
 15 01 20 14 50  0.0000000  0 10G02G05G06G07G09G10G13G20G28G30
  22343325.540   117414996.64708  22343327.960    91492235.11246
  21568292.600   113342185.83708  21568296.280    88318621.14248
  24077277.600   126526871.20605  24077288.560    98592375.37446
  21465842.880   112803838.09808  21465845.960    87899145.59748
  23047365.240   121114709.04207  23047370.840    94375117.08646
  20671954.860   108631889.98109  20671958.600    84648259.05048
  23246494.360   122161188.32607  23246498.720    95190557.06644
  24250409.640   127436691.70906  24250416.560    99301313.00644
  22892800.940   120302658.59307  22892806.500    93742430.59545
  20277143.100   106557375.02109  20277148.100    83031862.84549
 15 01 20 14 50 30.0000000  0 10G02G05G06G07G09G10G13G20G28G30
  22353640.800   117469202.65308  22353643.100    91534473.49146
  21555767.660   113276366.91208  21555771.300    88267333.70948
  24096395.540   126627334.52306  24096406.520    98670658.06646
  21478390.400   112869775.84008  21478393.460    87950525.65748
  23060170.040   121181998.99907  23060175.780    94427550.77346
  20681683.780   108683015.89009  20681687.520    84688097.41048
  23232883.520   122089662.84807  23232887.820    95134823.01545
  24270690.840   127543267.88505  24270697.700    99384359.07244
  22876834.920   120218757.04607  22876840.520    93677052.91846
  20279764.600   106571151.18309  20279769.640    83042597.53249
 15 01 20 14 51  0.0000000  0 10G02G05G06G07G09G10G13G20G28G30
  22364031.560   117523805.50308  22364033.760    91577021.10246
  21543310.680   113210905.01708  21543314.240    88216324.47948
  24115513.680   126727799.06905  24115524.780    98748941.70046
  21490992.460   112936000.08908  21490995.520    88002128.97848
  23072994.960   121249394.13007  23073000.760    94480066.44347
  20691499.760   108734599.10309  20691503.460    84728292.11548
  23219288.660   122018221.35007  23219292.880    95079154.40945
  24290994.120   127649960.95705  24291001.080    99467496.16844
  22860908.960   120135065.70807  22860914.560    93611839.05445
  20282478.480   106585412.63709  20282483.520    83053710.37149
 15 01 20 14 51 30.0000000  0 10G02G05G06G07G09G10G13G20G28G30
  22374497.180   117578801.81408  22374499.260    91619875.30046
  21530921.860   113145801.51808  21530925.420    88165594.52248
  24134631.260   126828261.05306  24134642.640    98827223.29146
  21503648.440   113002507.68908  21503651.500    88053953.09048
  23085839.740   121316893.52307  23085845.660    94532663.35547
  20701402.480   108786637.88209  20701406.080    84768841.80748
  23205709.580   121946862.85307  23205713.720    95023550.45744
  24311319.080   127756768.27005  24311326.020    99550722.33344
  22845023.440   120051586.67907  22845028.880    93546790.62245
  20285284.320   106600157.26809  20285289.340    83065199.71149
 15 01 20 14 52  0.0000000  0 10G02G05G06G07G09G10G13G20G28G30
  22385037.300   117634189.99308  22385039.360    91663034.85746
  21518601.880   113081059.77808  21518605.400    88115146.45648
  24153748.000   126928718.61606  24153759.640    98905501.47346
  21516358.140   113069297.54708  21516361.220    88105997.13648
  23098704.520   121384498.17207  23098710.600    94585342.30246
  20711391.920   108839132.39409  20711395.440    84809746.61448
  23192146.440   121875588.43107  23192150.600    94968012.03145
  24331665.820   127863689.56305  24331672.800    99634037.27644
  22829179.020   119968323.95807  22829184.280    93481910.74145
  20288181.980   106615384.71909  20288187.040    83077065.27549
 15 01 20 14 52 30.0000000  0 10G02G05G06G07G09G10G13G20G28G30
  22395651.320   117689967.40007  22395653.500    91706497.70946
  21506351.120   113016682.06708  21506354.680    88064982.05348
  24172863.340   127029168.93406  24172875.240    98983773.97345
  21529121.200   113136367.84108  21529124.280    88158259.70648
  23111589.300   121452208.08007  23111595.500    94638103.26146
  20721467.880   108892081.59809  20721471.320    84851005.73048
  23178599.280   121804398.44207  23178603.480    94912539.38545
  24352033.560   127970721.96805  24352040.640    99717438.76544
  22813376.340   119885280.53007  22813381.320    93417201.72645
  20291171.260   106631093.75209  20291176.360    83089306.09649
 15 01 20 14 53  0.0000000  0 10G02G05G06G07G09G10G13G20G28G30
  22406338.580   117746130.16607  22406340.960    91750260.85446
  21494169.820   112952669.31108  21494173.420    88015102.03148
  24191976.480   127129607.80206  24191988.580    99062037.51845
  21541936.920   113203714.71508  21541939.980    88210737.79648
  23124493.860   121520021.91607  23124500.100    94690945.20347
  20731629.880   108945483.36109  20731633.340    84892617.48848
  23165067.920   121733291.85807  23165072.200    94857131.72945
  24372422.020   128077862.94805  24372429.080    99800924.86645
  22797615.620   119802457.95707  22797620.280    93352664.81045
  20294251.680   106647281.69409  20294256.800    83101920.09549
 15 01 20 14 53 30.0000000  0 10G02G05G06G07G09G10G13G20G28G30
  22417098.600   117802675.06507  22417101.140    91794321.77646
  21482058.420   112889023.83908  21482062.080    87965508.19848
  24211086.900   127230032.28105  24211099.080    99140289.85545
  21554804.900   113271336.05708  21554807.920    88263429.75548
  23137418.120   121587939.51607  23137424.460    94743867.99246
  20741877.760   108999336.67009  20741881.280    84934581.10048
  23151552.380   121662268.50107  23151556.840    94801788.93845
  24392831.520   128185194.66905  24392839.260    99884607.12444
  22781897.460   119719859.09507  22781901.900    93288302.21945
  20297422.960   106663947.08809  20297428.100    83114906.13549
 15 01 20 14 54  0.0000000  0 10G02G05G06G07G09G10G13G20G28G30
  22427931.580   117859602.91607  22427934.180    91838681.09646
  21470017.880   112825750.63208  21470021.580    87916204.44948
  24230194.680   127330442.44006  24230206.820    99218530.99145
  21567725.240   113339232.66308  21567728.220    88316336.20348
  23150362.680   121655963.94807  23150369.080    94796874.02046
  20752212.020   109053643.84309  20752215.620    84976898.37648
  23138053.240   121591331.40007  23138057.900    94746513.34045
  24413260.680   128292550.23305  24413268.280    99968260.38043
  22766222.940   119637489.74807  22766227.260    93224118.45046
  20300685.400   106681091.53609  20300690.560    83128265.46649
 15 01 20 14 54 30.0000000  0 10G02G05G06G07G09G10G13G20G28G30
  22438836.300   117916907.27807  22438838.900    91883333.79246
  21458048.000   112762848.49308  21458051.660    87867189.83748
  24249298.460   127430831.74206  24249310.660    99296755.86045
  21580696.860   113407398.93308  21580699.820    88369452.77548
  23163326.940   121724091.32607  23163333.240    94849960.25246
  20762631.780   109108400.05209  20762635.440    85019565.54748
  23124569.920   121520476.74507  23124574.720    94691302.00345
  24433708.940   128400013.08905  24433717.640   100051986.32944
  22750592.020   119555349.16607  22750596.340    93160112.94745
  20304038.060   106698709.93809  20304043.200    83141994.11149
 15 01 20 14 55  0.0000000  0 10G02G05G06G07G09G10G13G20G28G30
  22449812.800   117974588.56308  22449815.340    91928280.20546
  21446149.760   112700322.71208  21446153.360    87818468.48848
  24268398.300   127531200.32606  24268410.600    99374964.55745
  21593719.860   113475835.43908  21593722.840    88422779.92148
  23176311.420   121792324.74007  23176317.600    94903129.12046
  20773137.360   109163607.15809  20773141.040    85062584.06948
  23111102.980   121449708.03107  23111107.920    94636157.64845
  24454176.840   128507568.39605  24454185.640   100135800.88943
  22735005.740   119473443.32407  22735010.140    93096290.33846
  20307481.180   106716803.90009  20307486.340    83156093.32349
 15 01 20 14 55 30.0000000  0 10G02G05G06G07G09G10G13G20G28G30
  22460859.640   118032639.42408  22460862.100    91973514.59646
  21434322.780   112638171.34208  21434326.300    87770038.89048
  24287492.900   127631541.06105  24287505.140    99453151.56746
  21606793.100   113544535.89908  21606796.080    88476312.74548
  23189315.200   121860659.86307  23189321.380    94956377.25347
  20783727.760   109219260.17009  20783731.480    85105950.04648
  23097651.660   121379021.05607  23097656.640    94581076.99846
  24474664.180   128615226.91805  24474672.780   100219690.13644
  22719463.840   119391770.84007  22719468.440    93032649.56846
  20311013.780   106735367.74909  20311018.900    83170558.68749
 15 01 20 14 56  0.0000000  0 10G02G05G06G07G09G10G13G20G28G30
  22471977.040   118091061.01907  22471979.400    92019037.87746
  21422568.100   112576400.07908  21422571.540    87721905.48748
  24306582.440   127731854.86706  24306594.600    99531317.55545
  21619916.860   113613501.98708  21619919.880    88530052.54948
  23202339.100   121929100.48307  23202345.300    95009707.58447
  20794403.560   109275361.73509  20794407.240    85149665.55048
  23084216.700   121308419.80507  23084221.640    94526063.12945
  24495170.260   128722984.81505  24495178.580   100303656.83543
  22703967.600   119310338.37407  22703972.420    92969195.82045
  20314636.220   106754403.82409  20314641.340    83185392.01449
 15 01 20 14 56 30.0000000  0 10G02G05G06G07G09G10G13G20G28G30
  22483164.300   118149850.29707  22483166.660    92064847.65846
  21410886.120   112515010.81508  21410889.500    87674069.74048
  24325666.260   127832138.38806  24325678.480    99609459.90745
  21633090.660   113682730.99108  21633093.720    88583997.22648
  23215382.880   121997645.90507  23215389.040    95063119.57246
  20805164.380   109331910.18709  20805168.040    85193729.27848
  23070797.940   121237903.62907  23070802.860    94471115.56945
  24515694.720   128830839.52005  24515702.860   100387698.92843
  22688517.540   119229148.16807  22688522.460    92905930.83245
  20318348.140   106773910.07709  20318353.260    83200591.71449
 15 01 20 14 57  0.0000000  0 10G02G05G06G07G09G10G13G20G28G30
  22494420.720   118209003.54307  22494423.240    92110941.06846
  21399277.020   112454004.82208  21399280.400    87626532.65448
  24344743.720   127932388.14006  24344755.960    99687575.91546
  21646313.980   113752220.18008  21646317.100    88638144.64648
  23228446.480   122066295.57307  23228452.640    95116612.79146
  20816010.000   109388904.11809  20816013.640    85238140.12848
  23057395.340   121167472.19407  23057400.120    94416234.02745
  24536237.240   128938788.67405  24536245.240   100471814.59544
  22673114.100   119148202.56307  22673119.020    92842856.42946
  20322149.100   106793884.43209  20322154.220    83216156.17349
 15 01 20 14 57 30.0000000  0 10G02G05G06G07G09G10G13G20G28G30
  22505745.840   118268518.04407  22505748.560    92157315.96346
  21387741.240   112393384.21008  21387744.640    87579295.86448
  24363814.260   128032601.03305  24363826.460    99765663.21246
  21659586.380   113821967.06308  21659589.500    88692492.86648
  23241529.900   122135049.21507  23241536.120    95170187.03546
  20826940.060   109446341.96809  20826943.700    85282896.89248
  23044008.760   121097125.16007  23044013.480    94361418.27145
  24556797.320   129046830.25105  24556805.160   100556002.28644
  22657757.680   119067504.24107  22657762.560    92779974.71646
  20326038.820   106814325.22209  20326043.940    83232084.08849
 15 01 20 14 58  0.0000000  0 10G02G05G06G07G09G10G13G20G28G30
  22517139.300   118328391.26707  22517142.080    92203970.38646
  21376279.340   112333151.82308  21376282.760    87532361.58448
  24382877.340   128132774.68906  24382889.560    99843719.87045
  21672907.540   113891969.93108  21672910.620    88747040.56248
  23254633.200   122203907.22407  23254639.440    95223842.60846
  20837954.420   109504222.96509  20837958.100    85327998.95748
  23030638.440   121026863.51207  23030643.020    94306669.03145
  24577374.820   129154962.57005  24577382.480   100640260.62644
  22642448.860   118987056.20907  22642453.640    92717288.03446
  20330017.080   106835231.30109  20330022.220    83248374.56449
 15 01 20 14 58 30.0000000  0 10G02G05G06G07G09G10G13G20G28G30
  22528600.640   118388621.07807  22528603.400    92250902.65146
  21364891.860   112273310.40408  21364895.240    87485731.96248
  24401932.480   128232906.88906  24401944.860    99921744.19545
  21686277.080   113962226.99208  21686280.100    88801786.33448
  23267756.440   122272870.09807  23267762.620    95277579.88646
  20849053.020   109562546.78309  20849056.760    85373446.08448
  23017284.420   120956687.72907  23017288.860    94251986.69144
  24597969.260   129263184.49905  24597976.840   100724588.75144
  22627188.340   118906862.24507  22627192.960    92654799.30745
  20334083.700   106856601.76409  20334088.880    83265026.89849
 15 01 20 14 59  0.0000000  0 10G02G05G06G07G09G10G13G20G28G30
  22540129.240   118449203.91207  22540131.920    92298110.01546
  21353579.020   112213861.23308  21353582.360    87439407.97648
  24420979.080   128332994.01906  24420991.560    99999733.39246
  21699694.460   114032735.75708  21699697.460    88856728.24348
  23280899.560   122341937.13407  23280905.600    95331398.35046
  20860235.500   109621311.25109  20860239.220    85419236.56948
  23003946.540   120886597.18507  23003950.920    94197370.78345
  24618580.320   129371493.68105  24618588.020   100808984.81444
  22611976.540   118826924.35107  22611980.860    92592510.11846
  20338238.300   106878434.38709  20338243.460    83282039.36049
 15 01 20 14 59 30.0000000  0 10G02G05G06G07G09G10G13G20G28G30
  22551724.620   118510137.39607  22551727.220    92345590.60146
  21342341.340   112154806.85508  21342344.640    87393391.61848
  24440016.760   128433033.71105  24440029.280   100077685.58845
  21713159.340   114103494.32908  21713162.300    88911864.80548
  23294062.500   122411108.71107  23294068.500    95385298.26446
  20871501.860   109680516.24109  20871505.540    85465370.32148
  22990625.040   120816592.53807  22990629.280    94142821.79745
  24639207.740   129479888.23905  24639215.560   100893447.41843
  22596814.080   118747245.59008  22596818.100    92530422.86245
  20342480.600   106900728.03209  20342485.760    83299411.05349
 15 01 20 15 00  0.0000000  0 10G02G05G06G07G09G10G13G20G28G30
  22563386.280   118571419.61507  22563388.920    92393342.92846
  21331179.400   112096150.72508  21331182.720    87347685.59248
  24459045.020   128533024.19506  24459057.660   100155599.36945
  21726671.540   114174501.59308  21726674.520    88967195.15748
  23307245.460   122480385.76507  23307251.480    95439280.36146
  20882851.980   109740161.43309  20882855.640    85511847.08348
  22977320.120   120746674.78707  22977324.200    94088340.51345
  24659851.280   129588367.28705  24659859.180   100977975.75244
  22581701.740   118667829.91508  22581705.520    92468540.61245
  20346810.540   106923482.10909  20346815.680    83317141.53249
 15 01 20 15 00 30.0000000  0 10G02G05G06G07G09G10G13G20G28G30
  22575113.520   118633046.82707  22575116.300    92441364.06746
  21320093.460   112037893.74909  21320096.740    87302290.59248
  24478063.080   128632961.59305  24478076.080   100233471.81645
  21740230.520   114245754.54508  21740233.500    89022716.95048
  23320448.260   122549767.22907  23320454.240    95493343.83346
  20894285.500   109800244.78309  20894289.120    85558665.27248
  22964031.520   120676843.02507  22964035.500    94033926.23745
  24680510.380   129696928.11105  24680518.120   101062567.78345
  22566639.920   118588679.28808  22566643.560    92406864.89946
  20351227.620   106946694.04509  20351232.720    83335228.78349
 15 01 20 15 01  0.0000000  0 10G02G05G06G07G09G10G13G20G28G30
  22586905.740   118695016.04707  22586908.680    92489651.73046
  21309083.900   111980038.28609  21309087.180    87257208.45748
  24497070.440   128732843.23305  24497083.920   100311300.74845
  21753835.840   114317250.88208  21753838.780    89078428.41048
  23333671.000   122619253.27007  23333676.980    95547488.79646
  20905802.120   109860764.89909  20905805.740    85605823.80048
  22950759.300   120607097.74807  22950763.260    93979579.35645
  24701184.780   129805568.95405  24701192.540   101147222.20144
  22551629.080   118509796.45808  22551632.740    92345397.89046
  20355731.600   106970362.43309  20355736.660    83353671.71649
 15 01 20 15 01 30.0000000  0 10G02G05G06G07G09G10G13G20G28G30
  22598762.600   118757324.51907  22598765.580    92538203.72746
  21298151.060   111922586.05509  21298154.340    87212440.52548
  24516066.500   128832665.93105  24516080.480   100389083.73746
  21767487.020   114388988.21408  21767489.900    89134327.65748
  23346913.600   122688843.36607  23346919.560    95601714.83946
  20917401.560   109921720.21509  20917405.180    85653321.44048
  22937503.520   120537438.93207  22937507.520    93925299.83245
  24721874.020   129914287.46706  24721881.820   101231937.06944
  22536669.620   118431183.95208  22536673.440    92284141.51346
  20360322.000   106994485.15109  20360327.040    83372468.67149
 15 01 20 15 02  0.0000000  0 10G02G05G06G07G09G10G13G20G28G30
  22610683.480   118819968.74107  22610686.380    92587017.33446
  21287295.360   111865539.21909  21287298.660    87167988.48648
  24535050.780   128932426.88105  24535065.320   100466818.53746
  21781183.640   114460964.36208  21781186.480    89190413.01448
  23360176.000   122758537.44407  23360181.940    95656021.91846
  20929083.620   109983109.61509  20929087.220    85701157.33548
  22924264.120   120467865.98308  22924268.200    93871087.21245
  24742577.580   130023081.78805  24742585.760   101316710.98244
  22521762.040   118352844.42608  22521766.160    92223097.86246
  20364998.560   107019060.63909  20365003.600    83391618.43049
 15 01 20 15 02 30.0000000  0  9G02G05G06G07G09G10G13G28G30
  22622665.280   118882932.04007  22622667.900    92636079.57846
  21276514.520   111808885.76908  21276517.840    87123842.98648
  24554020.180   129032109.16005  24554035.220   100544492.02545
  21794922.620   114533163.09508  21794925.460    89246671.79348
  23373455.560   122828321.44007  23373461.420    95710399.06046
  20940845.320   110044917.71109  20940848.880    85749319.48748
  22911038.560   120398365.36108  22911042.600    93816930.96445
  22506904.180   118274766.77008  22506908.580    92162258.26746
  20369758.260   107044073.19209  20369763.340    83411108.76549
 15 01 20 15 03  0.0000000  0  9G02G05G06G07G09G10G13G28G30
  22634715.980   118946257.32207  22634718.300    92685423.87146
  21265817.620   111752673.52208  21265820.980    87080041.27448
  24572982.840   129131755.74705  24572998.200   100622137.66946
  21808712.180   114605627.88408  21808715.060    89303137.88548
  23386760.920   122898241.01107  23386766.720    95764881.83346
  20952695.140   110107189.15309  20952698.720    85797842.68948
  22897835.460   120328982.94107  22897839.520    93762866.80845
  22492105.180   118196999.01308  22492109.840    92101660.15646
  20374609.500   107069566.85909  20374614.580    83430973.99349
 15 01 20 15 03 30.0000000  0  9G02G05G06G07G09G10G13G28G30
  22646826.060   119009894.81707  22646828.140    92735011.44746
  21255196.240   111696857.92208  21255199.560    87036548.64448
  24591929.520   129231317.05305  24591945.100   100699716.82046
  21822543.060   114678310.00708  21822546.020    89359773.32248
  23400083.100   122968249.27707  23400088.900    95819433.72446
  20964623.980   110169875.66709  20964627.580    85846689.32448
  22884645.940   120259671.90907  22884650.020    93708858.28545
  22477356.920   118119497.74008  22477361.600    92041269.69346
  20379543.080   107095493.17009  20379548.160    83451176.33849
 15 01 20 15 04  0.0000000  0  9G02G05G06G07G09G10G13G28G30
  22658997.720   119073856.88007  22658999.820    92784851.92846
  21244653.640   111641456.06109  21244656.860    86993378.40048
  24610862.500   129330805.52905  24610878.160   100777239.14545
  21836417.780   114751222.63608  21836420.840    89416588.37048
  23413424.980   123038361.41907  23413430.860    95874066.56246
  20976634.420   110232991.06109  20976638.060    85895870.15248
  22871472.920   120190447.84407  22871477.100    93654917.52346
  22462662.820   118042280.64308  22462667.260    91981100.66946
  20384561.540   107121865.66509  20384566.620    83471726.36549
 15 01 20 15 04 30.0000000  0  9G02G05G06G07G09G10G13G28G30
  22671230.640   119138141.75807  22671233.020    92834943.98046
  21234190.460   111586471.39309  21234193.560    86950533.24948
  24629781.420   129430219.78205  24629797.160   100854703.64545
  21850336.080   114824364.25608  21850339.220    89473581.83648
  23426786.780   123108578.66706  23426792.760    95928781.30146
  20988726.600   110296535.82509  20988730.260    85945385.55448
  22858316.700   120121312.02707  22858320.960    93601045.53645
  22448023.660   117965351.80808  22448027.780    91921156.27246
  20389664.860   107148684.04009  20389669.900    83492623.82649
 15 01 20 15 05  0.0000000  0  9G02G05G06G07G09G10G13G28G30
  22683524.200   119202745.50907  22683526.860    92885284.49746
  21223806.860   111531905.13309  21223809.920    86908014.12848
  24648685.560   129529556.03305  24648701.240   100932107.28946
  21864297.480   114897732.26008  21864300.700    89530751.72648
  23440168.340   123178900.08506  23440174.520    95983577.19746
  21000900.060   110360507.55209  21000903.700    85995233.66048
  22845177.220   120052263.96207  22845181.480    93547241.91645
  22433439.800   117888713.29608  22433443.580    91861438.10546
  20394852.520   107175945.58509  20394857.540    83513866.61949
 15 01 20 15 05 30.0000000  0  9G02G05G06G07G09G10G13G28G30
  22695877.900   119267665.41007  22695880.800    92935871.36446
  21213503.300   111477759.76009  21213506.380    86865822.97148
  24667574.460   129628811.85006  24667590.040   101009448.24645
  21878301.680   114971324.77308  21878304.880    89588096.55148
  23453569.680   123249325.81606  23453576.100    96038454.39246
  21013154.540   110424905.16409  21013158.140    86045413.61448
  22832054.480   119983303.91007  22832058.740    93493506.87645
  22418911.680   117812367.47808  22418915.240    91801948.00146
  20400124.240   107203648.88709  20400129.240    83535453.63049
 15 01 20 15 06  0.0000000  0  9G02G05G06G07G09G10G13G28G30
  22708291.080   119332897.20907  22708294.040    92986701.25746
  21203279.900   111424035.70909  21203282.980    86823960.11748
  24686447.280   129727983.18505  24686462.740   101086723.36445
  21892348.040   115045138.56408  21892351.140    89645613.80348
  23466990.740   123319854.60106  23466997.220    96093411.88446
  21025489.540   110489725.87609  21025493.100    86095923.25748
  22818948.280   119914430.53207  22818952.480    93439839.38545
  22404439.460   117736316.03708  22404443.060    91742687.28946
  20405479.480   107231790.91309  20405484.420    83557382.50649
 15 01 20 15 06 30.0000000  0  8G02G05G07G09G10G13G28G30
  22720762.000   119398431.50307  22720764.820    93037766.85646
  21193135.820   111370728.43209  21193138.900    86782422.02048
  21906434.800   115119164.54608  21906437.780    89703296.39948
  23480430.240   123390479.73407  23480436.700    96148444.44847
  21037903.520   110554961.72909  21037907.060    86146756.38748
  22805857.420   119845637.83207  22805861.580    93386234.77245
  22390022.420   117660555.03708  22390026.240    91683652.86446
  20410916.600   107260363.35509  20410921.520    83579646.76949
 15 01 20 15 07  0.0000000  0  8G02G05G07G09G10G13G28G30
  22733293.560   119464283.83407  22733296.160    93089080.27946
  21183074.980   111317858.62109  21183078.060    86741224.80848
  21920565.060   115193419.09108  21920567.920    89761157.08948
  23493891.640   123461219.50906  23493898.080    96203566.34046
  21050399.680   110620629.64309  21050403.200    86197926.18748
  22792785.360   119776943.89807  22792789.440    93332707.10346
  22375664.700   117585105.80208  22375668.740    91624861.36546
  20416438.820   107289382.82709  20416443.720    83602259.36449
 15 01 20 15 07 30.0000000  0  8G02G05G07G09G10G13G28G30
  22745882.740   119530438.87907  22745885.120    93140629.57546
  21173095.480   111265416.28909  21173098.580    86700360.69449
  21934736.060   115267887.87508  21934738.860    89819184.73848
  23507372.580   123532061.73007  23507379.020    96258768.04446
  21062975.520   110686716.37209  21062979.060    86249422.34248
  22779729.900   119708337.29307  22779733.960    93279247.50645
  22361364.540   117509958.74008  22361368.700    91566305.30346
  20422043.460   107318835.40209  20422048.320    83625209.43849
 15 01 20 15 08  0.0000000  0  8G02G05G07G09G10G13G28G30
  22758529.040   119596894.79907  22758531.320    93192413.32846
  21163197.880   111213404.28608  21163201.020    86659831.90149
  21948947.660   115342570.25908  21948950.460    89877378.80148
  23520873.340   123603007.64407  23520879.640    96314050.57046
  21075631.000   110753221.60508  21075634.560    86301244.60048
  22766691.260   119639818.81108  22766695.200    93225856.56146
  22347122.700   117435117.71808  22347126.920    91507987.70146
  20427730.440   107348720.67809  20427735.300    83648496.68349
 15 01 20 15 08 30.0000000  0  8G02G05G07G09G10G13G28G30
  22771232.420   119663651.54007  22771234.760    93244431.49346
  21153383.160   111161827.80509  21153386.320    86619642.47549
  21963200.040   115417466.96808  21963202.840    89935739.87348
  23534394.220   123674060.29506  23534400.580    96369416.25646
  21088366.460   110820146.99909  21088370.060    86353394.25748
  22753670.060   119571391.97208  22753673.900    93172537.04146
  22332940.320   117360588.61308  22332944.440    91449913.13446
  20433500.040   107379039.96009  20433504.860    83672122.11549
 15 01 20 15 09  0.0000000  0  8G02G05G07G09G10G13G28G30
  22783992.360   119730706.10507  22783994.940    93296681.74046
  21143651.680   111110688.44109  21143654.800    86579793.66049
  21977492.620   115492575.46108  21977495.480    89994265.96448
  23547935.080   123745219.13806  23547941.760    96424864.67046
  21101181.560   110887490.77809  21101185.200    86405869.92548
  22740666.280   119503056.51008  22740670.000    93119288.71345
  22318817.780   117286373.61808  22318821.640    91392083.33746
  20439351.800   107409790.91409  20439356.560    83696083.92049
 15 01 20 15 09 30.0000000  0  8G02G05G07G09G10G13G28G30
  22796807.780   119798052.39607  22796810.640    93349159.30346
  21134003.260   111059985.57209  21134006.360    86540284.97749
  21991824.660   115567891.05508  21991827.520    90052953.42548
  23561495.640   123816481.45706  23561502.640    96480393.77346
  21114075.520   110955248.79309  21114079.160    86458668.38248
  22727679.360   119434809.95608  22727683.040    93066109.67646
  22304755.080   117212472.79008  22304758.580    91334498.34846
  20445284.820   107440969.13109  20445289.580    83720378.65849
 15 01 20 15 10  0.0000000  0  8G02G05G07G09G10G13G28G30
  22809678.280   119865687.81307  22809681.360    93401862.15446
  21124438.280   111009721.35809  21124441.320    86501118.09749
  22006195.720   115643411.65608  22006198.620    90111800.64547
  23575075.880   123887847.29606  23575083.200    96536003.52146
  21127048.020   111023419.73208  21127051.660    86511788.59748
  22714709.360   119366652.54308  22714713.060    93013000.09746
  22290752.640   117138888.76208  22290755.840    91277160.21346
  20451298.800   107472572.94309  20451303.580    83745005.02149
 15 01 20 15 10 30.0000000  0  8G02G05G07G09G10G13G28G30
  22822603.480   119933609.88507  22822606.620    93454788.36446
  21114957.240   110959898.46109  21114960.260    86462295.09649
  22020605.520   115719135.85308  22020608.480    90170806.50448
  23588676.020   123959317.41006  23588683.500    96591694.52146
  21140098.920   111092002.65909  21140102.580    86565229.84348
  22701756.540   119298585.52108  22701760.300    92959960.94646
  22276811.040   117065625.24908  22276814.080    91220071.83146
  20457393.560   107504601.26009  20457398.380    83769962.17049
 15 01 20 15 11  0.0000000  0  8G02G05G07G09G10G13G28G30
  22835582.600   120001814.67807  22835585.660    93507934.88846
  21105560.400   110910517.96009  21105563.380    86423816.82049
  22035053.500   115795060.86808  22035056.540    90229968.84748
  23602295.980   124030890.66406  23602303.400    96647465.86846
  21153227.760   111160995.22308  21153231.440    86618990.28748
  22688820.740   119230607.76208  22688824.500    92906991.34346
  22262930.580   116992683.66708  22262933.600    91163234.31346
  20463568.580   107537051.27509  20463573.400    83795247.91649
 15 01 20 15 11 30.0000000  0  8G02G05G07G09G10G13G28G30
  22848615.020   120070299.87607  22848618.020    93561299.89246
  21096248.220   110861582.58809  21096251.260    86385685.40549
  22049539.600   115871185.91108  22049542.680    90289287.05647
  23615936.000   124102568.11106  23615943.120    96703318.40546
  21166434.520   111230396.99209  21166438.180    86673069.59548
  22675902.200   119162720.78308  22675905.980    92854092.48346
  22249111.960   116920067.67908  22249115.180    91106650.51446
  20469823.700   107569922.21509  20469828.520    83820861.65849
 15 01 20 15 12  0.0000000  0  8G02G05G07G09G10G13G28G30
  22861700.320   120139063.23007  22861703.200    93614881.64245
  21087021.260   110813095.05109  21087024.340    86347902.94149
  22064063.360   115947508.65408  22064066.440    90348759.32948
  23629595.980   124174350.27906  23629602.740    96759252.55846
  21179718.960   111300207.03809  21179722.560    86727467.03348
  22663001.000   119094925.28207  22663004.880    92801264.88646
  22235355.880   116847780.26008  22235359.360    91050322.75146
  20476158.680   107603212.89109  20476163.480    83846802.47549
