     2.11           OBSERVATION DATA    M                   RINEX VERSION / TYPE
SPIDER V4,0,0,3554                      2015 03 16 00:52    PGM / RUN BY / DATE 
ABKD                                                        MARKER NAME         
ABKD                                                        MARKER NUMBER       
                                                            OBSERVER / AGENCY   
496503              LEICA GRX1200+GNSS  8.20/4.007          REC # / TYPE / VERS 
10301028            LEIAR25         NONE                    ANT # / TYPE        
  5126847.8297   206786.8373  3776118.0908                  APPROX POSITION XYZ 
        0.0000        0.0000        0.0000                  ANTENNA: DELTA H/E/N
     1     1                                                WAVELENGTH FACT L1/2
     4    C1    L1    P2    L2                              # / TYPES OF OBSERV 
    30.000                                                  INTERVAL            
  2015    02    26    00    00    0.0000000     GPS         TIME OF FIRST OBS   
  2015    02    26    23    59   30.0000000     GPS         TIME OF LAST OBS    
    16                                                      LEAP SECONDS        
    38                                                      # OF SATELLITES     
   G 1   822   822   822   822                              PRN / # OF OBS      
   G 2   930   930   930   930                              PRN / # OF OBS      
   G 3   827   827   826   826                              PRN / # OF OBS      
   G 4   836   836   836   836                              PRN / # OF OBS      
   G 5   666   666   666   666                              PRN / # OF OBS      
   G 6   736   736   736   736                              PRN / # OF OBS      
   G 7   705   705   704   704                              PRN / # OF OBS      
   G 9   784   784   782   782                              PRN / # OF OBS      
   G10   773   773   773   773                              PRN / # OF OBS      
   G11   788   788   788   788                              PRN / # OF OBS      
   G12   809   809   809   809                              PRN / # OF OBS      
   G13   811   811   811   811                              PRN / # OF OBS      
   G14   936   936   935   935                              PRN / # OF OBS      
   G15   723   723   723   723                              PRN / # OF OBS      
   G16   687   687   687   687                              PRN / # OF OBS      
   G17   933   933   933   933                              PRN / # OF OBS      
   G18   934   934   934   934                              PRN / # OF OBS      
   G19   772   772   772   772                              PRN / # OF OBS      
   G20   794   794   794   794                              PRN / # OF OBS      
   G21   711   711   710   710                              PRN / # OF OBS      
   G22   791   791   791   791                              PRN / # OF OBS      
   G23   717   717   716   716                              PRN / # OF OBS      
   G24   832   832   832   832                              PRN / # OF OBS      
   G25   847   847   847   847                              PRN / # OF OBS      
   G27   821   821   821   821                              PRN / # OF OBS      
   G28   910   910   910   910                              PRN / # OF OBS      
   G29   744   744   742   742                              PRN / # OF OBS      
   G30   688   688   688   688                              PRN / # OF OBS      
   G31   789   789   789   789                              PRN / # OF OBS      
   G32   735   735   732   732                              PRN / # OF OBS      
   R 3    30    30    30    30                              PRN / # OF OBS      
   R 4    27    27    27    24                              PRN / # OF OBS      
   R 9    30    30    30    30                              PRN / # OF OBS      
   R10    30    30    30    30                              PRN / # OF OBS      
   R16    30    30    30    30                              PRN / # OF OBS      
   R18    30    30    30    30                              PRN / # OF OBS      
   R19    30    30    30    30                              PRN / # OF OBS      
   R20    30    30    30    30                              PRN / # OF OBS      
BIT 2 OF LLI FLAGS DATA COLLECTED UNDER A/S CONDITION       COMMENT             
SNR is mapped to RINEX snr flag value [2-9]                 COMMENT             
Lx:     = 25dBHz -> 1; 26-27dBHz -> 2; 28-31dBHz -> 3       COMMENT             
       32-35dBHz -> 4; 36-38dBHz -> 5; 39-41dBHz -> 6       COMMENT             
       42-44dBHz -> 7; 45-48dBHz -> 8; >=49dBHz -> 9        COMMENT             
                                                            END OF HEADER       
 15 02 26 00 00  0.0000000  0 14G16G18G21G22G27G29G31R03R09R10R16R18
                                R19R20
  21740038.760   114244699.64409  21740035.220    89021833.46347
  22961676.520   120664449.00108  22961673.060    94024245.62046
  21232803.060   111579373.81108  21232798.980    86945054.88048
  24342367.340   127920011.35908  24342363.160    99677915.94445
  22875259.800   120210325.90108  22875258.280    93670386.71647
  23893229.820   125560192.71208  23893227.240    97839292.85546
  22691737.180   119245931.24609  22691733.740    92918915.81147
  22843977.160   122285602.30807  22843977.040    95111025.49207
  19675233.440   105064663.19308  19675233.740    81716974.97206
  22383467.880   119316481.47308  22383473.120    92801737.71905
  20855417.840   111405938.62808  20855419.700    86649099.19108
  21827723.540   116518169.29809  21827725.600    90625212.41308
  19928033.380   106601667.88109  19928031.900    82912460.63208
  22417992.460   119879094.84706  22417994.960    93239311.85307
 15 02 26 00 00 30.0000000  0 14G16G18G21G22G27G29G31R03R09R10R16R18
                                R19R20
  21726523.400   114173675.09109  21726519.700    88966489.64648
  22949218.100   120598979.59808  22949214.640    93973230.51646
  21239050.400   111612203.02608  21239046.220    86970636.08348
  24324753.960   127827453.13008  24324749.580    99605792.80845
  22862757.200   120144626.80408  22862756.380    93619192.62547
  23907808.160   125636802.19308  23907805.560    97898988.49745
  22708847.300   119335844.55609  22708843.700    92988978.11547
  22835644.360   122240996.26107  22835644.220    95076331.91507
  19674868.580   105062716.05208  19674869.120    81715460.52106
  22363119.220   119208011.00108  22363124.380    92717371.79706
  20876028.500   111516036.91408  20876030.320    86734731.16408
  21843061.040   116600041.71209  21843063.080    90688890.94208
  19928609.700   106604750.32809  19928608.120    82914858.09708
  22404619.780   119807585.43007  22404622.220    93183693.43807
 15 02 26 00 01  0.0000000  0 14G16G18G21G22G27G29G31R03R09R10R16R18
                                R19R20
  21713054.700   114102895.61509  21713050.920    88911336.81748
  22936805.900   120533753.00208  22936802.380    93922404.62846
  21245367.460   111645399.02508  21245363.240    86996503.10548
  24307131.760   127734848.82108  24307127.340    99533633.77545
  22850278.080   120079050.88508  22850277.780    93568094.52047
  23922389.460   125713427.52108  23922387.020    97958696.52445
  22726000.100   119425981.77009  22725996.180    93059214.89747
  22827426.280   122197004.31307  22827426.120    95042115.98107
  19674658.320   105061593.69708  19674658.960    81714587.58006
  22342851.460   119099971.91808  22342856.580    92633341.41106
  20896727.540   111626607.51008  20896729.520    86820730.50308
  21858404.540   116681946.34608  21858406.580    90752594.52608
  19929245.860   106608153.28609  19929244.320    82917504.84808
  22391294.800   119736330.52207  22391297.220    93128273.00007
 15 02 26 00 01 30.0000000  0 15G16G18G21G22G27G29G31R03R04R09R10R16
                                R18R19R20
  21699632.540   114032361.23409  21699628.760    88856374.98247
  22924439.960   120468769.73608  22924436.460    93871768.32246
  21251753.620   111678958.04108  21251749.320    87022652.99648
  24289500.860   127642198.62308  24289496.460    99461438.95245
  22837822.260   120013595.98108  22837822.260    93517090.71447
  23936973.340   125790066.57208  23936970.940    98018415.25744
  22743194.500   119516338.10509  22743190.280    93129622.42947
  22819323.000   122153627.57807  22819323.040    95008378.57707
  23565597.700   126192701.23207  23565597.640                  
  19674602.140   105061294.18808  19674602.920    81714354.62405
  22322664.960   118992366.61508  22322670.100    92549648.40805
  20917513.760   111737644.24708  20917516.040    86907092.40108
  21873753.380   116763879.70208  21873755.440    90816320.46308
  19929941.100   106611872.88609  19929939.740    82920397.87608
  22378016.960   119665327.56507  22378019.440    93073048.49907
 15 02 26 00 02  0.0000000  0 15G16G18G21G22G27G29G31R03R04R09R10R16
                                R18R19R20
  21686257.600   113962075.07609  21686253.780    88801606.55047
  22912121.060   120404033.72609  22912117.660    93821324.68946
  21258208.760   111712879.71808  21258204.400    87049085.47248
  24271861.940   127549506.14808  24271857.580    99389211.18545
  22825389.960   119948263.12608  22825389.780    93466182.03047
  23951560.060   125866720.11407  23951557.840    98078145.31043
  22760430.060   119606911.42409  22760425.740    93200199.02547
  22811335.420   122110869.75207  22811335.440    94975122.51906
  23545790.260   126086633.13807  23545790.240                  
  19674700.420   105061818.90408  19674701.080    81714762.72905
  22302560.760   118885200.35608  22302565.920    92466296.90406
  20938386.680   111849144.42208  20938389.200    86993814.74008
  21889107.560   116845841.45908  21889109.620    90880068.47107
  19930695.540   106615908.76509  19930694.260    82923536.88708
  22364786.320   119594577.52607  22364788.740    93018020.71607
 15 02 26 00 02 30.0000000  0 15G16G18G21G22G27G29G31R03R04R09R10R16
                                R18R19R20
  21672929.820   113892036.88309  21672925.980    88747031.35548
  22899849.160   120339544.71108  22899845.900    93771073.52346
  21264732.120   111747160.34608  21264727.760    87075797.65548
  24254215.000   127456771.69308  24254210.680    99316950.68345
  22812980.480   119883050.09808  22812979.980    93415366.71347
  23966149.040   125943385.22406  23966146.800    98137884.37444
  22777705.760   119697696.74409  22777701.600    93270940.82447
  22803463.640   122068731.62107  22803463.560    94942348.43406
  23526000.340   125980659.13807  23526000.080                  
  19674952.740   105063165.76108  19674953.240    81715810.27106
  22282539.240   118778474.99008  22282544.380    92383288.30906
  20959345.100   111961101.21808  20959347.740    87080892.23608
  21904466.460   116927828.17709  21904468.460    90943835.91007
  19931508.320   106620257.01009  19931507.200    82926918.86208
  22351602.520   119524077.85707  22351604.760    92963187.66907
 15 02 26 00 03  0.0000000  0 15G16G18G21G22G27G29G31R03R04R09R10R16
                                R18R19R20
  21659650.340   113822252.65309  21659646.460    88692654.03548
  22887625.520   120275309.21009  22887622.260    93721019.89746
  21271324.100   111781801.61808  21271319.720    87102790.85748
  24236561.340   127364001.51708  24236557.100    99244662.34945
  22800594.500   119817960.57008  22800593.740    93364647.61647
  23980740.980   126020066.06606  23980738.340    98197635.67144
  22795021.860   119788694.75709  22795018.060    93341848.35447
  22795708.860   122027219.55107  22795708.860    94910061.28906
  23506229.340   125874787.19306  23506229.180    97902613.95206
  19675359.760   105065338.82208  19675360.140    81717500.43005
  22262602.000   118672198.36108  22262607.100    92300628.73006
  20980389.160   112073514.51008  20980391.640    87168324.78608
  21919830.480   117009842.23108  21919832.500    91007624.61208
  19932379.860   106624919.54309  19932378.800    82930545.27308
  22338466.260   119453832.20607  22338468.300    92908552.17107
 15 02 26 00 03 30.0000000  0 15G16G18G21G22G27G29G31R03R04R09R10R16
                                R18R19R20
  21646419.680   113752725.11309  21646415.680    88638476.72948
  22875450.780   120211330.67408  22875447.500    93671166.50946
  21277984.580   111816802.67708  21277980.140    87130064.41948
  24218901.600   127271198.97308  24218897.460    99172348.75445
  22788232.080   119752995.36708  22788231.300    93314025.40047
  23995335.980   126096763.15606  23995333.600    98257399.60145
  22812378.140   119879903.43009  22812374.680    93412920.02947
  22788071.780   121986337.63107  22788071.680    94878264.27007
  23486478.380   125769022.64607  23486478.340    97820352.70306
  19675921.720   105068339.02908  19675921.960    81719833.91005
  22242750.040   118566375.80708  22242755.080    92218322.30506
  21001518.140   112186380.94608  21001520.300    87256109.78008
  21935199.520   117091883.22109  21935201.700    91071434.25508
  19933310.020   106629895.84209  19933308.920    82934415.73108
  22325377.540   119383841.18107  22325379.640    92854114.75507
 15 02 26 00 04  0.0000000  0 15G16G18G21G22G27G29G31R03R04R09R10R16
                                R18R19R20
  21633237.400   113683451.98409  21633233.360    88584497.67848
  22863324.560   120147606.88209  22863321.220    93621511.62546
  21284712.400   111852157.52608  21284707.900    87157613.65648
  24201235.400   127178362.22908  24201231.260    99100008.54445
  22775892.500   119688150.16608  22775891.940    93263496.70347
  24009933.100   126173471.58406  24009930.780    98317172.30745
  22829773.260   119971315.39309  22829770.060    93484150.10347
  22780551.940   121946083.72207  22780551.900    94846955.73406
  23466747.440   125663365.45407  23466747.680    97738174.93007
  19676637.720   105072162.17808  19676637.920    81722807.46006
  22222983.160   118461006.74408  22222988.100    92136368.59805
  21022730.420   112299692.01408  21022732.240    87344240.58708
  21950572.520   117173945.42408  21950574.760    91135260.39207
  19934297.760   106635180.14909  19934296.700    82938525.73308
  22312335.620   119314100.06207  22312337.640    92799871.68107
 15 02 26 00 04 30.0000000  0 15G16G18G21G22G27G29G31R03R04R09R10R16
                                R18R19R20
  21620104.980   113614440.89809  21620100.880    88530722.80448
  22851248.340   120084145.88308  22851244.900    93572061.50846
  21291508.320   111887870.63908  21291503.860    87185442.04848
  24183564.100   127085499.53508  24183560.020    99027648.12746
  22763576.840   119623430.38108  22763576.280    93213065.70447
  24024533.480   126250196.75007  24024530.980    98376958.11445
  22847207.640   120062933.22109  22847204.480    93555540.59847
  22773151.000   121906466.28807  22773150.940    94816142.19307
  23447038.360   125557825.43306  23447038.900    97656088.31806
  19677508.760   105076813.79308  19677509.080    81726425.38106
  22203303.160   118356101.02708  22203307.980    92054775.26206
  21044026.140   112413449.09208  21044027.740    87432718.30008
  21965950.220   117256033.17308  21965952.500    91199106.39607
  19935343.820   106640776.13809  19935342.900    82942878.17308
  22299341.480   119244614.17107  22299343.440    92745827.12207
 15 02 26 00 05  0.0000000  0 15G16G18G21G22G27G29G31R03R04R09R10R16
                                R18R19R20
  21607021.720   113545688.47109  21607017.700    88477149.48548
  22839221.540   120020944.72008  22839218.080    93522813.86946
  21298371.060   111923934.84708  21298366.680    87213544.02148
  24165887.140   126992607.59207  24165883.180    98955264.90745
  22751284.020   119558830.37208  22751283.480    93162728.05748
  24039136.060   126326933.24507  24039133.580    98436752.77145
  22864679.540   120154748.13609  22864676.260    93627084.65947
  22765868.460   121867482.37208  22765868.560    94785821.38007
  23427351.100   125452401.52307  23427351.660    97574091.98106
  19678533.960   105082288.30608  19678534.320    81730683.32706
  22183709.800   118251657.52308  22183714.440    91973541.43206
  21065403.320   112527642.11908  21065405.020    87521535.08008
  21981331.500   117338139.48709  21981333.640    91262966.85507
  19936446.920   106646676.90909  19936446.080    82947467.65408
  22286393.980   119175377.44107  22286395.920    92691976.34707
 15 02 26 00 05 30.0000000  0 15G16G18G21G22G27G29G31R03R04R09R10R16
                                R18R19R20
  21593989.440   113477203.96309  21593985.500    88423784.94248
  22827245.980   119958012.86908  22827242.540    93473776.08846
  21305301.580   111960355.16908  21305297.240    87241923.49648
  24148206.400   126899695.94008  24148202.520    98882866.32445
  22739015.380   119494357.21709  22739014.820    93112489.25748
  24053741.920   126403687.72807  24053739.440    98496561.46545
  22882189.780   120246764.67709  22882186.300    93698785.84647
  22758706.160   121829141.90707  22758706.160    94756001.02806
  23407687.820   125347105.45807  23407688.300    97492195.09006
  19679714.600   105088592.88008  19679714.940    81735586.87406
  22164205.160   118147687.06408  22164209.560    91892675.52806
  21086862.660   112642274.50708  21086864.620    87610693.58708
  21996717.480   117420270.22109  21996719.440    91326846.30807
  19937607.920   106652887.68009  19937607.060    82952298.26308
  22273494.320   119106396.79307  22273496.420    92638324.76307
 15 02 26 00 06  0.0000000  0 15G16G18G21G22G27G29G31R03R04R09R10R16
                                R18R19R20
  21581007.280   113408982.57509  21581003.340    88370625.41948
  22815320.820   119895345.85108  22815317.420    93424944.65146
  21312298.280   111997123.38108  21312294.040    87270574.04248
  24130521.180   126806760.37007  24130517.240    98810449.11345
  22726769.640   119430004.24709  22726768.940    93062344.10847
  24068349.860   126480453.36207  24068347.440    98556378.83445
  22899736.400   120338972.63209  22899732.760    93770636.18847
  22751663.240   121791440.88307  22751663.140    94726678.03507
  23388048.000   125241934.57007  23388048.240    97410395.54306
  19681049.400   105095720.47708  19681049.740    81741130.56106
  22144788.700   118044187.26508  22144793.080    91812175.69806
  21108402.120   112757335.08508  21108404.240    87700185.13407
  22012106.540   117502417.55308  22012108.420    91390738.65207
  19938825.420   106659400.01309  19938824.420    82957363.41108
  22260641.160   119037665.26407  22260643.500    92584866.93107
 15 02 26 00 06 30.0000000  0 15G16G18G21G22G27G29G31R03R04R09R10R16
                                R18R19R20
  21568075.900   113341027.88009  21568071.860    88317673.70848
  22803446.840   119832947.93309  22803443.400    93376322.89746
  21319361.160   112034239.22608  21319357.000    87299495.47248
  24112832.280   126713805.04408  24112828.200    98738016.47945
  22714546.980   119365772.90209  22714545.840    93012293.71847
  24082960.320   126557231.53807  24082957.800    98616205.93744
  22917319.180   120431370.94409  22917315.500    93842634.86047
  22744740.560   121754383.19207  22744740.300    94697855.40907
  23368432.600   125136895.10907  23368432.780    97328698.22606
  19682538.660   105103672.77008  19682539.040    81747315.65006
  22125461.640   117941163.96108  22125466.060    91732046.48706
  21130021.360   112872821.15008  21130023.420    87790007.60607
  22027498.680   117584581.75908  22027500.540    91454644.15007
  19940099.280   106666214.08009  19940098.340    82962663.24408
  22247834.720   118969184.04607  22247837.120    92531603.77507
 15 02 26 00 07  0.0000000  0 15G16G18G21G22G27G29G31R03R04R09R10R16
                                R18R19R20
  21555196.220   113273344.76209  21555192.140    88264933.63547
  22791625.140   119770824.62509  22791621.660    93327915.14146
  21326490.440   112071703.86109  21326486.280    87328688.69848
  24095140.700   126620835.43608  24095136.460    98665572.72845
  22702347.800   119301666.00508  22702346.280    92962340.32247
  24097573.560   126634024.35408  24097570.860    98676044.42144
  22934938.140   120523959.55809  22934934.580    93914781.81447
  22737939.040   121717974.31307  22737938.740    94669537.44406
  23348843.100   125031994.00908  23348843.180    97247108.50306
  19684182.760   105112452.31408  19684183.120    81754144.18205
  22106225.360   117838623.92208  22106229.840    91652293.13606
  21151720.060   112988731.42808  21151721.940    87880160.02707
  22042894.300   117666764.44808  22042896.180    91518564.01107
  19941429.700   106673330.97309  19941428.780    82968198.61908
  22235075.480   118900955.67507  22235078.060    92478537.27607
 15 02 26 00 07 30.0000000  0 15G16G18G21G22G27G29G31R03R04R09R10R16
                                R18R19R20
  21542368.480   113205934.40509  21542364.360    88212406.09448
  22779855.900   119708976.99108  22779852.440    93279722.20846
  21333685.640   112109514.61108  21333681.400    87358151.62848
  24077446.740   126527853.05208  24077442.420    98593118.98945
  22690171.960   119237682.43008  22690170.140    92912483.00347
  24112189.440   126710830.86408  24112186.700    98735893.61845
  22952592.520   120616734.31108  22952589.100    93987073.81347
  22731259.080   121682215.85207  22731258.660    94641725.33106
  23329280.040   124927234.75708  23329280.120    97165629.12806
  19685981.500   105122057.64508  19685981.840    81761614.98506
  22087080.440   117736570.33808  22087084.960    91572918.13306
  21173497.180   113105060.52308  21173498.940    87970638.19307
  22058292.980   117748963.26009  22058294.880    91582496.40407
  19942816.220   106680748.05709  19942815.200    82973967.46008
  22222363.340   118832978.89207  22222366.180    92425666.47007
 15 02 26 00 08  0.0000000  0 15G16G18G21G22G27G29G31R03R04R09R10R16
                                R18R19R20
  21529593.040   113138799.13809  21529589.020    88160092.90848
  22768139.600   119647407.54708  22768136.120    93231746.02646
  21340946.460   112147670.12008  21340942.140    87387883.19648
  24059750.860   126434860.61908  24059746.440    98520657.41746
  22678019.640   119173822.56108  22678017.920    92862722.10347
  24126807.920   126787651.67608  24126805.240    98795754.00945
  22970281.880   120709692.66208  22970278.620    94059508.86547
  22724701.220   121647110.70407  22724700.940    94614421.33906
  23309744.360   124822622.12308  23309744.260    97084263.75205
  19687934.980   105132489.25508  19687935.400    81769728.45006
  22068027.700   117635007.79608  22068032.180    91493925.05206
  21195351.860   113221804.42908  21195353.680    88061438.99007
  22073694.560   117831177.67108  22073696.420    91646440.94307
  19944258.680   106688464.19109  19944257.620    82979968.89408
  22209698.380   118765253.43807  22209701.360    92372991.13907
 15 02 26 00 08 30.0000000  0 15G16G18G21G22G27G29G31R03R04R09R10R16
                                R18R19R20
  21516869.820   113071938.04009  21516865.840    88107993.35448
  22756476.160   119586115.96108  22756472.620    93183986.37346
  21348271.960   112186165.46508  21348267.560    87417879.57448
  24042053.060   126341857.77708  24042048.540    98448187.73946
  22665890.380   119110083.29509  22665888.960    92813055.15947
  24141428.460   126864483.33808  24141425.940    98855622.82845
  22988004.960   120802828.46508  22988001.760    94132082.18747
  22718265.200   121612658.15907  22718265.020    94587624.91907
  23290236.300   124718157.46507  23290236.160    97003013.46106
  19690042.480   105143743.36408  19690043.000    81778481.64305
  22049067.180   117533937.03008  22049071.660    91415314.47906
  21217282.840   113338955.94008  21217284.720    88152556.81607
  22089098.160   117913403.00308  22089100.060    91710393.95907
  19945756.220   106696474.72909  19945755.120    82986199.31208
  22197079.740   118697775.93107  22197082.800    92320508.66707
 15 02 26 00 09  0.0000000  0 15G16G18G21G22G27G29G31R03R04R09R10R16
                                R18R19R20
  21504199.580   113005355.15909  21504195.560    88056110.60248
  22744866.440   119525106.57409  22744862.860    93136446.60346
  21355662.120   112225000.94208  21355657.720    87448140.98748
  24024354.200   126248848.90408  24024349.340    98375713.36245
  22653784.600   119046466.44009  22653783.380    92763483.59247
  24156051.340   126941327.38807  24156049.180    98915501.29845
  23005761.700   120896140.76109  23005758.460    94204793.04247
  22711951.880   121578862.75907  22711951.840    94561339.64606
  23270757.020   124613847.10507  23270756.880    96921883.22705
  19692304.320   105155821.53008  19692304.820    81787875.76805
  22030199.940   117433363.76008  22030204.460    91337090.84106
  21239289.740   113456512.71808  21239291.620    88243989.85307
  22104504.000   117995640.12408  22104505.860    91774356.13707
  19947308.780   106704779.80309  19947307.700    82992658.81608
  22184507.760   118630548.10407  22184510.740    92268220.37007
 15 02 26 00 09 30.0000000  0 15G16G18G21G22G27G29G31R03R04R09R10R16
                                R18R19R20
  21491583.380   112939056.23109  21491579.360    88004449.10848
  22733311.540   119464385.22709  22733307.960    93089131.28946
  21363117.380   112264178.99208  21363113.080    87478669.33748
  24006655.380   126155840.14708  24006650.360    98303239.07645
  22641702.800   118982975.79208  22641701.620    92714010.37747
  24170677.340   127018187.47907  24170675.260    98975392.23545
  23023552.200   120989630.14608  23023548.700    94277641.89247
  22705762.440   121545730.34407  22705762.480    94535570.01506
  23251308.160   124509699.41007  23251308.060    96840879.46005
  19694721.160   105168727.23608  19694721.660    81797913.51606
  22011427.700   117333296.72808  22011432.180    91259260.94406
  21261372.440   113574474.23108  21261374.280    88335737.68007
  22119912.560   118077891.91208  22119914.440    91838329.73307
  19948916.820   106713381.73309  19948915.760    82999349.20608
  22171983.220   118563573.28207  22171986.140    92216128.85207
 15 02 26 00 10  0.0000000  0 15G16G18G21G22G27G29G31R03R04R09R10R16
                                R18R19R20
  21479020.400   112873036.86009  21479016.320    87953005.44548
  22721810.700   119403947.80809  22721807.180    93042037.22046
  21370636.140   112303690.81008  21370631.960    87509457.76548
  23988955.760   126062827.40908  23988950.540    98230761.68546
  22629643.560   118919604.56608  22629642.460    92664630.21647
  24185305.120   127095056.82407  24185302.720    99035290.37144
  23041374.660   121083286.99908  23041370.840    94350621.24547
  22699696.100   121513256.85307  22699696.060    94510312.87806
  23231889.180   124405711.76407  23231889.180    96760000.23706
  19697291.660   105182453.14308  19697292.100    81808589.23006
  21992749.740   117233732.58108  21992754.140    91181822.17606
  21283528.780   113692829.50508  21283530.640    88427791.75307
  22135322.260   118160150.13708  22135324.200    91902308.33007
  19950578.800   106722272.13809  19950577.740    83006263.97008
  22159504.640   118496844.22607  22159507.480    92164228.48307
 15 02 26 00 10 30.0000000  0 15G16G18G21G22G27G29G31R03R04R09R10R16
                                R18R19R20
  21466512.080   112807304.47209  21466507.900    87901785.40248
  22710365.460   119343802.12209  22710361.780    92995170.45046
  21378219.200   112343540.41108  21378215.040    87540509.40548
  23971256.960   125969819.02008  23971251.480    98158287.66745
  22617608.020   118856358.42708  22617606.840    92615347.51947
  24199935.640   127171940.78607  24199933.180    99095199.94345
  23059229.460   121177113.91208  23059225.300    94423733.10747
  22693754.220   121481450.12307  22693754.180    94485574.33307
  23212501.980   124301894.65106  23212502.080    96679253.62606
  19700016.780   105197004.52308  19700017.100    81819906.96606
  21974168.000   117134681.58408  21974172.160    91104782.52006
  21305759.060   113811579.97808  21305761.020    88520153.21307
  22150734.060   118242419.54008  22150736.100    91966295.63507
  19952295.400   106731454.86309  19952294.340    83013406.10208
  22147073.040   118430366.58207  22147075.740    92112523.67907
 15 02 26 00 11  0.0000000  0 15G16G18G21G22G27G29G31R03R04R09R10R16
                                R18R19R20
  21454058.600   112741860.40509  21454054.320    87850790.02548
  22698976.020   119283949.66209  22698972.220    92948532.17746
  21385865.960   112383724.77708  21385861.820    87571821.89148
  23953559.160   125876816.55008  23953553.660    98085818.25145
  22605596.140   118793236.34108  22605594.900    92566161.49147
  24214568.760   127248838.14307  24214566.400    99155119.94945
  23077115.820   121271106.85408  23077111.520    94496974.34447
  22687937.220   121450311.37107  22687937.080    94461355.31606
  23193147.180   124198251.21007  23193147.300    96598642.09206
  19702896.200   105212379.81608  19702896.460    81831865.50506
  21955682.920   117036146.25008  21955687.000    91028143.93006
  21328062.260   113930720.29908  21328064.400    88612817.88307
  22166147.540   118324698.05308  22166149.620    92030289.99407
  19954066.220   106740927.70109  19954065.180    83020773.86208
  22134688.040   118364138.56007  22134690.720    92061013.02407
 15 02 26 00 11 30.0000000  0 15G16G18G21G22G27G29G31R03R04R09R10R16
                                R18R19R20
  21441659.700   112676703.42709  21441655.320    87800018.35848
  22687642.260   119224389.87509  22687638.420    92902121.97046
  21393575.600   112424239.14509  21393571.420    87603391.53748
  23935862.340   125783819.55608  23935857.000    98013353.12546
  22593607.380   118730235.20808  22593605.960    92517069.72347
  24229203.820   127325745.79407  24229201.540    99215047.99845
  23095032.520   121365259.86308  23095028.360    94570340.30347
  22682244.960   121419840.05908  22682244.660    94437655.41106
  23173825.200   124094782.69707  23173825.340    96518166.61306
  19705929.180   105228575.22608  19705929.440    81844461.93305
  21937294.860   116938127.87808  21937299.040    90951907.43406
  21350437.020   114050242.83908  21350439.320    88705779.85407
  22181561.960   118406981.39109  22181564.000    92094288.14007
  19955890.260   106750685.52909  19955889.400    83028363.29408
  22122349.140   118298157.00007  22122351.740    92009694.06607
 15 02 26 00 12  0.0000000  0 15G16G18G21G22G27G29G31R03R04R09R10R16
                                R18R19R20
  21429316.340   112611838.74309  21429311.900    87749474.45548
  22676365.040   119165127.61309  22676361.200    92855943.59146
  21401348.440   112465085.36409  21401344.200    87635219.76048
  23918167.620   125690833.44808  23918162.420    97940896.46646
  22581642.260   118667358.10508  22581640.800    92468074.59647
  24243841.360   127402666.76807  24243838.980    99274986.40244
  23112979.740   121459573.13309  23112975.640    94643831.13047
  22676678.300   121390041.26007  22676677.900    94414478.60106
  23154537.380   123991497.09107  23154537.400    96437833.42006
  19709116.180   105245593.43608  19709116.300    81857698.31006
  21919005.160   116840633.86908  21919009.540    90876078.77306
  21372883.220   114170146.66708  21372885.660    88799038.37407
  22196977.700   118489271.57508  22196979.620    92158291.62107
  19957767.860   106760730.24908  19957767.180    83036175.84808
  22110056.700   118232424.54507  22110059.140    91958568.84407
 15 02 26 00 12 30.0000000  0 15G16G18G21G22G27G29G31R03R04R09R10R16
                                R18R19R20
  21417028.860   112547268.09409  21417024.460    87699159.66548
  22665144.720   119106164.78608  22665141.020    92809998.54746
  21409183.700   112506259.46808  21409179.360    87667303.47148
  23900475.320   125597860.18108  23900470.120    97868449.81246
  22569700.540   118604604.14508  22569699.180    92419175.42747
  24258481.220   127479599.86707  24258478.920    99334934.24743
  23130956.780   121554042.73509  23130952.720    94717443.78647
  22671237.420   121360916.32807  22671237.000    94391825.90506
  23135284.260   123888397.92507  23135284.340    96357645.20507
  19712456.840   105263432.58308  19712456.900    81871573.18505
  21900814.260   116743666.65808  21900818.880    90800659.84106
  21395399.940   114290426.60708  21395402.380    88892589.42207
  22212394.360   118571566.60108  22212396.320    92222298.84007
  19959698.640   106771059.13608  19959698.000    83044209.42708
  22097810.340   118166939.60707  22097812.880    91907636.13107
 15 02 26 00 13  0.0000000  0 15G16G18G21G22G27G29G31R03R04R09R10R16
                                R18R19R20
  21404797.380   112482991.92909  21404793.100    87649074.34648
  22653981.620   119047502.88509  22653978.060    92764287.99146
  21417081.140   112547760.35409  21417076.700    87699641.82848
  23882785.740   125504901.24208  23882780.380    97796014.32145
  22557782.040   118541972.49608  22557780.960    92370371.57148
  24273123.300   127556544.27207  24273121.060    99394890.91643
  23148962.900   121648664.83309  23148958.860    94791175.26647
  22665922.720   121332466.66807  22665922.260    94369698.44206
  23116066.620   123785488.60107  23116066.760    96277604.64607
  19715950.920   105282091.23108  19715951.140    81886085.46505
  21882722.880   116647230.00608  21882727.620    90725653.57106
  21417986.140   114411077.44808  21417988.600    88986428.94007
  22227811.580   118653864.72008  22227813.660    92286308.46607
  19961682.180   106781669.86309  19961681.580    83052462.21908
  22085610.080   118101701.06407  22085612.820    91856895.06707
 15 02 26 00 13 30.0000000  0 15G16G18G21G22G27G29G31R03R04R09R10R16
                                R18R19R20
  21392622.740   112419014.41009  21392618.600    87599221.74648
  22642876.680   118989146.29209  22642873.120    92718815.33746
  21425040.780   112589588.12208  21425036.260    87732234.89548
  23865099.720   125411961.28408  23865094.400    97723593.64245
  22545887.120   118479464.90008  22545886.280    92321664.36447
  24287767.880   127633501.45006  24287765.600    99454857.57343
  23166997.780   121743438.22008  23166993.660    94865024.64547
  22660735.000   121304696.46407  22660734.480    94348099.44206
  23096885.680   123682775.60207  23096885.880    96197716.79007
  19719598.720   105301570.34408  19719599.100    81901235.87806
  21864732.120   116551329.61708  21864736.900    90651064.40206
  21440641.260   114532096.52308  21440643.600    89080554.86807
  22243229.520   118736166.60308  22243231.580    92350321.05007
  19963718.600   106792562.78909  19963717.880    83060934.49908
  22073456.420   118036710.40707  22073459.280    91806346.81007
 15 02 26 00 14  0.0000000  0 15G16G18G21G22G27G29G31R03R04R09R10R16
                                R18R19R20
  21380505.620   112355338.74909  21380501.580    87549604.35248
  22631830.400   118931097.50409  22631826.620    92673582.52446
  21433062.240   112631741.06009  21433057.640    87765081.33548
  23847417.920   125319043.47308  23847412.720    97651190.18845
  22534015.940   118417081.95908  22534015.200    92273054.28647
  24302414.900   127710472.11504  24302412.860    99514834.66744
  23185060.980   121838360.60608  23185056.720    94938990.11846
  22655674.680   121277608.17407  22655674.180    94327030.78106
  23077742.380   123580263.74407  23077742.440    96117985.37606
  19723400.180   105321869.71508  19723400.540    81917024.26506
  21846842.840   116455969.96008  21846847.740    90576895.79406
  21463364.620   114653480.32108  21463366.840    89174964.45807
  22258648.100   118818471.77408  22258650.080    92414336.17807
  19965807.540   106803736.86209  19965806.760    83069625.43208
  22061349.280   117971967.61607  22061352.180    91755991.31607
 15 02 26 00 14 30.0000000  0 15G16G18G21G22G27G29G31R03R04R09R10R16
                                R18R19R20
  21368445.980   112291964.83909  21368441.960    87500222.09148
  22620842.780   118873357.03509  22620839.020    92628589.97546
  21441144.860   112674215.58808  21441140.220    87798178.37448
  23829740.380   125226148.47108  23829735.480    97578804.50146
  22522168.200   118354821.80108  22522167.360    92224539.90047
  24317064.000   127787454.07504  24317062.020    99574820.62342
  23203151.500   121933426.87508  23203147.200    95013067.71646
  22650741.780   121251201.75808  22650741.320    94306492.52107
  23058637.160   123477956.11508  23058637.120    96038412.79606
  19727354.760   105342986.69808  19727355.040    81933448.57905
  21829055.500   116361153.46309  21829060.540    90503149.63806
  21486154.980   114775222.55708  21486157.140    89269652.84107
  22274066.720   118900777.41708  22274068.780    92478351.66007
  19967948.240   106815188.39909  19967947.520    83078532.19308
  22049288.120   117907470.76607  22049291.000    91705827.12707
 15 02 26 00 15  0.0000000  0  7G16G18G21G22G27G29G31
  21356448.060   112228915.23409  21356444.080    87451092.53448
  22609918.160   118815947.81409  22609914.520    92583855.52346
  21449292.160   112717030.21508  21449287.520    87831540.42348
  23812071.580   125133299.34908  23812066.940    97506454.58346
  22510347.840   118292705.31208  22510346.780    92176137.46347
  24331719.140   127864467.62104  24331718.260    99634314.15043
  23221272.740   122028655.00508  23221268.600    95087271.42847
 15 02 26 00 15 30.0000000  0  7G16G18G21G22G27G29G31
  21344505.080   112166154.34209  21344501.000    87402187.93848
  22599049.800   118758834.17309  22599046.280    92539351.40246
  21457496.660   112760145.65308  21457492.160    87865136.87048
  23794405.040   125040461.18108  23794400.560    97434113.19246
  22498547.640   118230694.33208  22498546.380    92127817.22448
  24346373.200   127941475.05005  24346371.340    99694318.94243
  23239416.920   122124003.85008  23239412.980    95161569.21247
 15 02 26 00 16  0.0000000  0  7G16G18G21G22G27G29G31
  21332619.080   112103692.78909  21332614.820    87353516.60148
  22588239.800   118702027.18209  22588236.320    92495086.22646
  21465759.680   112803568.72808  21465755.380    87898973.03648
  23776742.760   124947644.97108  23776738.220    97361788.91446
  22486769.120   118168797.29808  22486767.820    92079585.79148
  24361027.660   128018484.90904  24361023.220    99754316.71753
  23257585.160   122219479.36308  23257581.420    95235965.68447
 15 02 26 00 16 30.0000000  0  6G16G18G21G22G27G31
  21320793.940   112041550.79609  21320789.540    87305094.27348
  22577492.000   118645547.11109  22577488.500    92451075.79646
  21474084.440   112847316.10208  21474080.340    87933061.89948
  23759088.600   124854871.31308  23759083.940    97289497.79146
  22475015.640   118107032.64608  22475014.560    92031457.50748
  23275780.300   122315096.44908  23275776.800    95310472.48047
 15 02 26 00 17  0.0000000  0  6G16G18G21G22G27G31
  21309028.420   111979722.06109  21309023.900    87256916.03648
  22566805.220   118589388.00309  22566801.720    92407315.46846
  21482468.960   112891377.31008  21482465.000    87967395.30048
  23741441.480   124762134.69108  23741436.640    97217235.51646
  22463285.660   118045392.01808  22463284.840    91983425.85348
  23294000.240   122410843.73108  23293997.000    95385080.72647
 15 02 26 00 17 30.0000000  0  6G16G18G21G22G27G31
  21297322.580   111918207.13109  21297318.080    87208982.33148
  22556179.600   118533550.13809  22556176.040    92363805.44946
  21490912.480   112935748.34108  21490908.540    88001970.12548
  23723801.500   124669435.87308  23723796.440    97145002.71445
  22451579.060   117983873.54309  22451578.380    91935489.37747
  23312244.040   122506716.42808  23312241.060    95459786.69647
 15 02 26 00 18  0.0000000  0  6G16G18G21G22G27G31
  21285676.680   111857007.33209  21285672.240    87161294.17448
  22545615.480   118478035.25709  22545611.840    92320547.11547
  21499414.660   112980427.47508  21499410.640    88036785.02848
  23706169.060   124576777.07208  23706163.880    97072801.08846
  22439895.820   117922476.79609  22439895.000    91887647.76248
  23330511.140   122602711.36708  23330508.280    95534587.91847
 15 02 26 00 18 30.0000000  0  6G16G18G21G22G27G31
  21274091.700   111796127.68309  21274087.360    87113855.48848
  22535113.840   118422848.49809  22535110.160    92277544.46346
  21507975.720   113025415.90708  21507971.520    88071840.94648
  23688545.320   124484163.80708  23688539.940    97000634.94846
  22428236.300   117861204.48309  22428235.260    91839903.11748
  23348801.560   122698828.09608  23348798.580    95609484.03946
 15 02 26 00 19  0.0000000  0  6G16G18G21G22G27G31
  21262568.500   111735573.15009  21262564.280    87066670.14048
  22524675.420   118367994.43109  22524671.760    92234801.05646
  21516595.700   113070714.06008  21516591.420    88107138.21648
  23670931.300   124391601.21808  23670925.720    96928508.31146
  22416600.940   117800059.44409  22416599.640    91792257.64648
  23367115.240   122795066.25408  23367111.960    95684474.80746
 15 02 26 00 19 30.0000000  0  6G16G18G21G22G27G31
  21251106.920   111675343.09709  21251102.940    87019737.63348
  22514300.340   118313473.28009  22514296.580    92192317.04446
  21525273.920   113116318.17308  21525269.580    88142673.88248
  23653326.860   124299089.48508  23653321.100    96856421.27045
  22404989.180   117739039.20709  22404987.780    91744709.41648
  23385451.060   122891420.79208  23385447.660    95759556.23346
 15 02 26 00 20  0.0000000  0  6G16G18G21G22G27G31
  21239707.400   111615439.08009  21239703.580    86973059.19248
  22503988.900   118259286.26609  22503985.120    92150093.40346
  21534009.760   113162224.95609  21534005.400    88178445.40648
  23635732.360   124206630.27308  23635726.520    96784375.16645
  22393400.980   117678143.06009  22393399.580    91697257.88748
  23403808.240   122987887.74108  23403804.880    95834725.25346
 15 02 26 00 20 30.0000000  0  6G16G18G21G22G27G31
  21228370.300   111555862.88509  21228366.540    86926636.18748
  22493741.440   118205435.42109  22493737.700    92108131.71846
  21542802.980   113208433.00909  21542798.540    88214451.68448
  23618148.340   124114226.47808  23618142.520    96712372.25445
  22381836.400   117617370.83709  22381835.100    91649902.92248
  23422186.140   123084463.70308  23422182.820    95909979.23946
 15 02 26 00 21  0.0000000  0  6G16G18G21G22G27G31
  21217095.920   111496616.06709  21217092.220    86880469.84448
  22483558.200   118151922.27809  22483554.500    92066433.16746
  21551652.960   113254939.52909  21551648.500    88250690.53548
  23600575.200   124021879.80808  23600569.400    96640413.85346
  22370295.360   117556722.01309  22370294.220    91602644.11148
  23440584.000   123181145.52308  23440580.920    95985315.67946
 15 02 26 00 21 30.0000000  0  6G16G18G21G22G27G31
  21205885.200   111437703.68509  21205881.620    86834564.09448
  22473440.260   118098752.39709  22473436.640    92025002.12246
  21560560.100   113301746.64209  21560555.600    88287163.60748
  23583014.100   123929596.21408  23583008.540    96568504.58246
  22358778.340   117496199.79609  22358777.380    91555483.96848
  23459001.980   123277933.31008  23458999.080    96060734.69146
 15 02 26 00 22  0.0000000  0  7G16G18G21G22G27G29G31
  21194737.920   111379124.36509  21194734.400    86788917.87448
  22463387.280   118045923.95609  22463383.680    91983837.10746
  21569523.180   113348847.93508  21569518.640    88323865.89848
  23565464.840   123837374.54608  23565459.560    96496643.58046
  22347284.680   117435800.33908  22347283.700    91508419.46248
  24537071.040   128943177.59304  24537070.020   100475195.36743
  23477438.960   123374820.09908  23477436.060    96136230.85946
 15 02 26 00 22 30.0000000  0  7G16G18G21G22G27G29G31
  21183655.400   111320885.06709  21183651.820    86743536.59748
  22453400.760   117993444.19209  22453396.980    91942943.79747
  21578542.960   113396247.34609  21578538.420    88360800.49848
  23547928.880   123745222.67208  23547923.900    96424836.96246
  22335815.300   117375528.80508  22335814.100    91461454.64148
  24551755.840   129020347.14803                                
  23495895.260   123471808.02208  23495892.300    96211805.83346
 15 02 26 00 23  0.0000000  0  6G16G18G21G22G27G31
  21172637.100   111262983.28609  21172633.480    86698418.33848
  22443480.140   117941310.62509  22443476.220    91902320.25046
  21587618.120   113443937.73609  21587613.560    88397961.85148
  23530405.820   123653138.45408  23530400.980    96353083.04546
  22324369.380   117315380.58409  22324368.000    91414585.90948
  23514369.280   123568889.51808  23514366.320    96287453.73046
 15 02 26 00 23 30.0000000  0  7G16G18G19G21G22G27G31
  21161683.700   111205422.71709  21161680.000    86653565.94548
  22433626.040   117889526.80909  22433622.060    91861969.23146
  24545594.060   128987980.86207  24545593.340   100510101.18246
  21596748.620   113491918.79009  21596744.040    88435349.68648
  23512896.460   123561126.21508  23512891.520    96281385.23746
  22312947.300   117255357.32209  22312945.900    91367814.53648
  23532860.840   123666063.33008  23532857.960    96363173.55046
 15 02 26 00 24  0.0000000  0  7G16G18G19G21G22G27G31
  21150792.800   111148190.75709  21150789.080    86608969.62048
  22423836.080   117838080.19309  22423832.120    91821880.96946
  24530202.380   128907096.94007  24530201.340   100447074.77046
  21605931.420   113540174.83809  21605926.840    88472951.80548
  23495398.640   123469174.00608  23495393.320    96209734.20046
  22301546.320   117195444.57509  22301545.000    91321129.29248
  23551366.640   123763311.63408  23551363.740    96438951.41946
 15 02 26 00 24 30.0000000  0  7G16G18G19G21G22G27G31
  21139971.500   111091324.42309  21139967.820    86564658.20248
  22414117.340   117787007.91209  22414113.300    91782084.39646
  24514830.080   128826314.52207  24514828.840   100384127.45446
  21615172.780   113588738.59409  21615168.200    88510793.69448
  23477919.440   123377319.21008  23477913.780    96138159.07146
  22290172.960   117135677.10509  22290171.800    91274557.26148
  23569892.760   123860666.65208  23569889.900    96514812.44646
 15 02 26 00 25  0.0000000  0  7G16G18G19G21G22G27G31
  21129214.940   111034798.26909  21129211.320    86520611.83848
  22404464.960   117736284.40709  22404460.800    91742559.61446
  24499471.980   128745606.46807  24499470.480   100321238.05145
  21624467.220   113637581.13708  21624462.580    88548852.81948
  23460454.080   123285536.83608  23460448.040    96066640.36946
  22278821.980   117076027.66009  22278820.900    91228077.17248
  23588433.560   123958098.10208  23588430.480    96590733.02646
 15 02 26 00 25 30.0000000  0  7G16G18G19G21G22G27G31
  21118524.740   110978620.85209  21118521.180    86476837.23348
  22394880.680   117685918.84409  22394876.540    91703313.72346
  24484129.300   128664979.35807  24484127.760   100258411.77646
  21633815.320   113686706.06308  21633810.740    88587131.97848
  23443004.240   123193836.50208  23442998.000    95995185.58746
  22267494.620   117016502.74609  22267493.500    91181694.12448
  23606989.520   124055609.14808  23606986.000    96666715.62646
 15 02 26 00 26  0.0000000  0  7G16G18G19G21G22G27G31
  21107901.700   110922796.53709  21107898.220    86433337.78348
  22385365.120   117635914.95909  22385361.280    91664349.66747
  24468802.420   128584434.98808  24468800.520   100195649.93846
  21643217.440   113736114.84408  21643212.940    88625632.32548
  23425570.780   123102223.12408  23425564.580    95923798.55946
  22256191.460   116957104.61209  22256190.340    91135409.87748
  23625560.340   124153198.95108  23625556.580    96742759.59946
 15 02 26 00 26 30.0000000  0  7G16G18G19G21G22G27G31
  21097345.180   110867321.63109  21097341.660    86390110.58648
  22375917.720   117586269.03109  22375914.080    91625664.54047
  24453490.480   128503968.05808  24453487.520   100132948.44346
  21652671.940   113785799.02608  21652667.580    88664347.27847
  23408153.120   123010693.33408  23408147.100    95852476.68146
  22244911.420   116897827.45209  22244910.280    91089219.90448
  23644144.480   124250859.19708  23644140.620    96818858.46046
 15 02 26 00 27  0.0000000  0  7G16G18G19G21G22G27G31
  21086856.960   110812205.92009  21086853.520    86347163.26748
  22366540.400   117536991.02609  22366536.800    91587266.09547
  24438194.780   128423586.24508  24438190.920   100070313.28445
  21662180.200   113835765.55108  21662176.000    88703282.22948
  23390753.320   122919257.65908  23390747.640    95781228.12746
  22233656.000   116838679.33509  22233654.800    91043130.47048
  23662742.860   124348594.29708  23662738.940    96895015.64146
 15 02 26 00 27 30.0000000  0  7G16G18G19G21G22G27G31
  21076436.120   110757444.43609  21076432.780    86304491.97848
  22357232.200   117488075.85009  22357228.520    91549150.38647
  24422913.840   128343282.21108  24422909.180   100007738.75945
  21671740.300   113886004.59108  21671736.260    88742429.52248
  23373370.580   122827911.29808  23373365.200    95710049.17946
  22222423.740   116779653.04209  22222422.640    90997135.97548
  23681353.640   124446394.38008  23681349.720    96971223.45346
 15 02 26 00 28  0.0000000  0  7G16G18G19G21G22G27G31
  21066084.220   110703044.86609  21066080.820    86262102.71548
  22347994.500   117439531.14909  22347990.840    91511323.36247
  24407648.840   128263061.95108  24407643.540    99945229.49245
  21681353.180   113936520.75808  21681349.240    88781792.77648
  23356006.540   122736663.24808  23356001.260    95638946.82646
  22211215.720   116720754.57009  22211214.740    90951241.07448
  23699977.340   124544262.52308  23699973.480    97047484.31346
 15 02 26 00 28 30.0000000  0  7G16G18G19G21G22G27G31
  21055801.680   110649009.53309  21055798.120    86219997.25948
  22338827.720   117391359.09209  22338824.020    91473786.69547
  24392399.720   128182925.80008  24392393.940    99882785.78145
  21691018.480   113987312.10009  21691014.540    88821370.43748
  23338661.840   122645516.31908  23338656.340    95567923.27946
  22200031.980   116661984.08209  22200031.060    90905445.87748
  23718613.400   124642195.63008  23718609.500    97123795.79646
 15 02 26 00 29  0.0000000  0  7G16G18G19G21G22G27G31
  21045588.960   110595341.16109  21045585.280    86178177.75148
  22329732.380   117343562.46909  22329728.600    91436542.58147
  24377166.560   128102874.61008  24377160.580    99820408.29645
  21700735.920   114038377.20908  21700731.920    88861161.42248
  23321337.040   122554473.70908  23321331.340    95496981.01546
  22188872.820   116603342.33509  22188871.740    90859751.02148
  23737261.320   124740191.66508  23737257.440    97200156.31546
 15 02 26 00 29 30.0000000  0  7G16G18G19G21G22G27G31
  21035446.380   110542041.56509  21035442.680    86136645.59748
  22320708.780   117296143.13609  22320705.020    91399592.47247
  24361949.300   128022907.71508  24361943.300    99758096.45945
  21710504.960   114089713.64808  21710500.940    88901163.83648
  23304032.540   122463537.99808  23304026.780    95426122.05646
  22177738.280   116544829.16309  22177737.020    90814156.35348
  23755920.500   124838247.32908  23755916.780    97276563.28946
 15 02 26 00 30  0.0000000  0  7G16G18G19G21G22G27G31
  21025374.080   110489111.38909  21025370.360    86095401.30348
  22311756.980   117249101.50909  22311753.280    91362936.66747
  24346747.720   127943023.99808  24346741.860    99695849.43145
  21720325.200   114141319.30209  21720321.180    88941376.02648
  23286748.580   122372710.17008  23286742.740    95355347.14346
  22166628.000   116486443.29309  22166626.580    90768660.88948
  23774590.320   124936358.24808  23774586.820    97353013.31046
 15 02 26 00 30 30.0000000  0  7G16G18G19G21G22G27G31
  21015373.240   110436556.49709  21015369.440    86054449.44348
  22302878.120   117202443.41609  22302874.460    91326579.72747
  24331562.540   127863227.47207  24331557.120    99633670.32445
  21730197.000   114193195.76709  21730192.920    88981799.24748
  23269486.420   122281996.83108  23269480.640    95284661.45746
  22155542.620   116428188.78909  22155541.100    90723267.78648
  23793270.940   125034525.23508  23793267.580    97429507.02746
 15 02 26 00 31  0.0000000  0  7G16G18G19G21G22G27G31
  21005443.400   110384374.29709  21005439.460    86013787.99248
  22294071.680   117156165.83109  22294068.080    91290519.28047
  24316393.040   127783513.68407  24316388.140    99571555.71046
  21740119.100   114245336.36809  21740114.860    89022428.29748
  23252245.780   122191396.40908  23252240.000    95214063.74646
  22144481.380   116370061.17409  22144479.880    90677973.54248
  23811960.940   125132741.26908  23811957.620    97506038.96046
 15 02 26 00 31 30.0000000  0  7G16G18G19G21G22G27G31
  20995585.060   110332567.92909  20995581.040    85973419.40448
  22285338.320   117110272.02209  22285334.780    91254757.89147
  24301239.400   127703882.88307  24301234.960    99509505.75245
  21750091.360   114297740.43509  21750086.900    89063262.64048
  23235027.300   122100912.27108  23235021.460    95143556.64046
  22133444.320   116312061.27609  22133443.000    90632778.83348
  23830659.820   125231004.09808  23830656.540    97582607.36246
 15 02 26 00 32  0.0000000  0  7G16G18G19G21G22G27G31
  20985797.920   110281135.87009  20985793.840    85933342.47048
  22276677.740   117064760.52509  22276674.300    91219294.38647
  24286101.280   127624332.29808  24286096.980    99447518.31645
  21760112.640   114350402.41508  21760108.060    89104297.94648
  23217830.680   122010543.60908  23217824.860    95073139.51546
  22122430.840   116254185.85509  22122429.680    90587681.11048
  23849366.220   125329307.23508  23849363.180    97659207.16646
 15 02 26 00 32 30.0000000  0  7G16G18G19G21G22G27G31
  20976082.300   110230079.79209  20976078.180    85893558.51248
  22268090.260   117019632.83109  22268086.840    91184129.95647
  24270978.660   127544861.93708  24270974.500    99385593.38146
  21770182.560   114403320.48308  21770178.000    89145532.80448
  23200656.560   121920293.38008  23200650.860    95002814.69346
  22111441.040   116196434.83309  22111439.940    90542680.32648
  23868079.620   125427647.78808  23868076.940    97735836.12246
 15 02 26 00 33  0.0000000  0  7G16G18G19G21G22G27G31
  20966439.780   110179407.75009  20966435.580    85854073.80448
  22259577.240   116974896.40209  22259573.760    91149270.41147
  24255872.440   127465477.36408  24255868.460    99323735.30945
  21780301.920   114456498.73508  21780297.500    89186970.40047
  23183506.500   121830169.51909  23183500.880    94932588.33446
  22100476.100   116138814.14409  22100475.020    90497781.09448
  23886800.680   125526028.52108  23886798.220    97812496.38045
 15 02 26 00 33 30.0000000  0  7G16G18G19G21G22G27G31
  20956870.400   110129119.83009  20956866.080    85814888.41848
  22251138.860   116930552.00009  22251135.300    91114716.34247
  24240782.220   127386176.80308  24240777.860    99261942.67345
  21790470.060   114509933.32108  21790465.820    89228607.73748
  23166380.720   121740173.19608  23166375.080    94862461.36746
  22089535.700   116081322.34309  22089534.680    90452982.31148
  23905528.720   125624444.82508  23905526.160    97889184.39346
 15 02 26 00 34  0.0000000  0  7G16G18G19G21G22G27G31
  20947374.100   110079216.12909  20947369.720    85776002.41548
  22242774.900   116886599.07309  22242771.280    91080467.31847
  24225707.520   127306958.12608  24225702.760    99200213.86245
  21800686.300   114563620.27908  21800682.080    89270441.73048
  23149279.380   121650304.96108  23149273.620    94792434.18447
  22078619.440   116023957.34109  22078618.420    90408282.31348
  23924262.560   125722891.87608  23924259.900    97965896.35246
 15 02 26 00 34 30.0000000  0  7G16G18G19G21G22G27G31
  20937951.840   110029702.01809  20937947.480    85737419.99748
  22234486.260   116843042.33809  22234482.640    91046527.02647
  24210648.940   127227824.26008  24210643.820    99138551.16346
  21810950.920   114617561.07909  21810946.700    89312473.52948
  23132203.460   121560570.30908  23132197.660    94722511.11347
  22067727.880   115966722.48209  22067727.000    90363683.73848
  23943002.140   125821369.57308  23942999.640    98042632.15446
 15 02 26 00 35  0.0000000  0  7G16G18G19G21G22G27G31
  20928604.300   109980580.60609  20928599.880    85699143.56648
  22226273.740   116799885.51509  22226270.040    91012898.33047
  24195606.820   127148777.31508  24195601.300    99076956.18145
  21821263.880   114671756.00008  21821259.660    89354703.33148
  23115153.780   121470973.90108  23115148.100    94652695.74946
  22056861.360   115909619.26209  22056860.640    90319187.72248
  23961747.360   125919876.63708  23961744.880    98119390.84246
 15 02 26 00 35 30.0000000  0  7G16G18G19G21G22G27G31
  20919331.220   109931850.31009  20919326.820    85661171.91548
  22218136.920   116757126.32409  22218133.200    90979579.49847
  24180580.480   127069813.84308  24180574.820    99015426.19945
  21831624.120   114726199.00009  21831619.880    89397126.45548
  23098130.260   121381515.01508  23098124.680    94582987.54846
  22046019.280   115852644.22009  22046018.640    90274791.60048
  23980497.220   126018406.98808  23980494.340    98196167.70046
 15 02 26 00 36  0.0000000  0  7G16G18G19G21G22G27G31
  20910133.620   109883516.77709  20910129.340    85623509.42248
  22210076.900   116714770.71709  22210073.200    90946575.13947
  24165570.360   126990937.36607  24165565.060    98953964.03445
  21842031.820   114780891.44709  21842027.580    89439743.94148
  23081134.020   121292199.52808  23081128.480    94513391.09046
  22035202.380   115795801.07709  22035201.700    90230498.25248
  23999251.780   126116960.91908  23999248.260    98272962.94646
 15 02 26 00 36 30.0000000  0  7G16G18G19G21G22G27G31
  20901011.560   109835580.27809  20901007.400    85586156.30148
  22202093.660   116672818.69409  22202089.940    90913885.25547
  24150576.480   126912146.32508  24150571.720    98892568.44545
  21852486.260   114835829.97108  21852482.120    89482553.18148
  23064165.220   121203028.61808  23064159.700    94443907.27847
  22024410.380   115739088.51809  22024409.660    90186306.65248
  24018009.900   126215533.70008  24018005.840    98349772.85446
 15 02 26 00 37  0.0000000  0  7G16G18G19G21G22G27G31
  20891964.600   109788038.30309  20891960.460    85549110.61148
  22194186.640   116631267.05009  22194182.920    90881507.35147
  24135597.980   126833435.74708  24135593.760    98831235.56045
  21862986.400   114891008.65009  21862982.320    89525549.55248
  23047223.560   121114000.41408  23047218.100    94374534.67046
  22013642.360   115682501.89709  22013641.580    90142213.19548
  24036770.120   126314117.98408  24036765.860    98426591.73246
 15 02 26 00 37 30.0000000  0  7G16G18G19G21G22G27G31
  20882993.960   109740897.25109  20882989.820    85512377.33148
  22186357.040   116590122.22409  22186353.340    90849446.45647
  24120636.020   126754809.98608  24120632.140    98769968.75945
  21873532.720   114946429.95409  21873528.660    89568734.98148
  23030310.440   121025121.85208  23030304.960    94305278.67647
  22002899.240   115626046.03909  22002898.320    90098221.63048
  24055532.880   126412715.70308  24055528.660    98503421.07446
 15 02 26 00 38  0.0000000  0  7G16G18G19G21G22G27G31
  20874099.060   109694153.97509  20874094.880    85475954.00248
  22178604.380   116549381.35309  22178600.720    90817700.33147
  24105689.680   126676264.91708  24105685.940    98708764.82446
  21884123.920   115002087.00209  21884119.840    89612104.10347
  23013425.560   120936391.21108  23013420.100    94236137.93947
  21992180.140   115569716.21909  21992179.080    90054328.26548
  24074296.600   126511319.00708  24074292.480    98580254.75645
 15 02 26 00 38 30.0000000  0  7G16G18G19G21G22G27G31
  20865281.260   109647815.95809  20865277.120    85439846.44648
  22170929.820   116509051.16009  22170926.120    90786274.21747
  24090759.800   126597805.64008  24090755.920    98647627.73745
  21894760.640   115057983.22909  21894756.460    89655659.60447
  22996570.360   120847816.23209  22996564.980    94167118.49846
  21981485.980   115513517.65009  21981484.900    90010537.18748
  24093061.740   126609930.47108  24093057.780    98657094.79646
 15 02 26 00 39  0.0000000  0  7G16G18G19G21G22G27G31
  20856541.020   109601886.08609  20856537.000    85404056.93548
  22163333.980   116469134.43109  22163330.220    90755170.29447
  24075846.240   126519432.91408  24075842.320    98586558.09645
  21905442.720   115114117.91508  21905438.480    89699400.91947
  22979745.440   120759400.39508  22979740.040    94098223.06147
  21970816.960   115457451.55109  21970815.960    89966849.32248
  24111828.000   126708548.02208  24111824.180    98733939.58246
 15 02 26 00 39 30.0000000  0  7G16G18G19G21G22G27G31
  20847878.940   109556366.84809  20847874.960    85368587.39548
  22155817.240   116429633.25209  22155813.460    90724390.15747
  24060949.060   126441147.39207  24060944.960    98525556.41346
  21916169.780   115170489.23208  21916165.580    89743326.60948
  22962951.380   120671147.27409  22962945.980    94029454.42446
  21960173.280   115401518.73709  21960172.300    89923265.31348
  24130594.860   126807169.21708  24130591.380    98810787.19146
 15 02 26 00 40  0.0000000  0  7G16G18G19G21G22G27G31
  20839294.880   109511257.49209  20839290.880    85333437.24648
  22148379.440   116390546.69209  22148375.540    90693933.11447
  24046067.820   126362946.56008  24046063.560    98464620.71346
  21926941.260   115227093.93408  21926937.080    89787434.17047
  22946188.220   120583056.73308  22946182.760    93960812.45446
  21949554.500   115345716.75309  21949553.480    89879783.25648
  24149361.480   126905788.69408  24149358.180    98887633.47946
 15 02 26 00 40 30.0000000  0  7G16G18G19G21G22G27G31
  20830789.580   109466561.52409  20830785.460    85298609.22848
  22141021.140   116351878.25409  22141017.180    90663801.86647
  24031202.840   126284832.28608  24031198.380    98403752.48646
  21937757.040   115283931.38808  21937752.860    89831723.08147
  22929456.840   120495133.00609  22929451.320    93892300.48646
  21938960.920   115290047.46409  21938959.800    89836404.58948
  24168127.660   127004405.17908  24168124.340    98964477.43646
 15 02 26 00 41  0.0000000  0  7G16G18G19G21G22G27G31
  20822362.940   109422278.98009  20822358.680    85264103.34448
  22133742.120   116313627.12409  22133738.260    90633995.79547
  24016354.080   126206802.69308  24016349.160    98342950.23245
  21948616.240   115340996.80909  21948612.020    89876189.64348
  22912757.360   120407376.51508  22912751.760    93823918.81047
  21928392.120   115234508.74409  21928391.040    89793127.66748
  24186892.260   127103013.52308  24186889.020    99041315.04146
 15 02 26 00 41 30.0000000  0  7G16G18G19G21G22G27G31
  20814015.260   109378411.35209  20814010.920    85229920.77048
  22126542.780   116275795.12609  22126539.100    90604516.31747
  24001521.420   126128857.01608  24001516.200    98282213.35445
  21959518.600   115398288.96109  21959514.380    89920832.87847
  22896090.240   120319790.18409  22896084.780    93755669.75747
  21917848.320   115179100.78209  21917847.220    89749952.63848
  24205654.820   127201611.30208  24205651.600    99118144.41645
 15 02 26 00 42  0.0000000  0  7G16G18G19G21G22G27G31
  20805746.680   109334959.62609  20805742.340    85196062.28948
  22119423.280   116238382.46009  22119419.700    90575363.60547
  23986704.840   126050994.55608  23986699.340    98221541.29945
  21970463.440   115455804.11309  21970459.200    89965649.88648
  22879455.880   120232375.73808  22879450.420    93687554.61847
  21907329.300   115123822.63609  21907328.100    89706878.77248
  24224414.540   127300194.24307  24224411.360    99194962.23346
 15 02 26 00 42 30.0000000  0  7G16G18G19G21G22G27G31
  20797558.320   109291929.37809  20797554.040    85162532.22548
  22112384.660   116201394.63809  22112381.140    90546541.94247
  23971904.880   125973218.93308  23971899.340    98160936.95645
  21981451.200   115513544.94509  21981446.940    90010642.73247
  22862855.400   120145139.25109  22862849.940    93619578.15547
  21896835.780   115068678.30909  21896834.460    89663909.17748
  24243171.580   127398763.17008  24243168.540    99271769.11745
 15 02 26 00 43  0.0000000  0  7G16G18G19G21G22G27G31
  20789450.640   109249322.78209  20789446.360    85129332.27348
  22105427.320   116164833.62809  22105423.760    90518052.83747
  23957121.460   125895530.52208  23957115.880    98100400.54246
  21992481.660   115571510.33509  21992477.420    90055810.55448
  22846289.260   120058083.72209  22846283.920    93551742.67947
  21886367.760   115013668.27509  21886366.380    89621044.21148
  24261925.600   127497315.61308  24261922.420    99348563.15745
 15 02 26 00 43 30.0000000  0  7G16G18G19G21G22G27G31
  20781423.500   109207139.55109  20781419.140    85096462.23148
  22098551.080   116128698.66109  22098547.460    90489895.73247
  23942354.180   125817927.35608  23942348.620    98039930.55545
  22003553.980   115629695.68309  22003549.680    90101149.78647
  22829757.560   119971209.62208  22829752.300    93484048.58447
  21875924.760   114958790.50709  21875923.460    89578282.33048
  24280675.620   127595846.59308  24280672.060    99425340.47845
 15 02 26 00 44  0.0000000  0  7G16G18G19G21G22G27G31
  20773477.720   109165384.30109  20773473.380    85063925.67048
  22091756.720   116092994.04809  22091753.020    90462073.98047
  23927603.560   125740412.55907  23927598.160    97979529.41846
  22014668.380   115688101.83409  22014664.040    90146661.07247
  22813261.520   119884522.56208  22813256.200    93416500.24047
  21865507.440   114904048.05309  21865506.380    89535625.88348
  24299421.620   127694356.39008  24299417.940    99502101.27945
 15 02 26 00 44 30.0000000  0  7G16G18G19G21G22G27G31
  20765613.640   109124058.72509  20765609.360    85031723.92348
  22085044.540   116057721.60309  22085040.820    90434588.96347
  23912869.560   125662985.62608  23912864.320    97919196.75746
  22025824.440   115746727.07209  22025820.080    90192343.07547
  22796801.600   119798025.15409  22796796.200    93349099.68147
  21855115.980   114849441.22009  21855115.260    89493075.11648
  24318162.940   127792842.02408  24318159.320    99578843.24345
 15 02 26 00 45  0.0000000  0  7G16G18G19G21G22G27G31
  20757831.740   109083164.73009  20757827.480    84999858.46648
  22078414.640   116022881.83209  22078411.000    90407441.09547
  23898152.260   125585646.42308  23898147.280    97858932.45246
  22037021.740   115805569.21809  22037017.320    90238194.08948
  22780378.260   119711719.75109  22780372.800    93281848.72847
  21844750.340   114794969.68209  21844749.800    89450629.77048
  24336898.980   127891300.00008  24336895.480    99655563.66946
 15 02 26 00 45 30.0000000  0  7G16G18G19G21G22G27G31
  20750131.580   109042700.05109  20750127.340    84968327.54948
  22071866.800   115988472.80609  22071863.100    90380628.86947
  23883451.040   125508391.76808  23883446.220    97798734.04445
  22048259.340   115864623.27808  22048254.900    90284210.23647
  22763991.200   119625605.15709  22763985.820    93214746.46547
  21834409.780   114740629.96609  21834409.280    89408287.13848
  24355628.440   127989724.06908  24355625.240    99732257.65045
 15 02 26 00 46  0.0000000  0  7G16G18G19G21G22G27G31
  20742514.020   109002669.24309  20742509.800    84937134.70148
  22065401.780   115954498.94609  22065398.000    90354155.74047
  23868766.320   125431223.85508  23868761.540    97738603.21146
  22059537.220   115923889.44508  22059532.820    90330391.64847
  22747641.460   119539686.72509  22747636.180    93147797.04547
  21824094.880   114686424.94009  21824094.280    89366049.46448
  24374351.320   128088114.01408  24374348.560    99808925.03546
 15 02 26 00 46 30.0000000  0  7G16G18G19G21G22G27G31
  20734979.540   108963075.09109  20734975.320    84906282.13448
  22059020.020   115920962.54809  22059016.260    90328023.50347
  23854098.480   125354144.09308  23854093.540    97678541.07346
  22070855.360   115983367.22408  22070851.040    90376737.97548
  22731329.880   119453968.70108  22731324.580    93081003.79147
  21813805.980   114632355.94609  21813805.160    89323917.79648
  24393067.340   128186468.56108  24393064.940    99885564.82546
 15 02 26 00 47  0.0000000  0  7G16G18G19G21G22G27G31
  20727527.380   108923913.87109  20727523.200    84875766.89548
  22052720.740   115887859.55509  22052717.000    90302228.96647
  23839446.480   125277146.51508  23839441.200    97618542.97746
  22082212.360   116043048.90308  22082208.120    90423243.17048
  22715055.800   119368447.65509  22715050.420    93014364.02947
  21803542.060   114578417.72909  21803541.000    89281888.02348
  24411775.020   128284778.58208  24411772.720    99962169.94046
 15 02 26 00 47 30.0000000  0  7G16G18G19G21G22G27G31
  20720159.760   108885197.00309  20720155.600    84845597.90748
  22046506.000   115855200.86009  22046502.320    90276780.64147
  23824811.920   125200240.79208  23824806.520    97558616.46646
  22093609.720   116102942.27108  22093605.460    90469913.32048
  22698821.580   119283135.87209  22698816.080    92947887.32947
  21793304.840   114524620.00209  21793303.720    89239967.72748
  24430475.820   128383051.10308  24430473.300   100038745.81045
 15 02 26 00 48  0.0000000  0  7G16G18G19G21G22G27G31
  20712875.100   108846916.22409  20712870.960    84815768.73148
  22040374.140   115822977.58509  22040370.500    90251671.59647
  23810192.960   125123417.21008  23810187.740    97498753.96146
  22105045.140   116163035.47009  22105040.840    90516739.19247
  22682625.740   119198025.82509  22682620.120    92881567.82847
  21783092.420   114470952.88109  21783091.300    89198149.20148
  24449167.120   128481273.33107  24449164.520   100115282.49245
 15 02 26 00 48 30.0000000  0  7G16G18G19G21G22G27G31
  20705675.600   108809082.83509  20705671.520    84786288.16648
  22034327.220   115791200.57709  22034323.540    90226910.30047
  23795591.440   125046685.53108  23795586.440    97438963.04746
  22116520.100   116223336.48209  22116515.820    90563726.99147
  22666470.560   119113129.57609  22666464.900    92815414.93147
  21772906.680   114417426.13809  21772905.420    89156440.06548
  24467850.160   128579452.10308  24467847.260   100191785.32345
 15 02 26 00 49  0.0000000  0  7G16G18G19G21G22G27G31
  20698560.960   108771694.99409  20698556.880    84757154.78048
  22028364.940   115759868.26909  22028361.200    90202495.52347
  23781006.660   124970041.65108  23781001.780    97379240.55946
  22128033.540   116283839.77309  22128029.260    90610872.41147
  22650355.920   119028446.60309  22650350.240    92749428.21347
  21762747.040   114364036.54109  21762745.700    89114837.79048
  24486523.660   128677581.19507  24486520.620   100268249.44445
 15 02 26 00 49 30.0000000  0  7G16G18G19G21G22G27G31
  20691531.120   108734752.69409  20691527.000    84728368.57248
  22022487.060   115728979.72209  22022483.260    90178426.53947
  23766438.520   124893484.71808  23766433.580    97319585.82046
  22139584.880   116344542.23809  22139580.560    90658173.03947
  22634282.040   118943977.93509  22634276.400    92683608.47947
  21752613.220   114310782.68709  21752611.800    89073341.28848
  24505186.740   128775656.14308  24505183.520   100344671.36344
 15 02 26 00 50  0.0000000  0  7G16G18G19G21G22G27G31
  20684586.480   108698258.19909  20684582.360    84699931.30148
  22016694.140   115698537.67709  22016690.260    90154705.47047
  23751886.960   124817015.15508  23751881.840    97259999.15246
  22151173.840   116405442.51009  22151169.460    90705627.79247
  22618249.540   118859726.69209  22618243.880    92617958.18247
  21742505.420   114257665.69309  21742503.880    89031951.42948
  24523839.060   128873674.98008  24523835.760   100421049.56945
 15 02 26 00 50 30.0000000  0  7G16G18G19G21G22G27G31
  20677728.740   108662219.93609  20677724.460    84671849.53748
  22010987.520   115668549.09009  22010983.620    90131337.74147
  23737352.940   124740638.89708  23737347.940    97200485.20546
  22162801.180   116466544.62108  22162796.760    90753239.82247
  22602260.120   118775701.69909  22602254.400    92552484.18247
  21732424.820   114204691.76609  21732423.180    88990673.05548
  24542481.240   128971640.78608  24542478.120   100497386.44445
 15 02 26 00 51  0.0000000  0  7G16G18G19G21G22G27G31
  20670956.740   108626632.18109  20670952.280    84644118.82548
  22005366.060   115639007.75509  22005362.000    90108318.52647
  23722835.380   124664348.85208  23722830.400    97141038.43146
  22174465.200   116527839.70109  22174460.800    90801002.20447
  22586312.780   118691897.86409  22586306.960    92487182.49447
  21722370.060   114151853.84509  21722368.340    88949500.64948
  24561111.480   129069543.61008  24561108.680   100573674.20945
 15 02 26 00 51 30.0000000  0  7G16G18G19G21G22G27G31
  20664270.880   108591497.64009  20664266.380    84616741.25448
  21999830.200   115609916.35709  21999826.000    90085649.90447
  23708334.620   124588146.40508  23708329.440    97081659.94046
  22186165.960   116589327.56508  22186161.580    90848914.82247
  22570408.220   118608319.48109  22570402.480    92422056.49647
  21712341.440   114099153.43109  21712339.740    88908435.39948
  24579729.580   129167381.95308  24579727.100   100649911.72345
 15 02 26 00 52  0.0000000  0  7G16G18G19G21G22G27G31
  20657671.000   108556815.51209  20657666.620    84589716.22848
  21994379.840   115581274.00209  21994375.600    90063331.19847
  23693850.160   124512029.15008  23693844.580    97022347.81446
  22197902.540   116651003.61209  22197898.180    90896974.07947
  22554546.600   118524966.87309  22554540.980    92357106.42447
  21702338.660   114046588.51709  21702337.100    88867475.74048
  24598334.500   129265150.70208  24598332.080   100726095.04845
 15 02 26 00 52 30.0000000  0  7G16G18G19G21G22G27G31
  20651158.780   108522594.37609  20651154.580    84563050.40248
  21989016.320   115553088.38009  21989012.140    90041368.38047
  23679383.120   124436004.08708  23679377.380    96963107.52146
  22209675.840   116712872.65608  22209671.480    90945183.70747
  22538729.760   118441849.25909  22538724.220    92292339.45647
  21692362.960   113994166.05709  21692361.520    88826627.07448
  24616926.920   129362853.80408  24616924.760   100802227.16245
 15 02 26 00 53  0.0000000  0  7G16G18G19G21G22G27G31
  20644734.220   108488833.86909  20644730.160    84536743.51748
  21983739.580   115525359.05009  21983735.460    90019761.12247
  23664933.040   124360068.63508  23664927.400    96903937.08046
  22221485.000   116774930.43108  22221480.640    90993540.41547
  22522957.760   118358967.20209  22522952.200    92227756.05647
  21682414.040   113941884.33409  21682412.560    88785888.08448
  24635505.900   129460486.41107  24635504.000   100878304.36146
 15 02 26 00 53 30.0000000  0  7G16G18G19G21G22G27G31
  20638397.640   108455535.46809  20638393.660    84510796.70748
  21978549.700   115498086.21009  21978545.520    89998509.55447
  23650500.060   124284223.13608  23650494.480    96844836.69646
  22233329.900   116837175.88708  22233325.600    91042043.35847
  22507230.940   118276322.83008  22507225.500    92163357.86047
  21672491.860   113889743.29109  21672490.380    88745258.71648
  24654070.900   129558045.73007  24654069.320   100954324.41546
 15 02 26 00 54  0.0000000  0  7G16G18G19G21G22G27G31
  20632149.100   108422699.72009  20632145.260    84485210.40848
  21973446.860   115471270.70909  21973442.600    89977614.36347
  23636084.100   124208466.77608  23636078.740    96785805.78446
  22245209.980   116899606.02409  22245205.600    91090690.20947
  22491549.760   118193918.33609  22491544.480    92099146.57447
  21662596.340   113837742.40109  21662594.900    88704738.54648
  24672621.300   129655528.15407  24672619.860   101030284.57346
 15 02 26 00 54 30.0000000  0  7G16G18G19G21G22G27G31
  20625988.720   108390327.48009  20625985.100    84459985.28248
  21968431.080   115444912.88609  21968426.940    89957075.80147
  23621684.980   124132798.88508  23621679.840    96726843.80746
  22257124.700   116962218.12709  22257120.220    91139478.86747
  22475914.700   118111755.45109  22475909.460    92035123.56647
  21652727.460   113785881.14709  21652726.100    88664327.18148
  24691156.500   129752930.34108  24691155.040   101106182.17745
 15 02 26 00 55  0.0000000  0  6G16G18G19G21G22G27
  20619915.240   108358411.34809  20619911.640    84435115.56248
  21963500.880   115419004.89109  21963496.860    89936887.75747
  23607300.940   124057210.36308  23607295.860    96667943.65646
  22269072.000   117025001.50208  22269067.540    91188400.96947
  22460324.400   118029827.32509  22460319.040    91971283.48647
  21642883.500   113734150.84309  21642882.180    88624017.85948
 15 02 26 00 55 30.0000000  0  6G16G18G19G21G22G27
  20613933.600   108326977.60409  20613929.940    84410621.74048
  21958661.160   115393572.10109  21958657.180    89917070.00547
  23592936.680   123981725.97408  23592931.420    96609124.66046
  22281056.180   117087978.88709  22281051.800    91237474.25047
  22444784.020   117948161.46509  22444778.340    91907647.76747
  21633069.260   113682576.34309  21633067.840    88583829.94848
 15 02 26 00 56  0.0000000  0  6G16G18G19G21G22G27
  20608041.020   108296011.80609  20608037.360    84386492.54748
  21953909.080   115368599.82909  21953905.140    89897611.10647
  23578589.200   123906330.27208  23578583.640    96550374.79146
  22293074.020   117151132.96809  22293069.660    91286685.21847
  22429290.900   117866744.44109  22429285.040    91844205.94247
  21623281.680   113631141.99809  21623280.140    88543751.25748
 15 02 26 00 56 30.0000000  0  6G16G18G19G21G22G27
  20602238.040   108265516.92209  20602234.360    84362730.29948
  21949245.160   115344090.76409  21949241.220    89878513.13347
  23564258.720   123831024.15608  23564253.020    96491694.72946
  22305125.340   117214462.95908  22305121.020    91336033.26347
  22413845.820   117785580.09309  22413840.060    91780961.00047
  21613521.060   113579849.52009  21613519.440    88503783.09548
 15 02 26 00 57  0.0000000  0  6G16G18G19G21G22G27
  20596524.480   108235491.99609  20596520.820    84339334.24948
  21944669.040   115320043.15909  21944665.140    89859774.75647
  23549944.860   123755805.03608  23549939.180    96433082.46546
  22317209.180   117277963.96108  22317204.900    91385514.55747
  22398448.780   117704668.73209  22398443.240    91717913.20047
  21603787.020   113528696.70509  21603785.380    88463923.77148
 15 02 26 00 57 30.0000000  0  6G16G18G19G21G22G27
  20590902.020   108205945.83209  20590898.420    84316311.25848
  21940182.280   115296465.25009  21940178.440    89841402.35947
  23535649.060   123680680.09008  23535643.600    96374543.56246
  22329326.680   117341641.89808  22329322.460    91435133.70947
  22383101.680   117624019.91809  22383096.320    91655069.96547
  21594081.020   113477691.07309  21594079.340    88424179.12548
 15 02 26 00 58  0.0000000  0  6G16G18G19G21G22G27
  20585370.320   108176876.39209  20585366.700    84293659.74248
  21935784.480   115273354.69709  21935780.720    89823394.13047
  23521370.580   123605646.31308  23521365.420    96316075.70946
  22341476.920   117405492.04508  22341472.760    91484887.06247
  22367804.400   117543632.59209  22367799.100    91592430.50247
  21584402.420   113426829.50809  21584400.720    88384546.74748
 15 02 26 00 58 30.0000000  0  6G16G18G19G21G22G27
  20579930.380   108148288.78109  20579926.620    84271383.68848
  21931476.440   115250716.10909  21931472.720    89805753.68447
  23507110.100   123530707.50508  23507105.180    96257681.84046
  22353660.180   117469515.76108  22353656.020    91534775.66347
  22352558.140   117463512.95209  22352552.840    91529999.62047
  21574751.860   113376115.84109  21574750.260    88345029.61648
 15 02 26 00 59  0.0000000  0  6G16G18G19G21G22G27
  20574581.400   108120179.39709  20574577.540    84249480.26748
  21927257.400   115228545.19809  21927253.700    89788477.66047
  23492866.620   123455858.14608  23492861.940    96199357.67047
  22365875.140   117533705.91908  22365870.980    91584793.96647
  22337362.420   117383658.70209  22337357.060    91467775.54847
  21565128.500   113325545.31309  21565127.060    88305624.01448
 15 02 26 00 59 30.0000000  0  6G16G18G19G21G22G27
  20569324.060   108092551.91709  20569320.260    84227952.36348
  21923127.980   115206845.13109  21923124.240    89771568.52147
  23478640.640   123381100.98608  23478636.220    96141105.35746
  22378122.000   117598063.58209  22378117.860    91634942.78047
  22322218.060   117304074.56709  22322212.760    91405761.93147
  21555532.940   113275120.61209  21555531.640    88266332.03948
 15 02 26 01 00  0.0000000  0  6G16G18G19G21G22G27
  20564157.900   108065404.04409  20564154.200    84206798.17748
  21919087.720   115185613.25609  21919083.900    89755024.21547
  23464431.600   123306432.20308  23464427.080    96082921.91046
  22390399.640   117662582.84008  22390395.380    91685217.53347
  22307124.740   117224759.05509  22307119.500    91343957.65747
  21545964.480   113224838.15809  21545963.240    88227150.92648
 15 02 26 01 00 30.0000000  0  6G16G18G19G21G22G27
  20559083.860   108038740.01009  20559080.220    84186021.00148
  21915137.240   115164853.31409  21915133.360    89738847.63147
  23450240.060   123231854.75508  23450235.180    96024809.61746
  22402708.240   117727264.91708  22402703.980    91735619.14747
  22292083.640   117145717.63609  22292078.460    91282366.94547
  21536423.660   113174701.29909  21536422.480    88188083.25248
 15 02 26 01 01  0.0000000  0  6G16G18G19G21G22G27
  20554102.680   108012563.72409  20554099.080    84165623.89748
  21911277.160   115144568.52009  21911273.280    89723041.30847
  23436066.380   123157370.69108  23436061.200    95966770.10546
  22415047.800   117792110.03608  22415043.600    91786147.80547
  22277095.640   117066954.99109  22277090.480    91220993.47047
  21526911.040   113124712.69009  21526909.960    88149131.10048
 15 02 26 01 01 30.0000000  0  6G16G18G19G21G22G27
  20549214.780   107986877.56309  20549211.140    84145608.70348
  21907507.840   115124760.49209  21907503.920    89707606.48347
  23421910.700   123082981.75708  23421905.460    95908804.70647
  22427418.320   117857117.64208  22427414.160    91836803.07047
  22262161.320   116988474.80609  22262156.120    91159840.08147
  21517426.860   113074873.36309  21517425.860    88110295.26348
 15 02 26 01 02  0.0000000  0  6G16G18G19G21G22G27
  20544420.000   107961680.63809  20544416.300    84125974.73148
  21903829.040   115105428.02009  21903825.060    89692542.22647
  23407772.520   123008685.34808  23407767.400    95850911.40847
  22439819.020   117922283.78409  22439814.840    91887581.87447
  22247280.860   116910277.40609  22247275.500    91098907.04847
  21507970.840   113025181.48009  21507969.840    88071574.32148
 15 02 26 01 02 30.0000000  0  6G16G18G19G21G22G27
  20539718.860   107936975.63609  20539715.100    84106724.07648
  21900241.040   115086573.18709  21900237.120    89677850.15447
  23393652.220   122934482.66608  23393647.260    95793091.16346
  22452249.900   117987608.28908  22452245.740    91938484.07847
  22232454.940   116832366.53909  22232449.500    91038197.29847
  21498543.320   112975638.95809  21498542.180    88032969.76448
 15 02 26 01 03  0.0000000  0  6G16G18G19G21G22G27
  20535110.940   107912760.56109  20535107.120    84087855.18648
  21896743.520   115068193.76309  21896739.700    89663528.53547
  23379549.300   122860370.91108  23379544.520    95735341.75647
  22464709.940   118053086.00208  22464705.780    91989505.67047
  22217683.520   116754741.69909  22217677.980    90977710.41647
  21489143.720   112926242.87809  21489142.320    87994479.32448
 15 02 26 01 03 30.0000000  0  6G16G18G19G21G22G27
  20530596.960   107889039.20209  20530593.140    84069371.00048
  21893337.100   115050292.43809  21893333.240    89649579.45747
  23365464.140   122786352.31708  23365459.260    95677664.93446
  22477199.160   118118716.92308  22477194.960    92040646.64547
  22202967.240   116677406.90509  22202961.740    90917449.54547
  21479772.400   112876995.68109  21479770.780    87956104.89948
 15 02 26 01 04  0.0000000  0  6G16G18G19G21G22G27
  20526177.680   107865815.61409  20526173.860    84051274.69848
  21890022.340   115032872.89909  21890018.440    89636005.80247
  23351397.300   122712429.97508  23351392.100    95620063.13646
  22489717.820   118184502.54208  22489713.500    92091908.15847
  22188307.220   116600367.99509  22188301.780    90857419.22447
  21470430.000   112827900.68509  21470428.260    87917849.06348
 15 02 26 01 04 30.0000000  0  6G16G18G19G21G22G27
  20521852.460   107843086.24809  20521848.600    84033563.50848
  21886798.460   115015931.15909  21886794.540    89622804.45447
  23337347.820   122638599.17308  23337342.180    95562532.65947
  22502264.660   118250436.36009  22502260.280    92143285.14947
  22173703.020   116523622.16509  22173697.580    90797617.30348
  21461115.640   112778953.41109  21461113.920    87879708.33648
 15 02 26 01 05  0.0000000  0  6G16G18G19G21G22G27
  20517622.520   107820857.55509  20517618.640    84016242.44048
  21883666.540   114999473.04209  21883662.700    89609979.95247
  23323316.580   122564865.01108  23323310.820    95505077.49646
  22514840.340   118316521.81608  22514835.940    92194780.29947
  22159156.200   116447177.66009  22159150.700    90738050.14947
  21451830.460   112730159.52209  21451828.820    87841687.12648
 15 02 26 01 05 30.0000000  0  6G16G18G19G21G22G27
  20513487.580   107799128.02609  20513483.640    83999310.33348
  21880626.260   114983496.59909  21880622.520    89597530.78047
  23309303.180   122491224.58608  23309297.500    95447695.35746
  22527444.020   118382754.44608  22527439.600    92246390.12347
  22144666.560   116371033.96509  22144661.000    90678717.41347
  21442573.960   112681516.55909  21442572.360    87803783.52048
 15 02 26 01 06  0.0000000  0  6G16G18G19G21G22G27
  20509448.520   107777902.33609  20509444.580    83982770.82648
  21877678.420   114968005.66309  21877674.620    89585459.92147
  23295308.200   122417681.44408  23295302.820    95390389.03346
  22540075.900   118449135.48908  22540071.500    92298115.61147
  22130235.140   116295196.31709  22130229.640    90619623.15447
  21433346.740   112633027.92609  21433345.320    87766000.17248
 15 02 26 01 06 30.0000000  0  6G16G18G19G21G22G27
  20505504.520   107757176.61309  20505500.640    83966620.91248
  21874822.100   114952995.75809  21874818.260    89573763.90147
  23281330.880   122344230.52308  23281325.640    95333154.56247
  22552734.680   118515658.33908  22552730.360    92349951.58447
  22115861.460   116219662.07409  22115856.060    90560765.30748
  21424148.040   112584688.94709  21424146.780    87728333.43748
 15 02 26 01 07  0.0000000  0  6G16G18G19G21G22G27
  20501656.140   107736953.45509  20501652.240    83950862.61548
  21872057.700   114938469.09009  21872053.940    89562444.42647
  23267371.500   122270873.52308  23267366.320    95275993.29046
  22565420.400   118582322.79208  22565416.200    92401897.90847
  22101546.300   116144435.51609  22101541.000    90502147.22648
  21414978.280   112536501.73709  21414977.060    87690784.97048
 15 02 26 01 07 30.0000000  0  6G16G18G19G21G22G27
  20497904.200   107717237.24209  20497900.340    83935499.32348
  21869385.880   114924428.99909  21869382.200    89551504.09347
  23253430.640   122197613.70408  23253425.420    95218907.72546
  22578133.260   118649129.75508  22578129.100    92453955.27047
  22087290.680   116069522.10109  22087285.400    90443773.14448
  21405838.060   112488469.61509  21405836.840    87653357.34748
 15 02 26 01 08  0.0000000  0  6G16G18G19G21G22G27
  20494248.960   107698029.00209  20494245.100    83920531.86548
  21866806.880   114910876.40709  21866803.220    89540943.63247
  23239508.240   122124450.96708  23239503.100    95161897.83046
  22590873.000   118716078.00108  22590868.900    92506122.73246
  22073095.020   115994923.89309  22073089.740    90385644.68147
  21396727.420   112440592.99909  21396726.160    87616050.89948
 15 02 26 01 08 30.0000000  0  6G16G18G19G21G22G27
  20490690.300   107679328.03409  20490686.440    83905959.67449
  21864320.400   114897809.81909  21864316.760    89530761.88547
  23225603.920   122051383.67408  23225598.940    95104962.28647
  22603638.940   118783163.81808  22603634.960    92558397.38047
  22058959.500   115920641.37609  22058954.180    90327762.21048
  21387646.040   112392870.32209  21387644.760    87578864.39348
 15 02 26 01 09  0.0000000  0  6G16G18G19G21G22G27
  20487228.820   107661137.73609  20487225.000    83891785.41448
  21861926.920   114885231.76309  21861923.220    89520960.80447
  23211718.120   121978414.14908  23211713.340    95048102.91947
  22616431.160   118850387.52408  22616427.240    92610779.47947
  22044884.940   115846679.13709  22044879.540    90270129.30547
  21378594.420   112345304.14309  21378593.200    87541799.83448
 15 02 26 01 09 30.0000000  0  6G16G18G19G21G22G27
  20483864.680   107643458.86709  20483860.880    83878009.66948
  21859626.520   114873142.84009  21859622.740    89511540.87147
  23197850.760   121905541.89408  23197846.260    94991319.36947
  22629249.300   118917747.23108  22629245.440    92663267.56047
  22030871.800   115773039.61009  22030866.400    90212747.86848
  21369572.580   112297894.58709  21369571.480    87504857.33748
 15 02 26 01 10  0.0000000  0  6G16G18G19G21G22G27
  20480597.280   107626288.63509  20480593.500    83864630.27048
  21857418.520   114861539.54609  21857414.700    89502499.34747
  23184001.360   121832763.10508  23183996.740    94934608.62247
  22642092.220   118985237.03908  22642088.380    92715857.01547
  22016919.720   115699721.01409  22016914.380    90155616.50348
  21360579.940   112250638.25009  21360578.860    87468034.22148
 15 02 26 01 10 30.0000000  0  6G16G18G19G21G22G27
  20477427.120   107609629.44509  20477423.380    83851649.08148
  21855303.180   114850423.44909  21855299.400    89493837.45947
  23170170.280   121760079.34608  23170165.400    94877971.93747
  22654959.980   119052857.19408  22654956.180    92768548.04047
  22003029.380   115626726.80309  22003024.080    90098737.90948
  21351616.860   112203536.86209  21351615.740    87431331.85248
 15 02 26 01 11  0.0000000  0  6G16G18G19G21G22G27
  20474354.860   107593484.78509  20474351.160    83839068.82748
  21853281.140   114839797.65909  21853277.320    89485557.62547
  23156357.880   121687492.88408  23156352.580    94821411.08047
  22667852.500   119120607.61508  22667848.700    92821340.56247
  21989201.720   115554061.62009  21989196.400    90042115.69548
  21342683.880   112156593.21009  21342682.660    87394752.38748
 15 02 26 01 11 30.0000000  0  6G16G18G19G21G22G27
  20471380.900   107577856.58609  20471377.200    83826891.00948
  21851352.600   114829663.34709  21851348.780    89477660.76647
  23142564.200   121615004.75908  23142558.480    94764926.85347
  22680769.700   119188487.85108  22680765.920    92874234.23847
  21975437.280   115481728.76909  21975431.940    89985752.45448
  21333781.080   112109808.39709  21333779.900    87358296.68448
 15 02 26 01 12  0.0000000  0  6G16G18G19G21G22G27
  20468505.920   107562748.58509  20468502.180    83815118.53449
  21849518.180   114820023.43909  21849514.360    89470149.16647
  23128789.660   121542618.13008  23128783.860    94708521.69847
  22693711.720   119256498.56508  22693707.880    92927229.58747
  21961736.900   115409733.07009  21961731.600    89929651.92448
  21324909.060   112063185.48509  21324907.880    87321967.14748
 15 02 26 01 12 30.0000000  0  6G16G18G19G21G22G27
  20465730.140   107548161.45809  20465726.360    83803751.93648
  21847777.840   114810878.04009  21847774.060    89463022.87547
  23115034.060   121470332.78408  23115028.560    94652195.46947
  22706678.240   119324638.31108  22706674.320    92980325.47546
  21948101.180   115338077.23209  21948095.900    89873816.20848
  21316067.900   112016724.78709  21316066.600    87285764.00548
 15 02 26 01 13  0.0000000  0  6G16G18G19G21G22G27
  20463053.440   107534094.68709  20463049.500    83792790.81348
  21846131.420   114802226.27309  21846127.660    89456281.24747
  23101297.220   121398147.13608  23101292.140    94595946.91447
  22719668.720   119392903.87308  22719664.660    93033519.41747
  21934530.280   115266761.54809  21934524.920    89818245.55148
  21307257.420   111970425.28409  21307256.020    87249686.47848
 15 02 26 01 13 30.0000000  0  6G16G18G19G21G22G27
  20460475.920   107520549.23609  20460471.940    83782235.91148
  21844578.980   114794068.64009  21844575.280    89449924.65047
  23087579.380   121326061.07208  23087574.540    94539775.95747
  22732682.760   119461293.12508  22732678.520    93086809.72746
  21921024.500   115195787.75909  21921019.000    89762941.30648
  21298477.720   111924287.29909  21298476.220    87213734.80248
 15 02 26 01 14  0.0000000  0  6G16G18G19G21G22G27
  20457996.840   107507521.60709  20457993.000    83772084.50749
  21843119.740   114786400.75809  21843116.140    89443949.68947
  23073879.900   121254070.80608  23073875.280    94483679.66947
  22745719.240   119529800.09508  22745714.860    93140191.79446
  21907583.520   115125154.72409  21907577.920    89707902.59548
  21289728.040   111878306.98409  21289726.480    87177905.99348
 15 02 26 01 14 30.0000000  0  6G16G18G19G21G22G27
  20455616.940   107495015.17109  20455613.100    83762339.22349
  21841754.280   114779225.35909  21841750.740    89438358.46747
  23060199.200   121182178.75808  23060194.560    94427659.90547
  22758778.340   119598425.93508  22758773.880    93193666.45647
  21894208.220   115054866.77509  21894202.540    89653132.75848
  21281008.880   111832487.23409  21281007.340    87142202.28048
 15 02 26 01 15  0.0000000  0  6G16G18G19G21G22G27
  20453337.140   107483034.88909  20453333.340    83753003.93948
  21840483.260   114772546.14809  21840479.680    89433153.89947
  23046537.780   121110388.29108  23046533.120    94371719.28647
  22771860.320   119667172.12708  22771855.920    93247234.91447
  21880899.680   114984929.73609  21880893.920    89598636.37847
  21272321.000   111786832.00909  21272319.420    87106626.78848
 15 02 26 01 15 30.0000000  0  6G16G18G19G21G22G27
  20451156.900   107471577.72109  20451153.160    83744076.26248
  21839306.120   114766359.90509  21839302.480    89428333.44847
  23032895.200   121038696.37308  23032890.540    94315855.45547
  22784964.280   119736033.54708  22784960.000    93300893.15347
  21867657.540   114915341.73209  21867651.700    89544411.96348
  21263663.800   111741338.04009  21263662.200    87071176.94348
 15 02 26 01 16  0.0000000  0  6G16G18G19G21G22G27
  20449076.880   107460647.10309  20449073.200    83735558.89748
  21838223.340   114760669.60809  21838219.620    89423899.45647
  23019271.920   120967105.80508  23019267.400    94260070.60647
  22798090.400   119805011.20308  22798086.220    93354641.96947
  21854482.880   114846108.29709  21854477.000    89490463.84948
  21255037.880   111696008.60309  21255036.280    87035855.30048
 15 02 26 01 16 30.0000000  0  6G16G18G19G21G22G27
  20447096.960   107450242.34309  20447093.260    83727451.28248
  21837234.780   114755474.48309  21837230.960    89419851.30747
  23005667.760   120895615.15508  23005663.380    94204363.62547
  22811238.100   119874102.25808  22811233.920    93408479.15047
  21841375.820   114777230.04309  21841369.920    89436792.49048
  21246443.080   111650842.87409  21246441.480    87000661.23048
 15 02 26 01 17  0.0000000  0  6G16G18G19G21G22G27
  20445217.540   107440365.55409  20445213.720    83719755.07448
  21836340.480   114750774.91709  21836336.720    89416189.31247
  22992082.800   120824224.95908  22992078.460    94148734.90647
  22824407.060   119943305.28408  22824402.820    93462403.57447
  21828336.860   114708709.84309  21828330.940    89383400.13548
  21237879.700   111605841.80309  21237878.080    86965595.46048
 15 02 26 01 17 30.0000000  0  6G16G18G19G21G22G27
  20443439.140   107431019.78009  20443435.280    83712472.65348
  21835541.000   114746573.48509  21835537.260    89412915.47347
  22978517.500   120752938.22708  22978513.000    94093186.80747
  22837597.560   120012621.60608  22837593.280    93516416.28647
  21815366.820   114640552.17209  21815360.940    89330290.27248
  21229348.220   111561008.35809  21229346.620    86930660.31248
 15 02 26 01 18  0.0000000  0  6G16G18G19G21G22G27
  20441761.540   107422203.86709  20441757.660    83705603.10049
  21834836.000   114742868.69309  21834832.280    89410028.62447
  22964971.500   120681753.33008  22964966.780    94037718.04847
  22850808.860   120082047.59008  22850804.520    93570514.44446
  21802465.900   114572757.66109  21802460.060    89277463.38648
  21220848.300   111516341.34209  21220846.820    86895854.84348
 15 02 26 01 18 30.0000000  0  6G16G18G19G21G22G27
  20440185.400   107413920.87209  20440181.440    83699148.81948
  21834225.920   114739662.70609  21834222.140    89407530.45447
  22951445.260   120610672.31208  22951440.420    93982330.25647
  22864041.040   120151583.79608  22864036.860    93624698.48047
  21789634.940   114505330.60309  21789629.160    89224922.82348
  21212380.480   111471843.12809  21212379.100    86861180.92948
 15 02 26 01 19  0.0000000  0  6G16G18G19G21G22G27
  20438710.100   107406167.75309  20438706.020    83693107.42148
  21833710.040   114736951.73309  21833706.200    89405418.01247
  22937938.200   120539691.81508  22937933.200    93927020.79647
  22877293.120   120221224.65308  22877289.060    93678964.07847
  21776873.620   114438269.32709  21776867.840    89172667.28848
  21203944.260   111427510.69009  21203942.900    86826636.17648
 15 02 26 01 19 30.0000000  0  6G16G18G19G21G22G27
  20437336.260   107398948.23309  20437332.120    83687481.82348
  21833289.060   114734739.25009  21833285.200    89403694.00547
  22924450.800   120468814.79508  22924445.720    93871791.95647
  22890565.400   120290971.76208  22890561.460    93733312.46347
  21764182.800   114371578.64409  21764177.040    89120700.52848
  21195540.200   111383347.41409  21195538.900    86792223.24648
 15 02 26 01 20  0.0000000  0  6G16G18G19G21G22G27
  20436064.760   107392266.51109  20436060.640    83682275.27048
  21832963.540   114733028.38909  21832959.620    89402360.86747
  22910983.640   120398044.83808  22910978.720    93816646.51847
  22903858.240   120360826.46708  22903854.440    93787744.68446
  21751563.540   114305264.29609  21751557.860    89069027.00548
  21187169.000   111339357.10809  21187167.820    86757945.08548
 15 02 26 01 20 30.0000000  0  6G16G18G19G21G22G27
  20434894.980   107386119.44409  20434890.880    83677485.34148
  21832732.840   114731815.73509  21832728.820    89401415.93547
  22897536.180   120327378.39008  22897531.520    93761581.75947
  22917170.660   120430783.65108  22917166.880    93842256.76046
  21739015.580   114239324.80909  21739010.040    89017645.59848
  21178830.120   111295536.52009  21178829.040    86723799.16948
 15 02 26 01 21  0.0000000  0  6G16G18G19G21G22G27
  20433826.380   107380504.13309  20433822.360    83673109.77148
  21832596.160   114731097.45809  21832592.220    89400856.24947
  22884107.900   120256812.19708  22884103.200    93706595.12047
  22930501.700   120500838.68908  22930497.960    93896845.08746
  21726538.620   114173758.68609  21726533.180    88966555.11448
  21170522.960   111251882.73309  21170522.040    86689783.23348
 15 02 26 01 21 30.0000000  0  6G16G18G19G21G22G27
  20432859.920   107375425.33109  20432855.980    83669152.25448
  21832554.360   114730877.76909  21832550.460    89400685.06347
  22870699.640   120186350.39008  22870694.680    93651689.82447
  22943851.780   120570993.44708  22943848.020    93951511.11546
  21714133.940   114108572.02809  21714128.500    88915760.31848
  21162248.500   111208400.36009  21162247.720    86655900.86048
 15 02 26 01 22  0.0000000  0  6G16G18G19G21G22G27
  20431996.280   107370886.59109  20431992.280    83665615.56948
  21832607.920   114731159.34909  21832603.960    89400904.47647
  22857311.820   120115995.89708  22857306.600    93596868.16947
  22957221.140   120641249.29908  22957217.320    94006255.92246
  21701802.460   114043769.67109  21701796.960    88865264.98748
  21154007.280   111165092.61409  21154006.480    86622154.57548
 15 02 26 01 22 30.0000000  0  6G16G18G19G21G22G27
  20431235.180   107366886.74209  20431231.160    83662498.80648
  21832756.540   114731940.53109  21832752.560    89401513.19847
  22843944.000   120045747.11108  22843938.660    93542128.87447
  22970609.000   120711602.40008  22970605.080    94061076.50646
  21689544.220   113979352.12009  21689538.640    88815069.50948
  21145799.120   111121958.32109  21145798.300    86588543.44448
 15 02 26 01 23  0.0000000  0  7G04G16G18G19G21G22G27
  24580390.380   129170821.82007  24580390.100   100652580.90745
  20430577.220   107363429.04409  20430573.200    83659804.49648
  21833000.780   114733224.15309  21832996.860    89402513.43447
  22830596.720   119975607.41908  22830591.520    93487474.58147
  22984015.820   120782054.88708  22984011.700    94115974.55446
  21677360.040   113915323.88209  21677354.460    88765177.38648
  21137624.680   111079001.00809  21137623.840    86555070.21448
 15 02 26 01 23 30.0000000  0  7G04G16G18G19G21G22G27
  24561178.740   129069865.36007  24561178.720   100573913.63245
  20430027.300   107360539.55709  20430023.300    83657552.94648
  21833345.420   114735035.39509  21833341.580    89403924.79247
  22817275.000   119905601.65508  22817269.860    93432924.65147
  22997446.000   120852630.14408  22997441.640    94170968.26146
  21665255.180   113851712.57609  21665249.680    88715610.14748
  21129488.760   111036246.04909  21129487.800    86521754.67348
 15 02 26 01 24  0.0000000  0  7G04G16G18G19G21G22G27
  24541987.760   128969016.54707  24541987.860   100495330.21544
  20429573.780   107358156.83509  20429569.820    83655696.26948
  21833778.620   114737312.04509  21833774.820    89405698.80347
  22803967.200   119835668.73908  22803962.020    93378431.47047
  23010887.360   120923264.56108  23010882.880    94226008.05446
  21653218.320   113788458.28409  21653212.920    88666321.08648
  21121379.640   110993632.32609  21121378.680    86488549.17448
 15 02 26 01 24 30.0000000  0  7G04G16G18G19G21G22G27
  24522824.720   128868314.36107  24522824.760   100416861.05445
  20429224.040   107356319.42009  20429220.180    83654264.51748
  21834307.640   114740091.97409  21834303.760    89407864.98847
  22790680.480   119765846.21708  22790675.360    93324024.32747
  23024346.760   120993993.85108  23024342.220    94281121.78146
  21641257.000   113725600.70609  21641251.620    88617341.16548
  21113304.720   110951198.15909  21113303.760    86455483.57948
 15 02 26 01 25  0.0000000  0  7G04G16G18G19G21G22G27
  24503689.200   128767755.95708  24503689.060   100338503.88944
  20428977.460   107355023.67009  20428973.680    83653254.83748
  21834931.720   114743371.14809  21834927.740    89410420.19247
  22777414.040   119696130.62608  22777409.080    93269700.51047
  23037823.260   121064813.69108  23037818.740    94336306.06446
  21629370.920   113663138.22409  21629365.400    88568669.10648
  21105263.380   110908940.32409  21105262.360    86422555.40048
 15 02 26 01 25 30.0000000  0  7G04G16G18G19G21G22G27
  24484581.280   128667343.05407  24484581.060   100260260.14544
  20428834.360   107354271.35409  20428830.480    83652668.61748
  21835650.900   114747150.15209  21835646.840    89413364.87247
  22764168.120   119626523.09608  22764163.260    93215460.88247
  23051316.720   121135722.72508  23051312.200    94391559.84846
  21617560.580   113601073.77509  21617554.900    88520307.21548
  21097255.900   110866860.42009  21097254.760    86389765.85848
 15 02 26 01 26  0.0000000  0  7G04G16G18G19G21G22G27
  24465501.580   128567078.21808  24465500.900   100182131.74844
  20428794.920   107354063.92709  20428790.940    83652506.97648
  21836465.400   114751430.51709  21836461.400    89416700.22247
  22750943.040   119557025.48308  22750938.300    93161306.90047
  23064827.140   121206721.08208  23064822.800    94446883.22046
  21605826.460   113539410.36609  21605820.760    88472257.81048
  21089282.640   110824960.31709  21089281.460    86357116.42348
 15 02 26 01 26 30.0000000  0  7G04G16G18G19G21G22G27
  24446450.000   128466962.05407  24446449.540   100104119.21244
  20428859.380   107354402.24909  20428855.240    83652770.60348
  21837375.220   114756211.70109  21837371.220    89420425.82647
  22737738.920   119487637.68508  22737734.260    93107238.51247
  23078354.280   121277807.12408  23078350.100    94502274.93946
  21594169.000   113478150.12209  21594163.380    88424522.56748
  21081343.640   110783240.27309  21081342.380    86324607.30248
 15 02 26 01 27  0.0000000  0  7G04G16G18G19G21G22G27
  24427426.700   128366994.11908  24427426.440   100026222.18244
  20429027.500   107355285.39409  20429023.240    83653458.76248
  21838380.080   114761492.20009  21838376.060    89424540.50247
  22724555.500   119418358.63408  22724550.700    93053254.85147
  23091897.540   121348978.01908  23091893.520    94557732.75946
  21582588.400   113417293.78909  21582582.840    88377102.05648
  21073438.780   110741699.73009  21073437.380    86292238.05248
 15 02 26 01 27 30.0000000  0  7G04G16G18G19G21G22G27
  24408431.860   128267174.87008  24408431.400    99948440.99444
  20429299.260   107356713.26609  20429295.000    83654571.38348
  21839479.740   114767271.12509  21839475.740    89429043.56847
  22711392.800   119349188.02408  22711387.840    92999355.68247
  23105456.580   121420231.79308  23105452.740    94613255.16246
  21571084.920   113356842.80909  21571079.360    88329997.40148
  21065568.080   110700338.67209  21065566.680    86260008.66148
 15 02 26 01 28  0.0000000  0  7G04G16G18G19G21G22G27
  24389465.340   128167504.57508  24389464.500    99870775.88844
  20429674.480   107358685.22409  20429670.300    83656107.96548
  21840674.120   114773548.17109  21840670.260    89433934.77447
  22698250.760   119280125.47808  22698245.600    92945540.71847
  23119030.960   121491565.78108  23119027.140    94668840.06546
  21559658.740   113296798.28809  21559653.140    88283209.46848
  21057731.540   110659157.12509  21057730.120    86227919.14348
 15 02 26 01 28 30.0000000  0  7G04G16G18G19G21G22G27
  24370528.220   128067988.74408  24370527.180    99793231.14645
  20430154.160   107361206.36609  20430150.080    83658072.48648
  21841964.020   114780327.25809  21841960.260    89439217.18847
  22685130.260   119211175.86308  22685124.940    92891813.76347
  23132621.400   121562983.62308  23132617.440    94724490.32046
  21548311.160   113237166.62809  21548305.500    88236743.24448
  21049930.200   110618160.31509  21049928.680    86195973.57549
 15 02 26 01 29  0.0000000  0  7G04G16G18G19G21G22G27
  24351619.760   127968624.36808  24351618.820    99715804.42745
  20430737.720   107364273.20209  20430733.720    83660462.22248
  21843348.640   114787603.87409  21843344.960    89444887.28047
  22672030.500   119142335.39209  22672024.900    92838171.85647
  23146226.800   121634479.87908  23146222.700    94780201.69146
  21537041.880   113177946.23309  21537036.120    88190597.49648
  21042163.340   110577344.87509  21042161.740    86164169.34249
 15 02 26 01 29 30.0000000  0  7G04G16G18G19G21G22G27
  24332740.820   127869415.08708  24332739.940    99638498.55945
  20431425.680   107367888.98709  20431421.800    83663279.70948
  21844828.460   114795380.52609  21844824.840    89450947.00247
  22658951.980   119073607.12408  22658946.200    92784617.37447
  23159847.180   121706055.08008  23159842.940    94835974.57246
  21525851.640   113119141.41709  21525845.900    88144775.56348
  21034431.580   110536713.99409  21034429.900    86132508.91548
 15 02 26 01 30  0.0000000  0  7G04G16G18G19G21G22G27
  24313892.240   127770366.08208  24313891.200    99561317.54544
  20432218.900   107372057.97209  20432215.160    83666528.26748
  21846404.220   114803661.00809  21846400.640    89457399.33947
  22645895.480   119004995.37608  22645889.740    92731153.69147
  23173483.220   121777712.64408  23173478.880    94891811.63046
  21514741.520   113060757.91009  21514735.920    88099281.93748
  21026735.840   110496272.51809  21026734.160    86100996.08349
 15 02 26 01 30 30.0000000  0  7G04G16G18G19G21G22G27
  24295072.400   127671468.44007  24295071.240    99484254.50745
  20433115.620   107376770.56709  20433111.960    83670200.40648
  21848074.100   114812435.95109  21848070.480    89464236.94647
  22632859.380   118936490.93409  22632853.840    92677773.62647
  23187132.840   121849441.52908  23187128.540    94947704.25846
  21503710.280   113002788.60409  21503704.780    88054111.04448
  21019074.420   110456011.63709  21019072.780    86069623.96448
 15 02 26 01 31  0.0000000  0  7G04G16G18G19G21G22G27
  24276283.080   127572731.58407  24276281.680    99407316.77345
  20434117.740   107382036.43909  20434114.040    83674303.67748
  21849839.580   114821713.14009  21849835.940    89471465.94247
  22619845.440   118868102.79808  22619840.240    92624484.19747
  23200797.340   121921248.62808  23200793.200    95003657.83746
  21492759.820   112945243.79009  21492754.420    88009270.94448
  21011449.100   110415940.38609  21011447.480    86038399.62048
 15 02 26 01 31 30.0000000  0  7G04G16G18G19G21G22G27
  24257524.000   127474152.93308  24257522.340    99330502.28944
  20435224.460   107387852.01009  20435220.680    83678835.28348
  21851699.840   114831488.60209  21851696.140    89479083.18947
  22606853.020   118799827.51208  22606848.040    92571282.67947
  23214475.820   121993129.10208  23214471.740    95059668.58846
  21481889.800   112888121.54409  21481884.440    87964760.10548
  21003859.320   110376055.92309  21003857.720    86007320.81448
 15 02 26 01 32  0.0000000  0  7G04G16G18G19G21G22G27
  24238795.380   127375733.70708  24238793.740    99253812.01345
  20436435.880   107394217.77409  20436432.020    83683795.60848
  21853654.760   114841761.98409  21853651.040    89487088.42347
  22593882.180   118731665.69709  22593877.320    92518169.58347
  23228168.000   122065081.87308  23228163.980    95115735.66446
  21471100.700   112831424.06009  21471095.260    87920580.24748
  20996305.240   110336359.17409  20996303.660    85976388.27749
 15 02 26 01 32 30.0000000  0  7G04G16G18G19G21G22G27
  24220097.180   127277473.93508  24220095.600    99177246.00844
  20437751.700   107401132.47809  20437747.920    83689183.68148
  21855704.220   114852532.47609  21855700.580    89495481.01047
  22580932.900   118663616.74309  22580927.960    92465144.43447
  23241873.320   122137104.10708  23241869.340    95171856.86546
  21460392.560   112775152.06609  21460387.020    87876731.94848
  20988786.900   110296849.83409  20988785.300    85945601.78448
 15 02 26 01 33  0.0000000  0  7G04G16G18G19G21G22G27
  24201430.220   127179377.92508  24201428.640    99100807.61244
  20439172.780   107408600.16709  20439169.000    83695002.65548
  21857848.780   114863802.65609  21857845.200    89504262.97747
  22568005.900   118595684.50809  22568000.700    92412210.23547
  23255592.180   122209197.87808  23255588.180    95228033.81746
  21449766.400   112719311.31309  21449760.780    87833219.68148
  20981304.960   110257532.07409  20981303.400    85914964.57449
 15 02 26 01 33 30.0000000  0  7G04G16G18G19G21G22G27
  24182793.700   127081441.08208  24182792.120    99024493.22845
  20440698.200   107416616.20909  20440694.420    83701248.91748
  21860087.380   114875566.98009  21860083.820    89513429.99347
  22555100.200   118527863.77709  22555094.640    92359362.94547
  23269323.420   122281356.43108  23269319.360    95284261.24246
  21439221.500   112663897.78609  21439215.960    87790040.32048
  20973858.500   110218401.13009  20973857.020    85884472.93648
 15 02 26 01 34  0.0000000  0  7G04G16G18G19G21G22G27
  24164189.300   126983673.02608  24164187.620    98948310.37845
  20442329.620   107425189.32709  20442325.820    83707929.26648
  21862421.580   114887833.74709  21862417.980    89522988.52347
  22542217.480   118460164.12209  22542211.660    92306609.98947
  23283068.580   122353587.97308  23283064.540    95340545.55946
  21428760.060   112608922.61109  21428754.580    87747202.52748
  20966449.440   110179466.74609  20966448.060    85854134.45949
 15 02 26 01 34 30.0000000  0  7G04G16G18G19G21G22G27
  24145615.580   126886066.27808  24145613.860    98872253.23045
  20444065.240   107434310.26609  20444061.520    83715036.48248
  21864849.760   114900593.72709  21864846.180    89532931.35847
  22529355.960   118392576.64108  22529350.160    92253944.42847
  23296825.560   122425881.66208  23296821.640    95396878.29146
  21418380.640   112554378.23309  21418375.140    87704700.42048
  20959076.240   110140720.58609  20959074.880    85823942.64848
 15 02 26 01 35  0.0000000  0  7G04G16G18G19G21G22G27
  24127073.880   126788627.84908  24127071.880    98796327.22645
  20445906.600   107443986.55709  20445902.940    83722576.44948
  21867373.000   114913853.03009  21867369.460    89543263.28947
  22516516.980   118325108.27808  22516511.500    92201371.69247
  23310595.400   122498242.55408  23310591.440    95453263.41446
  21408084.880   112500273.24209  21408079.300    87662540.69548
  20951740.260   110102170.01409  20951739.000    85793903.24949
 15 02 26 01 35 30.0000000  0  7G04G16G18G19G21G22G27
  24108563.860   126691356.74108  24108561.760    98720531.60944
  20447853.180   107454215.88309  20447849.520    83730547.34248
  21869990.760   114927608.97609  21869987.140    89553982.20847
  22503700.340   118257757.57809  22503695.140    92148890.62847
  23324377.560   122570667.93108  23324373.480    95509698.76146
  21397872.720   112446607.52409  21397867.060    87620723.26748
  20944441.240   110063813.72309  20944440.040    85764015.22849
 15 02 26 01 36  0.0000000  0  7G04G16G18G19G21G22G27
  24090086.060   126594255.66108  24090083.960    98644868.45945
  20449905.360   107465000.34508  20449901.680    83738950.81348
  21872703.180   114941862.46109  21872699.460    89565088.83247
  22490906.520   118190526.45708  22490901.600    92096502.75347
  23338171.900   122643157.19908  23338167.860    95566183.89246
  21387744.760   112393384.32509  21387739.000    87579250.65348
  20937179.660   110025654.02009  20937178.520    85734280.40349
 15 02 26 01 36 30.0000000  0  7G04G16G18G19G21G22G27
  24071640.060   126497323.07208  24071638.020    98569336.63445
  20452062.760   107476337.66109  20452059.020    83747785.07748
  21875509.840   114956611.31509  21875506.100    89576581.45147
  22478135.220   118123413.22509  22478130.320    92044206.72847
  23351977.800   122715707.45708  23351973.740    95622716.55446
  21377700.880   112340603.11709  21377695.020    87538122.44948
  20929955.320   109987689.66309  20929954.120    85704697.79549
 15 02 26 01 37  0.0000000  0  7G04G16G18G19G21G22G27
  24053226.300   126400560.88708  24053224.560    98493937.56245
  20454325.540   107488228.47409  20454321.760    83757050.64648
  21878410.780   114971855.72309  21878407.040    89588460.21947
  22465386.780   118056419.13409  22465381.640    91992003.56347
  23365795.220   122788318.34208  23365791.100    95679296.46346
  21367741.680   112288266.82609  21367735.740    87497340.93048
  20922768.460   109949922.20909  20922767.180    85675268.61448
 15 02 26 01 37 30.0000000  0  7G04G16G18G19G21G22G27
  24034845.700   126303972.72307  24034844.340    98418674.10945
  20456694.320   107500676.08809  20456690.500    83766750.06848
  21881406.400   114987597.60209  21881402.660    89600726.62547
  22452661.680   117989547.37309  22452656.220    91939895.70847
  23379624.420   122860991.13608  23379620.180    95735924.60846
  21357867.920   112236379.48309  21357861.960    87456909.24048
  20915619.680   109912355.09809  20915618.360    85645995.53948
 15 02 26 01 38  0.0000000  0  7G04G16G18G19G21G22G27
  24016497.980   126207556.68508  24016496.680    98343544.76145
  20459168.560   107513677.69709  20459164.660    83776881.19848
  21884496.020   115003833.73309  21884492.240    89613378.17047
  22439959.260   117922795.66408  22439953.660    91887881.39747
  23393464.600   122933721.52108  23393460.380    95792597.62346
  21348079.380   112184940.51409  21348073.460    87416826.93848
  20908508.620   109874986.37309  20908507.280    85616877.06048
 15 02 26 01 38 30.0000000  0  7G04G16G18G19G21G22G27
  23998183.360   126111313.64007  23998182.040    98268550.19545
  20461748.140   107527233.14009  20461744.140    83787443.86548
  21887679.540   115020563.56209  21887675.760    89626414.38947
  22427279.620   117856164.33408  22427274.220    91835960.89047
  23407315.600   123006508.53908  23407311.400    95849314.77246
  21338376.400   112133951.37009  21338370.500    87377095.13848
  20901435.400   109837816.77409  20901434.080    85587913.73448
 15 02 26 01 39  0.0000000  0  7G04G16G18G19G21G22G27
  23979901.960   126015244.91308  23979900.740    98193691.50545
  20464433.180   107541343.08109  20464429.160    83798438.62048
  21890956.940   115037786.88809  21890953.180    89639835.16947
  22414623.000   117789654.08808  22414617.760    91784134.73747
  23421177.180   123079351.19008  23421173.020    95906075.27246
  21328759.500   112083414.33209  21328753.640    87337715.63448
  20894400.320   109800847.50709  20894398.980    85559106.51748
 15 02 26 01 39 30.0000000  0  7G04G16G18G19G21G22G27
  23961653.380   125919347.70708  23961652.100    98118966.44945
  20467222.920   107556003.50009  20467219.040    83809862.31748
  21894327.520   115055499.64409  21894323.840    89653637.31947
  22401988.900   117723262.01709  22401983.800    91732400.67447
  23435048.360   123152244.52008  23435044.080    95962875.26846
  21319228.180   112033326.99409  21319222.400    87298686.55248
  20887402.860   109764075.86709  20887401.580    85530453.29748
 15 02 26 01 40  0.0000000  0  7G04G16G18G19G21G22G27
  23943438.760   125823628.44408  23943437.380    98044380.05645
  20470118.500   107571220.20109  20470114.740    83821719.47948
  21897792.100   115073706.04109  21897788.400    89667824.12147
  22389378.500   117656994.01209  22389373.380    91680763.27847
  23448929.960   123225192.99308  23448925.600    96019718.23445
  21309783.840   111983696.79909  21309778.060    87260013.67948
  20880444.180   109727508.01109  20880443.060    85501958.86449
 15 02 26 01 40 30.0000000  0  7G04G16G18G19G21G22G27
  23925257.660   125728085.14408  23925256.100    97969930.76245
  20473119.400   107586990.52609  20473115.660    83834008.03348
  21901350.120   115092403.44109  21901346.380    89682393.52847
  22376791.260   117590847.62508  22376786.160    91629220.64947
  23462821.220   123298192.57508  23462817.020    96076600.97846
  21300426.400   111934523.05709  21300420.560    87221696.48848
  20873523.960   109691142.14909  20873522.960    85473621.82749
 15 02 26 01 41  0.0000000  0  7G04G16G18G19G21G22G27
  23907111.060   125632722.72208  23907109.140    97895622.42645
  20476226.360   107603318.01309  20476222.660    83846730.74448
  21905002.040   115111594.51309  21904998.340    89697347.61647
  22364228.020   117524827.38509  22364222.940    91577776.32447
  23476722.660   123371245.80508  23476718.440    96133525.56345
  21291156.760   111885810.83909  21291150.900    87183738.93148
  20866643.040   109654982.81509  20866642.060    85445445.73049
 15 02 26 01 41 30.0000000  0  7G04G16G18G19G21G22G27
  23888998.760   125537540.64508  23888996.540    97821454.60945
  20479439.140   107620201.04909  20479435.380    83859886.35348
  21908747.600   115131277.51109  21908743.860    89712685.02447
  22351688.620   117458932.45109  22351683.520    91526429.62847
  23490633.840   123444350.14608  23490629.640    96190489.98446
  21281974.920   111837560.33309  21281969.140    87146141.14248
  20859801.420   109619029.53309  20859800.300    85417430.18649
 15 02 26 01 42  0.0000000  0  7G04G16G18G19G21G22G27
  23870919.900   125442534.85708  23870917.560    97747424.16145
  20482756.800   107637635.27109  20482753.060    83873471.45448
  21912585.780   115151446.81009  21912581.920    89728401.37147
  22339172.320   117393158.62709  22339167.220    91475177.30248
  23504553.660   123517499.58308  23504549.460    96247489.53545
  21272880.300   111789768.55709  21272874.680    87108900.79648
  20852998.300   109583278.47109  20852997.020    85389572.22249
 15 02 26 01 42 30.0000000  0  7G04G16G18G19G21G22G27
  23852876.020   125347713.43508  23852873.560    97673537.36445
  20486180.600   107655627.58209  20486176.880    83887491.43548
  21916517.700   115172109.03409  21916513.800    89744501.80147
  22326680.460   117327513.23608  22326675.400    91424025.05848
  23518483.240   123590700.04108  23518479.200    96304528.84346
  21263874.600   111742444.04309  21263869.140    87072024.55548
  20846235.120   109547737.49409  20846233.740    85361877.95649
 15 02 26 01 43  0.0000000  0  7G04G16G18G19G21G22G27
  23834867.040   125253076.12708  23834864.480    97599794.04945
  20489710.320   107674176.39109  20489706.560    83901945.04248
  21920543.000   115193262.25209  21920539.100    89760984.83247
  22314212.960   117261995.80609  22314207.900    91372972.51748
  23532422.200   123663949.40208  23532418.060    96361606.28046
  21254958.060   111695587.68309  21254952.680    87035513.11848
  20839511.860   109512406.41409  20839510.420    85334347.24649
 15 02 26 01 43 30.0000000  0  7G04G16G18G19G21G22G27
  23816893.020   125158623.03408  23816890.600    97526194.27845
  20493345.760   107693280.85709  20493342.020    83916831.63548
  21924661.340   115214904.66609  21924657.580    89777849.05147
  22301769.760   117196606.02009  22301764.720    91322019.45148
  23546370.080   123737245.51208  23546365.800    96418720.13445
  21246130.700   111649199.81109  21246125.260    86999366.72848
  20832828.480   109477285.18309  20832827.100    85306980.05049
 15 02 26 01 44  0.0000000  0  7G04G16G18G19G21G22G27
  23798953.340   125064350.09108  23798951.000    97452734.86445
  20497086.020   107712935.91709  20497082.300    83932147.25248
  21928871.820   115237031.08009  21928868.120    89795090.41247
  22289350.140   117131340.01609  22289345.080    91271162.82948
  23560325.720   123810582.53808  23560321.480    96475865.85046
  21237392.000   111603277.45909  21237386.380    86963583.07348
  20826184.320   109442369.97909  20826183.100    85279773.39349
 15 02 26 01 44 30.0000000  0  7G04G16G18G19G21G22G27
  23781049.100   124970263.09008  23781046.920    97379420.34245
  20500932.080   107733146.65209  20500928.300    83947895.86848
  21933175.180   115259645.44909  21933171.440    89812712.00547
  22276954.960   117066202.98209  22276949.940    91220406.70948
  23574289.860   123883964.28208  23574285.660    96533046.42746
  21228743.020   111557826.74409  21228737.380    86928166.94248
  20819580.540   109407666.61009  20819579.300    85252731.80949
 15 02 26 01 45  0.0000000  0  7G04G16G18G19G21G22G27
  23763180.680   124876363.20808  23763178.500    97306251.63245
  20504883.900   107753912.70009  20504879.920    83964077.19848
  21937571.300   115282747.18409  21937567.560    89830713.35547
  22264584.400   117001195.41909  22264579.460    91169751.47148
  23588262.220   123957389.22208  23588258.080    96590260.65046
  21220184.180   111512849.72309  21220178.620    86893119.91748
  20813017.260   109373176.04409  20813015.960    85225856.04349
 15 02 26 01 45 30.0000000  0  7G04G16G18G19G21G22G27
  23745347.980   124782650.41008  23745345.660    97233228.70745
  20508941.180   107775233.17209  20508937.060    83980690.54948
  21942059.840   115306334.47209  21942056.100    89849093.06147
  22252238.440   116936317.19209  22252233.560    91119197.02148
  23602242.480   124030855.71108  23602238.360    96647507.26046
  21211715.620   111468346.87209  21211710.040    86858442.38548
  20806494.560   109338898.38809  20806493.100    85199146.18149
 15 02 26 01 46  0.0000000  0  8G04G07G16G18G19G21G22G27
  23727550.480   124689122.48708  23727547.760    97160349.82645
  24531404.920   128913405.72608                                
  20513103.240   107797104.71409  20513099.040    83997733.30148
  21946640.120   115330403.69309  21946636.380    89867848.30147
  22239916.640   116871565.95609  22239911.860    91068741.52248
  23616229.940   124104360.08808  23616225.880    96704783.38046
  21203337.120   111424316.99509  21203331.380    86824133.39648
  20800011.960   109304831.69609  20800010.440    85172600.70749
 15 02 26 01 46 30.0000000  0  8G04G07G16G18G19G21G22G27
  23709788.740   124595783.44008  23709785.900    97087618.13245
  24527861.560   128894783.25208  24527857.340   100437471.38845
  20517370.620   107819530.34609  20517366.460    84015207.81748
  21951312.520   115354957.23609  21951308.780    89886980.93847
  22227619.840   116806945.47109  22227614.920    91018387.91048
  23630224.800   124177903.83208  23630220.700    96762090.18946
  21195049.400   111380764.34609  21195043.520    86790196.27948
  20793570.160   109270979.82409  20793568.640    85146222.62749
 15 02 26 01 47  0.0000000  0  8G04G07G16G18G19G21G22G27
  23692064.120   124502640.34808  23692061.480    97015039.13345
  24524418.620   128876690.36208  24524415.120   100423373.04045
  20521744.500   107842515.66409  20521740.400    84033118.45048
  21956077.980   115380000.02609  21956074.240    89906494.79947
  22215349.220   116742462.38909  22215344.080    90968141.35948
  23644228.140   124251492.01108  23644224.120    96819431.59346
  21186854.000   111337696.80809  21186848.040    86756637.16148
  20787170.560   109237349.80709  20787169.100    85120017.42349
 15 02 26 01 47 30.0000000  0  8G04G07G16G18G19G21G22G27
  23674376.460   124409691.51208  23674373.900    96942611.49045
  24521075.580   128859124.87508  24521072.600   100409685.65046
  20526224.500   107866058.39909  20526220.400    84051463.43548
  21960935.920   115405528.94409  21960932.100    89926387.46847
  22203104.340   116678114.78209  22203099.100    90918000.39148
  23658239.280   124325121.29108  23658235.340    96876805.05846
  21178750.640   111295113.04309  21178744.560    86723455.01748
  20780812.880   109203940.35909  20780811.500    85093984.08949
 15 02 26 01 48  0.0000000  0  8G04G07G16G18G19G21G22G27
  23656724.760   124316931.28908  23656722.360    96870330.82245
  24517831.580   128842080.12308  24517829.280   100396404.03745
  20530809.240   107890151.46709  20530805.140    84070237.24048
  21965885.000   115431536.58209  21965881.160    89946653.16247
  22190884.060   116613896.77709  22190878.800    90867960.40348
  23672256.820   124398783.94708  23672252.960    96934204.50045
  21170738.440   111253008.44009  21170732.320    86690646.23748
  20774496.080   109170745.77409  20774494.720    85068118.17249
 15 02 26 01 48 30.0000000  0  8G04G07G16G18G19G21G22G27
  23639109.320   124224361.15608  23639106.940    96798198.27645
  24514686.980   128825556.50408  24514685.040   100383528.48945
  20535498.720   107914794.86709  20535494.640    84089439.88348
  21970925.180   115458022.83609  21970921.280    89967291.80547
  22178688.580   116549809.83509  22178683.420    90818022.53348
  23686280.640   124472479.82108  23686276.800    96991629.85445
  21162817.820   111211385.02609  21162811.700    86658212.40548
  20768220.440   109137767.52309  20768219.160    85042420.83649
 15 02 26 01 49  0.0000000  0  8G04G07G16G18G19G21G22G27
  23621529.940   124131980.13408  23621527.480    96726213.09845
  24511641.500   128809552.43808  24511639.540   100371057.78245
  20540292.540   107939986.84709  20540288.600    84109069.99148
  21976055.960   115484985.13609  21976051.960    89988301.39547
  22166517.800   116485852.93209  22166512.780    90768185.99948
  23700310.240   124546206.05308  23700306.320    97049078.85846
  21154988.660   111170242.41009  21154982.520    86626153.23248
  20761985.840   109105005.10209  20761984.680    85016891.67949
 15 02 26 01 49 30.0000000  0  8G04G07G16G18G19G21G22G27
  23603987.420   124039793.35708  23603984.980    96654379.26645
  24508695.840   128794071.73408  24508692.860   100358994.90244
  20545191.460   107965731.14509  20545187.560    84129130.46748
  21981277.840   115512426.26609  21981273.880    90009684.09947
  22154372.660   116422030.37709  22154367.760    90718454.14448
  23714346.220   124619965.58708  23714342.220    97106553.79645
  21147252.020   111129585.90309  21147245.800    86594472.84848
  20755793.320   109072463.42309  20755792.220    84991534.52049
 15 02 26 01 50  0.0000000  0  8G04G07G16G18G19G21G22G27
  23586482.500   123947804.95408  23586479.940    96582700.02045
  24505850.300   128779117.62708  24505846.620   100347342.33245
  20550195.980   107992030.29909  20550192.140    84149623.30948
  21986591.320   115540348.84209  21986587.400    90031441.95647
  22142253.940   116358346.35409  22142249.120    90668830.25148
  23728389.000   124693760.77808  23728384.960    97164056.54345
  21139608.800   111089420.22709  21139602.480    86563174.92248
  20749643.700   109040146.79209  20749642.580    84966352.74249
 15 02 26 01 50 30.0000000  0  8G04G07G16G18G19G21G22G27
  23569014.760   123856012.55408  23569012.340    96511173.51345
  24503104.340   128764687.22408  24503101.140   100336097.83945
  20555305.580   108018881.47309  20555301.820    84170546.29248
  21991995.800   115568749.29509  21991991.840    90053572.18747
  22130161.180   116294798.69808  22130156.440    90619312.61748
  23742437.880   124767587.69708  23742433.800    97221583.99545
  21132058.640   111049743.93109  21132052.380    86532258.33748
  20743536.540   109008053.26309  20743535.400    84941344.79149
 15 02 26 01 51  0.0000000  0  8G04G07G16G18G19G21G22G27
  23551584.900   123764419.79708  23551582.660    96439802.55145
  24500458.400   128750782.98307  24500455.660   100325263.38246
  20560520.620   108046286.42709  20560516.760    84191900.79448
  21997491.460   115597629.04409  21997487.480    90076075.88647
  22118094.960   116231390.64109  22118090.200    90569903.73948
  23756493.120   124841447.75908  23756488.920    97279137.27245
  21124602.240   111010560.90509  21124596.180    86501726.10848
  20737472.540   108976186.34709  20737471.300    84916513.42449
 15 02 26 01 51 30.0000000  0  8G04G07G16G18G19G21G22G27
  23534192.600   123673024.48908  23534190.700    96368585.43945
  24497912.020   128737401.97607  24497909.040   100314836.62045
  20565840.400   108074241.93709  20565836.460    84213684.29748
  22003077.380   115626983.56709  22003073.480    90098949.53847
  22106054.900   116168119.85609  22106050.020    90520601.84148
  23770553.880   124915337.19108  23770549.580    97336713.44545
  21117239.400   110971869.52409  21117233.480    86471576.98048
  20731451.220   108944544.14709  20731449.960    84891857.16849
 15 02 26 01 52  0.0000000  0  8G04G07G16G18G19G21G22G27
  23516837.540   123581825.11608  23516836.020    96297521.02245
  24495464.760   128724541.21707  24495461.320   100304815.22945
  20571264.420   108102745.26209  20571260.400    84235894.67348
  22008753.120   115656810.16509  22008749.240    90122191.05047
  22094040.660   116104984.47809  22094035.620    90471405.45948
  23784619.460   124989252.42408  23784615.220    97394309.72045
  21109969.920   110933668.76109  21109964.120    86441810.16048
  20725472.340   108913125.30909  20725471.220    84867374.96349
 15 02 26 01 52 30.0000000  0  8G04G07G16G18G19G21G22G27
  23499520.920   123490826.56508  23499519.500    96226613.06245
  24493117.340   128712204.75308  24493113.880   100295202.40845
  20576793.260   108131799.56809  20576789.240    84258534.38948
  22014519.300   115687111.83509  22014515.460    90145802.73847
  22082053.280   116041989.66909  22082048.080    90422318.60648
  23798690.540   125063196.69808  23798686.340    97451928.62845
  21102794.860   110895963.99409  21102789.200    86412429.83348
  20719536.920   108881934.79009  20719535.920    84843070.66849
 15 02 26 01 53  0.0000000  0  8G04G07G16G18G19G21G22G27
  23482242.360   123400027.35608  23482240.860    96155860.46245
  24490869.300   128700390.10908  24490866.160   100285996.17545
  20582426.540   108161402.54609  20582422.520    84281601.63348
  22020375.220   115717885.04109  22020371.380    90169781.86047
  22070092.320   115979133.58609  22070087.040    90373339.84748
  23812766.440   125137166.61908  23812762.300    97509567.51645
  21095713.960   110858753.82109  21095708.340    86383434.88948
  20713644.760   108850971.34309  20713643.740    84818943.30949
 15 02 26 01 53 30.0000000  0  8G04G07G16G18G19G21G22G27
  23465001.840   123309427.73308  23465000.160    96085263.37446
  24488720.480   128689096.56808  24488717.780   100277195.99345
  20588163.980   108191552.75809  20588159.920    84305095.30448
  22026320.700   115749128.67109  22026316.880    90194127.54547
  22058157.700   115916416.38009  22058152.480    90324469.30148
  23826847.040   125211160.82108  23826842.900    97567225.32145
  21088727.500   110822039.61109  21088721.820    86354826.42348
  20707796.000   108820235.62609  20707794.920    84794993.40449
 15 02 26 01 54  0.0000000  0  8G04G07G16G18G19G21G22G27
  23447800.500   123219034.11008  23447798.780    96014826.81945
  24486671.600   128678329.21308  24486668.580   100268805.85645
  20594006.540   108222255.44409  20594002.480    84329019.46548
  22032356.500   115780846.86709  22032352.660    90218843.03347
  22046250.680   115853844.40409  22046245.440    90275711.92848
  23840933.180   125285183.86308  23840929.060    97624905.61245
  21081836.700   110785827.92809  21081831.020    86326609.54248
  20701991.880   108789734.05209  20701990.700    84771225.95249
 15 02 26 01 54 30.0000000  0  8G04G07G16G18G19G21G22G27
  23430637.460   123128841.33708  23430635.620    95944546.75745
  24484721.440   128668082.17008  24484717.940   100260821.14145
  20599952.940   108253503.71409  20599948.820    84353368.76248
  22038481.220   115813032.27709  22038477.440    90243922.57647
  22034370.280   115791412.39409  22034364.960    90227063.61948
  23855023.460   125359228.78108  23855019.380    97682602.93445
  21075040.580   110750114.11109  21075034.960    86298780.60048
  20696231.360   108759461.70309  20696230.100    84747637.12149
 15 02 26 01 55  0.0000000  0  8G04G07G16G18G19G21G22G27
  23413513.160   123038852.66008  23413511.220    95874425.72245
  24482870.580   128658357.39608  24482866.720   100253243.42045
  20606003.600   108285299.82409  20605999.500    84378144.94148
  22044695.160   115845686.80509  22044691.380    90269367.66247
  22022517.180   115729123.81509  22022511.860    90178527.07048
  23869118.200   125433297.18008  23869114.200    97740318.54745
  21068339.840   110714902.04209  21068334.320    86271342.62848
  20690515.060   108729422.15709  20690513.780    84724229.66649
 15 02 26 01 55 30.0000000  0  8G04G07G16G18G19G21G22G27
  23396427.600   122949067.90108  23396425.680    95804463.57645
  24481119.040   128649153.81608  24481115.240   100246071.76445
  20612158.220   108317642.42809  20612154.200    84403346.96748
  22050998.000   115878808.57909  22050994.240    90295176.84347
  22010691.300   115666978.21809  22010685.980    90130101.94148
  23883217.120   125507387.33308  23883213.100    97798051.12646
  21061734.560   110680191.78609  21061729.160    86244295.68348
  20684843.080   108699615.55609  20684841.760    84701003.74449
 15 02 26 01 56  0.0000000  0  8G04G07G16G18G19G21G22G27
  23379381.520   122859490.68708  23379379.720    95734663.19945
  24479467.120   128640473.14608  24479463.820   100239307.59445
  20618417.100   108350533.41709  20618413.180    84428976.29648
  22057390.100   115912399.16009  22057386.240    90321351.31347
  21998893.260   115604979.00409  21998887.900    90081790.86048
  23897320.500   125581500.97508  23897316.480    97855801.99745
  21055225.540   110645987.18609  21055220.200    86217642.74248
  20679216.160   108670045.58709  20679214.800    84677962.21349
 15 02 26 01 56 30.0000000  0  8G04G07G16G18G19G21G22G27
  23362374.160   122770116.37008  23362372.440    95665020.88546
  24477913.940   128632310.40208  24477911.260   100232947.00245
  20624779.160   108383966.54309  20624775.320    84455028.07948
  22063870.060   115946451.66409  22063866.140    90347885.74247
  21987122.260   115543122.11809  21987117.020    90033590.70948
  23911427.180   125655632.05208  23911423.200    97913566.45445
  21048811.880   110612283.87909  21048806.640    86191380.44248
  20673633.440   108640708.07509  20673632.000    84655101.82049
 15 02 26 01 57  0.0000000  0  8G04G07G16G18G19G21G22G27
  23345406.240   122680948.69708  23345404.280    95595539.59145
  24476459.760   128624667.77808  24476457.500   100226991.71445
  20631244.800   108417944.02409  20631241.000    84481504.02848
  22070438.280   115980968.15309  22070434.440    90374781.70347
  21975378.960   115481410.73909  21975373.800    89985503.92948
  23925537.500   125729782.26608  23925533.500    97971345.83446
  21042494.560   110579086.38009  21042489.320    86165512.26548
  20668095.640   108611606.96809  20668094.180    84632425.63349
 15 02 26 01 57 30.0000000  0  8G04G07G16G18G19G21G22G27
  23328477.920   122591988.79808  23328475.620    95526220.20545
  24475104.460   128617545.38708  24475102.040   100221441.80345
  20637813.940   108452465.24809  20637810.240    84508403.66848
  22077094.660   116015947.84709  22077090.820    90402038.60447
  21963663.520   115419845.84409  21963658.360    89937531.29348
  23939651.360   125803951.42908  23939647.440    98029139.94845
  21036273.760   110546395.69509  21036268.480    86140039.01448
  20662603.100   108582743.66509  20662601.620    84609934.74749
 15 02 26 01 58  0.0000000  0  8G04G07G16G18G19G21G22G27
  23311589.520   122503238.47708  23311586.900    95457064.12845
  24473848.100   128610943.65708  24473845.220   100216297.59045
  20644486.880   108487531.68109  20644483.180    84535728.15048
  22083839.220   116051390.48909  22083835.380    90429656.25147
  21951976.340   115358429.64309  21951971.120    89889674.53148
  23953768.800   125878139.35308  23953764.860    98086948.71845
  21030149.860   110514214.34209  21030144.520    86114962.64148
  20657156.200   108554120.19609  20657154.760    84587630.74649
 15 02 26 01 58 30.0000000  0  8G04G07G16G18G19G21G22G27
  23294740.660   122414696.13508  23294737.980    95388070.11945
  24472690.440   128604859.92808  24472686.940   100211557.00645
  20651262.860   108523139.74409  20651259.200    84563474.68248
  22090671.160   116087292.28709  22090667.280    90457631.68247
  21940317.080   115297160.29909  21940311.840    89841932.19448
  23967889.240   125952342.97408  23967885.360    98144769.69245
  21024122.620   110482540.87109  21024117.220    86090282.02348
  20651754.740   108525735.27709  20651753.360    84565512.62549
 15 02 26 01 59  0.0000000  0  8G04G07G16G18G19G21G22G27
  23277932.120   122326365.99108  23277929.460    95319241.46245
  24471631.860   128599297.02108  24471628.540   100207222.26745
  20658142.340   108559291.82609  20658138.780    84591645.12548
  22097591.020   116123656.21509  22097587.060    90485967.21947
  21928686.680   115236042.37609  21928681.520    89794307.84948
  23982013.180   126026564.97608  23982009.360    98202605.01945
  21018193.040   110451380.09809  21018187.520    86066000.91748
  20646399.540   108497593.51109  20646398.180    84543583.98449
 15 02 26 01 59 30.0000000  0  8G04G07G16G18G19G21G22G27
  23261163.260   122238245.08908  23261160.740    95250575.84546
  24470671.400   128594250.76108  24470668.740   100203290.12246
  20665124.440   108595983.23509  20665120.940    84620235.81948
  22104597.860   116160477.21609  22104593.920    90514658.90847
  21917084.500   115175072.71409  21917079.420    89746799.03548
  23996139.780   126100800.44808  23996136.080    98260450.83345
  21012360.440   110420728.77909  21012354.800    86042116.78148
  20641090.100   108469692.10509  20641088.680    84521842.63349
 15 02 26 02 00  0.0000000  0  8G04G07G16G18G19G21G22G27
  23244434.840   122150336.62008  23244432.520    95182075.75446
  24469809.720   128589723.07708  24469807.020   100199762.06345
  20672209.560   108633215.70609  20672206.080    84649248.13048
  22111691.860   116197756.05409  22111687.960    90543707.35347
  21905511.220   115114254.71209  21905506.040    89699408.40248
  24010269.340   126175051.19308  24010265.580    98318308.54845
  21006625.420   110390590.79409  21006619.760    86018632.63848
  20635827.140   108442034.73309  20635825.620    84500291.43449
 15 02 26 02 00 30.0000000  0  8G04G07G16G18G19G21G22G27
  23227747.000   122062641.62908  23227744.900    95113742.02146
  24469046.900   128585713.65908  24469043.500   100196637.79245
  20679397.720   108670989.18909  20679394.040    84678682.01148
  22118872.800   116235491.89109  22118868.880    90573111.90647
  21893967.000   115053589.51809  21893961.880    89652136.83548
  24024401.720   126249316.72008  24024397.740    98376177.78045
  21000988.280   110360967.42609  21000982.620    85995549.50448
  20630610.800   108414622.72309  20630609.300    84478931.42849
 15 02 26 02 01  0.0000000  0  8G04G07G16G18G19G21G22G27
  23211098.880   121975155.12308  23211096.800    95045570.73446
  24468381.780   128582216.29908  24468377.400   100193912.56445
  20686687.560   108709296.89009  20686683.540    84708532.15948
  22126139.380   116273677.84309  22126135.440    90602867.18947
  21882450.880   114993072.10109  21882445.840    89604980.42148
  24038535.680   126323590.46708  24038531.620    98434053.40445
  20995448.180   110331854.01909  20995442.540    85972863.73948
  20625440.200   108387451.49609  20625438.820    84457759.03849
 15 02 26 02 01 30.0000000  0  8G04G07G16G18G19G21G22G27
  23194491.640   121887883.79508  23194489.500    94977567.13145
  24467814.860   128579236.61507  24467809.740   100191590.72245
  20694080.020   108748143.85109  20694075.720    84738802.51148
  22133492.500   116312318.68409  22133488.520    90632976.93747
  21870964.200   114932709.29509  21870959.120    89557944.47948
  24052672.100   126397877.35108  24052667.860    98491939.27545
  20990006.400   110303257.33809  20990000.820    85950580.61748
  20620316.720   108360528.06609  20620315.440    84436779.74149
 15 02 26 02 02  0.0000000  0  8G04G07G16G18G19G21G22G27
  23177926.300   121800832.77208  23177924.060    94909735.18746
  24467346.480   128576777.87007  24467342.200   100189674.82746
  20701575.720   108787533.34609  20701571.240    84769495.62348
  22140932.640   116351417.46709  22140928.720    90663443.51947
  21859508.020   114872506.44509  21859502.780    89511033.17548
  24066811.660   126472181.11908  24066807.360    98549838.30945
  20984664.060   110275182.65809  20984658.360    85928704.24748
  20615241.540   108333858.03609  20615240.280    84415997.90649
 15 02 26 02 02 30.0000000  0  8G04G07G16G18G19G21G22G27
  23161402.140   121713998.62608  23161399.940    94842072.24146
  24466976.460   128574835.42307  24466973.600   100188161.24846
  20709173.700   108827460.83209  20709169.240    84800607.95048
  22148458.780   116390968.71609  22148455.040    90694262.68447
  21848081.680   114812460.18409  21848076.220    89464243.89348
  24080953.380   126546496.79807  24080949.360    98607746.60445
  20979420.440   110247626.81309  20979414.660    85907232.17248
  20610214.060   108307438.16309  20610212.700    84395411.00749
 15 02 26 02 03  0.0000000  0  8G04G07G16G18G19G21G22G27
  23144918.400   121627376.62608  23144916.340    94774574.58246
  24466703.960   128573403.19907  24466701.720   100187045.20745
  20716872.780   108867919.81009  20716868.340    84832134.42248
  22156069.800   116430965.67909  22156066.180    90725429.13947
  21836684.220   114752565.74709  21836678.600    89417572.90548
  24095096.200   126620818.25007  24095092.320    98665659.39945
  20974274.680   110220585.49309  20974268.820    85886161.01848
  20605233.400   108281264.20109  20605231.940    84375015.70749
 15 02 26 02 03 30.0000000  0  8G04G07G16G18G19G21G22G27
  23128475.880   121540970.41908  23128473.840    94707245.07946
  24466529.080   128572483.43707  24466526.700   100186328.46645
  20724673.160   108908911.72209  20724668.860    84864076.16848
  22163766.080   116471410.16609  22163762.540    90756944.32847
  21825316.340   114692826.79309  21825310.660    89371023.09548
  24109240.580   126695147.65008  24109236.840    98723578.38545
  20969227.420   110194062.11009  20969221.520    85865493.45748
  20600300.280   108255340.10409  20600298.680    84354815.11749
 15 02 26 02 04  0.0000000  0  8G04G07G16G18G19G21G22G27
  23112074.620   121454781.02408  23112072.580    94640084.52846
  24466451.560   128572076.02207  24466448.580   100186010.97845
  20732574.720   108950435.76909  20732570.700    84896432.55648
  22171547.380   116512301.21309  22171543.760    90788807.47947
  21813978.300   114633245.03509  21813972.700    89324595.75348
  24123386.460   126769484.85108  24123382.760    98781503.46545
  20964278.980   110168058.09509  20964273.040    85845230.59348
  20595415.000   108229667.48509  20595413.360    84334810.48049
 15 02 26 02 04 30.0000000  0  8G04G07G16G18G19G21G22G27
  23095715.040   121368810.76408  23095712.920    94573094.72346
  24466471.360   128572181.38307  24466468.540   100186093.03245
  20740577.840   108992493.72009  20740574.160    84929204.98448
  22179413.640   116553638.61509  22179409.920    90821018.43347
  21802670.560   114573822.69409  21802665.040    89278292.63748
  24137533.880   126843830.09708  24137530.220    98839434.78745
  20959429.900   110142576.06609  20959423.940    85825374.46848
  20590578.040   108204248.91509  20590576.420    84315003.80249
 15 02 26 02 05  0.0000000  0  8G04G07G16G18G19G21G22G27
  23079397.040   121283058.68608  23079394.740    94506274.94445
  24466588.320   128572797.06808  24466586.220   100186572.78045
  20748681.960   109035082.49308  20748678.600    84962391.02248
  22187364.380   116595419.55709  22187360.700    90853575.00847
  21791392.920   114514558.93409  21791387.560    89232113.09248
  24151682.380   126918181.05608  24151678.680    98897370.57845
  20954680.020   110117615.09109  20954674.060    85805924.35648
  20585789.280   108179083.71209  20585787.660    84295394.54149
 15 02 26 02 05 30.0000000  0  8G04G07G16G18G19G21G22G27
  23063120.340   121197523.66408  23063117.800    94439624.30046
  24466802.360   128573920.82308  24466800.580   100187448.45645
  20756886.500   109078198.89509  20756883.460    84995988.20248
  22195398.960   116637641.24209  22195395.200    90886475.02447
  21780145.320   114455452.92309  21780140.040    89186056.46648
  24165831.500   126992535.04908  24165827.820    98955308.74045
  20950029.040   110093173.94009  20950023.120    85786879.30748
  20581048.640   108154171.42009  20581047.040    84275982.36749
 15 02 26 02 06  0.0000000  0  8G04G07G16G18G19G21G22G27
  23046885.760   121112210.18908  23046883.120    94373146.29446
  24467113.940   128575555.59608  24467111.460   100188722.29345
  20765192.180   109121845.89809  20765189.300    85029998.83948
  22203517.760   116680305.66909  22203513.940    90919720.03047
  21768928.680   114396509.17109  21768923.420    89140126.28248
  24179981.920   127066895.35708  24179978.100    99013251.81945
  20945477.820   110069257.15109  20945471.960    85768242.86048
  20576357.000   108129516.91109  20576355.420    84256771.06449
 15 02 26 02 06 30.0000000  0  9G04G07G11G16G18G19G21G22G27
  23030692.840   121027115.67008  23030690.200    94306838.88945
  24467521.880   128577697.28608  24467518.700   100190391.11645
  24688803.080   129740536.94407  24688802.560   101096509.26544
  20773598.060   109166018.72009  20773595.260    85064419.20748
  22211719.920   116723408.08009  22211716.060    90953306.33647
  21757742.540   114337725.36209  21757737.280    89094320.74348
  24194132.840   127141257.98708  24194128.900    99071196.72145
  20941025.920   110045862.50809  20941020.140    85750013.27548
  20571714.020   108105118.01609  20571712.440    84237758.93749
 15 02 26 02 07  0.0000000  0  9G04G07G11G16G18G19G21G22G27
  23014543.020   120942247.87408  23014540.420    94240708.15846
  24468027.160   128580352.09807  24468023.700   100192459.77044
  24671307.420   129648595.66906  24671305.760   101024866.66344
  20782105.400   109210724.25309  20782102.420    85099254.67948
  22220006.560   116766954.37509  22220002.760    90987238.52347
  21746588.320   114279109.72709  21746583.020    89048646.22448
  24208285.280   127215629.29308  24208281.280    99129148.36045
  20936674.880   110022997.97509  20936669.140    85732196.76848
  20567121.220   108080982.92309  20567119.700    84218952.36949
 15 02 26 02 07 30.0000000  0  9G04G07G11G16G18G19G21G22G27
  22998435.420   120857602.31708  22998433.000    94174750.61346
  24468628.580   128583513.90307  24468625.280   100194923.50045
  24653826.720   129556733.69207  24653825.100   100953285.98844
  20790712.800   109255955.33609  20790709.580    85134499.67748
  22228376.420   116810937.72709  22228372.420    91021511.27047
  21735465.140   114220657.70209  21735459.920    89003099.20448
  24222438.200   127290003.16407  24222434.160    99187102.02945
  20932423.820   110000658.53009  20932418.040    85714789.41448
  20562577.840   108057107.43109  20562576.300    84200348.09049
 15 02 26 02 08  0.0000000  0  9G04G07G11G16G18G19G21G22G27
  22982369.880   120773178.15908  22982367.640    94108965.58846
  24469326.140   128587180.67307  24469322.960   100197780.72145
  24636360.920   129464950.34907  24636359.160   100881766.52444
  20799419.720   109301709.29609  20799416.220    85170152.10348
  22236828.900   116855355.54109  22236824.820    91056122.55847
  21724373.100   114162368.92709  21724367.980    88957679.39848
  24236591.200   127364377.87007  24236587.200    99245056.31945
  20928272.640   109978843.82509  20928266.800    85697790.95048
  20558083.880   108033491.53009  20558082.280    84181946.08949
 15 02 26 02 08 30.0000000  0  9G04G07G11G16G18G19G21G22G27
  22966347.680   120688981.58708  22966345.540    94043357.89046
  24470120.660   128591356.59207  24470117.700   100201034.65146
  24618911.160   129373251.42207  24618909.400   100810312.81945
  20808227.120   109347991.03709  20808223.260    85206215.80048
  22245364.800   116900211.58009  22245360.700    91091075.31447
  21713313.460   114104249.76409  21713308.240    88912391.75148
  24250745.040   127438757.68907  24250741.100    99303014.60545
  20924222.460   109957559.98809  20924216.620    85681206.14648
  20553640.480   108010141.73409  20553638.960    84163751.44749
 15 02 26 02 09  0.0000000  0  9G04G07G11G16G18G19G21G22G27
  22950367.400   120605005.11108  22950365.440    93977921.69246
  24471010.560   128596032.72007  24471007.660   100204678.37346
  24601475.700   129281629.00907  24601474.120   100738918.78244
  20817133.200   109394791.54409  20817129.120    85242683.71748
  22253982.340   116945496.72709  22253978.260    91126362.44447
  21702284.780   114046293.10009  21702279.460    88867230.72448
  24264898.200   127513133.90107  24264894.440    99360970.08544
  20920271.900   109936799.52309  20920266.020    85665029.16348
  20549246.380   107987051.04509  20549245.000    84145758.70749
 15 02 26 02 09 30.0000000  0  9G04G07G11G16G18G19G21G22G27
  22934430.140   120521254.53408  22934428.380    93912661.51246
  24471996.400   128601213.26208  24471993.900   100208715.12245
  24584055.860   129190088.80307  24584054.320   100667588.77844
  20826138.600   109442114.06409  20826134.240    85279558.39548
  22262682.120   116991214.32709  22262678.020    91161986.54847
  21691288.120   113988504.85709  21691282.680    88822200.92648
  24279051.480   127587511.32607  24279047.940    99418926.45945
  20916422.000   109916567.94209  20916416.080    85649264.30148
  20544902.780   107964225.64309  20544901.520    84127972.67549
 15 02 26 02 10  0.0000000  0  9G04G07G11G16G18G19G21G22G27
  22918535.580   120437728.05508  22918533.860    93847575.97046
  24473077.540   128606894.88007  24473075.340   100213142.35746
  24566651.660   129098629.25907  24566649.640   100596321.52445
  20835242.660   109489955.74409  20835238.180    85316837.61848
  22271463.360   117037360.46509  22271459.360    91197944.58147
  21680323.160   113930883.64809  21680317.720    88777301.28748
  24293204.540   127661886.62107  24293200.860    99476881.24844
  20912672.460   109896864.00209  20912666.540    85633910.59248
  20540609.460   107941664.46209  20540608.320    84110392.53049
 15 02 26 02 10 30.0000000  0  9G04G07G11G16G18G19G21G22G27
  22902684.160   120354427.89708  22902682.440    93782666.78146
  24474254.260   128613078.34108  24474251.960   100217960.60845
  24549263.100   129007251.79907  24549261.080   100525118.36344
  20844445.360   109538316.59009  20844440.840    85354521.39248
  22280326.160   117083935.16109  22280322.300    91234236.55847
  21669390.380   113873431.99809  21669385.060    88732533.78048
  24307357.420   127736260.57307  24307353.680    99534834.96745
  20909023.660   109877689.61809  20909017.800    85618969.52148
  20536366.980   107919370.20009  20536365.900    84093020.38449
 15 02 26 02 11  0.0000000  0  9G04G07G11G16G18G19G21G22G27
  22886876.120   120271355.37108  22886874.180    93717934.95546
  24475526.560   128619762.89608  24475523.740   100223169.32945
  24531890.300   128915957.38707  24531887.920   100453979.91544
  20853746.540   109587195.61409  20853742.160    85392608.93348
  22289270.360   117130937.59109  22289266.560    91270861.82647
  21658490.100   113816151.08609  21658484.860    88687899.30748
  24321510.140   127810633.20608  24321506.580    99592787.66445
  20905475.880   109859045.95809  20905470.000    85604441.99648
  20532175.660   107897344.44209  20532174.580    84075857.45349
 15 02 26 02 11 30.0000000  0  9G04G07G11G16G18G19G21G22G27
  22871111.080   120188509.19008  22871109.020    93653379.52246
  24476893.600   128626945.64407  24476890.700   100228766.23746
  24514533.080   128824745.26907  24514530.700   100382905.61744
  20863145.640   109636589.53409  20863141.500    85431097.69448
  22298295.300   117178364.30409  22298291.480    91307817.71547
  21647622.320   113759040.50409  21647617.100    88643397.57148
  24335662.280   127885002.47308  24335658.820    99650737.74245
  20902028.840   109840931.62009  20902022.900    85590326.94048
  20528035.280   107875586.35909  20528034.100    84058903.10349
 15 02 26 02 12  0.0000000  0  9G04G07G11G16G18G19G21G22G27
  22855389.180   120105890.18008  22855386.960    93589001.06046
  24478355.180   128634625.93908  24478352.680   100234750.87245
  24497191.920   128733616.15907  24497188.980   100311895.91744
  20872642.620   109686497.70409  20872638.700    85469987.16148
  22307400.660   117226214.13208  22307397.020    91345103.29747
  21636787.360   113702101.65309  21636782.000    88599029.63148
  24349813.500   127959367.10308  24349809.900    99708684.18345
  20898682.700   109823347.44609  20898676.680    85576624.99048
  20523946.100   107854097.49909  20523944.820    84042158.53149
 15 02 26 02 12 30.0000000  0  9G04G07G11G16G18G19G21G22G27
  22839711.060   120023501.07708  22839708.680    93524801.77746
  24479911.380   128642804.71607  24479909.280   100241123.93945
  24479867.160   128642572.34107  24479863.800   100240952.69745
  20882237.680   109736920.74409  20882233.900    85509277.83148
  22316586.620   117274487.39009  22316583.140    91382718.82547
  21625985.640   113645337.30909  21625980.100    88554797.68748
  24363964.200   128033729.08908  24363960.480    99766628.57745
  20895437.900   109806296.23809  20895431.940    85563338.33748
  20519908.720   107832881.12109  20519907.480    84025626.29249
 15 02 26 02 13  0.0000000  0  9G04G07G11G16G18G19G21G22G27
  22824076.640   119941341.92408  22824074.360    93460781.68246
  24481562.000   128651480.27007  24481560.100   100247884.09045
  24462558.620   128551613.66507  24462555.280   100170075.81145
  20891930.500   109787857.21709  20891926.860    85548968.58548
  22325852.900   117323182.09409  22325849.420    91420662.73547
  21615217.100   113588747.74309  21615211.520    88510701.92748
  24378114.140   128108086.85908  24378110.300    99824569.67645
  20892294.520   109789777.68009  20892288.660    85550466.73748
  20515923.280   107811937.84209  20515922.180    84009306.85449
 15 02 26 02 13 30.0000000  0  8G04G11G16G18G19G21G22G27
  22808484.240   119859403.73408  22808482.080    93396933.79446
  24445264.440   128460731.03007  24445261.120   100099258.28544
  20901718.860   109839295.42009  20901715.300    85589050.30248
  22335197.320   117372287.20509  22335193.720    91458926.47347
  21604480.060   113532324.49209  21604474.540    88466735.76648
  24392261.360   128182430.38408  24392257.400    99882499.70445
  20889250.760   109773782.66909  20889244.960    85538003.10448
  20511988.260   107791259.24309  20511987.220    83993193.66649
 15 02 26 02 14  0.0000000  0  8G04G11G16G18G19G21G22G27
  22792937.340   119777704.59908  22792935.180    93333272.15546
  24427988.280   128369942.77507  24427984.460   100028514.17245
  20911605.980   109891252.10309  20911602.380    85629536.02248
  22344622.820   117421818.51609  22344619.220    91497522.30147
  21593778.240   113476086.41709  21593772.760    88422913.89748
  24406409.000   128256776.45608  24406404.980    99940431.70345
  20886310.060   109758329.34609  20886304.300    85525961.55448
  20508107.140   107770863.84609  20508106.100    83977301.14749
 15 02 26 02 14 30.0000000  0  8G04G11G16G18G19G21G22G27
  22777434.380   119696235.88108  22777432.200    93269790.05746
  24410728.340   128279239.86708  24410724.160    99957836.57944
  20921589.800   109943716.28009  20921586.040    85670417.18948
  22354127.300   117471765.05509  22354123.760    91536441.67547
  21583110.060   113420024.95709  21583104.540    88379229.65448
  24420555.280   128331115.29108  24420551.400    99998358.04644
  20883470.700   109743408.62709  20883464.940    85514335.02448
  20504278.440   107750743.59809  20504277.360    83961623.03449
 15 02 26 02 15  0.0000000  0  8G04G11G16G18G19G21G22G27
  22761975.380   119614997.83608  22761972.980    93206487.68046
  24393484.480   128188622.28206  24393480.200    99887225.45245
  20931669.940   109996686.68309  20931666.020    85711692.81648
  22363710.540   117522125.34808  22363707.020    91575683.44947
  21572475.660   113364140.78209  21572470.100    88335683.54548
  24434700.080   128405446.42708  24434696.040   100056278.40645
  20880732.800   109729020.98109  20880726.960    85503123.86948
  20500502.320   107730899.48009  20500501.220    83946160.07549
 15 02 26 02 15 30.0000000  0  8G04G11G16G18G19G21G22G27
  22746561.160   119533994.83508  22746558.560    93143368.45746
  24376257.460   128098094.28508  24376253.680    99816684.25444
  20941846.660   110050165.12409  20941842.620    85753364.32448
  22373372.900   117572901.14509  22373369.340    91615249.00547
  21561875.820   113308438.35709  21561870.320    88292279.06248
  24448843.900   128479772.49808  24448839.960   100114194.81544
  20878097.100   109715170.08109  20878091.160    85492330.96448
  20496779.700   107711336.29409  20496778.500    83930916.03449
 15 02 26 02 16  0.0000000  0  8G04G11G16G18G19G21G22G27
  22731190.920   119453223.27408  22731188.200    93080429.59346
  24359046.800   128007652.39208  24359043.400    99746210.03944
  20952119.020   110104146.74509  20952115.040    85795427.91948
  22383113.220   117624086.69609  22383109.660    91655133.84647
  21551309.940   113252914.74809  21551304.560    88249013.92048
  24462985.800   128554088.72107  24462981.800   100172103.54945
  20875562.920   109701852.53709  20875556.940    85481953.66348
  20493109.920   107692051.25809  20493108.640    83915888.73449
 15 02 26 02 16 30.0000000  0  8G04G11G16G18G19G21G22G27
  22715864.960   119372685.29708  22715862.380    93017672.75246
  24341852.780   127917298.09308  24341849.240    99675804.10244
  20962486.940   110158630.85609  20962483.120    85837883.05648
  22392931.520   117675681.83509  22392927.860    91695337.85047
  21540778.540   113197572.60809  21540773.340    88205890.17948
  24477125.980   128628396.30207  24477121.960   100230005.54645
  20873130.600   109689070.02009  20873124.560    85471993.25948
  20489493.440   107673046.75009  20489492.160    83901080.01549
 15 02 26 02 17  0.0000000  0  8G04G11G16G18G19G21G22G27
  22700582.960   119292378.62608  22700580.440    92955096.14546
  24324675.140   127827029.81307  24324671.180    99605465.18544
  20972949.700   110213613.51909  20972945.980    85880726.68848
  22402826.980   117727682.39209  22402823.280    91735857.75747
  21530281.360   113142410.24409  21530276.260    88162906.53348
  24491263.780   128702691.50207  24491259.980   100287897.89245
  20870799.540   109676819.93109  20870793.520    85462447.74748
  20485930.060   107654321.28509  20485928.800    83886488.74849
 15 02 26 02 17 30.0000000  0  9G04G11G16G18G19G21G22G27G32
  22685345.840   119212307.56108  22685343.360    92892703.12246
  24307514.660   127736851.35508  24307510.460    99535196.29344
  20983507.720   110269096.55209  20983504.000    85923960.21548
  22412800.000   117780090.38309  22412796.080    91776695.15447
  21519819.200   113087432.25209  21519814.160    88120066.53948
  24505399.980   128776977.87107  24505396.240   100345783.33145
  20868570.500   109665106.36809  20868564.540    85453320.29948
  20482420.700   107635879.71809  20482419.420    83872118.69349
  24491934.760   128705984.69107  24491931.560   100290376.63345
 15 02 26 02 18  0.0000000  0  9G04G11G16G18G19G21G22G27G32
  22670151.220   119132459.40908  22670148.760    92830483.81446
  24290368.980   127646750.04808  24290364.860    99464987.48544
  20994158.300   110325065.78809  20994154.500    85967572.60148
  22422847.660   117832890.77509  22422843.620    91817838.31947
  21509389.920   113032626.59609  21509384.960    88077360.84848
  24519531.880   128851241.25507  24519528.180   100403650.87844
  20866441.060   109653916.49509  20866435.120    85444600.93048
  20478963.100   107617710.01009  20478961.820    83857960.48749
  24469292.260   128586997.99508  24469289.940   100197659.90144
 15 02 26 02 18 30.0000000  0  9G04G11G16G18G19G21G22G27G32
  22655004.360   119052862.18808  22655001.960    92768460.01646
  24273243.240   127556753.71908  24273239.380    99394860.48444
  21004906.300   110381546.82809  21004902.380    86011583.79348
  22432974.840   117886109.31009  22432970.760    91859307.30347
  21498998.920   112978021.64109  21498994.000    88034811.53848
  24533664.580   128925508.85307  24533660.900   100461521.70745
  20864416.560   109643278.00409  20864410.620    85436311.19648
  20475562.600   107599840.69609  20475561.460    83844036.34649
  24446656.360   128468046.45408  24446654.600   100104970.56344
 15 02 26 02 19  0.0000000  0  9G04G11G16G18G19G21G22G27G32
  22639901.980   118973499.35308  22639899.780    92706618.87246
  24256134.240   127466845.68308  24256130.920    99324802.29644
  21015748.160   110438521.17609  21015744.220    86055979.38548
  22443177.900   117939727.28009  22443173.840    91901087.54447
  21488643.200   112923601.36809  21488638.220    87992406.13548
  24547794.760   128999762.81707  24547791.060   100519381.92045
  20862493.880   109633174.18409  20862487.860    85428438.10048
  20472216.340   107582255.96009  20472215.300    83830333.96149
  24424024.400   128349115.72908  24424022.800   100012297.41445
 15 02 26 02 19 30.0000000  0  9G04G11G16G18G19G21G22G27G32
  22624844.920   118894374.83008  22624842.880    92644963.40446
  24239042.780   127377030.14507  24239039.860    99254816.14844
  21026684.260   110495990.77709  21026680.400    86100760.88248
  22453457.360   117993746.68309  22453453.480    91943180.59347
  21478323.540   112869370.59309  21478318.360    87950148.39248
  24561922.840   129074006.26007  24561919.120   100577233.89244
  20860673.600   109623608.61909  20860667.580    85420984.41548
  20468925.180   107564960.52909  20468924.100    83816856.99849
  24401397.620   128230212.13608  24401396.040    99919645.43344
 15 02 26 02 20  0.0000000  0  9G04G11G16G18G19G21G22G27G32
  22609832.720   118815486.21708  22609830.820    92583491.76946
  24221968.260   127287303.98807  24221965.820    99184899.67945
  21037713.700   110553950.74409  21037709.880    86145924.48048
  22463812.200   118048162.23609  22463808.360    91985582.31247
  21468039.440   112815326.91709  21468034.100    87908036.44148
  24576048.120   129148235.41507  24576044.380   100635074.78444
  20858955.140   109614577.90109  20858949.100    85413947.49648
  20465688.660   107547952.17609  20465687.480    83803603.73649
  24378775.920   128111335.05407  24378774.340    99827014.08844
 15 02 26 02 20 30.0000000  0  9G04G11G16G18G19G21G22G27G32
  22594865.940   118736835.93008  22594864.040    92522205.83946
  24204911.220   127197670.10907  24204909.320    99115055.11645
  21048836.440   110612401.02709  21048832.700    86191470.15748
  22474242.560   118102974.27409  22474238.740    92028292.98946
  21457791.520   112761473.30009  21457786.120    87866072.58848
  24590170.980   129222451.88407  24590167.580   100692905.78145
  20857339.000   109606084.83309  20857332.980    85407329.53048
  20462507.480   107531234.19509  20462506.100    83790576.74149
  24356160.120   127992489.35808  24356158.400    99734407.18344
 15 02 26 02 21  0.0000000  0  9G04G11G16G18G19G21G22G27G32
  22579944.560   118658423.89008  22579942.580    92461105.57146
  24187871.700   127108128.35107  24187869.920    99045282.31445
  21060052.160   110671340.26709  21060048.520    86237396.82648
  22484748.020   118158180.71009  22484744.080    92071311.00246
  21447579.920   112707810.47109  21447574.480    87824257.40848
  24604291.200   129296654.13307  24604287.860   100750725.69845
  20855824.920   109598128.28909  20855818.940    85401129.63448
  20459381.580   107514807.18009  20459380.100    83777776.47449
  24333550.700   127873676.99208  24333549.140    99641826.25044
 15 02 26 02 21 30.0000000  0  9G04G11G16G18G19G21G22G27G32
  22565068.320   118580249.10508  22565066.220    92400190.16046
  24170849.560   127018677.19808  24170847.540    98975580.12844
  21071360.180   110730764.87809  21071356.620    86283701.70748
  22495327.900   118213778.07609  22495323.980    92114633.62546
  21437404.500   112654338.04409  21437399.060    87782590.58848
  24618408.360   129370839.91307  24618404.940   100808532.78145
  20854412.700   109590707.53309  20854406.880    85395347.23248
  20456310.880   107498670.64209  20456309.380    83765202.54749
  24310947.880   127754899.17208  24310946.340    99549272.25644
 15 02 26 02 22  0.0000000  0  9G04G11G16G18G19G21G22G27G32
  22550236.980   118502310.16308  22550234.960    92339458.53246
  24153844.620   126929315.78807  24153842.220    98905947.85445
  21082759.860   110790671.37609  21082756.440    86330382.07548
  22505981.480   118269763.14109  22505977.440    92158258.34846
  21427265.200   112601055.29709  21427259.660    87741071.56748
  24632521.980   129445007.62307  24632518.460   100866325.73345
  20853102.120   109583820.87209  20853096.380    85389981.00348
  20453295.320   107482824.05409  20453293.840    83752854.55449
  24288351.840   127636156.97707  24288350.180    99456745.98744
 15 02 26 02 22 30.0000000  0  9G04G11G16G18G19G21G22G27G32
  22535451.760   118424613.11308  22535449.540    92278915.38646
  24136857.940   126840049.87707  24136855.620    98836390.03145
  21094251.940   110851063.15309  21094248.580    86377440.59048
  22516709.540   118326139.33709  22516705.480    92202187.85846
  21417163.180   112547968.51709  21417157.500    87699705.25148
  24646633.120   129519162.25108  24646629.360   100924108.52944
  20851894.260   109577473.56209  20851888.500    85385035.06348
  20450336.140   107467273.95509  20450334.760    83740737.58949
  24265764.220   127517458.34808  24265762.520    99364253.70344
 15 02 26 02 23  0.0000000  0  9G04G11G16G18G19G21G22G27G32
  22520712.200   118347155.66908  22520709.800    92218558.94246
  24119889.120   126750877.10608  24119886.440    98766904.79044
  21105835.620   110911936.27809  21105832.360    86424874.18948
  22527511.180   118382901.95209  22527506.960    92246418.47746
  21407098.060   112495076.27209  21407092.380    87658490.51648
  24660741.200   129593300.38308  24660737.300   100981878.51244
  20850788.500   109571662.77709  20850782.720    85380507.18148
  20447433.100   107452018.71809  20447431.820    83728850.38649
  24243184.940   127398803.33407  24243183.140    99271795.34845
 15 02 26 02 23 30.0000000  0  9G04G11G16G18G19G21G22G27G32
  22506018.120   118269937.42108  22506015.620    92158388.91447
  24102938.140   126661797.11408  24102934.960    98697491.80445
  21117510.480   110973288.33909  21117507.260    86472680.98448
  22538385.800   118440048.21909  22538381.560    92290948.03246
  21397069.960   112442378.87309  21397064.440    87617427.61348
  24674845.840   129667420.56208  24674841.860   101039634.50445
  20849784.660   109566387.67309  20849778.860    85376396.71448
  20444586.320   107437058.70709  20444585.100    83717193.24049
  24220614.380   127280193.92208  24220612.380    99179372.56545
 15 02 26 02 24  0.0000000  0  9G04G11G16G18G19G21G22G27G32
  22491370.180   118192961.54108  22491367.560    92098407.71047
  24086005.360   126572813.17808  24086001.740    98628153.69545
  21129276.660   111035120.10609  21129273.460    86520861.56748
  22549333.700   118497579.60409  22549329.520    92335777.67446
  21387079.600   112389879.83909  21387074.260    87576519.27448
  24688947.520   129741524.97008  24688943.620   101097378.18645
  20848883.300   109561651.19909  20848877.480    85372705.95748
  20441796.460   107422397.78309  20441795.220    83705769.13449
  24198053.540   127161635.55308  24198051.260    99086989.52944
 15 02 26 02 24 30.0000000  0  9G04G11G16G18G19G21G22G27G32
  22476768.200   118116227.62308  22476765.600    92038615.04347
  24069090.740   126483924.64708  24069086.680    98558889.91145
  21141133.760   111097428.88009  21141130.460    86569413.84248
  22560354.300   118555493.22909  22560350.080    92380905.16646
  21377127.020   112337579.21709  21377121.780    87535765.54548
  24703045.880   129815611.77107  24703041.840   101155108.14945
  20848084.200   109557452.27609  20848078.420    85369434.06748
  20439063.580   107408036.07909  20439062.300    83694578.19149
  24175502.660   127043129.78708  24175500.260    98994647.45845
 15 02 26 02 25  0.0000000  0  9G04G11G16G18G19G21G22G27G32
  22462212.260   118039735.70308  22462209.800    91979010.95747
  24052194.300   126395131.55808  24052190.000    98489700.53245
  21153081.200   111160212.18609  21153077.680    86618335.89148
  22571447.160   118613786.76008  22571443.020    92426328.68847
  21367212.380   112285477.98709  21367207.280    87495167.20048
  24717140.860   129889680.97107  24717136.780   101212824.36945
  20847387.380   109553790.51209  20847381.620    85366580.75148
  20436387.780   107393974.43409  20436386.420    83683621.07149
  24152962.220   126924679.22208  24152959.700    98902348.42345
 15 02 26 02 25 30.0000000  0  9G04G11G16G18G19G21G22G27G32
  22447702.280   117963485.97908  22447700.060    91919595.60746
  24035316.040   126306434.16608  24035311.480    98420585.70844
  21165118.500   111223467.80209  21165114.740    86667625.98048
  22582611.980   118672458.18709  22582607.880    92472046.69247
  21357335.840   112233576.89209  21357330.820    87454724.79448
  24731232.160   129963731.12307  24731228.140   101270525.75245
  20846792.720   109550665.45509  20846787.000    85364145.65048
  20433769.160   107380213.70109  20433767.800    83672898.42849
  24130432.680   126806286.27408  24130430.160    98810094.26345
 15 02 26 02 26  0.0000000  0  9G04G11G16G18G19G21G22G27G32
  22433239.180   117887482.25908  22433237.120    91860371.94546
  24018456.640   126217836.70608  24018451.840    98351548.73845
  21177246.060   111287198.07409  21177242.140    86717285.92248
  22593848.940   118731509.10209  22593845.060    92518060.37646
  21347498.360   112181880.95309  21347493.320    87414442.23948
  24745320.380   130037765.27407  24745316.380   101328214.65444
  20846300.940   109548080.82109  20846295.160    85362131.64748
  20431208.680   107366758.60009  20431207.400    83662413.93249
  24107915.220   126687957.21908  24107912.880    98717889.88044
 15 02 26 02 26 30.0000000  0  9G04G11G16G18G19G21G22G27G32
  22418822.240   117811720.68808  22418820.280    91801336.99446
  24001615.080   126129334.86508  24001610.320    98282586.28744
  21189462.600   111351396.09209  21189458.560    86767310.35348
  22605156.920   118790933.03608  22605153.000    92564364.74547
  21337699.260   112130386.37209  21337694.200    87374316.60348
  24759404.620   130111778.69407  24759400.580   101385887.43845
  20845911.020   109546031.72509  20845905.240    85360534.96648
  20428705.680   107353605.60109  20428704.460    83652164.84849
  24085409.600   126569690.15008  24085407.380    98625733.82345
 15 02 26 02 27  0.0000000  0  9G04G11G16G18G19G21G22G27G32
  22404451.900   117736203.59808  22404449.880    91742492.52047
  23984791.900   126040930.93708  23984787.600    98213700.15745
  21201768.280   111416062.78709  21201764.240    86817699.98148
  22616535.900   118850730.40509  22616532.120    92610960.08047
  21327939.080   112079096.14609  21327933.980    87334350.19748
  24773485.280   130185773.26707  24773481.400   101443545.52045
  20845623.420   109544520.27709  20845617.580    85359357.21248
  20426260.820   107340757.94109  20426259.620    83642153.67849
  24062916.660   126451489.88508  24062914.480    98533629.80244
 15 02 26 02 27 30.0000000  0  9G04G11G16G18G19G21G22G27G32
  22390128.480   117660932.87409  22390126.360    91683840.01646
  23967987.680   125952627.17108  23967983.940    98144892.00545
  21214162.820   111481196.74709  21214158.940    86868453.71048
  22627985.880   118910900.56909  22627981.980    92657845.93046
  21318218.420   112028013.08609  21318213.240    87294545.22048
  24787562.400   130259749.32807  24787558.700   101501189.17445
  20845438.260   109543547.41309  20845432.440    85358599.14648
  20423874.600   107328218.21209  20423873.380    83632382.45349
  24040437.260   126333360.66308  24040435.260    98441581.12845
 15 02 26 02 28  0.0000000  0  9G04G11G16G18G19G21G22G27G32
  22375851.080   117585904.05808  22375848.940    91625376.02646
  23951201.680   125864418.85208  23951198.620    98076158.27245
  21226645.080   111546791.88109  21226641.380    86919566.79648
  22639505.520   118971436.51209  22639501.620    92705016.80347
  21308536.480   111977133.34209  21308531.160    87254898.66848
  24801635.040   130333701.52207  24801631.440   101558814.23944
  20845354.700   109543108.23609  20845348.860    85358256.93848
  20421546.180   107315982.45109  20421544.980    83622848.09549
  24017971.000   126215300.16908  24017968.820    98349586.01345
 15 02 26 02 28 30.0000000  0  9G04G11G16G18G19G21G22G27G32
  22361620.560   117511121.84008  22361618.480    91567104.17447
  23934434.900   125776310.94107  23934432.380    98007502.76345
  21239215.480   111612849.89809  21239211.860    86971040.55848
  22651095.320   119032341.27509  22651091.300    92752475.05246
  21298894.280   111926462.31909  21298888.760    87215414.76248
  24815703.980   130407634.15907  24815700.360   101616424.04945
  20845373.520   109543206.90509  20845367.620    85358333.82148
  20419276.700   107304056.32909  20419275.480    83613555.00749
  23995519.220   126097315.67608  23995516.960    98257650.10245
 15 02 26 02 29  0.0000000  0  9G04G11G16G18G19G21G22G27G32
  22347436.220   117436582.27209  22347434.180    91509021.40347
  23917686.600   125688299.26508  23917684.460    97938922.23744
  21251872.900   111679365.14409  21251869.340    87022870.60648
  22662754.060   119093608.05509  22662750.040    92800215.39547
  21289291.140   111875997.12809  21289285.480    87176091.23348
  24829768.260   130481542.22307  24829764.900   101674014.74544
  20845493.720   109543838.68909  20845487.840    85358826.11848
  20417065.580   107292436.53109  20417064.320    83604500.61549
  23973081.520   125979405.40508  23973079.460    98165772.04545
 15 02 26 02 29 30.0000000  0  9G04G11G16G18G19G21G22G27G32
  22333298.980   117362290.04909  22333296.920    91451131.38347
  23900957.900   125600388.77808  23900955.800    97870420.55645
  21264617.780   111746340.02409  21264614.240    87075058.81248
  22674482.200   119155239.58309  22674478.100    92848239.96746
  21279728.080   111825742.85909  21279722.300    87136932.07048
  24843828.660   130555429.89207  24843825.300   101731589.49745
  20845716.120   109545007.50109  20845710.280    85359736.88948
  20414913.840   107281128.58809  20414912.500    83595689.22949
  23950659.260   125861576.66908  23950657.380    98073957.52745
 15 02 26 02 30  0.0000000  0  9G04G11G16G18G19G21G22G27G32
  22319208.340   117288242.63509  22319206.140    91393432.13646
  23884248.080   125512576.69908  23884245.660    97801995.59044
  21277449.240   111813769.67009  21277445.760    87127601.37148
  22686278.780   119217230.81709  22686274.700    92896544.80646
  21270204.880   111775697.81109  21270199.020    87097935.93548
  24857884.460   130629293.17906  24857881.120   101789145.24543
  20846040.180   109546710.68909  20846034.400    85361064.05148
  20412821.080   107270130.58509  20412819.600    83587119.35049
  23928252.480   125743829.08108  23928250.720    97982206.22345
 15 02 26 02 30 30.0000000  0  9G04G11G16G18G19G21G22G27G32
  22305165.100   117214444.16109  22305162.760    91335926.83847
  23867557.880   125424867.54308  23867554.960    97733650.80245
  21290367.580   111881655.47209  21290364.060    87180499.38648
  22698144.280   119279583.93309  22698140.020    92945131.65446
  21260722.440   111725867.02409  21260716.560    87059106.74848
  24871936.360   130703135.95406  24871932.820   101846685.07644
  20846466.520   109548951.60709  20846460.840    85362810.21248
  20410788.200   107259447.43109  20410786.620    83578794.81149
  23905862.320   125626169.23308  23905860.740    97890523.29045
 15 02 26 02 31  0.0000000  0  9G04G11G16G18G19G21G22G27G32
  22291168.460   117140891.52108  22291166.040    91278613.10347
  23850886.680   125337258.05108  23850882.920    97665383.69244
  21303371.620   111949991.75609  21303368.040    87233748.43448
  22710077.420   119342293.15909  22710073.080    92993995.98446
  21251280.260   111676247.79909  21251274.440    87020442.41748
  24885983.540   130776954.06506  24885979.900   101904205.66044
  20846994.460   109551726.14709  20846988.840    85364972.19648
  20408814.660   107249076.55609  20408813.100    83570713.61149
  23883488.680   125508596.16008  23883487.180    97798907.98645
 15 02 26 02 31 30.0000000  0  9G04G11G16G18G19G21G22G27G32
  22277218.620   117067585.92308  22277216.400    91221491.88447
  23834234.800   125249749.76808  23834230.400    97597195.44444
  21316461.260   112018778.15209  21316457.680    87287348.21648
  22722078.120   119405357.42709  22722073.840    93043136.96746
  21241878.660   111626842.37309  21241872.940    86981944.69148
  24900026.060   130850747.95605  24900022.180   101961707.41543
  20847624.080   109555034.69209  20847618.440    85367550.29548
  20406900.900   107239020.14109  20406899.460    83562877.45249
  23861132.340   125391113.79308  23861130.980    97707363.35145
 15 02 26 02 32  0.0000000  0  9G04G11G16G18G19G21G22G27G32
  22263315.640   116994526.81009  22263313.500    91164562.70546
  23817601.960   125162342.17708  23817597.160    97529085.65144
  21329635.900   112088011.35809  21329632.340    87341296.15648
  22734145.860   119468773.97509  22734141.540    93092552.46846
  21232517.760   111577650.96809  21232512.080    86943613.72248
  24914063.640   130924516.37305  24914059.600   102019189.18843
  20848355.120   109558876.45909  20848349.500    85370543.88048
  20405047.000   107229278.44609  20405045.740    83555286.51749
  23838793.720   125273723.89708  23838792.520    97615890.76446
 15 02 26 02 32 30.0000000  0  9G04G11G16G18G19G21G22G27G32
  22249460.620   116921719.56308  22249458.620    91107829.80247
  23800989.040   125075040.25208  23800984.140    97461058.21245
  21342896.100   112157693.94309  21342892.440    87395594.26448
  22746281.180   119532545.59909  22746276.800    93142244.63846
  21223198.700   111528679.51409  21223193.120    86905454.14948
  24928097.220   130998263.75705  24928094.160   102076654.61443
  20849188.420   109563255.68209  20849182.840    85373956.26148
  20403254.100   107219857.23409  20403253.040    83547945.30949
  23816474.140   125156433.90208  23816473.060    97524496.02846
 15 02 26 02 33  0.0000000  0  9G04G11G16G18G19G21G22G27G32
  22235653.000   116849160.93908  22235650.960    91051290.62546
  23784395.580   124987841.41008  23784390.900    97393111.10745
  21356240.800   112227820.62309  21356237.020    87450238.42848
  22758483.000   119596666.96408  22758478.680    93192209.34646
  21213921.200   111479926.03809  21213915.600    86867464.43648
  24942126.320   131071986.72805  24942123.440   102134101.13743
  20850123.340   109568168.57309  20850117.780    85377784.49448
  20401521.860   107210754.35909  20401520.840    83540852.15949
  23794173.580   125039243.45808  23794172.420    97433178.84845
 15 02 26 02 33 30.0000000  0  9G04G11G16G18G19G21G22G27G32
  22221892.880   116776851.28809  22221890.680    90994945.44847
  23767821.640   124900745.95708  23767817.080    97325244.52945
  21369669.480   112298389.20909  21369665.660    87505226.92248
  22770751.100   119661136.52509  22770746.940    93242445.36446
  21204685.380   111431391.53609  21204679.840    86829645.35048
  24956150.660   131145684.57004  24956146.500   102191248.01654
  20851159.800   109573614.82809  20851154.160    85382028.32148
  20399850.420   107201970.87009  20399849.400    83534007.87149
  23771892.540   124922155.29508  23771891.220    97341941.37245
 15 02 26 02 34  0.0000000  0  9G04G11G16G18G19G21G22G27G32
  22208180.480   116704792.08009  22208178.080    90938795.43646
  23751267.460   124813755.16408  23751263.120    97257459.49345
  21383182.120   112369399.04509  21383178.260    87560559.25448
  22783085.280   119725952.90509  22783081.180    93292951.63846
  21195491.680   111383078.12009  21195486.140    86791998.53848
  24970170.220   131219357.42704  24970165.640   102248647.35743
  20852297.740   109579594.71509  20852292.040    85386687.98148
  20398240.160   107193508.73609  20398239.120    83527413.99749
  23749631.600   124805172.81708  23749630.160    97250786.23245
 15 02 26 02 34 30.0000000  0  8G04G11G16G18G19G22G27G32
  22194515.020   116632979.42909  22194512.480    90882837.54347
  23734732.360   124726865.56208  23734728.880    97189753.34945
  21396777.420   112440843.55209  21396773.680    87616230.28848
  22795484.360   119791110.20809  22795480.360    93343723.55246
  21186339.600   111334983.09209  21186334.000    86754521.90948
  20853536.360   109586103.83309  20853530.540    85391760.02748
  20396690.580   107185365.14109  20396689.460    83521068.33749
  23727390.620   124688295.17108  23727388.780    97159712.78345
 15 02 26 02 35  0.0000000  0  8G04G11G16G18G19G22G27G32
  22180898.060   116561421.19108  22180895.340    90827077.89347
  23718218.260   124640085.06008  23718215.280    97122132.16045
  21410456.480   112512728.02809  21410452.980    87672244.14948
  22807949.240   119856613.45508  22807945.100    93394765.03946
  21177230.660   111287114.81909  21177225.020    86717221.95448
  20854877.080   109593149.16709  20854871.160    85397249.89648
  20395203.260   107177548.53909  20395202.020    83514977.47449
  23705171.360   124571532.30008  23705169.440    97068728.77945
 15 02 26 02 35 30.0000000  0  9G04G11G16G18G19G21G22G27G32
  22167328.340   116490111.07709  22167325.540    90771511.57747
  23701723.960   124553407.56708  23701721.420    97054591.27745
  21424217.640   112585043.85609  21424214.300    87728594.13648
  22820478.380   119922454.44108  22820474.280    93446069.69546
  21168163.760   111239467.90609  21168158.160    86680094.49048
  25012198.620   131439991.12403                                
  20856318.340   109600723.15809  20856312.420    85403151.71748
  20393777.040   107170053.36609  20393775.760    83509137.07949
  23682973.220   124454880.44708  23682971.180    96977831.27945
 15 02 26 02 36  0.0000000  0  8G04G11G16G18G19G22G27G32
  22153806.440   116419052.22409  22153803.560    90716141.07947
  23685249.940   124466836.15208  23685247.720    96987133.05645
  21438061.140   112657791.82909  21438057.920    87785280.86148
  22833071.880   119988633.75609  22833067.740    93497637.99546
  21159139.700   111192046.60509  21159134.200    86643142.83348
  20857860.700   109608828.71309  20857854.860    85409467.74348
  20392412.640   107162883.60809  20392411.440    83503550.25349
  23660797.220   124338345.18508  23660795.120    96887024.64045
 15 02 26 02 36 30.0000000  0  8G04G11G16G18G19G22G27G32
  22140332.220   116348244.30809  22140329.340    90660966.08347
  23668796.280   124380370.42908  23668793.960    96919757.17245
  21451986.360   112730968.95509  21451983.120    87842301.98348
  22845729.220   120055148.74009  22845725.220    93549467.83646
  21150158.660   111144851.29209  21150153.180    86606367.26248
  20859503.980   109617464.42909  20859498.240    85416196.87248
  20391110.180   107156039.66609  20391109.020    83498217.30049
  23638643.780   124221928.64508  23638641.680    96796310.49845
 15 02 26 02 37  0.0000000  0  8G04G11G16G18G19G22G27G32
  22126905.060   116277684.09009  22126902.340    90605984.12247
  23652362.280   124294007.51808  23652359.720    96852461.42845
  21465992.300   112804569.86709  21465988.980    87899653.35248
  22858449.520   120121994.40408  22858445.540    93601555.37946
  21141220.180   111097879.73609  21141214.720    86569766.06248
  20861247.440   109626626.34109  20861241.760    85423336.03948
  20389869.260   107149519.06009  20389868.120    83493136.32149
  23616512.920   124105630.07008  23616510.580    96705688.27345
 15 02 26 02 37 30.0000000  0  8G04G11G16G18G19G22G27G32
  22113526.260   116207377.97709  22113523.680    90551200.14847
  23635949.220   124207754.54508  23635946.260    96785251.34045
  21480079.560   112878598.48709  21480076.160    87957337.97948
  22871233.520   120189174.49109  22871229.680    93653903.49346
  21132325.660   111051138.91509  21132320.200    86533344.63648
  20863092.080   109636319.83209  20863086.400    85430889.40248
  20388691.280   107143329.07709  20388690.200    83488312.94449
  23594406.200   123989458.41208  23594403.740    96615164.95245
 15 02 26 02 38  0.0000000  0  8G04G11G16G18G19G22G27G32
  22100195.740   116137325.37209  22100193.260    90496613.70347
  23619556.880   124121610.57008  23619553.420    96718126.18645
  21494247.420   112953051.10209  21494243.860    88015352.99748
  22884080.500   120256685.97409  22884076.680    93706509.83546
  21123475.240   111004629.36009  21123469.700    86497103.42948
  20865037.620   109646543.42009  20865031.820    85438855.83848
  20387576.340   107137469.74209  20387575.220    83483747.23249
  23572324.040   123873415.46508  23572321.560    96524741.91845
 15 02 26 02 38 30.0000000  0  9G01G04G11G16G18G19G22G27G32
  24584184.740   129190771.42207  24584186.120   100668130.67244
  22086913.360   116067526.32809  22086911.240    90442224.85547
  23603185.080   124035575.61008  23603181.320    96651085.97245
  21508495.600   113027925.61509  21508491.920    88073696.76148
  22896990.040   120324526.38708  22896986.340    93759372.48546
  21114669.120   110958352.15909  21114663.400    86461043.27748
  20867083.920   109657296.38409  20867077.960    85447234.77548
  20386524.540   107131941.97009  20386523.360    83479439.87549
  23550266.900   123757503.76308  23550264.360    96434421.15045
 15 02 26 02 39  0.0000000  0  9G01G04G11G16G18G19G22G27G32
  24568088.020   129106182.87607  24568089.380   100602217.53844
  22073680.400   115997987.44209  22073678.740    90388038.72547
  23586835.060   123949656.62408  23586831.200    96584136.12145
  21522824.780   113103226.20009  21522821.180    88132372.52148
  22909963.080   120392700.33308  22909959.340    93812495.03846
  21105908.620   110912314.75109  21105902.840    86425169.97848
  20869232.040   109668584.18709  20869225.980    85456030.46448
  20385537.160   107126753.20109  20385536.040    83475396.67249
  23528236.480   123641732.54708  23528233.860    96344209.83745
 15 02 26 02 39 30.0000000  0  9G01G04G11G16G18G19G22G27G32
  24552015.680   129021721.42108  24552017.060   100536403.43445
  22060493.960   115928692.88909  22060492.540    90334042.97147
  23570503.940   123863837.94808  23570500.160    96517264.45045
  21537231.540   113178934.59009  21537228.040    88191366.06148
  22922996.100   120461189.47308  22922992.340    93865863.19446
  21097190.820   110866502.40509  21097185.060    86389472.04448
  20871478.580   109680389.56609  20871472.500    85465229.45948
  20384611.360   107121888.25709  20384610.320    83471605.80749
  23506230.100   123526088.32408  23506227.640    96254097.50645
 15 02 26 02 40  0.0000000  0  9G01G04G11G16G18G19G22G27G32
  24535969.300   128937395.40708  24535970.500   100470694.86345
  22047355.660   115859650.81409  22047354.340    90280243.96247
  23554193.380   123778128.33808  23554189.960    96450477.74545
  21551716.980   113255056.38509  21551713.660    88250681.73848
  22936090.360   120529999.93008  22936086.540    93919481.72446
  21088517.500   110820923.91109  21088511.800    86353956.33048
  20873825.060   109692720.58609  20873819.020    85474838.05648
  20383748.960   107117356.22509  20383747.960    83468074.34949
  23484249.880   123410581.97908  23484247.600    96164092.60445
 15 02 26 02 40 30.0000000  0  9G01G04G11G16G18G19G22G27G32
  24519949.200   128853207.47607  24519950.160   100405093.94045
  22034265.960   115790863.93709  22034264.460    90226643.82547
  23537904.100   123692530.08408  23537901.100    96383777.82045
  21566280.980   113331591.06109  21566277.760    88310319.14148
  22949245.840   120599132.14108  22949241.840    93973350.98646
  21079889.460   110775583.21309  21079883.720    86318625.91448
  20876271.840   109705578.76909  20876265.840    85484857.42848
  20382950.500   107113160.44409  20382949.520    83464804.90049
  23462296.720   123295218.44608  23462294.700    96074198.96245
 15 02 26 02 41  0.0000000  0  9G01G04G11G16G18G19G22G27G32
  24503955.060   128769157.48007  24503955.580   100339600.44945
  22021224.760   115722332.08409  22021222.960    90173242.38147
  23521636.320   123607043.24608  23521633.520    96317164.70745
  21580923.320   113408537.06109  21580920.100    88370277.04948
  22962462.000   120668583.33908  22962458.000    94027468.79046
  21071306.740   110730480.80209  21071301.020    86283481.18648
  20878818.580   109718962.48809  20878812.660    85495286.30048
  20382216.160   107109301.58209  20382215.140    83461797.99049
  23440371.040   123180000.23508  23440369.380    95984418.60145
 15 02 26 02 41 30.0000000  0  9G01G04G11G16G18G19G22G27G32
  24487987.040   128685244.81607  24487987.260   100274213.93145
  22008231.980   115654054.45909  22008229.820    90120039.04347
  23505389.960   123521667.27508  23505386.940    96250637.96245
  21595643.240   113485890.33709  21595639.940    88430552.31548
  22975738.280   120738350.23308  22975734.160    94081832.60046
  21062769.380   110685617.10609  21062763.780    86248522.46248
  20881465.040   109732870.31309  20881459.180    85506123.56148
  20381545.940   107105779.57409  20381544.880    83459053.56049
  23418473.380   123064929.10208  23418472.040    95894752.82845
 15 02 26 02 42  0.0000000  0  9G01G04G11G16G18G19G22G27G32
  24472044.560   128601466.37107  24472044.840   100208932.05045
  21995286.980   115586028.00609  21995284.700    90067031.44447
  23489164.440   123436399.46708  23489161.080    96184195.54045
  21610439.660   113563645.40509  21610436.320    88491140.67148
  22989073.600   120808427.95709  22989069.440    94136438.61045
  21054277.040   110640989.85709  21054271.500    86213747.98348
  20884210.540   109747298.14409  20884204.680    85517366.03348
  20380939.460   107102592.18409  20380938.320    83456569.86949
  23396603.780   122950004.46108  23396602.640    95805201.19146
 15 02 26 02 42 30.0000000  0  9G01G04G11G16G18G19G22G27G32
  24456129.100   128517830.49807  24456129.860   100143761.27745
  21982391.400   115518260.77209  21982388.840    90014225.83147
  23472961.180   123351248.09408  23472957.420    96117843.87245
  21625313.540   113641807.78109  21625310.200    88552046.40848
  23002469.160   120878821.96408  23002465.000    94191291.08946
  21045831.500   110596608.38709  21045826.020    86179165.02348
  20887056.440   109762253.12409  20887050.560    85529019.27248
  20380398.400   107099748.41109  20380397.200    83454353.94249
  23374764.240   122835236.92508  23374762.960    95715771.97545
 15 02 26 02 43  0.0000000  0  9G01G04G11G16G18G19G22G27G32
  24440239.340   128434330.34607  24440240.500   100078696.29545
  21969543.900   115450746.23309  21969541.040    89961617.11447
  23456778.700   123266206.76108  23456774.580    96051577.91545
  21640263.060   113720368.00909  21640259.800    88613262.15748
  23015923.100   120949523.17408  23015919.120    94246382.93146
  21037431.580   110552466.81709  21037426.080    86144768.98848
  20890001.080   109777727.27709  20889995.240    85541077.05248
  20379921.580   107097242.21909  20379920.280    83452401.06149
  23352953.960   122720622.48108  23352952.460    95626462.03345
 15 02 26 02 43 30.0000000  0  9G01G04G11G16G18G19G22G27G32
  24424376.340   128350969.45608  24424377.260   100013739.76545
  21956744.980   115383487.59409  21956741.980    89909207.79547
  23440617.680   123181279.16608  23440613.300    95985400.59345
  21655288.440   113799326.72009  21655285.160    88674788.41648
  23029435.800   121020532.95209  23029431.920    94301715.23246
  21029078.140   110508569.55609  21029072.660    86110563.33448
  20893044.900   109793722.85609  20893039.120    85553541.14048
  20379509.720   107095077.74409  20379508.380    83450714.45349
  23331173.940   122606166.81508  23331172.400    95537275.84045
 15 02 26 02 44  0.0000000  0  9G01G04G11G16G18G19G22G27G32
  24408539.620   128267745.48008  24408540.040    99948889.90645
  21943994.160   115316482.40209  21943991.380    89856995.97047
  23424477.600   123096462.82308  23424473.220    95919309.92045
  21670388.920   113878680.05709  21670385.620    88736622.17548
  23043006.320   121091846.33509  23043002.500    94357284.09946
  21020770.920   110464914.99609  21020765.480    86076546.79848
  20896187.340   109810236.40609  20896181.580    85566408.83748
  20379162.480   107093253.35109  20379161.220    83449292.84049
  23309424.140   122491870.10408  23309422.500    95448213.49046
 15 02 26 02 44 30.0000000  0  9G01G04G11G16G18G19G22G27G32
  24392729.520   128184661.75107  24392729.880    99884149.37045
  21931292.220   115249734.19509  21931289.880    89804984.39247
  23408359.240   123011761.57008  23408355.160    95853308.96446
  21685564.420   113958428.00809  21685561.180    88798763.41948
  23056634.860   121163464.33409  23056630.940    94413090.32646
  21012510.760   110421507.80909  21012505.440    86042723.01748
  20899428.680   109827270.01509  20899423.000    85579681.78548
  20378880.820   107091773.20909  20378879.600    83448139.47549
  23287705.720   122377738.34008  23287703.980    95359279.68545
 15 02 26 02 45  0.0000000  0  9G01G04G11G16G18G19G22G27G32
  24376946.300   128101720.95907  24376946.640    99819520.25146
  21918639.540   115183245.31609  21918637.840    89753174.88047
  23392263.120   122927177.89808  23392259.660    95787399.63446
  21700814.940   114038570.16609  21700811.700    88861211.84648
  23070321.260   121235386.92508  23070317.260    94469133.90546
  21004298.300   110378351.31709  21004293.060    86009094.58748
  20902769.280   109844825.44309  20902763.700    85593361.33248
  20378665.320   107090640.66809  20378664.120    83447256.97149
  23266019.560   122263776.56908  23266017.820    95270478.33446
 15 02 26 02 45 30.0000000  0  9G01G04G11G16G18G19G22G27G32
  24361190.120   128018921.90808  24361190.120    99755001.54146
  21906036.140   115117014.71909  21906034.740    89701566.62547
  23376189.240   122842710.59408  23376186.120    95721580.95145
  21716139.840   114119103.14009  21716136.560    88923964.80148
  23084064.960   121307610.92908  23084061.060    94525412.33346
  20996133.580   110335445.55509  20996128.340    85975661.53248
  20906208.800   109862900.42709  20906203.260    85607445.73448
  20378515.900   107089855.28709  20378514.700    83446644.98649
  23244365.980   122149986.17508  23244364.160    95181810.52146
 15 02 26 02 46  0.0000000  0  9G01G04G11G16G18G19G22G27G32
  24345460.020   127936259.83708  24345459.680    99690589.58145
  21893481.100   115051037.33609  21893479.700    89650155.68147
  23360136.860   122758355.44908  23360133.900    95655849.68146
  21731537.660   114200019.29909  21731534.380    88987016.33848
  23097864.640   121380129.11708  23097860.800    94581920.01546
  20988015.880   110292786.54309  20988010.620    85942420.74648
  20909746.100   109881488.70909  20909740.520    85621930.11648
  20378431.740   107089412.92609  20378430.500    83446300.29149
  23222744.500   122036364.71508  23222742.580    95093274.34345
 15 02 26 02 46 30.0000000  0  9G01G04G11G16G18G19G22G27G32
  24329756.720   127853738.51207  24329755.600    99626287.23145
  21880975.140   114985317.26409  21880973.560    89598945.25447
  23344106.700   122674116.63908  23344103.760    95590209.08345
  21747008.640   114281320.00509  21747005.280    89050367.52248
  23111720.660   121452943.25208  23111717.120    94638658.28346
  20979946.080   110250379.18509  20979940.740    85909376.05148
  20913381.600   109900593.04909  20913376.040    85636816.61748
  20378413.680   107089318.18609  20378412.460    83446226.46949
  23201156.420   121922918.78808  23201154.460    95004874.95646
 15 02 26 02 47  0.0000000  0  9G01G04G11G16G18G19G22G27G32
  24314080.060   127771357.39207  24314079.040    99562094.19645
  21868517.960   114919853.46909  21868516.140    89547934.51247
  23328098.700   122589993.43208  23328095.600    95524658.55345
  21762552.140   114363001.57809  21762548.620    89114015.49448
  23125632.300   121526049.80708  23125628.680    94695624.42246
  20971924.240   110208223.83709  20971918.820    85876527.73248
  20917114.960   109920211.56209  20917109.340    85652103.77248
  20378461.820   107089571.21009  20378460.600    83446423.62549
  23179602.060   121809650.20308  23179600.060    94916613.77146
 15 02 26 02 47 30.0000000  0  9G01G04G11G16G18G19G22G27G32
  24298430.520   127689118.37308  24298429.840    99498011.88845
  21856109.940   114854647.82709  21856107.840    89497124.92247
  23312113.100   122505988.04808  23312109.980    95459199.82345
  21778168.020   114445063.15509  21778164.380    89177959.57948
  23139599.600   121599448.47508  23139596.060    94752818.18146
  20963950.800   110166323.27409  20963945.360    85843877.94448
  20920946.200   109940344.71709  20920940.520    85667791.94348
  20378576.640   107090174.47309  20378575.420    83446893.69349
  23158082.320   121696563.15108  23158080.200    94828494.01446
 15 02 26 02 48  0.0000000  0  9G01G04G11G16G18G19G22G27G32
  24282807.840   127607020.15908  24282807.380    99434039.28345
  21843750.760   114789699.08909  21843748.360    89446515.54247
  23296149.660   122422099.14208  23296146.700    95393831.86446
  21793855.620   114527501.31209  21793851.960    89242197.09748
  23153621.820   121673135.91208  23153618.280    94810236.96346
  20956025.820   110124677.33909  20956020.360    85811426.57248
  20924874.860   109960990.09909  20924869.100    85683879.25948
  20378758.020   107091127.56509  20378756.860    83447636.36149
  23136597.480   121583659.15808  23136595.080    94740516.90645
 15 02 26 02 48 30.0000000  0  9G01G04G11G16G18G19G22G27G32
  24267212.640   127525066.77507  24267212.080    99370179.51345
  21831441.200   114725011.35209  21831438.440    89396109.52947
  23280209.280   122338331.32608  23280206.300    95328558.24546
  21809615.020   114610317.00509  21809611.400    89306728.79048
  23167699.340   121747113.59208  23167695.760    94867881.89246
  20948150.220   110083291.19109  20948144.780    85779177.62848
  20928901.500   109982150.34009  20928895.740    85700367.75748
  20379006.860   107092435.15509  20379005.700    83448655.25449
  23115148.700   121470944.70408  23115146.060    94652687.48746
 15 02 26 02 49  0.0000000  0  9G01G04G11G16G18G19G22G27G32
  24251643.780   127443252.79108  24251643.180    99306428.38045
  21819180.140   114660578.99209  21819177.140    89345902.49747
  23264290.800   122254679.12208  23264287.840    95263374.74546
  21825444.660   114693502.09409  21825441.220    89371548.32348
  23181830.540   121821373.55208  23181826.920    94925746.78846
  20940323.220   110042160.29709  20940317.760    85747127.57648
  20933024.760   110003818.37509  20933019.060    85717251.93248
  20379322.240   107094092.63509  20379321.080    83449946.79149
  23093735.400   121358416.92708  23093732.600    94565003.52045
 15 02 26 02 49 30.0000000  0  9G01G04G11G16G18G19G22G27G32
  24236102.120   127361581.17408  24236101.640    99242788.17145
  21806968.100   114596404.68509  21806965.140    89295896.56947
  23248395.020   122171146.18008  23248392.020    95198284.17146
  21841344.580   114777057.04209  21841341.340    89436656.06548
  23196015.560   121895916.50608  23196011.940    94983832.20046
  20932545.600   110001288.70609  20932540.140    85715279.59248
  20937245.140   110025996.79809  20937239.500    85734533.83048
  20379704.900   107096103.54009  20379703.660    83451513.72849
  23072358.660   121246081.14008  23072355.780    94477469.17346
 15 02 26 02 50  0.0000000  0  9G01G04G11G16G18G19G22G27G32
  24220587.520   127280051.40108  24220587.280    99179258.51445
  21794805.100   114532488.25609  21794802.380    89246091.57047
  23232521.720   122087731.84008  23232518.920    95133286.00145
  21857314.040   114860977.98209  21857311.020    89502048.99948
  23210254.000   121970739.85808  23210250.480    95042136.09546
  20924817.460   109960676.92009  20924812.100    85683634.04548
  20941562.200   110048683.29909  20941556.600    85752211.63148
  20380154.840   107098468.16109  20380153.540    83453356.28849
  23051018.840   121133939.46608  23051015.940    94390086.08946
 15 02 26 02 50 30.0000000  0  9G01G04G11G16G18G19G22G27G32
  24205100.780   127198668.26107  24205100.880    99115843.11645
  21782692.100   114468834.27409  21782689.520    89196491.07847
  23216672.020   122004441.50408  23216669.260    95068384.48346
  21873353.740   114945268.02409  21873350.880    89567729.54448
  23224546.180   122045845.61308  23224542.580    95100660.07446
  20917139.840   109920330.71509  20917134.600    85652195.44748
  20945976.540   110071880.97709  20945970.920    85770287.75448
  20380673.180   107101192.00409  20380671.840    83455478.76849
  23029717.300   121021999.29108  23029714.600    94302860.00146
 15 02 26 02 51  0.0000000  0  9G01G04G11G16G18G19G22G27G32
  24189641.300   127117428.92608  24189641.300    99052539.78445
  21770628.440   114405439.65709  21770625.920    89147092.67447
  23200845.280   121921272.01508  23200842.500    95003577.08746
  21889462.500   115029920.73609  21889459.680    89633692.67248
  23238891.000   122121228.50608  23238887.540    95159399.95846
  20909512.360   109880248.16609  20909507.100    85620962.28848
  20950487.500   110095586.15609  20950481.800    85788759.31848
  20381259.460   107104272.86009  20381258.100    83457879.43249
  23008454.020   120910260.19808  23008451.620    94215790.59446
 15 02 26 02 51 30.0000000  0 10G01G04G11G14G16G18G19G22G27G32
  24174208.720   127036330.34908  24174208.400    98989346.08445
  21758613.580   114342301.42809  21758611.100    89097894.07447
  23185041.180   121838220.76708  23185038.340    94938861.84345
  24709475.000   129849167.80508  24709472.700   101181157.76644
  21905639.440   115114930.84009  21905636.480    89699934.30248
  23253287.640   122196883.38308  23253283.920    95218351.82945
  20901934.720   109840427.45709  20901929.420    85589933.16848
  20955094.180   110119794.36509  20955088.420    85807622.86248
  20381913.260   107107708.45509  20381911.880    83460556.52149
  22987228.860   120798721.68108  22987226.660    94128877.48946
 15 02 26 02 52  0.0000000  0 10G01G04G11G14G16G18G19G22G27G32
  24158803.520   126955375.19108  24158803.140    98926264.16345
  21746648.140   114279422.34109  21746645.700    89048897.38947
  23169260.200   121755290.85008  23169257.000    94874241.12445
  24695533.100   129775903.35907  24695530.360   101124068.59544
  21921884.400   115200297.89809  21921881.120    89766454.06948
  23267736.100   122272810.52108  23267732.400    95277515.81846
  20894407.640   109800872.24809  20894402.300    85559110.93248
  20959796.800   110144506.72609  20959790.980    85826879.23748
  20382635.200   107111502.12109  20382633.840    83463512.61349
  22966042.880   120687388.97808  22966040.900    94042124.74646
 15 02 26 02 52 30.0000000  0 10G01G04G11G14G16G18G19G22G27G32
  24143425.340   126874562.78708  24143425.200    98863293.49846
  21734731.800   114216801.51209  21734729.440    89000101.94847
  23153502.260   121672481.64608  23153498.680    94809714.47845
  24681602.320   129702696.36707  24681599.480   101067024.21844
  21938196.720   115286018.73009  21938193.080    89833249.51247
  23282235.820   122349007.14808  23282231.960    95336889.81546
  20886931.220   109761583.18009  20886925.880    85528496.07148
  20964594.980   110169721.34509  20964589.160    85846526.99448
  20383425.220   107115654.02709  20383424.000    83466747.86149
  22944896.540   120576264.14008  22944894.520    93955533.98546
 15 02 26 02 53  0.0000000  0 10G01G04G11G14G16G18G19G22G27G32
  24128074.860   126793896.30108  24128074.960    98800436.51845
  21722865.120   114154442.04009  21722862.900    88951510.15547
  23137768.000   121589796.81408  23137763.960    94745284.74745
  24667683.600   129629552.56607  24667680.640   101010029.07144
  21954576.340   115372093.60209  21954572.460    89900320.83147
  23296787.000   122425473.62108  23296783.040    95396474.08245
  20879506.180   109722564.31609  20879500.780    85498091.76048
  20969489.000   110195439.64709  20969483.220    85866567.23548
  20384284.120   107120167.84809  20384283.000    83470265.11449
  22923790.860   120465352.67808  22923788.680    93869109.48646
 15 02 26 02 53 30.0000000  0 10G01G04G11G14G16G18G19G22G27G32
  24112751.620   126713372.75108  24112751.500    98737690.88545
  21711047.540   114092340.80509  21711045.340    88903119.58547
  23122056.880   121507233.76908  23122052.460    94680949.91746
  24653776.920   129556471.67307  24653773.880   100953082.91145
  21971022.120   115458516.57809  21971018.260    89967663.39147
  23311388.600   122502204.88508  23311384.680    95456264.66146
  20872132.180   109683813.79709  20872126.760    85467896.55048
  20974478.140   110221657.57009  20974472.360    85886996.78848
  20385211.520   107125041.43309  20385210.400    83474062.70949
  22902725.680   120354654.29108  22902723.320    93782851.03646
 15 02 26 02 54  0.0000000  0 10G01G04G11G14G16G18G19G22G27G32
  24097456.520   126632996.93108  24097456.320    98675060.38245
  21699280.120   114030502.69609  21699277.780    88854934.05547
  23106369.880   121424797.31608  23106365.380    94616713.73445
  24639883.580   129483461.26907  24639880.520   100896191.71144
  21987534.500   115545289.59209  21987530.760    90035278.72247
  23326041.000   122579203.35408  23326037.040    95516263.46846
  20864810.380   109645337.68109  20864805.080    85437915.16348
  20979563.020   110248378.29109  20979557.200    85907818.13348
  20386208.360   107130280.22009  20386207.280    83478144.87449
  22881702.340   120244176.24908  22881699.840    93696764.28046
 15 02 26 02 54 30.0000000  0 10G01G04G11G14G16G18G19G22G27G32
  24082188.400   126552763.82707  24082188.600    98612541.10746
  21687561.900   113968922.71109  21687559.380    88806949.67047
  23090705.980   121342482.81808  23090701.580    94552572.58446
  24626003.120   129410518.80707  24626000.220   100839353.41944
  22004112.080   115632405.40009  22004108.480    90103161.15147
  23340742.760   122656461.43008  23340738.840    95576464.55846
  20857539.920   109607131.47909  20857534.720    85408144.09948
  20984742.340   110275595.35709  20984736.440    85929026.23248
  20387273.880   107135879.96709  20387272.860    83482508.30349
  22860720.420   120133916.10608  22860717.780    93610847.30846
 15 02 26 02 55  0.0000000  0 10G01G04G11G14G16G18G19G22G27G32
  24066948.640   126472679.72807  24066949.240    98550137.94146
  21675893.860   113907606.65709  21675891.140    88759170.93347
  23075066.460   121260296.91508  23075062.340    94488531.62846
  24612137.260   129337653.40507  24612134.320   100782575.18544
  22020755.520   115719867.49309  22020751.960    90171313.42447
  23355494.700   122733983.23008  23355490.820    95636871.15746
  20850322.300   109569202.72209  20850317.160    85378589.22348
  20990017.100   110303313.92209  20990011.080    85950625.12048
  20388409.420   107141847.47809  20388408.420    83487158.31049
  22839781.520   120023882.58408  22839778.960    93525106.92446
 15 02 26 02 55 30.0000000  0 10G01G04G11G14G16G18G19G22G27G32
  24051736.300   126392738.57208  24051736.980    98487846.17245
  21664274.860   113846548.78409  21664272.180    88711593.37247
  23059450.140   121178233.69708  23059446.360    94424586.28446
  24598285.340   129264861.71007  24598282.420   100725854.38445
  22037463.080   115807666.85209  22037459.560    90239728.49247
  23370295.180   122811760.19608  23370291.360    95697476.58146
  20843156.640   109531546.69609  20843151.420    85349246.86748
  20995385.800   110331526.27909  20995379.680    85972608.77948
  20389613.960   107148177.54909  20389612.980    83492090.83349
  22818885.180   119914072.37508  22818882.680    93439540.54846
 15 02 26 02 56  0.0000000  0 10G01G04G11G14G16G18G19G22G27G32
  24036551.900   126312944.38507  24036552.280    98425668.87946
  21652705.760   113785752.90509  21652703.220    88664219.97847
  23043857.920   121096297.58408  23043854.500    94360739.98246
  24584448.740   129192150.38506  24584445.920   100669196.19345
  22054235.100   115895804.51209  22054231.460    90308407.17047
  23385144.620   122889794.60308  23385140.880    95758282.60246
  20836043.880   109494168.56909  20836038.600    85320121.06048
  21000848.920   110360235.01009  21000842.780    85994979.21548
  20390888.400   107154874.91909  20390887.460    83497309.55049
  22798032.560   119804492.05808  22798030.300    93354153.30846
 15 02 26 02 56 30.0000000  0 10G01G04G11G14G16G18G19G22G27G32
  24021395.100   126233295.81707  24021395.660    98363605.09346
  21641186.320   113725217.67709  21641183.940    88617049.69347
  23028289.780   121014487.66508  23028286.600    94296991.99746
  24570627.580   129119520.58507  24570624.980   100612601.61744
  22071070.900   115984276.40009  22071067.020    90377346.29147
  23400042.320   122968082.57908  23400038.520    95819286.20846
  20828984.000   109457068.31309  20828978.660    85291211.76848
  21006405.840   110389437.03509  21006399.800    86017734.04348
  20392232.640   107161938.83409  20392231.700    83502813.89449
  22777223.960   119695142.81308  22777221.940    93268946.12746
 15 02 26 02 57  0.0000000  0 10G01G04G11G14G16G18G19G22G27G32
  24006266.040   126153792.35107  24006266.900    98301654.37346
  21629716.340   113664942.38309  21629714.120    88570081.93847
  23012745.700   120932803.50908  23012742.760    94233342.02046
  24556822.500   129046974.82507  24556820.120   100556072.46044
  22087969.720   116073079.26309  22087965.640    90446543.32347
  23414987.620   123046621.02908  23414983.860    95880484.98746
  20821976.940   109420245.96709  20821971.600    85262519.03848
  21012056.260   110419130.53909  21012050.320    86040871.83548
  20393646.760   107169369.48309  20393645.680    83508604.01249
  22756459.780   119586026.58108  22756457.940    93183920.50846
 15 02 26 02 57 30.0000000  0 10G01G04G11G14G16G18G19G22G27G32
  23991164.880   126074434.15308  23991166.000    98239816.84946
  21618295.880   113604927.33509  21618293.800    88523316.96347
  22997225.800   120851245.92308  22997222.920    94169790.68646
  24543034.040   128974515.94507  24543031.720   100499610.96244
  22104931.060   116162210.86309  22104926.940    90515996.49147
  23429980.220   123125407.66308  23429976.480    95941877.16046
  20815023.020   109383703.36209  20815017.780    85234044.27348
  21017799.960   110449314.22509  21017794.040    86064391.59448
  20395130.820   107177167.77009  20395129.640    83514680.58649
  22735740.600   119477146.27408  22735738.920    93099078.73746
 15 02 26 02 58  0.0000000  0 10G01G04G11G14G16G18G19G22G27G32
  23976091.720   125995222.43108  23976092.500    98178093.43545
  21606925.160   113545173.43509  21606922.900    88476755.48047
  22981730.340   120769816.21608  22981727.280    94106338.97646
  24529262.820   128902147.70607  24529260.420   100443220.13645
  22121954.480   116251668.94009  22121950.260    90585704.08247
  23445019.860   123204441.54908  23445016.180    96003461.99245
  20808122.680   109347442.62109  20808117.600    85205789.15948
  21023636.880   110479987.59909  21023630.940    86088292.92948
  20396685.220   107185335.50609  20396683.920    83521045.05249
  22715067.100   119368505.57608  22715065.420    93014423.66846
 15 02 26 02 58 30.0000000  0 10G01G04G11G14G16G18G19G22G27G32
  23961046.580   125916158.88308  23961047.180    98116485.49645
  21595604.500   113485682.61609  21595601.960    88430399.01047
  22966259.520   120688516.39008  22966256.340    94042988.47946
  24515509.720   128829874.39907  24515507.220   100386903.24945
  22139039.780   116341452.68709  22139035.580    90655665.43147
  23460106.460   123283722.19908  23460102.860    96065239.12345
  20801276.500   109311466.34409  20801271.560    85177755.68848
  21029567.060   110511150.95609  21029561.100    86112576.06148
  20398310.300   107193875.12009  20398308.940    83527699.28849
  22694440.000   119260108.72208  22694438.240    92929958.59746
 15 02 26 02 59  0.0000000  0 10G01G04G11G14G16G18G19G22G27G32
  23946029.140   125837241.40408  23946029.700    98054991.37345
  21584333.380   113426452.44109  21584330.660    88384245.64247
  22950813.100   120607344.82708  22950809.800    93979737.94046
  24501774.740   128757697.02307  24501772.320   100330661.16745
  22156186.040   116431557.25409  22156182.020    90725876.77447
  23475239.240   123363245.20008  23475235.640    96127205.07446
  20794484.420   109275773.81409  20794479.580    85149943.33349
  21035589.780   110542800.75209  21035583.840    86137238.24948
  20400005.840   107202785.09509  20400004.360    83534642.13249
  22673859.260   119151956.13708  22673857.540    92845683.88546
 15 02 26 02 59 30.0000000  0 10G01G04G11G14G16G18G19G22G27G32
  23931039.640   125758471.29108  23931040.380    97993612.06646
  21573112.160   113367484.24609  21573109.320    88338296.40747
  22935391.360   120526303.22208  22935388.040    93916588.65946
  24488058.800   128685619.40007  24488056.260   100274496.76744
  22173393.000   116521981.05409  22173389.160    90796336.85747
  23490417.880   123443009.25008  23490414.320    96189358.87745
  20787746.880   109240367.31909  20787741.940    85122353.85048
  21041704.920   110574936.53909  21041699.020    86162279.11448
  20401772.180   107212067.44809  20401770.720    83541875.12249
  22653325.620   119044051.71208  22653323.940    92761602.52646
 15 02 26 03 00  0.0000000  0 10G01G04G11G14G16G18G19G22G27G32
  23916078.140   125679848.64808  23916078.940    97932347.70446
  21561940.860   113308778.18209  21561937.860    88292551.44447
  22919994.460   120445391.90908  22919991.200    93853540.88846
  24474362.540   128613644.54308  24474359.900   100218412.46444
  22190660.220   116612721.59609  22190656.540    90867043.76947
  23505641.940   123523012.30208  23505638.380    96251698.91345
  20781064.120   109205248.44509  20781059.040    85094988.50248
  21047912.260   110607556.73609  21047906.360    86187697.45148
  20403609.540   107221722.99809  20403608.160    83549398.92549
  22632839.720   118936398.28708  22632838.140    92677716.77046
 15 02 26 03 00 30.0000000  0 10G01G04G11G14G16G18G19G22G27G32
  23901144.480   125601371.68808  23901145.220    97871196.83246
  21550818.980   113250332.07409  21550815.820    88247009.03747
  22904622.180   120364609.55708  22904618.820    93790593.62846
  24460686.020   128541773.20908  24460683.320   100162408.82444
  22207986.760   116703773.52509  22207983.160    90937993.31847
  23520910.640   123603250.24508  23520907.100    96314221.98245
  20774435.880   109170416.19109  20774430.640    85067846.49048
  21054211.200   110640658.07809  21054205.320    86213490.70948
  20405517.640   107231750.53609  20405516.460    83557212.58349
  22612401.740   118828996.47108  22612400.200    92594027.05946
 15 02 26 03 01  0.0000000  0 10G01G04G11G14G16G18G19G22G27G32
  23886239.340   125523044.46508  23886239.880    97810162.63246
  21539747.280   113192150.25309  21539744.240    88201672.55747
  22889275.340   120283960.46408  22889271.680    93727750.18745
  24447030.480   128470012.19208  24447027.500   100106491.15044
  22225373.020   116795138.97209  22225369.460    91009187.15647
  23536224.400   123683725.10708  23536220.880    96376929.65845
  20767863.140   109135875.84409  20767857.800    85040931.92048
  21060602.280   110674243.19609  21060596.340    86239660.93348
  20407497.400   107242154.82809  20407496.360    83565319.81549
  22592012.980   118721852.92208  22592011.320    92510538.58646
 15 02 26 03 01 30.0000000  0 10G01G04G11G14G16G18G19G22G27G32
  23871361.880   125444862.85608  23871362.380    97749241.91846
  21528725.000   113134228.42109  21528722.180    88156538.67147
  22873953.180   120203440.98208  22873949.200    93665007.76245
  24433395.620   128398360.42708  24433392.420   100050658.55544
  22242817.700   116886810.99509  22242814.020    91080619.88347
  23551582.060   123764430.10208  23551578.460    96439816.66145
  20761345.400   109101624.61909  20761339.960    85014242.65748
  21067084.360   110708306.38909  21067078.360    86266203.68048
  20409548.240   107252932.40609  20409547.280    83573717.92249
  22571673.140   118614966.12108  22571671.300    92427250.18746
 15 02 26 03 02  0.0000000  0 10G01G04G11G14G16G18G19G22G27G32
  23856512.680   125366830.04608  23856513.280    97688437.12946
  21517752.640   113076569.58409  21517750.280    88111609.72047
  22858656.340   120123054.66808  22858651.900    93602369.09645
  24419782.580   128326823.29808  24419779.500    99994915.33044
  22260320.740   116978789.42709  22260316.840    91152291.37847
  23566983.800   123845366.49308  23566979.960    96502883.97745
  20754883.440   109067666.87109  20754878.000    84987782.07548
  21073657.620   110742848.93509  21073651.620    86293119.95248
  20411670.940   107264087.05709  20411669.980    83582409.85849
  22551383.300   118508341.82208  22551381.280    92344166.34046
 15 02 26 03 02 30.0000000  0 10G01G04G11G14G16G18G19G22G27G32
  23841691.860   125288946.17708  23841692.400    97627748.42745
  21506830.520   113019174.05709  21506828.360    88066885.93247
  22843384.740   120042802.06008  22843380.180    93539834.61746
  24406192.180   128255404.86808  24406189.240    99939264.60044
  22277881.580   117071071.68609  22277877.540    91224199.62347
  23582429.120   123926532.04008  23582425.120    96566129.85345
  20748477.540   109034003.92309  20748472.160    84961551.21348
  21080321.860   110777869.52909  21080315.840    86320408.73348
  20413865.640   107275619.64309  20413864.580    83591396.28849
  22531143.920   118401982.73609  22531141.700    92261289.14746
 15 02 26 03 03  0.0000000  0 10G01G04G11G14G16G18G19G22G27G32
  23826899.680   125211212.29708  23826900.160    97567176.58945
  21495958.800   112962042.70409  21495956.580    88022367.99847
  22828138.740   119962684.52508  22828134.340    93477405.36746
  24392624.760   128184107.62808  24392621.820    99883708.29644
  22295499.780   117163655.67309  22295495.640    91296342.97847
  23597917.760   124007925.26408  23597913.700    96629553.13845
  20742128.160   109000637.77509  20742122.840    84935551.62248
  21087076.940   110813367.75909  21087070.980    86348069.69948
  20416132.540   107287531.81209  20416131.400    83600678.49249
  22510955.720   118295892.43508  22510953.360    92178621.39347
 15 02 26 03 03 30.0000000  0 10G01G04G11G14G16G18G19G22G27G32
  23812135.600   125133625.63908  23812135.980    97506719.44746
  21485136.980   112905172.69209  21485134.440    87978053.71547
  22812917.900   119882699.87708  22812913.980    93415079.68746
  24379080.420   128112931.99108  24379077.200    99828246.74544
  22313174.360   117256536.58609  22313170.340    91368717.70947
  23613448.760   124089541.28808  23613444.680    96693150.03045
  20735835.020   108967567.04609  20735829.720    84909782.22148
  21093921.960   110849338.98609  21093916.080    86376099.21748
  20418471.260   107299821.39609  20418470.040    83610254.78749
  22490818.540   118190070.80608  22490816.200    92096163.00546
 15 02 26 03 04  0.0000000  0 10G01G04G11G14G16G18G19G22G27G32
  23797399.680   125056186.73808  23797400.140    97446377.46646
  21474364.960   112848564.50709  21474362.180    87933943.45947
  22797722.540   119802848.88508  22797719.060    93352858.12746
  24365559.960   128041881.62808  24365556.760    99772882.81044
  22330904.800   117349711.79909  22330901.060    91441321.76147
  23629021.840   124171378.26508  23629017.740    96756919.10145
  20729598.460   108934793.44909  20729593.100    84884244.35448
  21100856.720   110885781.96109  21100850.980    86404496.34848
  20420882.020   107312489.53409  20420880.700    83620126.06149
  22470733.020   118084520.80208  22470730.760    92013916.27546
 15 02 26 03 04 30.0000000  0 10G01G04G11G14G16G18G19G22G27G32
  23782692.100   124978898.10107  23782692.700    97386152.56546
  21463643.020   112792220.70209  21463640.260    87890039.20447
  22782553.220   119723134.64508  22782550.000    93290743.14746
  24352064.420   127970961.85508  24352061.360    99717620.66644
  22348691.200   117443180.85009  22348687.720    91514154.77147
  23644637.020   124253436.46908  23644633.040    96820860.54445
  20723419.180   108902320.81409  20723413.720    84858940.99348
  21107881.580   110922697.83409  21107875.840    86433261.95148
  20423365.380   107325539.54509  20423364.040    83630294.88449
  22450700.120   117979247.67508  22450697.960    91931885.27746
 15 02 26 03 05  0.0000000  0 10G01G04G11G14G16G18G19G22G27G32
  23768012.480   124901757.94107  23768013.300    97326043.35946
  21452970.860   112736139.20009  21452968.260    87846339.33947
  22767409.740   119643555.62208  22767406.460    93228733.54046
  24338593.800   127900173.12207  24338590.760    99662460.62044
  22366532.620   117536938.74109  22366529.300    91587212.85847
  23660293.500   124335711.89208  23660289.620    96884971.25845
  20717296.920   108870147.97909  20717291.420    84833871.25648
  21114995.760   110960082.92609  21114989.960    86462393.19648
  20425921.060   107338970.04609  20425919.800    83640760.20649
  22430720.000   117874252.10308  22430717.940    91850070.56246
 15 02 26 03 05 30.0000000  0 10G01G04G11G14G16G18G19G22G27G32
  23753361.540   124824768.83307  23753362.800    97266051.86546
  21442349.100   112680322.59709  21442346.680    87802845.88147
  22752292.720   119564114.85708  22752289.220    93166831.65746
  24325149.260   127829521.17508  24325146.320    99607407.15945
  22384429.260   117630986.20309  22384425.900    91660496.58247
  23675991.440   124418204.96908  23675987.720    96949251.55545
  20711232.520   108838279.41309  20711227.060    84809038.60749
  21122199.260   110997937.56309  21122193.480    86491890.31448
  20428549.780   107352784.38609  20428548.580    83651524.61949
  22410793.740   117769539.25208  22410791.720    91768476.14546
 15 02 26 03 06  0.0000000  0 10G01G04G11G14G16G18G19G22G27G32
  23738738.820   124747926.86207  23738740.580    97206175.01546
  21431777.200   112624767.09709  21431774.920    87759555.89247
  22737201.440   119484809.11708  22737197.840    93105034.99946
  24311730.520   127759004.93907  24311727.500    99552459.47645
  22402379.640   117725315.69509  22402376.220    91734000.07547
  23691729.620   124500909.31108  23691725.960    97013696.49845
  20705225.420   108806712.09109  20705220.000    84784440.70249
  21129491.280   111036257.19809  21129485.500    86521749.76948
  20431250.880   107366979.13009  20431249.740    83662585.46149
  22390921.080   117665107.69808  22390919.020    91687100.92446
 15 02 26 03 06 30.0000000  0 10G01G04G11G14G16G18G19G22G27G32
  23724144.620   124671234.02808  23724146.640    97146414.36346
  21421255.420   112569474.53409  21421253.140    87716470.78447
  22722136.100   119405640.46508  22722132.480    93043345.15146
  24298338.440   127688629.24407  24298335.420    99497621.24544
  22420383.640   117819926.53409  22420380.060    91807722.79047
  23707508.000   124583824.87608  23707504.320    97078306.02245
  20699276.240   108775449.08409  20699270.820    84760079.91548
  21136871.760   111075041.68809  21136865.980    86551971.44348
  20434024.900   107381556.97709  20434023.780    83673944.80749
  22371102.800   117560962.03608  22371100.720    91605948.47747
 15 02 26 03 07  0.0000000  0 10G01G04G11G14G16G18G19G22G27G32
  23709578.840   124594690.06208  23709580.700    97086769.73646
  21410783.580   112514444.41709  21410781.280    87673590.17247
  22707096.880   119326609.52508  22707093.460    92981762.62446
  24284973.440   127618396.24707  24284970.580    99442894.29645
  22438440.560   117914815.70809  22438436.900    91881662.39247
  23723326.100   124666949.11408  23723322.460    97143078.13745
  20693385.120   108744491.25209  20693379.780    84735956.93649
  21144340.400   111114289.17009  21144334.560    86582553.90348
  20436871.920   107396518.20009  20436870.780    83685602.90349
  22351339.400   117457104.63408  22351337.220    91525020.64946
 15 02 26 03 07 30.0000000  0 10G01G04G11G14G16G18G19G22G27G32
  23695042.120   124518298.47508  23695043.660    97027243.83946
  21400362.300   112459680.22109  21400359.920    87630916.78247
  22692084.540   119247719.71608  22692081.160    92920290.06246
  24271636.800   127548312.66607  24271634.040    99388283.70145
  22456550.600   118009983.88309  22456546.780    91955819.41547
  23739184.120   124750283.13308  23739180.420    97208013.73045
  20687553.040   108713843.72009  20687547.840    84712075.74449
  21151897.380   111154001.16009  21151891.520    86613498.30548
  20439792.720   107411866.91609  20439791.540    83697562.93749
  22331631.980   117353541.47908  22331629.680    91444322.10846
 15 02 26 03 08  0.0000000  0 10G01G04G11G14G16G18G19G22G27G32
  23680533.580   124442054.67408  23680534.560    96967833.09746
  21389990.840   112405177.47409  21389988.300    87588447.11547
  22677098.500   119168967.28408  22677095.140    92858924.55346
  24258328.160   127478376.39507  24258325.640    99333787.90944
  22474712.220   118105423.31009  22474708.300    92030187.79147
  23755080.700   124833820.12008  23755076.940    97273107.47145
  20681779.440   108683503.03409  20681774.180    84688433.64349
  21159541.560   111194171.35809  21159535.620    86644799.75848
  20442786.460   107427599.12509  20442785.280    83709821.79449
  22311980.160   117250270.53409  22311977.740    91363851.25247
 15 02 26 03 08 30.0000000  0 10G01G04G11G14G16G18G19G22G27G32
  23666053.640   124365961.15108  23666054.320    96908539.46146
  21379669.580   112350938.47909  21379666.940    87546182.96547
  22662139.340   119090355.25608  22662135.880    92797668.42646
  24245048.760   127408593.05507  24245046.240    99279411.26245
  22492925.260   118201134.05409  22492921.420    92104767.57147
  23771015.980   124917560.51808  23771012.220    97338359.71345
  20676065.040   108653472.94509  20676059.580    84665033.57548
  21167273.000   111234800.50709  21167267.060    86676458.83748
  20445853.740   107443717.93009  20445852.620    83722381.88949
  22292384.960   117147296.94509  22292382.580    91283612.10847
 15 02 26 03 09  0.0000000  0 10G01G04G11G14G16G18G19G22G27G32
  23651602.080   124290017.32508  23651602.580    96849362.49946
  21369398.420   112296962.81709  21369395.640    87504124.00847
  22647206.880   119011883.39008  22647203.440    92736521.54646
  24231798.940   127338964.72007  24231796.440    99225155.45444
  22511189.260   118297112.66309  22511185.540    92179556.08747
  23786989.400   125001501.48308  23786985.620    97403768.25545
  20670409.760   108623753.87009  20670404.140    84641875.85849
  21175091.380   111275886.72309  21175085.460    86708474.07748
  20448994.640   107460223.36809  20448993.540    83735243.25749
  22272846.700   117044622.60608  22272844.340    91203606.15047
 15 02 26 03 09 30.0000000  0 10G01G04G11G14G16G18G19G22G27G32
  23637179.060   124214223.89608  23637179.380    96790302.69346
  21359177.440   112243250.78109  21359174.640    87462270.48247
  22632301.340   118933552.89309  22632297.800    92675484.81546
  24218579.400   127269494.97508  24218576.820    99171023.18944
  22529503.780   118393356.79509  22529500.160    92254551.48947
  23803000.680   125085641.51108  23802996.860    97469331.89345
  20664813.880   108594347.66109  20664808.360    84618961.92749
  21182996.400   111317428.15709  21182990.480    86740844.03148
  20452209.340   107477116.61309  20452208.240    83748406.81849
  22253366.020   116942250.74509  22253363.640    91123835.89546
 15 02 26 03 10  0.0000000  0 10G01G04G11G14G16G18G19G22G27G32
  23622784.440   124138579.78408  23622784.640    96731359.24546
  21349006.420   112189801.52709  21349003.700    87420621.71647
  22617422.500   118855362.90509  22617418.480    92614557.55646
  24205390.380   127200185.52908  24205387.700    99117015.85345
  22547868.140   118489862.62609  22547864.600    92329750.81947
  23819049.120   125169977.20308  23819045.460    97535048.00245
  20659277.560   108565254.74909  20659272.240    84596292.12048
  21190987.640   111359422.57809  21190981.740    86773566.95248
  20455497.740   107494397.25309  20455496.580    83761872.23849
  22233943.220   116840182.85309  22233940.820    91044302.49547
 15 02 26 03 10 30.0000000  0 10G01G04G11G14G16G18G19G22G27G32
  23608418.540   124063086.53508  23608418.600    96672533.36146
  21338885.600   112136616.43409  21338882.920    87379178.79748
  22602570.600   118777315.81708  22602566.280    92553741.66246
  24192232.660   127131040.69008  24192229.880    99063136.75545
  22566282.040   118586628.35009  22566278.500    92405152.67647
  23835134.680   125254507.58808  23835130.960    97600915.83345
  20653801.320   108536477.70709  20653796.220    84573868.45748
  21199065.020   111401869.46209  21199059.180    86806642.44848
  20458860.260   107512067.26809  20458859.060    83775641.07449
  22214579.100   116738422.94309  22214576.640    90965009.08047
 15 02 26 03 11  0.0000000  0 10G01G04G11G14G16G18G19G22G27G32
  23594081.680   123987745.78808  23594081.740    96613826.29646
  21328815.260   112083697.05309  21328812.700    87337942.92847
  22587746.160   118699413.57409  22587741.580    92493038.62346
  24179107.060   127062065.04108  24179104.140    99009389.50345
  22584745.300   118683653.39209  22584741.740    92480756.59247
  23851257.320   125339232.54908  23851253.560    97666935.27745
  20648385.820   108508019.48009  20648380.760    84551693.20548
  21207228.400   111444768.61809  21207222.660    86840070.35648
  20462297.320   107530128.93809  20462296.080    83789715.10149
  22195274.360   116636975.24509  22195271.720    90885958.94447
 15 02 26 03 11 30.0000000  0 10G01G04G11G14G16G18G19G22G27G32
  23579773.420   123912555.79508  23579773.700    96555236.70346
  21318795.260   112031041.63709  21318792.660    87296912.74047
  22572949.020   118621654.98209  22572944.580    92432447.52346
  24166013.720   126993259.59808  24166010.920    98955774.89245
  22603256.940   118780932.77909  22603253.420    92556558.69847
  23867416.280   125424148.05008  23867412.520    97733103.19345
  20643030.940   108479879.63509  20643025.900    84529766.06149
  21215477.200   111488116.71709  21215471.580    86873848.09848
  20465808.620   107548581.01709  20465807.400    83804093.34049
  22176029.080   116535840.50109  22176026.380    90807152.67047
 15 02 26 03 12  0.0000000  0 10G01G04G11G14G16G18G19G22G27G32
  23565493.680   123837516.19008  23565494.240    96496764.26746
  21308825.500   111978649.90309  21308822.720    87256088.03047
  22558179.400   118544040.34209  22558175.220    92371968.59346
  24152953.340   126924626.85608  24152950.540    98902294.81945
  22621816.360   118878463.13209  22621812.880    92632556.36547
  23883611.000   125509251.33708  23883607.240    97799417.42045
  20637736.840   108452058.77809  20637731.780    84508087.47148
  21223811.060   111531911.41609  21223805.460    86907973.83548
  20469394.240   107567423.75909  20469393.000    83818775.98449
  22156843.700   116435021.03209  22156841.060    90728592.05346
 15 02 26 03 12 30.0000000  0 10G01G04G11G14G16G18G19G22G27G32
  23551242.200   123762625.45508  23551243.040    96438407.87146
  21298905.580   111926519.90109  21298902.660    87215467.25647
  22543437.100   118466568.50209  22543433.160    92311600.92946
  24139926.020   126856167.91708  24139923.400    98848950.19745
  22640422.840   118976240.69509  22640419.500    92708746.65347
  23899840.720   125594539.02008  23899836.960    97865875.34745
  20632503.480   108424556.95209  20632498.400    84486657.46749
  21232229.280   111576149.21909  21232223.620    86942444.85448
  20473054.000   107586656.07409  20473052.780    83833762.19449
  22137718.360   116334517.62709  22137715.840    90650277.71647
 15 02 26 03 13  0.0000000  0 10G01G04G11G14G16G18G19G22G27G32
  23537020.300   123687890.04808  23537021.300    96380172.52646
  21289036.640   111874658.43209  21289033.800    87175055.73447
  22528723.320   118389246.51908  22528719.420    92251350.04846
  24126933.580   126787892.39708  24126931.100    98795748.50445
  22659077.080   119074268.92809  22659073.880    92785132.27547
  23916106.240   125680015.08008  23916102.460    97932480.04545
  20627332.220   108397381.66609  20627327.140    84465481.92349
  21240732.740   111620835.10309  21240727.080    86977265.01348
  20476789.240   107606285.01909  20476788.080    83849057.46149
  22118654.880   116234339.38608  22118652.580    90572216.76947
 15 02 26 03 13 30.0000000  0 10G01G04G11G14G16G18G19G22G27G32
  23522826.700   123613302.98108  23522827.720    96322052.74446
  21279217.300   111823058.25309  21279214.720    87134847.80448
  22514036.680   118312067.86608  22514032.680    92191210.84646
  24113975.300   126719796.13908  24113972.800    98742686.48745
  22677777.160   119172537.72009  22677773.980    92861705.35047
  23932405.860   125765670.41108  23932401.860    97999224.45744
  20622222.000   108370527.07909  20622216.860    84444556.27749
  21249319.800   111665960.12909  21249314.100    87012427.36548
  20480598.680   107626304.10309  20480597.600    83864656.73149
  22099652.500   116134481.84609  22099650.280    90494405.71747
 15 02 26 03 14  0.0000000  0 10G01G04G11G14G16G18G19G22G27G32
  23508661.880   123538866.55408  23508662.700    96264050.35046
  21269448.160   111771721.52509  21269445.720    87094845.16147
  22499377.680   118235035.38308  22499373.700    92131185.55146
  24101052.100   126651884.00408  24101049.320    98689767.92045
  22696522.840   119271046.30809  22696519.800    92938465.26447
  23948739.620   125851505.30708  23948735.460    98066108.77845
  20617173.500   108343996.77509  20617168.260    84423883.30549
  21257990.500   111711524.75009  21257984.720    87047932.26548
  20484482.940   107646716.14809  20484481.920    83880562.21649
  22080712.100   116034949.79309  22080709.980    90416848.28647
 15 02 26 03 14 30.0000000  0 10G01G04G11G14G16G18G19G22G27G32
  23494525.720   123464580.36708  23494526.340    96206165.03946
  21259729.140   111720647.78009  21259726.640    87055047.44448
  22484746.460   118158149.07008  22484742.480    92071274.14646
  24088164.440   126584158.44508  24088161.320    98636994.77144
  22715313.520   119369791.39409  22715310.480    93015409.47047
  23965107.100   125937517.16008  23965102.960    98133130.99045
  20612186.920   108317791.64009  20612181.580    84403463.72749
  21266744.300   111757526.48709  21266738.520    87083777.78048
  20488442.020   107667521.19309  20488441.000    83896773.93849
  22061834.100   115935745.22809  22061832.040    90339546.04847
 15 02 26 03 15  0.0000000  0 10G01G04G11G14G16G18G19G22G27G32
  23480418.840   123390447.62308  23480419.400    96148399.28046
  21250060.880   111669840.39509  21250058.260    87015457.27847
  22470143.900   118081412.67908  22470139.920    92011479.57946
  24075313.420   126516625.71808  24075310.240    98584371.88145
  22734149.340   119468773.77309  22734146.180    93092538.58546
  23981508.460   126023706.82608  23981504.280    98200291.78245
  20607263.060   108291916.22309  20607257.640    84383301.06749
  21275581.560   111803966.83809  21275575.880    87119965.06748
  20492476.620   107688723.07009  20492475.640    83913294.86949
  22043019.540   115836874.09809  22043017.580    90262503.62547
 15 02 26 03 15 30.0000000  0 10G01G04G11G14G16G18G19G22G27G32
  23466340.540   123316464.80408  23466341.160    96090750.35246
  21240442.660   111619295.87909  21240440.060    86976071.94948
  22455569.460   118004823.49108  22455565.320    91951799.70046
  24062498.900   126449284.93208  24062495.860    98531898.53445
  22753029.080   119567987.04309  22753025.700    93169847.61046
  23997942.700   126110069.04808  23997938.540    98267586.99645
  20602401.420   108266368.02209  20602395.960    84363393.37449
  21284501.260   111850840.44309  21284495.700    87156489.94848
  20496586.220   107710318.63809  20496585.200    83930122.56849
  22024268.260   115738335.27209  22024266.320    90185720.14147
 15 02 26 03 16  0.0000000  0 10G01G04G11G14G16G18G19G22G27G32
  23452291.320   123242634.42208  23452291.780    96033220.19646
  21230874.780   111569016.41409  21230872.180    86936893.15447
  22441023.600   117928384.28608  22441019.400    91892236.70446
  24049721.960   126382141.67508  24049719.040    98479579.13145
  22771952.560   119667430.87708  22771949.040    93247336.29847
  24014409.820   126196603.83308  24014405.620    98335016.68445
  20597602.780   108241151.08009  20597597.320    84343743.80849
  21293503.480   111898147.84909  21293497.980    87193352.86648
  20500771.320   107732310.94909  20500770.200    83947259.43149
  22005581.160   115640133.68109  22005579.140    90109199.42747
 15 02 26 03 16 30.0000000  0 10G01G04G11G14G16G18G19G22G27G32
  23438271.120   123168956.13408  23438271.340    95975808.55046
  21221357.220   111519001.64609  21221354.660    86897920.61147
  22426506.380   117852095.79608  22426502.300    91832791.13746
  24036982.980   126315198.32807  24036980.140    98427415.51044
  22790919.300   119767101.80609  22790915.700    93325001.93747
  24030909.200   126283308.46808  24030905.120    98402578.72144
  20592867.360   108216266.12009  20592861.820    84324352.92449
  21302587.880   111945887.00109  21302582.320    87230552.20248
  20505031.900   107754700.06709  20505030.700    83964705.48449
  21986958.680   115542271.51209  21986956.500    90032943.20647
 15 02 26 03 17  0.0000000  0 10G01G04G11G14G16G18G19G22G27G32
  23424279.280   123095427.23608  23424279.240    95918513.30546
  21211889.560   111469248.99309  21211887.040    86859152.31647
  22412017.320   117775955.57108  22412013.460    91773461.09446
  24024282.100   126248455.14208  24024279.100    98375407.81844
  22809928.280   119866994.41709  22809924.500    93402840.32246
  24047439.980   126370178.41108  24047436.020    98470269.57845
  20588194.900   108191711.63809  20588189.240    84305219.55649
  21311753.540   111994053.12409  21311747.940    87268084.24448
  20509367.560   107777483.84909  20509366.360    83982459.06649
  21968400.740   115444748.57709  21968398.320    89956951.32347
 15 02 26 03 17 30.0000000  0 10G01G04G11G14G16G18G19G22G27G32
  23410316.240   123022050.68508  23410316.120    95861336.79846
  21202472.320   111419761.08109  21202469.780    86820590.32148
  22397557.100   117699967.25408  22397553.380    91714249.42846
  24011620.400   126181917.71908  24011617.600    98323560.49445
  22828979.280   119967107.89609  22828975.340    93480850.81446
  24064002.340   126457214.50508  24063998.500    98538089.90445
  20583586.140   108167492.01809  20583580.400    84286347.12449
  21321000.660   112042647.38809  21320995.100    87305949.90548
  20513778.920   107800665.65709  20513777.740    84000522.81149
  21949908.340   115347570.31709  21949905.760    89881228.03247
 15 02 26 03 18  0.0000000  0 10G01G04G11G14G16G18G19G22G27G32
  23396382.380   122948827.99808  23396382.260    95804280.17546
  21193105.780   111370539.53909  21193103.220    86782235.87747
  22383126.220   117624132.70208  22383122.540    91655157.57846
  23998998.760   126115590.24608  23998995.900    98271876.74345
  22848072.320   120067442.34309  22848068.300    93559033.48647
  24080596.240   126544416.28808  24080592.540    98606039.32945
  20579041.560   108143609.82909  20579035.800    84267737.62849
  21330329.200   112091669.14909  21330323.680    87344148.67848
  20518266.420   107824247.48409  20518265.180    84018898.25949
  21931482.200   115250740.68409  21931479.500    89805776.39047
 15 02 26 03 18 30.0000000  0 10G01G04G11G14G16G18G19G22G27G32
  23382477.840   122875759.41308  23382477.460    95747343.63946
  21183789.940   111321584.66709  21183787.340    86744089.24247
  22368724.800   117548452.82809  22368721.040    91596186.26046
  23986417.540   126049475.89808  23986414.780    98220359.08444
  22867206.820   120167994.71208  22867202.800    93637385.98346
  24097221.280   126631781.46008  24097217.820    98674116.07445
  20574561.500   108120066.68709  20574555.740    84249392.33149
  21339738.880   112141116.89709  21339733.320    87382679.39448
  20522830.140   107848229.96809  20522828.820    84037585.89749
  21913122.940   115154262.39209  21913120.180    89730598.51747
 15 02 26 03 19  0.0000000  0 10G01G04G11G14G16G18G19G22G27G32
  23368601.280   122802837.94708  23368600.900    95690521.73046
  21174523.420   111272889.14109  21174520.820    86706144.67647
  22354351.680   117472921.35509  22354347.700    91537330.57746
  23973876.160   125983570.74608  23973873.560    98169004.43444
  22886380.820   120268755.11408  22886377.000    93715900.56046
  24113875.720   126719300.95108  24113872.300    98742313.05245
  20570144.820   108096856.80609  20570139.120    84231306.71149
  21349228.000   112190981.81509  21349222.280    87421535.17948
  20527468.800   107872606.59609  20527467.500    84056580.66149
  21894829.680   115058130.92509  21894826.980    89655690.89247
 15 02 26 03 19 30.0000000  0 10G01G04G11G14G16G18G19G22G27G32
  23354753.820   122730069.89408  23354753.620    95633819.36646
  21165307.560   111224459.48509  21165304.960    86668407.28648
  22340008.200   117397544.97309  22340003.900    91478595.74846
  23961376.380   125917883.93208  23961373.680    98117819.89245
  22905594.920   120369726.69208  22905591.280    93794579.69846
  24130560.460   126806979.53108  24130556.940    98810634.01145
  20565792.960   108073987.65309  20565787.280    84213486.58849
  21358797.360   112241268.30109  21358791.440    87460719.45848
  20532183.720   107897384.08809  20532182.520    84075887.78049
  21876604.100   114962354.94709  21876601.420    89581060.25647
 15 02 26 03 20  0.0000000  0 10G01G04G11G14G16G18G19G22G27G32
  23340935.460   122657455.73307  23340935.680    95577236.92346
  21156142.380   111176296.04209  21156139.880    86630877.34348
  22325694.520   117322324.96109  22325690.120    91419982.75346
  23948918.800   125852418.56608  23948916.100    98066807.91645
  22924848.720   120470906.87208  22924845.140    93873421.37846
  24147274.980   126894814.93508  24147271.360    98879077.15645
  20561506.200   108051461.07109  20561500.600    84195933.40449
  21368446.620   112291974.72709  21368440.540    87500230.95648
  20536975.180   107922563.33909  20536974.040    84095507.96649
  21858446.840   114866937.51609  21858444.180    89506709.02147
 15 02 26 03 20 30.0000000  0 10G01G04G11G14G16G18G19G22G27G32
  23327145.820   122584992.81108  23327146.420    95520772.31946
  21147027.380   111128396.20009  21147024.900    86593552.78648
  22311410.060   117247259.20409  22311405.860    91361489.97146
  23936503.440   125787174.90208  23936500.580    98015968.70144
  22944141.180   120572290.36908  22944137.740    93952421.48546
  24164018.400   126982802.44808  24164014.800    98947638.84645
  20557284.320   108029275.60209  20557278.840    84178646.01949
  21378174.860   112343096.29809  21378168.700    87540065.95548
  20541842.660   107948142.06309  20541841.540    84115439.43249
  21840357.760   114771878.24109  21840355.040    89432636.87647
 15 02 26 03 21  0.0000000  0 10G01G04G11G14G16G18G19G22G27G32
  23313385.300   122512682.21708  23313386.100    95464426.40446
  21137962.680   111080760.75909  21137960.200    86556434.26748
  22297155.200   117172349.64309  22297151.280    91303118.89046
  23924131.000   125722156.83108  23924127.940    97965305.28445
  22963472.120   120673875.81708  22963468.800    94031578.96646
  24180790.660   127070941.45808  24180787.060    99016318.57245
  20553127.800   108007433.44109  20553122.440    84161626.15349
  21387981.900   112394632.36509  21387975.720    87580223.92548
  20546786.460   107974121.80009  20546785.300    84135683.37449
  21822337.520   114677180.85209  21822334.800    89358846.71647
 15 02 26 03 21 30.0000000  0 10G01G04G11G14G16G18G19G22G27G32
  23299654.100   122440524.82908  23299654.940    95408199.88346
  21128948.420   111033390.56309  21128945.920    86519522.43447
  22282930.180   117097597.59408  22282926.500    91244870.54246
  23911802.080   125657368.12108  23911799.020    97914820.59944
  22982841.100   120775660.91408  22982837.860    94110892.00946
  24197591.500   127159230.47308  24197587.640    99085115.18545
  20549037.060   107985936.83809  20549031.760    84144875.55149
  21397867.560   112446582.00609  21397861.380    87620704.16348
  20551806.800   108000503.82809  20551805.640    84156240.78549
  21804386.780   114582848.55909  21804384.060    89285341.04447
 15 02 26 03 22  0.0000000  0 10G01G04G11G14G16G18G19G22G27G32
  23285951.680   122368518.10708  23285952.540    95352090.75846
  21119984.140   110986283.14309  21119981.600    86482815.37048
  22268734.820   117023001.01508  22268731.160    91186743.33046
  23899516.820   125592808.93908  23899513.740    97864514.73744
  23002246.960   120877640.11408  23002243.920    94190356.29446
  24214420.020   127247664.80908  24214416.040    99154025.04644
  20545011.840   107964784.53209  20545006.580    84128393.23349
  21407831.040   112498940.81409  21407824.880    87661503.23248
  20556903.280   108027285.93509  20556902.160    84177109.94949
  21786505.460   114488881.26809  21786502.680    89212119.79047
 15 02 26 03 22 30.0000000  0 10G01G04G11G14G16G18G19G22G27G32
  23272278.140   122296662.33708  23272278.860    95296099.25146
  21111069.940   110939438.72409  21111067.300    86446313.23348
  22254569.420   116948560.97309  22254565.640    91128738.11646
  23887275.860   125528482.59908  23887272.740    97814390.33044
  23021689.260   120979810.40308  23021686.300    94269969.48546
  24231275.880   127336242.91408  24231271.780    99223046.94544
  20541052.420   107943977.84709  20541047.220    84112180.23049
  21417872.040   112551706.74409  21417865.820    87702619.54548
  20562076.040   108054468.80909  20562074.900    84198291.40749
  21768694.060   114395281.60509  21768691.340    89139185.00547
 15 02 26 03 23  0.0000000  0 10G01G04G11G14G16G18G19G22G27G32
  23258633.920   122224960.24408  23258634.340    95240227.52746
  21102206.300   110892859.92109  21102203.620    86410018.07248
  22240434.520   116874280.79709  22240430.580    91070857.47846
  23875080.320   125464394.54808  23875077.320    97764451.59245
  23041168.220   121082172.90808  23041165.300    94349732.46046
  24248159.220   127424965.42308  24248155.020    99292181.35345
  20537159.560   107923520.88709  20537154.420    84096239.74249
  21427990.680   112604880.58709  21427984.480    87744053.71148
  20567325.640   108082055.54909  20567324.480    84219787.56249
  21750953.520   114302054.72009  21750950.820    89066540.69547
 15 02 26 03 23 30.0000000  0 10G01G04G11G14G16G18G19G22G27G32
  23245018.720   122153410.64508  23245018.760    95184474.60346
  21093393.020   110846545.73309  21093390.360    86373929.10348
  22226329.820   116800159.78309  22226325.640    91013100.86447
  23862930.480   125400546.57408  23862927.540    97714699.91545
  23060682.860   121184722.94108  23060679.980    94429641.55847
  24265069.380   127513828.97908  24265065.080    99361425.67044
  20533333.380   107903413.93409  20533328.180    84080571.97649
  21438186.300   112658459.27109  21438180.200    87785803.33148
  20572651.900   108110045.33409  20572650.800    84241597.76549
  21733284.100   114209201.81609  21733281.520    88994187.79747
 15 02 26 03 24  0.0000000  0 10G01G04G11G14G16G18G19G22G27G32
  23231432.240   122082011.92108  23231432.000    95128839.24246
  21084629.720   110800494.25209  21084627.120    86338044.84248
  22212255.140   116726197.28708  22212250.900    90955467.76146
  23850826.500   125336939.68008  23850823.680    97665136.10845
  23080232.360   121287455.85508  23080229.500    94509693.15346
  24282005.700   127602829.80208  24282001.440    99430776.95644
  20529573.700   107883656.22309  20529568.360    84065176.35649
  21448458.180   112712438.76209  21448452.180    87827865.26348
  20578054.600   108138436.89809  20578053.580    84263721.05249
  21715686.000   114116723.66809  21715683.440    88922126.92147
 15 02 26 03 24 30.0000000  0 10G01G04G11G14G16G18G19G22G27G32
  23217874.620   122010765.51108  23217874.360    95073322.56546
  21075916.640   110754706.98009  21075914.180    86302366.44548
  22198210.980   116652395.20308  22198206.780    90897959.64846
  23838769.220   125273578.13008  23838766.400    97615763.47645
  23099816.440   121390370.25408  23099813.460    94589886.16846
  24298968.100   127691967.62108  24298963.880    99500234.98944
  20525880.900   107864250.43809  20525875.560    84050054.96249
  21458806.320   112766819.20309  21458800.400    87870239.62748
  20583534.080   108167231.98809  20583533.080    84286158.77849
  21698159.980   114024624.16609  21698157.380    88850361.08947
 15 02 26 03 25  0.0000000  0 10G01G04G11G14G16G18G19G22G27G32
  23204346.440   121939674.82608  23204346.460    95017927.23046
  21067254.520   110709187.21709  21067252.100    86266896.51148
  22184198.240   116578757.83908  22184194.220    90840579.89246
  23826759.780   125210468.10508  23826756.880    97566586.83145
  23119435.120   121493466.34108  23119432.000    94670220.76546
  24315956.740   127781243.25108  24315952.660    99569800.38644
  20522255.940   107845201.39209  20522250.640    84035211.54749
  21469231.040   112821601.86309  21469225.140    87912927.40648
  20589091.040   108196434.35409  20589090.080    84308913.85749
  21680707.080   113932909.08809  21680704.480    88778894.80547
 15 02 26 03 25 30.0000000  0 10G01G04G11G14G16G18G19G22G27G32
  23190847.180   121868737.27308  23190847.660    94962651.22747
  21058642.920   110663932.44409  21058640.420    86231633.06248
  22170216.480   116505283.00809  22170212.580    90783326.80146
  23814798.360   125147609.94308  23814795.380    97517606.46545
  23139087.340   121596739.41508  23139084.180    94750693.27246
  24332970.820   127870652.33808  24332966.620    99639469.80945
  20518698.560   107826507.58609  20518693.280    84020644.94949
  21479731.360   112876781.83509  21479725.500    87955924.79048
  20594725.080   108226041.68409  20594724.140    84331984.49549
  21663327.260   113841578.03009  21663324.700    88707727.76547
 15 02 26 03 26  0.0000000  0 10G01G04G11G14G16G18G19G22G27G32
  23177377.180   121797953.57408  23177378.080    94907495.10847
  21050081.800   110618943.21809  21050079.220    86196576.53748
  22156265.960   116431972.32809  22156262.080    90726201.60846
  23802885.440   125085007.22308  23802882.400    97468825.12545
  23158772.760   121700187.25008  23158769.600    94831301.95246
  24350010.100   127960193.57308  24350005.900    99709242.19645
  20515209.200   107808171.20109  20515203.920    84006356.84949
  21490307.160   112932357.93909  21490301.260    87999230.84848
  20600436.420   108256055.01809  20600435.480    84355371.49649
  21646021.100   113750634.20009  21646018.700    88636862.45147
 15 02 26 03 26 30.0000000  0 10G01G04G11G14G16G18G19G22G27G32
  23163935.780   121727319.49708  23163937.000    94852455.57646
  21041570.280   110574215.13609  21041567.800    86161723.49648
  22142345.860   116358821.91709  22142341.960    90669201.29646
  23791020.760   125022658.29808  23791017.720    97420241.54945
  23178490.140   121803802.45308  23178486.960    94912041.05546
  24367073.300   128049860.74208  24367069.180    99779112.70744
  20511787.300   107790189.03409  20511781.980    83992344.77349
  21500957.200   112988323.86209  21500951.180    88042840.65448
  20606224.340   108286470.50109  20606223.360    84379071.85849
  21628788.380   113660075.67409  21628786.040    88566297.37647
 15 02 26 03 27  0.0000000  0 10G01G04G11G14G16G18G19G22G27G32
  23150523.580   121656837.90208  23150524.740    94797534.86547
  21033109.040   110529751.29509  21033106.640    86127076.35448
  22128456.880   116285835.50709  22128452.880    90612328.76746
  23779205.500   124960569.11308  23779202.640    97371860.37846
  23198239.420   121907585.25908  23198236.160    94992910.75446
  24384160.580   128139654.48708  24384156.540    99849081.83845
  20508433.600   107772565.11409  20508428.240    83978611.84249
  21511681.620   113044680.40209  21511675.480    88086754.84548
  20612089.380   108317291.17109  20612088.340    84403087.95849
  21611629.960   113569907.63409  21611627.660    88496036.57847
 15 02 26 03 27 30.0000000  0 10G01G04G11G14G16G18G19G22G27G32
  23137140.560   121586509.07408  23137141.500    94742733.18346
  21024698.120   110485551.89609  21024695.740    86092635.27448
  22114599.400   116213014.22809  22114595.160    90555584.91546
  23767440.220   124898742.41508  23767437.600    97323683.74245
  23218020.140   122011532.93308  23218016.700    95073908.91446
  24401271.620   128229573.28908  24401267.600    99919148.42144
  20505148.440   107755300.92209  20505143.000    83965159.23549
  21522480.040   113101425.97509  21522473.820    88130972.18048
  20618031.640   108348517.63209  20618030.560    84427420.26249
  21594546.380   113480132.67809  21594544.000    88426082.07647
 15 02 26 03 28  0.0000000  0 10G01G04G11G14G16G18G19G22G27G32
  23123786.620   121516333.20708  23123787.540    94688050.70547
  21016337.520   110441617.07809  21016335.140    86058400.35448
  22100773.620   116140358.73609  22100769.220    90498970.24046
  23755725.500   124837181.28008  23755722.900    97275714.03145
  23237831.820   122115643.12808  23237828.260    95155033.71546
  24418406.080   128319615.19208  24418402.060    99989310.94144
  20501932.040   107738398.18509  20501926.540    83951988.26249
  21533352.120   113158558.84709  21533345.880    88175491.29948
  20624051.200   108380150.38909  20624050.120    84452069.13949
  21577538.040   113390753.30909  21577535.580    88356435.81647
 15 02 26 03 28 30.0000000  0 10G01G04G11G14G16G18G19G22G27G32
  23110462.160   121446312.62908  23110462.980    94633489.24946
  21008027.680   110397948.81509  21008025.340    86024373.14348
  22086979.940   116067871.99109  22086975.600    90442487.07247
  23744062.300   124775890.79208  23744059.600    97227955.21345
  23257674.140   122219914.79808  23257670.500    95236284.33646
  24435564.040   128409780.58608  24435559.980   100059569.67945
  20498784.980   107721860.19909  20498779.520    83939101.51449
  21544297.840   113216079.00409  21544291.620    88220312.19748
  20630148.600   108412191.92509  20630147.480    84477036.55949
  21560605.840   113301774.17909  21560603.320    88287101.43747
 15 02 26 03 29  0.0000000  0 10G01G04G11G14G16G18G19G22G27G32
  23097166.300   121376442.09008  23097166.840    94579044.68547
  20999767.680   110354542.07809  20999765.260    85990549.72248
  22073217.600   115995549.89909  22073213.420    90386132.20146
  23732450.180   124714868.75508  23732447.360    97180405.60745
  23277545.640   122324340.07008  23277541.940    95317654.64946
  24452744.180   128500062.33508  24452740.040   100129919.08144
  20495706.520   107705682.89809  20495701.080    83926495.82749
  21555315.760   113273979.05609  21555309.680    88265429.12748
  20636322.880   108444637.36009  20636321.700    84502318.72249
  21543749.300   113213192.39709  21543746.800    88218076.69747
 15 02 26 03 29 30.0000000  0 10G01G04G11G14G16G18G19G22G27G32
  23083899.440   121306723.58408  23083899.740    94524718.59547
  20991557.880   110311398.80409  20991555.240    85956931.59248
  22059487.000   115923394.97209  22059482.980    90329907.58547
  23720890.040   124654119.60708  23720887.120    97133068.59445
  23297446.280   122428918.31308  23297442.580    95399144.16346
  24469946.400   128590460.24808  24469942.180   100200359.00845
  20492697.300   107689869.47209  20492691.840    83914173.67149
  21566406.020   113332259.29609  21566400.160    88310842.29948
  20642574.400   108477488.82509  20642573.100    84527917.25249
  21526969.200   113125012.25809  21526966.700    88149364.91047
 15 02 26 03 30  0.0000000  0 10G01G04G11G14G16G18G19G22G27G32
  23070662.000   121237160.28408  23070662.300    94470513.46247
  20983398.760   110268522.15309  20983395.980    85923521.22548
  22045788.880   115851411.01509  22045785.080    90273816.20347
  23709382.980   124593649.63608  23709380.140    97085949.15245
  23317376.140   122533649.68308  23317372.320    95480753.00646
  24487170.880   128680975.77008  24487166.720   100270890.55244
  20489758.140   107674424.39709  20489752.700    83902138.54649
  21577568.800   113390920.58409  21577563.160    88356552.39448
  20648903.760   108510749.80009  20648902.380    84553834.88749
  21510266.560   113037239.12709  21510264.060    88080970.28347
 15 02 26 03 30 30.0000000  0 10G01G04G11G14G16G18G19G22G27G32
  23057453.860   121167751.18108  23057454.160    94416428.46047
  20975290.120   110225910.92309  20975287.280    85890317.68348
  22032123.140   115779597.33009  22032119.360    90217857.50147
  23697929.360   124533460.27808  23697926.440    97039048.35645
  23337334.260   122638529.98308  23337330.460    95562477.89746
  24504417.000   128771605.45707  24504413.100   100341511.09244
  20486889.160   107659347.75009  20486883.660    83890390.50949
  21588803.500   113449959.83109  21588797.980    88402556.99548
  20655310.820   108544419.35609  20655309.460    84580070.89849
  21493641.540   112949874.12809  21493639.020    88012893.67147
 15 02 26 03 31  0.0000000  0 10G01G04G11G14G16G18G19G22G27G32
  23044274.680   121098494.22308  23044274.900    94362462.02346
  20967231.560   110183563.12509  20967228.800    85857319.40148
  22018489.600   115707952.99809  22018485.780    90162030.75747
  23686529.300   124473552.33708  23686526.380    96992366.87144
  23357319.760   122743554.58108  23357315.960    95644315.23546
  24521684.160   128862345.66507  24521680.360   100412217.71245
  20484090.180   107644638.74109  20484084.620    83878928.93549
  21600109.420   113509373.24909  21600103.940    88448853.15048
  20661795.280   108578495.80709  20661794.000    84606623.97149
  21477094.280   112862917.69009  21477091.740    87945135.42447
 15 02 26 03 31 30.0000000  0 10G01G04G11G14G16G18G19G22G27G32
  23031124.640   121029390.06508  23031124.680    94308614.62647
  20959223.180   110141479.41609  20959220.620    85824526.90548
  22004888.660   115636479.68609  22004884.660    90106337.26547
  23675183.300   124413929.21208  23675180.480    96945907.28245
  23377332.280   122848721.51708  23377328.600    95726263.48346
  24538972.160   128953195.17807  24538968.360   100483009.52244
  20481361.600   107630299.42509  20481355.960    83867755.43649
  21611486.260   113569159.43009  21611480.880    88495439.77348
  20668357.340   108612979.94109  20668356.120    84633494.71849
  21460625.300   112776372.67109  21460622.680    87877697.75547
 15 02 26 03 32  0.0000000  0 10G01G04G11G14G16G18G19G22G27G32
  23018003.680   120960438.51308  23018003.660    94254886.16447
  20951264.880   110099659.45509  20951262.640    85791939.92048
  21991320.380   115565177.64709  21991316.260    90050777.25547
  23663891.960   124354593.59508  23663889.140    96899671.75145
  23397371.160   122954027.86908  23397367.760    95808320.33846
  24556280.520   129044151.40007  24556276.780   100553884.47844
  20478703.540   107616330.42709  20478697.740    83856870.50449
  21622933.640   113629315.81209  21622928.300    88542314.86448
  20674997.020   108647871.72409  20674995.800    84660683.11249
  21444235.020   112690241.01109  21444232.360    87810582.19047
 15 02 26 03 32 30.0000000  0 10G01G04G11G14G16G18G19G22G27G32
  23004911.840   120891640.05408  23004911.820    94201276.97747
  20943356.960   110058103.82509  20943354.860    85759558.92448
  21977784.880   115494048.16709  21977780.860    89995351.70547
  23652655.980   124295548.61308  23652653.220    96853662.67245
  23417436.140   123059471.16708  23417432.900    95890483.92446
  24573609.000   129135212.81907  24573605.200   100624841.42444
  20476116.240   107602733.49809  20476110.320    83846275.49549
  21634451.160   113689840.47809  21634445.780    88589476.93548
  20681714.440   108683171.79609  20681713.220    84688189.65849
  21427923.860   112604525.35009  21427921.160    87743790.77847
 15 02 26 03 33  0.0000000  0 10G01G04G11G14G16G18G19G22G27G32
  22991848.940   120822994.41108  22991849.080    94147786.88246
  20935499.400   110016812.16809  20935497.180    85727383.61948
  21964282.160   115423091.61409  21964278.460    89940060.89547
  23641475.900   124236796.81408  23641473.140    96807882.05845
  23437526.740   123165048.13008  23437523.640    95972751.66946
  24590957.120   129226377.73707  24590953.320   100695878.97944
  20473599.880   107589509.59009  20473593.900    83835971.14749
  21646038.480   113750731.57309  21646032.960    88636924.53748
  20688509.480   108718880.04609  20688508.360    84716014.24849
  21411692.280   112519227.74209  21411689.560    87677325.11847
 15 02 26 03 33 30.0000000  0 10G01G04G11G14G16G18G19G22G27G32
  22978815.440   120754502.98008  22978815.500    94094416.95947
  20927692.380   109975785.88309  20927690.020    85695415.11248
  21950812.780   115352310.14109  21950809.260    89884906.51247
  23630352.380   124178342.25908  23630349.640    96762333.08045
  23457642.620   123270757.18308  23457639.480    96055122.34546
  24608324.800   129317645.43507  24608321.140   100766996.66844
  20471155.000   107576661.33609  20471148.960    83825959.52049
  21657695.340   113811988.25509  21657689.700    88684657.01548
  20695382.520   108754998.04709  20695381.440    84744158.14549
  21395540.900   112434351.68609  21395538.280    87611187.94747
 15 02 26 03 34  0.0000000  0 10G01G04G11G14G16G18G19G22G27G32
  22965810.780   120686162.69908  22965810.700    94041164.80247
  20919935.220   109935021.81309  20919932.840    85663650.90248
  21937376.380   115281701.65009  21937372.860    89829886.91547
  23619285.440   124120184.55808  23619282.500    96717015.37545
  23477782.560   123376592.46808  23477779.440    96137591.37046
  24625711.040   129409010.65907  24625707.300   100838190.32945
  20468781.140   107564186.72309  20468775.100    83816239.02849
  21669420.740   113873605.41409  21669415.000    88732670.38148
  20702332.980   108791522.90509  20702331.860    84772619.05149
  21379469.620   112349896.40809  21379467.040    87545378.64447
 15 02 26 03 34 30.0000000  0 10G01G04G11G14G16G18G19G22G27G32
  22952834.900   120617973.43508  22952834.700    93988030.32946
  20912228.000   109894519.71009  20912225.660    85632090.83048
  21923972.980   115211266.61309  21923969.380    89775002.49147
  23608275.460   124062326.20008  23608272.440    96671930.93845
  23497945.980   123482551.43508  23497942.920    96220156.77046
  24643115.440   129500471.53007  24643111.640   100909458.53144
  20466478.480   107552086.65409  20466472.560    83806810.39949
  21681214.280   113935580.83209  21681208.500    88780962.91748
  20709360.840   108828454.49309  20709359.680    84801396.91049
  21363478.780   112265863.89009  21363476.220    87479898.77447
 15 02 26 03 35  0.0000000  0 10G01G04G11G14G16G18G19G22G27G32
  22939888.800   120549940.88408  22939888.500    93935017.97647
  20904571.780   109854285.25609  20904569.320    85600739.31348
  21910603.740   115141011.36809  21910600.000    89720258.14947
  23597324.080   124004775.74508  23597321.020    96627086.43845
  23518133.320   123588636.69808  23518130.460    96302820.58746
  24660538.800   129592031.76807  24660534.940   100980804.17444
  20464248.560   107540368.45009  20464242.680    83797679.33349
  21693076.720   113997918.10709  21693070.860    88829537.41548
  20716467.220   108865798.73009  20716466.020    84830496.30149
  21347569.760   112182261.93809  21347567.360    87414754.41247
 15 02 26 03 35 30.0000000  0 10G01G04G11G14G16G18G19G22G27G32
  22926971.720   120482061.27808  22926971.520    93882124.79147
  20896965.760   109814314.63909  20896963.160    85569593.38448
  21897268.240   115070933.10809  21897264.360    89665651.72547
  23586431.000   123947532.05508  23586427.880    96582480.96945
  23538343.440   123694841.52208  23538340.640    96385577.57646
  24677980.020   129683685.75308  24677976.140   101052222.85544
  20462090.780   107529029.29809  20462084.960    83788843.63049
  21705006.920   114060611.38209  21705000.960    88878389.31348
  20723651.400   108903551.95109  20723650.200    84859914.38249
  21331742.320   112099089.11009  21331740.140    87349944.43747
 15 02 26 03 36  0.0000000  0 10G01G04G11G14G16G18G19G22G27G32
  22914083.780   120414335.21208  22914083.860    93829351.25347
  20889410.060   109774608.43409  20889407.300    85538653.49748
  21883966.740   115001033.21209  21883962.820    89611184.27747
  23575596.880   123890598.76908  23575593.820    96538117.37045
  23558575.920   123801163.83008  23558573.280    96468426.09746
  24695438.820   129775432.05608  24695434.880   101123713.46144
  20460005.420   107518070.58109  20459999.620    83780304.36449
  21717004.540   114123658.90609  21716998.480    88927517.25248
  20730913.500   108941714.77209  20730912.300    84889651.64249
  21315997.000   112016347.95909  21315994.960    87285470.82147
 15 02 26 03 36 30.0000000  0 10G01G04G11G14G16G18G19G22G27G32
  22901224.000   120346757.93608  22901224.460    93776693.64647
  20881903.760   109735161.95709  20881900.840    85507915.98448
  21870698.520   114931307.71409  21870694.700    89556852.72947
  23564821.400   123833973.60008  23564818.500    96493993.87345
  23578829.360   123907596.07108  23578826.860    96551360.27846
  24712913.860   129867264.06107  24712909.840   101195270.86744
  20457991.860   107507489.04709  20457986.060    83772059.00749
  21729068.280   114187053.98109  21729062.160    88976916.00748
  20738252.640   108980282.56809  20738251.520    84919704.45549
  21300333.400   111934035.93109  21300331.500    87221331.59147
 15 02 26 03 37  0.0000000  0 10G01G04G11G14G16G18G19G22G27G32
  22888394.560   120279340.18508  22888395.300    93724160.34347
  20874448.800   109695985.72809  20874445.800    85477389.05148
  21857465.620   114861768.19309  21857461.920    89502666.09947
  23554107.080   123777669.77308  23554104.300    96450120.78045
  23599105.140   124014145.98808  23599102.700    96634386.15746
  24730406.860   129959190.74408  24730402.800   101266902.03644
  20456052.280   107497296.50609  20456046.560    83764116.76749
  21741199.720   114250805.11009  21741193.540    89026592.20648
  20745670.960   109019266.07709  20745669.860    84950081.20549
  21284754.040   111852165.78709  21284752.100    87157536.68947
 15 02 26 03 37 30.0000000  0 10G01G04G11G14G16G18G19G22G27G32
  22875593.820   120212072.73308  22875594.580    93671744.17046
  20867043.500   109657070.60109  20867040.520    85447065.57748
  21844266.480   114792406.05209  21844262.720    89448617.67347
  23543452.640   123721680.87508  23543449.960    96406493.08845
  23619401.040   124120801.71508  23619398.600    96717494.48946
  24747915.720   130051200.98108  24747911.800   101338598.31244
  20454185.180   107487484.73209  20454179.420    83756471.22149
  21753396.720   114314901.18209  21753390.640    89076537.18548
  20753166.660   109058656.22509  20753165.640    84980774.80549
  21269257.460   111770730.42509  21269255.440    87094080.57047
 15 02 26 03 38  0.0000000  0 10G01G04G11G14G16G18G19G22G27G32
  22862822.500   120144959.35808  22862823.220    93619448.04047
  20859688.540   109618420.28609  20859685.680    85416948.45848
  21831102.020   114723225.95409  21831098.120    89394711.10347
  23532859.440   123666013.38008  23532856.740    96363115.81945
  23639717.240   124227564.37708  23639714.840    96800686.13845
  24765440.820   130143296.54708  24765437.040   101410361.09144
  20452391.440   107478058.42509  20452385.620    83749126.04149
  21765659.640   114379343.71909  21765653.700    89126752.13648
  20760740.520   109098456.78109  20760739.440    85011788.21549
  21253844.780   111689735.72809  21253842.660    87030967.83347
 15 02 26 03 38 30.0000000  0 10G01G04G11G14G16G18G19G22G27G32
  22850080.340   120077999.43608  22850081.100    93567271.50047
  20852383.800   109580034.11709  20852381.100    85387037.16848
  21817972.200   114654227.83709  21817968.180    89340946.34747
  23522327.860   123610669.34908  23522324.980    96319990.61245
  23660053.080   124334430.42308  23660050.640    96883958.35846
  24782981.680   130235474.73307  24782978.160   101482188.24044
  20450671.240   107469018.50609  20450665.420    83742081.94949
  21777987.940   114444129.89009  21777982.160    89177234.86548
  20768392.400   109138667.16709  20768391.260    85043120.97149
  21238516.200   111609183.15709  21238514.000    86968199.60647
 15 02 26 03 39  0.0000000  0 10G01G04G11G14G16G18G19G22G27G32
  22837367.080   120011191.92908  22837368.120    93515213.70447
  20845129.100   109541910.94709  20845126.500    85357330.80248
  21804877.000   114585411.69709  21804872.840    89287323.38547
  23511858.100   123555650.37308  23511855.180    96277118.69345
  23680407.860   124441396.15508  23680405.440    96967308.24645
  24800537.780   130327732.86807  24800534.300   101554077.66444
  20449024.600   107460365.16009  20449018.780    83735339.08049
  21790381.080   114509256.74309  21790375.440    89227983.05048
  20776122.040   109179286.30809  20776120.840    85074772.23549
  21223271.880   111529073.59909  21223269.600    86905776.58448
 15 02 26 03 39 30.0000000  0 10G01G04G11G14G16G18G19G22G27G32
  22824682.700   119944535.89208  22824683.820    93463273.96247
  20837924.260   109504049.85409  20837921.660    85327828.66848
  21791816.400   114516777.59709  21791812.200    89233842.28247
  23501450.460   123500958.10808  23501447.660    96234501.33645
  23700780.960   124548457.48408  23700778.280    97050732.63245
  24818108.620   130420068.25807  24818105.120   101626027.31944
  20447451.460   107452098.33509  20447445.640    83728897.40749
  21802838.480   114574720.99009  21802832.920    89278994.14948
  20783929.240   109220313.33909  20783928.080    85106741.33849
  21208112.040   111449408.21309  21208109.800    86843699.67647
 15 02 26 03 40  0.0000000  0 10G01G04G11G14G16G18G19G22G27G32
  22812027.380   119878032.08108  22812028.480    93411452.82647
  20830769.480   109466451.63309  20830766.860    85298531.35548
  21778790.620   114448326.76909  21778786.480    89180503.97147
  23491105.640   123446595.68308  23491102.920    96192141.04145
  23721171.920   124655612.19508  23721168.980    97134229.78445
  24835693.880   130512479.51807  24835690.400   101698036.08044
  20445952.180   107444219.77809  20445946.380    83722758.26149
  21815359.880   114640521.27009  21815354.340    89330267.09748
  20791814.120   109261748.95509  20791813.080    85139028.81249
  21193037.220   111370189.78509  21193034.980    86781971.03648
 15 02 26 03 40 30.0000000  0 10G01G04G11G14G16G18G19G22G27G32
  22799401.700   119811683.34808  22799402.720    93359752.54847
  20823665.260   109429118.85809  20823662.680    85269440.89148
  21765800.440   114380063.10409  21765796.300    89127311.51547
  23480824.760   123392569.05208  23480822.020    96150042.37445
  23741580.820   124762860.85508  23741577.680    97217800.13945
  24853293.740   130604967.52007  24853290.240   101770104.65344
  20444527.520   107436733.41509  20444521.740    83716924.73449
  21827945.340   114706658.35309  21827939.820    89381802.48048
  20799777.320   109303595.97909  20799776.320    85171636.87549
  21178048.420   111291423.24409  21178046.240    86720594.52248
 15 02 26 03 41  0.0000000  0 10G01G04G11G14G16G18G19G22G27G32
  22786805.160   119745487.11408  22786806.000    93308171.07147
  20816611.160   109392049.24909  20816608.660    85240555.49448
  21752845.500   114311984.46709  21752841.380    89074263.23047
  23470607.680   123338877.75108  23470604.880    96108205.01745
  23762006.580   124870197.99208  23762003.180    97301439.43945
  24870907.420   130697528.07507  24870903.940   101842229.74644
  20443177.200   107429637.85909  20443171.480    83711395.72349
  21840594.040   114773127.50009  21840588.440    89433596.61648
  20807818.300   109345851.85609  20807817.360    85204563.51849
  21163145.480   111213107.94709  21163143.280    86659569.62947
 15 02 26 03 41 30.0000000  0 10G01G04G11G14G16G18G19G22G27G32
  22774237.700   119679443.77508  22774238.420    93256708.73347
  20809607.200   109355243.12209  20809604.740    85211875.39748
  21739926.120   114244092.75009  21739922.020    89021360.59847
  23460455.120   123285525.41208  23460452.220    96066631.75345
  23782448.680   124977621.16708  23782445.080    97385145.77545
  24888534.660   130790159.92507  24888531.160   101914410.36844
  20441901.540   107422934.44309  20441895.880    83706172.27849
  21853305.620   114839926.91709  21853299.960    89485648.10048
  20815937.120   109388516.90609  20815936.280    85237808.99549
  21148328.920   111135246.35109  21148326.600    86598898.26048
 15 02 26 03 42  0.0000000  0 10G01G04G11G14G16G18G19G22G27G32
  22761699.420   119613554.06008  22761700.040    93205366.10047
  20802653.460   109318700.98809  20802651.000    85183401.01048
  21727042.500   114176389.18809  21727038.440    88968604.58847
  23450367.580   123232514.90808  23450364.480    96025324.88045
  23802906.720   125085128.11308  23802902.920    97468917.38645
  24906175.200   130882861.57807  24906171.780   101986645.42844
  20440700.880   107416625.01109  20440695.260    83701255.83649
  21866079.760   114907055.30309  21866074.060    89537955.92148
  20824133.980   109431591.81409  20824133.140    85271373.84249
  21133599.140   111057841.02409  21133596.780    86538582.42747
 15 02 26 03 42 30.0000000  0  9G01G04G11G14G16G19G22G27G32
  22749189.200   119547812.36308  22749189.820    93154138.81147
  20795748.880   109282417.14309  20795746.420    85155127.88948
  21714193.820   114108868.92209  21714189.780    88915991.39747
  23440344.560   123179843.34808  23440341.500    95984282.12045
  23823379.080   125192710.46808  23823375.260    97552747.77445
  20439574.380   107410705.28509  20439568.780    83696643.06249
  21878915.020   114974504.94409  21878909.280    89590514.07948
  20832407.760   109475070.87409  20832406.880    85305253.62349
  21118955.480   110980888.26009  21118953.200    86478619.24548
 15 02 26 03 43  0.0000000  0 10G01G03G04G11G14G16G19G22G27G32
  22736709.420   119482230.89208  22736710.100    93103036.37947
  24628277.420   129422470.74707  24628279.060   100848675.56646
  20788895.880   109246404.03609  20788893.320    85127065.72948
  21701382.540   114041544.92009  21701378.520    88863531.14947
  23430388.700   123127525.35608  23430385.720    95943514.84346
  23843867.600   125300377.85508  23843863.760    97636644.40045
  20438524.500   107405188.03609  20438518.940    83692343.90149
  21891813.300   115042285.78909  21891807.500    89643330.31648
  20840760.740   109518966.18509  20840759.860    85339457.75149
  21104400.720   110904402.26209  21104398.360    86419019.76848
 15 02 26 03 43 30.0000000  0 10G01G03G04G11G14G16G19G22G27G32
  22724260.340   119416810.86608  22724261.180    93052059.73147
  24607694.780   129314308.60107  24607696.320   100764393.48746
  20782094.520   109210662.49309  20782091.900    85099215.17048
  21688609.000   113974419.38909  21688604.960    88811225.54447
  23420500.820   123075564.83708  23420498.140    95903026.13346
  23864371.960   125408128.20808  23864368.060    97720605.68245
  20437551.680   107400075.78809  20437546.180    83688360.32749
  21904774.420   115110396.87209  21904768.560    89696403.88048
  20849193.200   109563278.98009  20849192.280    85373987.19249
  21089935.420   110828386.26909  21089933.100    86359786.53948
 15 02 26 03 44  0.0000000  0 10G01G03G04G11G14G16G19G22G27G32
  22711838.380   119351532.81008  22711839.300    93001193.72247
  24587130.060   129206240.81207  24587131.380   100680184.87345
  20775341.120   109175173.06309  20775338.420    85071561.07948
  21675869.620   113907473.69409  21675865.620    88759060.06847
  23410677.820   123023944.79908  23410675.320    95862802.73745
  23884887.900   125515939.98208  23884884.100    97804614.82845
  20436652.440   107395350.19709  20436646.960    83684678.05049
  21917794.260   115178816.45909  21917788.380    89749717.83648
  20857701.400   109607989.53909  20857700.440    85408826.57649
  21075556.260   110752822.60909  21075553.880    86300905.77548
 15 02 26 03 44 30.0000000  0 10G01G03G04G11G14G16G19G22G27G32
  22699445.840   119286408.66108  22699446.560    92950447.65247
  24566586.080   129098281.49207  24566587.400   100596060.80446
  20768637.960   109139947.86109  20768635.280    85044112.87648
  21663166.860   113840720.64209  21663162.820    88707044.70447
  23400922.380   122972679.73708  23400919.620    95822855.93245
  23905417.180   125623821.79308  23905413.600    97888678.53845
  20435829.220   107391024.11509  20435823.720    83681307.07549
  21930874.700   115247554.51409  21930868.860    89803279.95548
  20866287.600   109653109.74709  20866286.480    85443985.17349
  21061265.700   110677725.11709  21061263.360    86242388.25348
 15 02 26 03 45  0.0000000  0 10G01G03G04G11G14G16G19G22G27G32
  22687082.320   119221436.98408  22687082.520    92899820.38447
  24546062.680   128990430.86908  24546064.280   100512021.48945
  20761984.760   109104985.27209  20761982.180    85016869.30448
  21650500.680   113774159.71409  21650496.600    88655179.05247
  23391234.740   122921770.84308  23391232.060    95783186.67846
  23925959.120   125731770.05908  23925955.700    97972794.02845
  20435081.980   107387097.25609  20435076.440    83678247.18749
  21944015.040   115316607.29309  21944009.180    89857087.30748
  20874951.440   109698637.97909  20874950.260    85479461.71649
  21047063.840   110603094.12309  21047061.680    86184234.24648
 15 02 26 03 45 30.0000000  0 10G01G03G04G11G14G16G19G22G27G32
  22674747.700   119156617.51908  22674747.500    92849311.72647
  24525560.420   128882690.74007  24525561.760   100428068.19445
  20755381.500   109070285.18009  20755379.020    84989830.27148
  21637871.260   113707791.42209  21637867.000    88603463.49847
  23381615.300   122871220.43908  23381612.600    95743796.74846
  23946513.060   125839781.54808  23946509.860    98056958.79545
  20434410.860   107383570.37809  20434405.260    83675498.96649
  21957214.820   115385972.51109  21957208.960    89911138.11448
  20883692.840   109744573.98109  20883691.660    85515255.99349
  21032951.000   110528931.35009  21032949.040    86126445.07848
 15 02 26 03 46  0.0000000  0 10G01G03G04G11G14G16G19G22G27G32
  22662442.720   119091954.14508  22662442.360    92798924.69647
  24505080.280   128775066.74907  24505081.100   100344205.39345
  20748828.940   109035851.27309  20748826.460    84962998.66448
  21625279.420   113641620.58309  21625275.080    88551901.81347
  23372065.280   122821034.72108  23372062.420    95704691.01546
  23967079.100   125947857.10208  23967076.160    98141173.47945
  20433816.700   107380448.12009  20433811.040    83673066.03249
  21970474.340   115455651.69809  21970468.440    89965433.58048
  20892512.460   109790921.28609  20892511.320    85551370.76249
  21018928.400   110455242.50209  21018926.560    86069025.20948
 15 02 26 03 46 30.0000000  0 10G01G03G04G11G14G16G19G22G27G32
  22650166.120   119027440.56008  22650165.920    92748654.38647
  24484621.480   128667554.74508  24484621.960   100260429.90245
  20742325.900   109001677.33109  20742323.260    84936369.62948
  21612724.120   113575641.84709  21612719.740    88500489.82447
  23362583.900   122771210.00108  23362581.120    95665866.56646
  23987655.560   126055987.67008  23987652.660    98225431.03445
  20433298.540   107377725.22609  20433292.920    83670944.29849
  21983792.100   115525636.59009  21983786.120    90019967.25448
  20901409.080   109837673.50309  20901407.940    85587801.04649
  21004995.120   110382023.05509  21004993.420    86011971.11748
 15 02 26 03 47  0.0000000  0 10G01G03G04G11G14G16G19G22G27G32
  22637918.840   118963081.61508  22637919.080    92698504.57147
  24464185.260   128560161.27707  24464185.220   100176746.72545
  20735873.220   108967767.96109  20735870.460    84909946.74548
  21600206.340   113509860.62409  21600202.080    88449231.73047
  23353172.680   122721753.48808  23353169.820    95627329.04045
  24008242.900   126164175.37108  24008240.100    98309733.12445
  20432857.500   107375407.56909  20432851.980    83669138.32549
  21997168.500   115595929.92509  21997162.600    90074741.27548
  20910383.640   109884835.28109  20910382.460    85624550.47348
  20991152.460   110309279.73809  20991150.820    85955288.02748
 15 02 26 03 47 30.0000000  0 10G01G03G04G11G14G16G19G22G27G32
  22625700.940   118898877.03508  22625701.540    92648475.03247
  24443771.900   128452887.92908  24443771.240   100093157.15245
  20729470.800   108934122.99109  20729468.060    84883729.88348
  21587726.320   113444277.76609  21587722.280    88398128.20247
  23343831.980   122672667.63108  23343829.160    95589080.31645
  24028840.540   126272417.21308  24028837.880    98394077.36945
  20432493.660   107373495.71609  20432488.200    83667648.56449
  22010603.060   115666529.06209  22010597.220    90129753.57548
  20919436.060   109932406.14009  20919434.880    85661618.65949
  20977400.720   110237013.99809  20977399.020    85898977.06348
 15 02 26 03 48  0.0000000  0 10G01G03G04G11G14G16G19G22G27G32
  22613512.000   118834824.03308  22613512.520    92598563.60847
  24423381.140   128345733.93507  24423380.300   100009660.60845
  20723118.160   108900739.56609  20723115.540    84857716.82948
  21575283.740   113378891.23009  21575279.740    88347177.66747
  23334561.760   122623951.96008  23334558.920    95551120.05945
  24049447.420   126380707.66308  24049444.940    98478459.50145
  20432206.740   107371988.15709  20432201.340    83666473.83449
  22024094.820   115737428.96009  22024089.020    90185000.24748
  20928565.780   109980383.05309  20928564.600    85699003.25249
  20963739.760   110165224.76909  20963737.920    85843037.41448
 15 02 26 03 48 30.0000000  0 10G01G03G04G11G14G16G19G22G27G32
  22601352.520   118770924.81408  22601352.760    92548772.03447
  24403013.860   128238703.44007  24403013.220    99926260.28945
  20716815.740   108867619.98609  20716813.180    84831909.38048
  21562879.140   113313704.09409  21562874.960    88296382.51747
  23325362.740   122575611.10408  23325359.820    95513451.87245
  24070063.520   126489046.22508  24070061.180    98562879.14045
  20431997.420   107370888.13309  20431992.000    83665616.67349
  22037643.860   115808629.84509  22037638.040    90240481.45848
  20937773.180   110028768.06209  20937772.000    85736705.85649
  20950170.340   110093916.09009  20950168.240    85787472.22248
 15 02 26 03 49  0.0000000  0 10G01G03G04G11G14G16G19G22G27G32
  22589222.460   118707179.72808  22589222.360    92499100.55047
  24382670.320   128131798.51408  24382670.020    99842957.81545
  20710563.580   108834764.41409  20710560.960    84806307.63848
  21550512.720   113248717.92409  21550508.400    88245743.94247
  23316235.500   122527647.60708  23316232.780    95476077.73046
  24090688.420   126597430.51708  24090686.060    98647334.40245
  20431865.920   107370196.76509  20431860.400    83665077.93249
  22051249.840   115880129.87409  22051244.020    90296195.75448
  20947058.220   110077561.24809  20947057.060    85774726.50049
  20936692.800   110023090.02009  20936690.420    85732283.08348
 15 02 26 03 49 30.0000000  0 10G01G03G04G11G14G16G19G22G27G32
  22577121.980   118643590.40408  22577121.680    92449550.43847
  24362351.180   128025022.64707  24362351.220    99759755.92445
  20704361.880   108802174.48909  20704359.220    84780912.89748
  21538184.860   113183935.09009  21538180.600    88195263.80847
  23307180.900   122480065.81508  23307178.320    95439001.03245
  24111321.700   126705858.71508  24111319.200    98731823.86345
  20431812.600   107369916.50309  20431807.060    83664859.53849
  22064912.620   115951928.40109  22064906.780    90352142.65248
  20956421.200   110126763.88709  20956420.020    85813066.20749
  20923307.700   109952749.76709  20923305.060    85677472.50048
 15 02 26 03 50  0.0000000  0 10G01G03G04G11G14G16G19G22G27G32
  22565050.140   118580152.45408  22565049.820    92400118.27547
  24342056.120   127918373.44107  24342056.700    99676652.69746
  20698209.840   108769845.83909  20698207.260    84755721.74848
  21525894.940   113119351.86009  21525890.860    88144939.22347
  23298198.700   122432864.11908  23298196.080    95402220.50446
  24131962.120   126814324.91008  24131959.740    98816342.93745
  20431836.900   107370043.97709  20431831.320    83664958.87149
  22078630.980   116024018.95609  22078625.100    90408317.11348
  20965861.280   110176371.46709  20965860.020    85851721.45749
  20910014.520   109882892.84409  20910011.740    85623038.54248
 15 02 26 03 50 30.0000000  0 10G01G03G04G11G14G16G19G22G27G32
  22553007.380   118516868.18508  22553007.300    92350805.87247
  24321786.120   127811855.08307  24321787.260    99593651.44546
  20692107.980   108737780.71109  20692105.500    84730735.93648
  21513643.700   113054971.71109  21513639.860    88094772.86947
  23289289.560   122386046.62708  23289286.980    95365739.35246
  24152609.480   126922828.11008  24152607.140    98900890.83845
  20431939.400   107370582.32409  20431933.740    83665378.35649
  22092404.940   116096401.68609  22092399.000    90464719.23448
  20975378.760   110226385.90209  20975377.480    85890693.72849
  20896813.940   109813523.07009  20896811.160    85568984.17748
 15 02 26 03 51  0.0000000  0 10G01G03G04G11G14G16G19G22G27G32
  22540993.680   118453736.81408  22540993.840    92301612.60647
  24301541.520   127705468.59008  24301542.740    99510752.94846
  20686056.200   108705978.11209  20686053.620    84705954.69548
  21501431.160   112990794.65109  21501427.400    88044764.77547
  23280453.820   122339615.09908  23280451.420    95329558.93846
  24173263.260   127031364.72408  24173260.820    98985464.77945
  20432120.120   107371531.84409  20432114.440    83666118.23549
  22106233.880   116169073.53209  22106227.980    90521346.63248
  20984973.400   110276806.15909  20984972.140    85929982.23449
  20883706.160   109744641.45509  20883703.460    85515310.19648
 15 02 26 03 51 30.0000000  0 10G01G03G04G11G14G16G19G22G27G32
  22529009.000   118390757.72008  22529009.380    92252537.99447
  24281322.420   127599215.20508  24281323.260    99427958.14946
  20680054.260   108674437.50409  20680051.640    84681377.59748
  21489257.360   112926820.92409  21489253.560    87994915.14047
  23271692.000   122293571.25408  23271689.580    95293680.62546
  24193922.820   127139931.26908  24193920.220    99070062.05145
  20432379.040   107372892.58209  20432373.400    83667178.54749
  22120117.280   116242031.58309  22120111.420    90578197.04748
  20994644.900   110327631.23309  20994643.820    85969586.18049
  20870691.420   109676248.90009  20870688.740    85462017.30648
 15 02 26 03 52  0.0000000  0 10G01G03G04G11G14G16G19G22G27G32
  22517052.440   118327925.41608  22517052.900    92203577.75147
  24261127.940   127493091.35308  24261128.320    99345264.28446
  20674101.160   108643153.38209  20674098.500    84657000.35548
  21477121.340   112863045.61609  21477117.420    87945220.10347
  23263003.420   122247912.00308  23263000.880    95258102.00346
  24214586.560   127248519.62408  24214583.720    99154676.33845
  20432715.360   107374660.18209  20432709.800    83668555.89549
  22134053.760   116315268.39309  22134047.860    90635264.69148
  21004392.300   110378855.36109  21004391.500    86009501.07149
  20857768.960   109608341.63709  20857766.280    85409102.56648
 15 02 26 03 52 30.0000000  0 10G01G03G04G11G14G16G19G22G27G32
  22505126.020   118265250.53909  22505126.340    92154740.19347
  24240960.340   127387109.45608  24240960.480    99262681.03846
  20668198.920   108612136.43109  20668196.220    84632831.30448
  21465025.360   112799480.81709  21465021.320    87895689.09747
  23254390.500   122202650.19308  23254387.800    95222833.06646
  24235255.940   127357137.92808  24235253.000    99239313.94544
  20433131.260   107376846.13509  20433125.820    83670259.23149
  22148044.940   116388792.34809  22148039.000    90692556.07348
  21014217.660   110430488.87809  21014217.040    86049734.96348
  20844941.120   109540931.91309  20844938.580    85356575.51248
 15 02 26 03 53  0.0000000  0 10G01G03G04G11G14G16G19G22G27G32
  22493228.900   118202729.67209  22493228.920    92106022.66447
  24220819.340   127281267.97807  24220819.460    99180207.20746
  20662346.820   108581383.16209  20662344.040    84608867.72248
  21452969.000   112736124.04209  21452964.980    87846320.18747
  23245853.020   122157784.88108  23245850.300    95187873.09346
  24255929.720   127465779.46808  24255926.720    99323969.63845
  20433626.240   107379447.70109  20433620.940    83672286.42749
  22162089.720   116462597.65509  22162083.740    90750066.69347
  21024120.340   110482527.96009  21024119.800    86090284.87749
  20832207.560   109474017.79409  20832205.240    85304434.64848
 15 02 26 03 53 30.0000000  0 10G01G03G04G11G14G16G19G22G27G32
  22481360.800   118140361.94608  22481360.460    92057424.45547
  24200705.140   127175567.96407  24200705.280    99097843.61246
  20656544.720   108550892.59009  20656541.820    84585108.84348
  21440952.240   112672975.09809  21440948.180    87797113.22447
  23237391.280   122113317.67308  23237388.460    95153223.33446
  24276607.380   127574441.26808  24276604.420    99408641.13244
  20434200.340   107382465.00009  20434195.140    83674637.56749
  22176187.540   116536681.56609  22176181.480    90807794.41647
  21034100.080   110534971.38009  21034099.500    86131149.86749
  20819568.560   109407600.10709  20819566.480    85252680.61948
 15 02 26 03 54  0.0000000  0 10G01G03G04G11G14G16G19G22G27G32
  22469521.900   118078149.25508  22469521.580    92008947.04047
  24180618.280   127070012.99608  24180618.860    99015593.05246
  20650792.940   108520666.52509  20650789.900    84561556.07348
  21428975.580   112610036.77609  21428971.560    87748070.39047
  23229005.960   122069252.53708  23229002.960    95118886.86146
  24297288.720   127683121.89908  24297285.680    99493327.30144
  20434854.060   107385900.78209  20434848.960    83677314.79149
  22190338.280   116611043.59509  22190332.160    90865738.84448
  21044157.100   110587820.61509  21044156.420    86172331.07049
  20807024.820   109341682.08009  20807022.700    85201315.93148
 15 02 26 03 54 30.0000000  0 10G01G03G04G11G14G16G19G22G27G32
  22457711.980   118016089.53008  22457711.920    91960588.82547
  24160559.200   126964602.98308  24160560.080    98933455.42846
  20645091.040   108490703.01109  20645088.020    84538207.88948
  21417038.720   112547307.95109  21417034.740    87699190.79047
  23220697.180   122025589.72708  23220694.120    95084863.91746
  24317972.940   127791817.38608  24317969.760    99578025.04245
  20435587.220   107389753.72109  20435582.120    83680317.07849
  22204541.080   116685679.55809  22204535.060    90923896.73548
  21054290.880   110641073.28609  21054290.100    86213826.64249
  20794576.140   109276263.40509  20794573.780    85150340.35448
 15 02 26 03 55  0.0000000  0 10G01G03G04G11G14G16G19G22G27G32
  22445931.280   117954182.48508  22445931.480    91912349.57747
  24140528.240   126859339.42808  24140529.180    98851431.93246
  20639438.940   108461001.54309  20639436.100    84515063.88948
  21405141.740   112484789.49509  21405137.880    87650475.11347
  23212465.300   121982331.09508  23212462.360    95051155.90046
  24338659.420   127900524.56908  24338656.020    99662731.91145
  20436400.000   107394024.63309  20436394.820    83683645.05549
  22218795.460   116760586.95409  22218789.540    90982266.12448
  21064501.360   110694728.60909  21064500.380    86255635.97949
  20782222.740   109211345.20109  20782220.120    85099754.74048
 15 02 26 03 55 30.0000000  0 10G01G03G04G11G14G16G19G22G27G32
  22434179.760   117892427.81208  22434180.080    91864229.06347
  24120525.700   126754223.91008  24120526.500    98769523.76746
  20633836.720   108431561.94109  20633834.060    84492123.94048
  21393284.880   112422482.02909  21393281.120    87601923.83447
  23204310.780   121939478.94708  23204307.960    95017764.61646
  24359347.480   128009240.21408  24359343.960    99747445.35045
  20437292.360   107398713.63809  20437287.040    83687298.81549
  22233101.000   116835763.41309  22233095.200    91040845.17548
  21074788.340   110748785.92209  21074787.140    86297758.55049
  20769964.800   109146928.70509  20769961.980    85049560.07148
 15 02 26 03 56  0.0000000  0 10G01G03G04G11G14G16G19G22G27G32
  22422457.680   117830827.18308  22422458.000    91816228.58747
  24100552.180   126649259.76308  24100552.560    98687733.57445
  20628284.660   108402385.86009  20628282.100    84469389.33448
  21381468.600   112360387.88909  21381464.860    87553538.80247
  23196234.280   121897036.92708  23196231.440    94984692.92646
  24380036.920   128117963.10108  24380033.440    99832164.44445
  20438264.760   107403823.47409  20438259.360    83691280.50549
  22247457.580   116911208.14709  22247451.860    91099633.27747
  21085151.960   110803246.31409  21085150.600    86340195.21749
  20757802.860   109083016.87709  20757799.940    84999758.65248
 15 02 26 03 56 30.0000000  0 10G01G03G04G11G14G16G19G22G27G32
  22410764.560   117769378.90508  22410764.920    91768346.82247
  24080607.520   126544447.21608  24080607.520    98606061.47446
  20622782.360   108373471.43409  20622779.800    84446858.61148
  21369692.900   112298506.59109  21369689.160    87505319.61147
  23188236.000   121855005.75808  23188233.100    94951941.38046
  24400726.840   128226688.88908  24400723.500    99916885.79445
  20439317.060   107409353.19809  20439311.580    83695589.36949
  22261864.560   116986917.48509  22261858.860    91158627.55647
  21095591.780   110858107.77009  21095590.400    86382944.39349
  20745736.900   109019609.68009  20745734.060    84950350.45348
 15 02 26 03 57  0.0000000  0 10G01G03G04G11G14G16G19G22G27G32
  22399100.180   117708082.54008  22399100.640    91720583.43547
  24060691.680   126439787.60708  24060691.600    98524508.58546
  20617329.760   108344818.35309  20617327.200    84424531.53548
  21357957.740   112236838.37209  21357954.120    87457266.46147
  23180316.200   121813386.87808  23180313.180    94919511.10346
  24421416.760   128335414.50108  24421413.420   100001607.01345
  20440449.380   107415303.09909  20440443.780    83700225.65749
  22276321.400   117062888.81009  22276315.660    91217825.99447
  21106107.640   110913369.33409  21106106.280    86426005.34649
  20733767.120   108956707.96909  20733764.320    84901336.14148
