     2.11           OBSERVATION DATA    M                   RINEX VERSION / TYPE
SPIDER V4,0,0,3554                      2015 03 15 00:50    PGM / RUN BY / DATE 
CKHR                                                        MARKER NAME         
CKHR                                                        MARKER NUMBER       
                                                            OBSERVER / AGENCY   
496547              LEICA GRX1200+GNSS  8.10/4.007          REC # / TYPE / VERS 
10301042            LEIAR25         NONE                    ANT # / TYPE        
  5141838.0877   498328.5776  3730203.3049                  APPROX POSITION XYZ 
        0.0720        0.0000        0.0000                  ANTENNA: DELTA H/E/N
     1     1                                                WAVELENGTH FACT L1/2
     4    C1    L1    P2    L2                              # / TYPES OF OBSERV 
    30.000                                                  INTERVAL            
  2015    02    26    00    00    0.0000000     GPS         TIME OF FIRST OBS   
  2015    02    26    02    18    0.0000000     GPS         TIME OF LAST OBS    
    16                                                      LEAP SECONDS        
    20                                                      # OF SATELLITES     
   G 4    99    99    99    99                              PRN / # OF OBS      
   G11     6     6     6     6                              PRN / # OF OBS      
   G16   277   277   277   277                              PRN / # OF OBS      
   G18   277   277   277   277                              PRN / # OF OBS      
   G19   211   211   211   211                              PRN / # OF OBS      
   G21   277   277   277   277                              PRN / # OF OBS      
   G22   277   277   277   277                              PRN / # OF OBS      
   G25     6     6     6     6                              PRN / # OF OBS      
   G27   277   277   277   277                              PRN / # OF OBS      
   G29    65    65    65    65                              PRN / # OF OBS      
   G31   109   109   109   109                              PRN / # OF OBS      
   G32     1     1     1     1                              PRN / # OF OBS      
   R 3    30    30    30    30                              PRN / # OF OBS      
   R 4    30    30    30    30                              PRN / # OF OBS      
   R 9    30    30    30    30                              PRN / # OF OBS      
   R10    30    30    30    30                              PRN / # OF OBS      
   R16    30    30    30    30                              PRN / # OF OBS      
   R18    30    30    30    30                              PRN / # OF OBS      
   R19    30    30    30    30                              PRN / # OF OBS      
   R20    30    30    30    30                              PRN / # OF OBS      
BIT 2 OF LLI FLAGS DATA COLLECTED UNDER A/S CONDITION       COMMENT             
SNR is mapped to RINEX snr flag value [2-9]                 COMMENT             
Lx:     = 25dBHz -> 1; 26-27dBHz -> 2; 28-31dBHz -> 3       COMMENT             
       32-35dBHz -> 4; 36-38dBHz -> 5; 39-41dBHz -> 6       COMMENT             
       42-44dBHz -> 7; 45-48dBHz -> 8; >=49dBHz -> 9        COMMENT             
                                                            END OF HEADER       
 15 02 26 00 00  0.0000000  0 16G16G18G21G22G25G27G29G31R03R04R09R10
                                R16R18R19R20
  21912109.340   115148925.20209  21912105.560    89726421.89648
  22745232.940   119527039.78809  22745229.500    93137951.89846
  21159040.820   111191764.90408  21159036.260    86643015.51048
  24230821.420   127333842.56408  24230816.480    99221170.45945
  24711881.460   129862015.96808  24711881.680   101191234.91646
  23138407.340   121593173.55008  23138406.180    94747931.94847
  23649314.260   124278439.11608  23649311.780    96840529.24946
  22755708.060   119582097.89809  22755704.700    93180859.90348
  22596037.440   120958359.44407  22596037.880    94078735.06207
  23360718.880   125095588.57207  23360719.080    97296560.61506
  19813279.620   105801822.12508  19813279.920    82290315.21806
  22565748.020   120288139.58509  22565753.120    93557460.06706
  20845274.620   111351754.85209  20845276.580    86606944.30308
  21698237.880   115826993.31009  21698240.020    90087663.81608
  20053868.140   107274791.91909  20053867.160    83436004.16308
  22680739.740   121284119.47906  22680742.380    94332111.95907
 15 02 26 00 00 30.0000000  0 16G16G18G21G22G25G27G29G31R03R04R09R10
                                R16R18R19R20
  21897893.960   115074222.99209  21897890.240    89668212.39348
  22732700.580   119461181.78109  22732697.340    93086633.97346
  21165048.760   111223337.26208  21165044.280    86667617.35448
  24212822.560   127239259.48008  24212817.800    99147469.53245
  24731082.960   129962920.63108  24731083.360   101269861.83045
  23125541.560   121525563.89808  23125540.460    94695249.15947
  23663288.360   124351874.51308  23663285.800    96897751.61246
  22772458.240   119670120.45409  22772454.880    93249448.90447
  22588415.940   120917562.20507  22588416.580    94047003.91407
  23340674.740   124988253.79008  23340675.660    97213078.17606
  19812787.840   105799196.01708  19812788.180    82288272.67906
  22545536.860   120180402.03908  22545541.740    93473664.22505
  20865736.260   111461056.96608  20865738.240    86691957.04608
  21712549.040   115903387.31309  21712551.340    90147081.35208
  20053535.520   107273013.01709  20053534.560    83434620.58308
  22667466.900   121213143.57807  22667469.600    94276908.53107
 15 02 26 00 01  0.0000000  0 16G16G18G21G22G25G27G29G31R03R04R09R10
                                R16R18R19R20
  21883724.920   114999764.01009  21883721.180    89610192.41448
  22720217.740   119395583.74109  22720214.440    93035518.63746
  21171124.040   111255263.36608  21171119.640    86692494.84148
  24194817.820   127144644.62808  24194813.100    99073743.82445
  24750310.900   130063964.40808  24750310.920   101348597.25744
  23112694.540   121458052.77208  23112693.540    94642643.08647
  23677268.780   124425342.59708  23677265.740    96954999.47145
  22789250.000   119758361.95109  22789246.800    93318208.48748
  22580913.780   120877403.49507  22580914.480    94015769.34707
  23320651.540   124881031.07308  23320652.200    97129682.69607
  19812451.060   105797397.69208  19812451.480    82286873.98406
  22525408.400   120073105.43608  22525413.020    93390211.29706
  20886286.700   111570833.42408  20886288.660    86777338.72508
  21726867.240   115979818.64509  21726869.620    90206527.93108
  20053257.240   107271524.98409  20053256.400    83433463.22808
  22654235.780   121142390.55807  22654238.280    94221878.43207
 15 02 26 00 01 30.0000000  0 16G16G18G21G22G25G27G29G31R03R04R09R10
                                R16R18R19R20
  21869601.740   114925546.03309  21869597.960    89552360.23248
  22707784.020   119330243.86209  22707780.520    92984604.47746
  21177265.460   111287537.16908  21177261.200    86717643.25148
  24176806.700   127049995.78508  24176802.100    98999991.59745
  24769564.140   130165141.45607  24769564.140   101427436.48344
  23099865.460   121390635.72508  23099864.500    94590110.32247
  23691254.780   124498839.11608  23691251.240    97012269.55446
  22806082.060   119846815.13409  22806078.900    93387133.02247
  22573530.840   120837881.86807  22573531.340    93985030.34707
  23300649.360   124773920.25707  23300650.220    97046374.32705
  19812268.460   105796422.78708  19812268.920    82286115.71406
  22505362.580   119966249.77308  22505367.160    93307101.36406
  20906924.260   111681075.61608  20906926.220    86863082.63808
  21741191.420   116056281.59709  21741193.680    90265999.11008
  20053032.320   107270321.80109  20053031.500    83432527.41708
  22641045.260   121071855.32807  22641047.940    94167017.71007
 15 02 26 00 02  0.0000000  0 16G16G18G21G22G25G27G29G31R03R04R09R10
                                R16R18R19R20
  21855526.180   114851578.22709  21855522.280    89494722.98548
  22695401.260   119265172.02709  22695397.560    92933899.14946
  21183474.140   111320164.27808  21183470.040    86743066.97348
  24158790.980   126955322.58008  24158786.240    98926220.38945
  24788843.940   130266457.33108  24788844.120   101506383.85845
  23087055.520   121323319.71408  23087054.700    94537656.32447
  23705247.400   124572370.84308  23705244.060    97069566.97346
  22822955.260   119935483.87309  22822952.000    93456225.53447
  22566268.740   120799006.95107  22566268.920    93954794.36107
  23280670.000   124666932.79408  23280670.700    96963161.84807
  19812241.480   105796278.66708  19812241.920    82286003.62306
  22485401.560   119859846.38908  22485406.200    93224343.19706
  20927649.640   111791786.72908  20927651.660    86949191.26208
  21755522.620   116132782.14209  21755524.760    90325499.51708
  20052861.800   107269409.34209  20052860.900    83431817.73108
  22627896.740   121001544.93007  22627899.660    94112331.88007
 15 02 26 00 02 30.0000000  0 16G16G18G21G22G25G27G29G31R03R04R09R10
                                R16R18R19R20
  21841497.660   114777857.56809  21841493.600    89437278.31948
  22683068.860   119200364.99909  22683064.940    92883400.19246
  21189748.780   111353138.05208  21189744.800    86768760.82248
  24140770.100   126860622.41308  24140765.000    98852428.16445
  24808148.960   130367905.36007  24808148.820   101585434.26645
  23074263.860   121256099.65208  23074263.120    94485277.07147
  23719245.420   124645932.17308  23719242.800    97126887.43246
  22839868.060   120024360.23009  22839864.640    93525479.82647
  22559126.740   120760776.51307  22559126.800    93925059.62007
  23260713.720   124560068.11508  23260714.560    96880045.02406
  19812369.160   105796960.22608  19812369.520    82286533.72406
  22465525.100   119753894.14408  22465529.900    93141935.92906
  20948461.020   111902956.95508  20948463.100    87035656.98608
  21769859.660   116209314.02909  21769861.760    90385024.30608
  20052744.360   107268780.87709  20052743.460    83431328.92908
  22614789.160   120931453.67307  22614792.140    94057816.51607
 15 02 26 00 03  0.0000000  0 15G16G18G21G22G27G29G31R03R04R09R10R16
                                R18R19R20
  21827517.960   114704393.85409  21827513.880    89380033.87348
  22670788.800   119135833.02109  22670784.860    92833115.54246
  21196090.500   111386463.90008  21196086.500    86794729.01348
  24122745.980   126765905.32008  24122740.640    98778622.73345
  23061491.940   121188982.95409  23061491.160    94432978.36247
  23733250.700   124719530.80508  23733248.600    97184236.95847
  22856821.240   120113448.58109  22856817.600    93594899.31047
  22552107.160   120723200.40407  22552107.220    93895833.76907
  23240782.720   124453338.06607  23240783.040    96797032.71907
  19812652.900   105798475.20508  19812653.220    82287712.04306
  22445735.460   119648404.63208  22445740.420    93059888.53706
  20969358.980   112014589.79908  20969361.020    87122482.52708
  21784203.600   116285883.61709  21784205.700    90444578.39908
  20052681.020   107268442.24309  20052680.200    83431065.54908
  22601723.960   120861588.83706  22601726.920    94003477.22907
 15 02 26 00 03 30.0000000  0 15G16G18G21G22G27G29G31R03R04R09R10R16
                                R18R19R20
  21813584.840   114631175.11309  21813580.780    89322980.31548
  22658558.920   119071564.72009  22658555.020    92783036.34747
  21202496.300   111420126.22008  21202492.200    86820959.39748
  24104716.460   126671159.91308  24104711.040    98704795.20545
  23048737.080   121121955.60708  23048736.280    94380749.28148
  23747260.600   124793152.58009  23747258.700    97241604.54847
  22873811.540   120202732.07509  22873807.780    93664470.84647
  22545207.820   120686267.50408  22545207.780    93867108.19307
  23220875.000   124346732.94207  23220874.980    96714117.63505
  19813090.060   105800809.41808  19813090.300    82289527.52706
  22426030.820   119543368.10908  22426035.780    92978193.48206
  20990340.020   112126666.71408  20990342.020    87209653.44408
  21798551.800   116362475.63509  21798553.600    90504149.99607
  20052669.040   107268378.04309  20052668.260    83431015.61608
  22588698.560   120791936.02807  22588701.480    93949302.82807
 15 02 26 00 04  0.0000000  0 15G16G18G21G22G27G29G31R03R04R09R10R16
                                R18R19R20
  21799700.800   114558214.10409  21799696.740    89266127.58748
  22646381.640   119007572.71109  22646377.840    92733172.46046
  21208967.840   111454133.89309  21208963.620    86847458.88248
  24086683.760   126576399.08508  24086678.700    98630955.75846
  23036001.300   121055028.25308  23036000.500    94328598.14747
  23761276.900   124866807.68208  23761274.880    97298998.10246
  22890840.400   120292218.20309  22890836.560    93734200.27847
  22538431.240   120649990.60008  22538430.980    93838892.82706
  23200993.300   124240267.80407  23200993.700    96631311.50206
  19813682.620   105803973.69008  19813682.940    82291988.61806
  22406413.880   119438799.11308  22406418.840    92896862.05706
  21011405.440   112239194.23308  21011407.360    87297174.83108
  21812906.020   116439099.65009  21812907.820    90563746.43108
  20052710.160   107268597.85209  20052709.380    83431186.57408
  22575714.900   120722505.50407  22575717.580    93895301.33707
 15 02 26 00 04 30.0000000  0 15G16G18G21G22G27G29G31R03R04R09R10R16
                                R18R19R20
  21785866.300   114485513.37109  21785862.300    89209477.67348
  22634257.440   118943859.84909  22634253.720    92683526.08647
  21215504.980   111488486.20409  21215500.660    86874226.92148
  24068648.800   126481626.10208  24068644.080    98557106.77146
  23023284.620   120988201.22808  23023283.780    94276525.13947
  23775299.380   124940496.47208  23775297.140    97356417.91846
  22907907.200   120381904.34109  22907903.380    93804085.56147
  22531777.980   120614372.79008  22531777.480    93811190.10807
  23181138.900   124133947.48607  23181139.380    96548617.94906
  19814430.600   105807968.24608  19814431.020    82295095.49206
  22386885.520   119334702.22908  22386890.540    92815897.83306
  21032554.460   112352168.35808  21032556.440    87385043.58208
  21827266.060   116515754.96709  21827268.120    90623367.20208
  20052804.060   107269100.28209  20052803.300    83431577.36308
  22562772.820   120653297.25807  22562775.340    93841472.75507
 15 02 26 00 05  0.0000000  0 15G16G18G21G22G27G29G31R03R04R09R10R16
                                R18R19R20
  21772081.140   114413072.20509  21772077.300    89153030.02448
  22622186.260   118880425.76709  22622182.700    92634096.94447
  21222106.820   111523178.62409  21222102.400    86901259.97648
  24050611.500   126386840.20008  24050606.920    98483247.72046
  23010586.360   120921471.36609  23010585.480    94224527.89347
  23789327.660   125014216.14608  23789325.240    97413861.83246
  22925010.760   120471784.27909  22925006.960    93874121.85647
  22525247.740   120579413.56208  22525246.920    93783999.60107
  23161311.900   124027773.51107  23161312.360    96466038.18807
  19815333.480   105812790.03108  19815334.040    82298845.77006
  22367446.060   119231078.91009  22367451.100    92735301.93606
  21053785.680   112465581.56908  21053787.720    87473253.85408
  21841631.260   116592437.39409  21841633.240    90683009.07107
  20052950.040   107269881.19809  20052949.260    83432184.73008
  22549871.480   120584307.78107  22549873.800    93787814.27507
 15 02 26 00 05 30.0000000  0 15G16G18G21G22G27G29G31R03R04R09R10R16
                                R18R19R20
  21758344.820   114340887.57909  21758341.080    89096782.26548
  22610167.500   118817267.51609  22610164.060    92584882.72647
  21228771.920   111558203.76608  21228767.460    86928552.28648
  24032571.300   126292038.57408  24032566.680    98409376.39946
  22997905.580   120854833.45208  22997904.700    94172602.25347
  23803360.880   125087961.00808  23803358.440    97471325.34446
  22942149.640   120561850.14809  22942145.900    93944303.03247
  22518839.720   120545110.06808  22518838.800    93757319.11407
  23141511.920   123921744.97608  23141512.100    96383571.58506
  19816390.300   105818433.57008  19816390.940    82303235.17806
  22348095.060   119127927.38808  22348100.140    92655072.99106
  21075097.320   112579424.53308  21075099.420    87561798.35608
  21856000.480   116669140.31309  21856002.280    90742666.88807
  20053146.760   107270933.38109  20053145.880    83433003.09008
  22537009.860   120515531.27807  22537012.200    93734321.43007
 15 02 26 00 06  0.0000000  0 15G16G18G21G22G27G29G31R03R04R09R10R16
                                R18R19R20
  21744659.340   114268969.85209  21744655.600    89040742.48048
  22598203.340   118754395.61009  22598199.940    92535891.62846
  21235501.620   111593568.47408  21235497.100    86956109.19948
  24014530.240   126197232.11908  24014525.720    98335501.33646
  22985243.880   120788295.87709  22985242.920    94120754.81147
  23817400.520   125161739.37808  23817398.100    97528814.96647
  22959324.860   120652106.71409  22959321.160    94014632.82247
  22512556.180   120511473.42508  22512555.120    93731157.30307
  23121741.360   123815874.73108  23121741.400    96301228.10306
  19817602.680   105824907.04008  19817603.260    82308270.08706
  22328834.980   119025260.53108  22328840.000    92575220.99606
  21096490.080   112693701.27308  21096492.280    87650680.25708
  21870374.780   116745871.44708  21870376.620    90802346.65708
  20053395.440   107272263.88409  20053394.500    83434037.93008
  22524189.620   120446975.93107  22524191.900    93681000.63407
 15 02 26 00 06 30.0000000  0 15G16G18G21G22G27G29G31R03R04R09R10R16
                                R18R19R20
  21731025.360   114197322.47209  21731021.500    88984913.35548
  22586294.460   118691814.05209  22586291.020    92487126.79246
  21242295.820   111629272.25409  21242291.280    86983930.32648
  23996488.940   126102424.69008  23996484.740    98261625.51946
  22972601.440   120721859.82908  22972600.560    94068986.48947
  23831446.760   125235552.52808  23831444.460    97586331.65847
  22976536.120   120742552.71409  22976532.480    94085110.20847
  22506397.780   120478507.13208  22506396.740    93705516.86507
  23102001.280   123710168.80308  23102001.300    96219012.44606
  19818970.660   105832211.74708  19818971.160    82313951.52806
  22309666.820   118923083.83909  22309671.700    92495750.24906
  21117963.560   112808408.77308  21117965.760    87739897.17708
  21884754.200   116822631.00609  21884756.580    90862048.49008
  20053696.220   107273872.83809  20053695.260    83435289.34908
  22511410.860   120378642.73607  22511413.380    93627852.64807
 15 02 26 00 07  0.0000000  0 15G16G18G21G22G27G29G31R03R04R09R10R16
                                R18R19R20
  21717442.200   114125942.49009  21717438.220    88929292.59648
  22574440.460   118629520.41209  22574436.900    92438586.32547
  21249153.300   111665308.37809  21249148.720    87012010.43048
  23978447.060   126007613.88108  23978442.860    98187747.02846
  22959977.380   120655520.33009  22959976.520    94017293.39747
  23845498.400   125309394.52908  23845496.200    97643870.86746
  22993781.860   120833180.09109  22993778.320    94155728.91947
  22500363.880   120446208.37307  22500363.220    93680395.62707
  23082291.840   123604626.09908  23082291.940    96136923.69707
  19820493.300   105840342.11908  19820493.680    82320275.15306
  22290590.400   118821396.07309  22290595.240    92416659.77406
  21139515.960   112923537.52408  21139518.180    87829441.75008
  21899137.960   116899412.68609  21899140.440    90921767.57708
  20054047.820   107275753.43609  20054046.840    83436752.03508
  22498672.680   120310526.05107  22498675.320    93574873.04107
 15 02 26 00 07 30.0000000  0 15G16G18G21G22G27G29G31R03R04R09R10R16
                                R18R19R20
  21703910.100   114054831.27109  21703906.120    88873881.25848
  22562641.500   118567515.84609  22562637.920    92390271.09346
  21256073.460   111701674.22509  21256068.900    87040347.45348
  23960404.740   125912801.19108  23960400.240    98113867.11145
  22947371.580   120589276.34908  22947370.660    93965674.67547
  23859555.480   125383264.78008  23859553.100    97701432.11446
  23011061.280   120923984.79209  23011057.820    94226485.80047
  22494454.760   120414578.69007  22494454.520    93655794.76907
  23062613.540   123499250.31208  23062613.780    96054964.76406
  19822170.340   105849296.70609  19822170.560    82327239.80906
  22271606.300   118720200.42009  22271611.240    92337952.04506
  21161146.220   113039082.14008  21161148.360    87919309.77308
  21913525.600   116976214.41809  21913527.840    90981502.25607
  20054449.720   107277903.30909  20054448.800    83438424.17008
  22485974.680   120242624.54207  22485977.440    93522060.77707
 15 02 26 00 08  0.0000000  0 15G16G18G21G22G27G29G31R03R04R09R10R16
                                R18R19R20
  21690430.220   113983994.58609  21690426.240    88818683.84148
  22550898.540   118505806.13309  22550894.940    92342185.60646
  21263056.680   111738371.83208  21263052.180    87068942.98748
  23942363.440   125817992.93407  23942358.420    98039990.47946
  22934784.640   120523131.55609  22934783.740    93914133.33047
  23873618.580   125457167.22208  23873616.240    97759018.38946
  23028374.600   121014967.54909  23028371.240    94297381.43247
  22488671.920   120383624.10508  22488671.940    93631719.03107
  23042967.960   123394049.53008  23042968.280    95973141.97307
  19824002.400   105859079.28708  19824002.540    82334848.46206
  22252716.040   118619504.84308  22252721.000    92259633.26906
  21182854.120   113155041.91808  21182856.160    88009500.68208
  21927917.460   117053039.23709  21927919.600    91041254.87008
  20054902.400   107280324.86609  20054901.540    83440307.60808
  22473317.380   120174941.27907  22473320.180    93469418.26007
 15 02 26 00 08 30.0000000  0 15G16G18G21G22G27G29G31R03R04R09R10R16
                                R18R19R20
  21677003.240   113913435.20109  21676999.220    88763702.50748
  22539212.220   118444394.51409  22539208.600    92294332.39347
  21270102.700   111775399.85808  21270098.380    87097795.99248
  23924323.280   125723192.16209  23924318.520    97966119.94046
  22922216.640   120457086.49108  22922215.860    93862669.65348
  23887687.880   125531102.13108  23887685.700    97816629.95646
  23045721.300   121106125.75609  23045718.100    94368413.78947
  22483015.880   120353347.45307  22483016.000    93608170.56307
  23023356.240   123289028.93408  23023356.360    95891459.32506
  19825989.280   105869689.65408  19825989.540    82343100.97006
  22233920.480   118519313.67808  22233925.480    92181706.81806
  21204639.040   113271413.13008  21204640.980    88100011.60808
  21942313.620   117129886.26309  21942315.680    91101024.75207
  20055405.760   107283017.32109  20055404.880    83442401.73508
  22460701.060   120107476.47007  22460703.860    93416945.66407
 15 02 26 00 09  0.0000000  0 15G16G18G21G22G27G29G31R03R04R09R10R16
                                R18R19R20
  21663628.560   113843150.15809  21663624.400    88708934.93948
  22527582.040   118383278.12109  22527578.480    92246709.26647
  21277210.280   111812751.49708  21277206.160    87126901.15348
  23906284.220   125628396.28608  23906279.880    97892253.10146
  22909666.640   120391135.93308  22909665.900    93811279.61947
  23901762.520   125605063.87808  23901760.020    97874262.47046
  23063099.820   121197451.35209  23063096.800    94439576.56247
  22477485.920   120323745.79508  22477486.220    93585147.09107
  23003777.880   123184187.62808  23003778.000    95809916.14106
  19828130.100   105881122.01008  19828130.460    82351992.80006
  22215219.240   118419625.35908  22215224.180    92104171.46306
  21226499.220   113388186.09908  21226501.180    88190835.01108
  21956712.860   117206749.29809  21956714.800    91160807.12508
  20055958.460   107285973.70809  20055957.460    83444701.14608
  22448124.660   120040224.60607  22448127.660    93364638.70907
 15 02 26 00 09 30.0000000  0 15G16G18G21G22G27G29G31R03R04R09R10R16
                                R18R19R20
  21650307.080   113773144.68809  21650302.820    88654385.22048
  22516009.100   118322462.22109  22516005.520    92199320.24047
  21284379.900   111850428.58208  21284375.880    87156259.92748
  23888247.320   125533610.82008  23888242.600    97818394.29046
  22897135.240   120325283.01008  22897134.500    93759965.68948
  23915842.960   125679055.62408  23915840.140    97931918.37346
  23080510.260   121288944.28309  23080507.280    94510869.74347
  22472082.940   120294824.17508  22472083.500    93562652.49807
  22984234.460   123079533.34908  22984234.220    95728518.40106
  19830425.480   105893379.14708  19830425.880    82361526.12906
  22196613.780   118320447.94708  22196618.800    92027033.50506
  21248434.320   113505359.59408  21248436.440    88281969.93508
  21971115.360   117283630.87709  21971117.340    91220603.87108
  20056560.800   107289195.91509  20056559.800    83447207.32708
  22435588.580   119973188.17607  22435591.440    93312499.28807
 15 02 26 00 10  0.0000000  0 15G16G18G21G22G27G29G31R03R04R09R10R16
                                R18R19R20
  21637039.900   113703425.01309  21637035.680    88600058.20648
  22504494.580   118261953.13609  22504491.040    92152170.33747
  21291611.940   111888432.88809  21291607.880    87185873.66648
  23870213.480   125438842.12008  23870208.620    97744548.64446
  22884623.160   120259531.60709  22884622.400    93708730.82947
  23929929.700   125753081.17808  23929926.820    97989600.59846
  23097952.860   121380605.43609  23097949.740    94582293.99847
  22466808.380   120266589.02708  22466808.880    93540691.83507
  22964727.440   122975074.36208  22964727.440    95647272.56207
  19832876.000   105906464.39008  19832876.420    82371703.53206
  22178105.620   118221788.77609  22178110.720    91950298.60706
  21270444.360   113622933.17308  21270446.600    88373416.05208
  21985521.820   117360533.50909  21985523.980    91280417.01108
  20057213.280   107292686.45709  20057212.300    83449922.19708
  22423093.320   119906370.71807  22423096.360    93260530.20007
 15 02 26 00 10 30.0000000  0 15G16G18G21G22G27G29G31R03R04R09R10R16
                                R18R19R20
  21623826.560   113633988.77909  21623822.500    88545952.06448
  22493038.160   118201748.80109  22493034.680    92105257.87646
  21298905.260   111926758.55109  21298901.020    87215737.83248
  23852182.500   125344088.71208  23852177.560    97670714.89646
  22872129.640   120193877.42708  22872128.800    93657571.75548
  23944021.940   125827136.12308  23944019.280    98047305.75946
  23115426.200   121472427.50909  23115422.840    94653843.65147
  22461661.760   120239037.94807  22461661.820    93519263.22207
  22945256.880   122870811.02407  22945256.920    95566178.82107
  19835480.560   105920372.85908  19835481.000    82382521.22806
  22159694.740   118123648.04109  22159699.800    91873966.93706
  21292527.640   113740898.21108  21292530.040    88465166.62308
  21999931.300   117437452.11909  21999933.560    91340242.59407
  20057914.840   107296439.35609  20057913.820    83452841.13208
  22410638.180   119839767.61007  22410641.140    93208727.78107
 15 02 26 00 11  0.0000000  0 15G16G18G21G22G27G29G31R03R04R09R10R16
                                R18R19R20
  21610667.820   113564839.48609  21610663.860    88492069.50048
  22481640.340   118141852.62409  22481636.980    92058585.55347
  21306259.480   111965404.59609  21306255.200    87245851.63248
  23834155.060   125249354.15109  23834150.060    97596895.83746
  22859654.760   120128321.57209  22859653.780    93606489.27647
  23958119.860   125901221.40308  23958117.240    98105034.54646
  23132929.700   121564408.48409  23132926.240    94725517.10947
  22456643.420   120212174.07008  22456643.200    93498369.13507
  22925823.740   122766748.71008  22925823.720    95485241.50806
  19838239.300   105935104.88908  19838239.760    82393979.46106
  22141381.980   118026030.22709  22141386.840    91798041.98106
  21314683.580   113859251.22308  21314685.920    88557218.94308
  22014343.580   117514386.89409  22014346.080    91400080.71308
  20058665.400   107300454.59509  20058664.320    83455964.09308
  22398223.060   119773379.03407  22398225.900    93157092.26307
 15 02 26 00 11 30.0000000  0 15G16G18G21G22G27G29G31R03R04R09R10R16
                                R18R19R20
  21597564.960   113495983.38709  21597560.940    88438415.40948
  22470302.420   118082271.52009  22470299.200    92012158.72847
  21313675.160   112004373.71109  21313670.780    87276217.18248
  23816132.500   125154645.54008  23816127.760    97523096.96446
  22847199.380   120062868.31608  22847198.380    93555486.73348
  23972224.080   125975341.36308  23972221.740    98162790.34346
  23150463.700   121656549.76109  23150460.120    94797315.48647
  22451754.760   120186004.16108  22451754.220    93478014.79007
  22906430.020   122662896.18008  22906429.740    95404467.36806
  19841153.000   105950664.21608  19841153.480    82406081.16206
  22123168.900   117928944.10709  22123173.680    91722530.57906
  21336912.260   113977992.09408  21336914.260    88649572.94708
  22028759.700   117591341.17808  22028762.140    91459934.08907
  20059465.520   107304734.82109  20059464.440    83459293.16808
  22385848.960   119707209.42807  22385851.560    93105627.04107
 15 02 26 00 12  0.0000000  0 15G16G18G21G22G27G29G31R03R04R09R10R16
                                R18R19R20
  21584516.980   113427415.81809  21584512.920    88384986.14148
  22459023.480   118023000.32509  22459020.200    91965973.38847
  21321150.740   112043657.78109  21321146.320    87306828.14848
  23798114.000   125059958.28708  23798109.160    97449314.72546
  22834762.320   119997510.86909  22834761.180    93504558.89348
  23986333.660   126049489.03908  23986331.560    98220567.73646
  23168026.340   121748841.56109  23168022.640    94869231.16047
  22446994.740   120160522.94308  22446994.120    93458196.09607
  22887075.140   122559251.34508  22887074.780    95323854.78707
  19844220.220   105967043.26908  19844220.740    82418820.41906
  22105054.960   117832386.95009  22105059.820    91647430.59006
  21359211.380   114097109.63708  21359213.160    88742219.90308
  22043177.960   117668307.20509  22043180.540    91519796.53408
  20060313.680   107309271.97209  20060312.620    83462822.07108
  22373514.440   119641251.26507  22373517.080    93054326.26207
 15 02 26 00 12 30.0000000  0 15G16G18G21G22G27G29G31R03R04R09R10R16
                                R18R19R20
  21571524.240   113359138.65809  21571520.180    88331783.15748
  22447803.880   117964040.90509  22447800.280    91920030.98247
  21328685.500   112083252.89509  21328681.060    87337681.48348
  23780099.920   124965294.31508  23780095.040    97375550.63746
  22822343.320   119932248.35309  22822342.120    93453705.01947
  24000448.560   126123663.40708  24000446.600    98278365.94946
  23185616.880   121841279.93109  23185613.120    94941261.04347
  22442363.460   120135731.55608  22442362.900    93438913.91607
  22867759.820   122455817.78608  22867759.360    95243406.52206
  19847440.640   105984240.09508  19847441.180    82432195.72006
  22087040.760   117736361.15409  22087045.600    91572743.86006
  21381579.960   114216598.53108  21381581.600    88835155.69007
  22057598.020   117745283.01708  22057600.720    91579666.58907
  20061209.440   107314063.48809  20061208.420    83466548.81108
  22361219.060   119575502.78607  22361221.920    93003188.58807
 15 02 26 00 13  0.0000000  0 15G16G18G21G22G27G29G31R03R04R09R10R16
                                R18R19R20
  21558588.160   113291159.39009  21558584.100    88278812.30148
  22436645.200   117905401.59909  22436641.420    91874338.05247
  21336280.540   112123164.89409  21336276.100    87368781.74148
  23762091.920   124870662.12008  23762087.140    97301811.31246
  22809943.480   119867086.96909  22809942.280    93402929.89247
  24014569.840   126197870.57208  24014567.740    98336189.71246
  23203235.820   121933867.96209  23203232.060    95013407.53447
  22437862.660   120111638.24208  22437861.940    93420174.69106
  22848485.760   122352605.99808  22848485.620    95163130.68707
  19850815.340   106002260.26808  19850815.760    82446211.39106
  22069128.220   117640877.46209  22069133.100    91498478.78306
  21404018.300   114336460.48708  21404019.960    88928381.63707
  22072021.020   117822274.09609  22072023.580    91639548.56407
  20062153.680   107319114.35109  20062152.700    83470477.25108
  22348964.000   119509969.84507  22348966.860    92952218.55507
 15 02 26 00 13 30.0000000  0 15G16G18G21G22G27G29G31R03R04R09R10R16
                                R18R19R20
  21545709.080   113223479.47609  21545705.100    88226074.70848
  22425547.740   117847084.00609  22425543.840    91828895.77647
  21343935.260   112163391.07709  21343930.880    87400126.81848
  23744090.240   124776063.52008  23744085.580    97228098.16846
  22797562.720   119802025.58608  22797561.500    93352232.71748
  24028697.040   126272109.39408  24028694.960    98394038.10046
  23220882.460   122026601.63608  23220878.720    95085667.51547
  22433492.400   120088244.14408  22433491.740    93401979.31507
  22829253.580   122249619.69308  22829253.460    95083030.18806
  19854343.740   106021101.77308  19854344.220    82460865.88206
  22051317.880   117545938.63209  22051322.820    91424637.47106
  21426525.460   114456689.94208  21426527.220    89021893.41707
  22086446.480   117899278.49609  22086449.100    91699440.80908
  20063145.880   107324422.22509  20063144.920    83474605.60108
  22336749.060   119444651.10307  22336752.080    92901415.10007
 15 02 26 00 14  0.0000000  0 15G16G18G21G22G27G29G31R03R04R09R10R16
                                R18R19R20
  21532886.500   113156096.34009  21532882.520    88173568.37048
  22414510.780   117789084.70709  22414507.020    91783701.53647
  21351648.300   112203923.91409  21351644.000    87431710.84548
  23726094.440   124681495.85608  23726089.840    97154409.14546
  22785200.100   119737059.13609  22785198.880    93301609.54448
  24042829.240   126346374.62208  24042827.280    98451907.10046
  23238555.280   122119472.75609  23238551.500    95158034.59347
  22429252.120   120065545.56908  22429251.640    93384324.87607
  22810063.440   122146857.78308  22810064.100    95003104.37406
  19858024.700   106040758.40408  19858025.340    82476154.36506
  22033609.500   117451543.19409  22033614.520    91351218.79806
  21449099.640   114577277.33108  21449101.620    89115683.60008
  22100873.520   117976289.85209  22100875.980    91759338.56708
  20064184.900   107329980.29209  20064183.860    83478928.53608
  22324573.200   119379540.42807  22324575.840    92850773.49507
 15 02 26 00 14 30.0000000  0 15G16G18G21G22G27G29G31R03R04R09R10R16
                                R18R19R20
  21520121.860   113089017.76909  21520117.880    88121299.36848
  22403535.880   117731411.94109  22403532.380    91738761.72447
  21359420.460   112244767.62608  21359416.340    87463537.11648
  23708106.240   124586967.52208  23708101.420    97080750.75246
  22772856.520   119672193.46308  22772855.360    93251064.85248
  24056967.660   126420672.02908  24056965.480    98509801.19246
  23256254.860   122212483.93309  23256250.900    95230510.81847
  22425143.140   120043550.17208  22425142.920    93367217.37007
  22790917.340   122044331.22208  22790918.420    94923361.56007
  19861859.280   106061235.25808  19861859.980    82492080.80506
  22016004.980   117357701.35009  22016010.040    91278230.72306
  21471741.060   114698224.09308  21471743.300    89209753.28507
  22115302.720   118053313.56309  22115305.200    91819245.87707
  20065271.560   107335792.93109  20065270.440    83483449.49208
  22312437.260   119314643.74507  22312439.800    92800298.33407
 15 02 26 00 15  0.0000000  0  7G16G18G21G22G27G29G31
  21507414.680   113022241.36909  21507410.740    88069265.81648
  22392622.760   117674063.47609  22392619.500    91694074.64247
  21367250.560   112285915.64209  21367246.520    87495600.50148
  23690125.220   124492476.59208  23690120.360    97007121.48146
  22760531.280   119607424.36308  22760530.200    93200595.45148
  24071111.340   126494996.76708  24071108.940    98567716.59746
  23273979.720   122305628.05509  23273975.560    95303090.64347
 15 02 26 00 15 30.0000000  0  7G16G18G21G22G27G29G31
  21494766.880   112955776.96509  21494763.020    88017475.37548
  22381773.260   117617049.01409  22381770.100    91649647.77547
  21375139.820   112327374.06209  21375135.720    87527905.76548
  23672153.240   124398033.36308  23672148.700    96933529.43646
  22748225.840   119542759.14708  22748224.840    93150206.99648
  24085261.660   126569356.71508  24085259.280    98625659.42846
  23291730.560   122398909.36708  23291726.420    95375777.36847
 15 02 26 00 16  0.0000000  0  7G16G18G21G22G27G29G31
  21482177.820   112889621.25309  21482174.060    87965925.47448
  22370986.760   117560365.49709  22370983.420    91605478.80247
  21383086.920   112369135.74709  21383082.720    87560447.33248
  23654189.940   124303634.93008  23654185.340    96859972.25046
  22735939.160   119478192.26809  22735938.160    93099895.14647
  24099417.500   126643746.35108  24099415.360    98683625.35746
  23309505.780   122492319.69308  23309501.940    95448564.59847
 15 02 26 00 16 30.0000000  0  7G16G18G21G22G27G29G31
  21469649.140   112823782.15409  21469645.340    87914622.28448
  22360264.780   117504020.69409  22360261.120    91561573.79747
  21391092.580   112411204.91309  21391088.220    87593228.49848
  23636236.780   124209289.44908  23636231.800    96786456.31446
  22723672.340   119413729.70409  22723671.280    93049664.59248
  24113579.620   126718170.99007  24113578.000    98741618.51546
  23327305.980   122585861.52108  23327302.500    95521454.30747
 15 02 26 00 17  0.0000000  0  7G16G18G21G22G27G29G31
  21457179.640   112758253.96609  21457175.700    87863561.36048
  22349606.200   117448009.25009  22349602.380    91517928.49347
  21399154.840   112453571.67109  21399150.340    87626241.55448
  23618292.680   124114991.93408  23618287.560    96712977.78246
  22711423.900   119349363.68908  22711422.880    92999509.26948
  24127747.040   126792623.17908  24127745.940    98799633.12847
  23345129.280   122679523.99209  23345126.100    95594438.02247
 15 02 26 00 17 30.0000000  0  7G16G18G21G22G27G29G31
  21444769.660   112693038.92109  21444765.620    87812744.45048
  22339011.400   117392332.88709  22339007.520    91474544.33747
  21407273.140   112496233.63809  21407268.680    87659484.64848
  23600358.100   124020744.76008  23600352.980    96639538.45246
  22699193.800   119285094.04309  22699192.780    92949429.03248
  24141919.920   126867102.44208  24141918.860    98857668.87746
  23362975.120   122773303.91209  23362972.060    95667513.26247
 15 02 26 00 18  0.0000000  0  7G16G18G21G22G27G29G31
  21432420.420   112628143.36809  21432416.380    87762176.49348
  22328481.720   117336998.24409  22328477.720    91431426.43147
  21415448.180   112539193.99709  21415443.820    87692960.25448
  23582434.380   123926555.02508  23582429.000    96566143.91146
  22686982.940   119220925.24309  22686981.880    92899427.38848
  24156099.140   126941613.12008  24156097.700    98915729.13346
  23380843.720   122867202.89609  23380840.540    95740681.28547
 15 02 26 00 18 30.0000000  0  7G16G18G21G22G27G29G31
  21420131.380   112563564.16409  21420127.420    87711855.03548
  22318016.420   117282002.12209  22318012.420    91388572.33547
  21423678.680   112582445.73209  21423674.380    87726662.90348
  23564521.000   123832419.95608  23564515.560    96492791.91947
  22674790.280   119156851.81809  22674789.140    92849500.04847
  24170283.380   127016149.77808  24170280.940    98973809.69345
  23398733.200   122961212.30108  23398729.860    95813935.34647
 15 02 26 00 19  0.0000000  0  7G16G18G21G22G27G29G31
  21407904.400   112499311.20809  21407900.620    87661787.80348
  22307617.200   117227353.88109  22307613.340    91345989.32947
  21431965.620   112625994.13809  21431961.400    87760596.73148
  23546619.920   123738349.61108  23546614.520    96419490.39246
  22662617.200   119092881.43509  22662615.940    92799653.01348
  24184473.800   127090719.92408  24184470.720    99031916.32345
  23416644.380   123055336.56608  23416640.980    95887278.90947
 15 02 26 00 19 30.0000000  0  7G16G18G21G22G27G29G31
  21395738.980   112435382.13809  21395735.360    87611972.94748
  22297283.740   117173051.91309  22297280.020    91303676.07047
  21440307.940   112669833.64008  21440303.780    87794757.37348
  23528730.860   123644342.36008  23528725.180    96346237.99746
  22650462.800   119029009.84008  22650461.600    92749882.93848
  24198669.520   127165319.36508  24198666.440    99090045.76945
  23434576.060   123149568.80308  23434572.720    95960706.59547
 15 02 26 00 20  0.0000000  0  7G16G18G21G22G27G29G31
  21383636.840   112371785.44409  21383633.200    87562417.08848
  22287017.560   117119104.12609  22287014.060    91261638.88347
  21448706.280   112713967.84009  21448702.240    87829147.65448
  23510855.360   123550406.59108  23510849.720    96273041.37046
  22638328.280   118965243.22709  22638327.260    92700194.68948
  24212871.900   127239953.80608  24212869.120    99148202.41346
  23452528.860   123243911.84208  23452525.680    96034220.62547
 15 02 26 00 20 30.0000000  0  7G16G18G21G22G27G29G31
  21371596.400   112308512.58309  21371592.660    87513113.56248
  22276817.220   117065502.16309  22276813.860    91219871.11347
  21457158.460   112758384.93509  21457154.500    87863758.37148
  23492992.100   123456534.89708  23492986.520    96199894.63046
  22626211.760   118901571.08109  22626210.820    92650580.05448
  24227079.040   127314612.66508  24227076.460    99206378.12346
  23470500.260   123338351.84209  23470497.160    96107810.20547
 15 02 26 00 21  0.0000000  0  7G16G18G21G22G27G29G31
  21359619.640   112245573.94309  21359615.840    87464070.46848
  22266684.740   117012256.17309  22266681.480    91178380.73747
  21465665.700   112803090.86909  21465661.700    87898594.15448
  23475143.080   123362737.66108  23475137.280    96126805.86546
  22614114.840   118838001.64009  22614113.940    92601045.43148
  24241292.520   127389303.98508  24241289.920    99264579.14946
  23488491.260   123432894.32909  23488488.160    96181479.65547
 15 02 26 00 21 30.0000000  0  7G16G18G21G22G27G29G31
  21347706.140   112182967.72609  21347702.380    87415286.40148
  22256619.880   116959364.74009  22256616.560    91137166.65247
  21474227.080   112848080.84609  21474222.960    87933651.26948
  23457308.000   123269013.83308  23457302.160    96053774.33746
  22602036.740   118774531.14509  22602035.900    92551587.90548
  24255511.560   127464024.47208  24255508.840    99322802.92246
  23506500.460   123527532.44708  23506497.280    96255223.61246
 15 02 26 00 22  0.0000000  0  7G16G18G21G22G27G29G31
  21335857.600   112120702.91809  21335853.860    87366768.37948
  22246624.140   116906836.21709  22246620.780    91096235.32547
  21482843.280   112893358.77309  21482838.980    87968932.77848
  23439488.540   123175372.60908  23439482.820    95980807.18446
  22589978.780   118711166.11709  22589977.860    92502212.57048
  24269737.220   127538780.07108  24269734.480    99381054.01846
  23524528.300   123622269.58208  23524525.180    96329044.74447
 15 02 26 00 22 30.0000000  0  7G16G18G21G22G27G29G31
  21324073.040   112058774.45109  21324069.300    87318512.43848
  22236696.500   116854665.71709  22236693.120    91055583.02347
  21491512.720   112938916.51009  21491508.360    88004432.31348
  23421684.020   123081809.69008  23421678.360    95907901.05847
  22577939.640   118647899.65909  22577938.580    92452914.03048
  24283968.080   127613563.87408  24283965.380    99439327.10346
  23542572.920   123717095.59908  23542569.960    96402935.12747
 15 02 26 00 23  0.0000000  0  7G16G18G21G22G27G29G31
  21312353.660   111997188.43309  21312349.840    87270523.33248
  22226838.120   116802859.15809  22226834.620    91015214.27947
  21500235.620   112984755.41409  21500231.280    88040150.94648
  23403895.660   122988331.46108  23403890.200    95835060.91546
  22565920.000   118584735.67309  22565918.780    92403695.35848
  24298205.020   127688379.78308  24298202.460    99497625.19345
  23560634.660   123812011.42408  23560631.920    96476895.47547
 15 02 26 00 23 30.0000000  0  7G16G18G21G22G27G29G31
  21300699.480   111935945.13009  21300695.540    87222801.28248
  22217048.980   116751416.53809  22217045.360    90975129.10947
  21509011.240   113030871.76609  21509007.060    88076085.75848
  23386123.620   122894938.75208  23386118.240    95762287.37847
  22553919.560   118521672.37009  22553918.200    92354555.13248
  24312447.580   127763225.66808  24312445.200    99555946.64645
  23578712.740   123907012.37108  23578709.960    96550922.16447
 15 02 26 00 24  0.0000000  0  7G16G18G21G22G27G29G31
  21289111.740   111875050.86409  21289107.640    87175351.20048
  22207330.300   116700344.05509  22207326.500    90935332.38747
  21517840.240   113077268.71109  21517836.160    88112239.21548
  23368369.160   122801638.34608  23368363.940    95689585.78347
  22541939.040   118458714.14709  22541937.700    92305496.80748
  24326696.360   127838105.76407  24326694.500    99614294.71545
  23596807.380   124002099.35809  23596804.360    96625015.88746
 15 02 26 00 24 30.0000000  0  7G16G18G21G22G27G29G31
  21277589.560   111814501.41809  21277585.440    87128169.82248
  22197681.240   116649637.48209  22197677.340    90895820.79047
  21526721.020   113123937.63809  21526716.920    88148604.61548
  23350631.480   122708426.37908  23350626.260    95616953.11047
  22529977.140   118395854.53508  22529975.940    92256515.29148
  24340950.540   127913013.68108  24340948.640    99672664.56344
  23614916.640   124097263.22108  23614913.340    96699169.52246
 15 02 26 00 25  0.0000000  0  7G16G18G21G22G27G29G31
  21266133.640   111754300.52509  21266129.640    87081260.04348
  22188102.440   116599300.28309  22188098.520    90856597.01347
  21535653.580   113170878.78609  21535649.500    88185182.13148
  23332911.380   122615306.90108  23332906.380    95544392.50846
  22518034.300   118333095.39909  22518033.320    92207612.10348
  24355210.560   127987950.99908  24355208.600    99731057.22145
  23633040.200   124192502.84608  23633036.820    96773382.17046
 15 02 26 00 25 30.0000000  0  7G16G18G21G22G27G29G31
  21254744.220   111694448.92209  21254740.260    87034622.43448
  22178594.020   116549333.57109  22178590.220    90817661.91747
  21544637.200   113218087.85409  21544633.060    88221968.41648
  23315209.180   122522281.58008  23315204.340    95471905.26447
  22506110.380   118270435.35709  22506109.580    92158786.10048
  24369476.200   128062915.95308  24369473.860    99789471.52246
  23651177.280   124287813.36108  23651173.820    96847650.07346
 15 02 26 00 26  0.0000000  0  7G16G18G21G22G27G29G31
  21243422.440   111634952.53709  21243418.480    86988261.62348
  22169157.020   116499742.56609  22169153.420    90779019.58847
  21553672.400   113265567.80409  21553668.140    88258965.78348
  23297526.100   122429356.86108  23297521.300    95399496.41047
  22494206.100   118207878.20609  22494205.360    92110040.29148
  24383747.980   128137912.68508  24383745.500    99847910.48746
  23669327.940   124383195.37608  23669324.460    96921973.69946
 15 02 26 00 26 30.0000000  0  7G16G18G21G22G27G29G31
  21232168.860   111575814.43909  21232164.860    86942179.98248
  22159792.020   116450530.08409  22159788.600    90740672.20947
  21562758.780   113313316.91609  21562754.480    88296172.86948
  23279862.860   122336535.99308  23279858.020    95327168.47947
  22482321.600   118145424.87109  22482320.900    92061375.36948
  24398025.820   128212941.96308  24398023.220    99906374.88045
  23687491.900   124478647.25708  23687488.500    96996351.76547
 15 02 26 00 27  0.0000000  0  7G16G18G21G22G27G29G31
  21220983.840   111517036.86209  21220979.820    86896379.27748
  22150499.460   116401698.41609  22150496.080    90702621.59847
  21571896.260   113361334.55109  21571891.900    88333589.21048
  23262219.980   122243821.87008  23262215.040    95254923.73347
  22470456.980   118083075.81909  22470456.240    92012791.70548
  24412309.600   128288003.96008  24412307.220    99964864.71546
  23705668.480   124574165.79508  23705665.200    97070781.76547
 15 02 26 00 27 30.0000000  0  7G16G18G21G22G27G29G31
  21209867.720   111458621.99309  21209863.820    86850861.20148
  22141279.860   116353249.46909  22141276.400    90664869.15747
  21581084.340   113409617.93209  21581079.860    88371212.62848
  23244597.820   122151216.70509  23244592.700    95182763.88847
  22458612.160   118020830.89909  22458611.340    91964289.16748
  24426599.360   128363097.99607  24426597.440   100023379.53646
  23723857.240   124669748.10608  23723854.040    97145261.45046
 15 02 26 00 28  0.0000000  0  7G16G18G21G22G27G29G31
  21198821.260   111400572.81309  21198817.460    86805628.08148
  22132133.680   116305186.03209  22132130.220    90627417.13447
  21590322.920   113458166.97409  21590318.460    88409043.05248
  23226997.200   122058724.77509  23226991.880    95110692.30847
  22446787.420   117958691.45009  22446786.560    91915868.84248
  24440895.320   128438225.78308  24440894.020   100081920.62046
  23742057.800   124765392.52408  23742054.500    97219789.53146
 15 02 26 00 28 30.0000000  0  7G16G18G21G22G27G29G31
  21187843.900   111342886.29009  21187840.100    86760677.54048
  22123060.300   116257504.72509  22123056.780    90590262.87547
  21599610.620   113506974.27509  21599606.200    88447074.70748
  23209417.680   121966343.38509  23209412.000    95038706.82047
  22434981.840   117896652.18809  22434980.820    91867526.55248
  24455196.760   128513382.06007  24455195.940   100140483.88746
  23760268.580   124861090.45108  23760265.040    97294359.31646
 15 02 26 00 29  0.0000000  0  7G16G18G21G22G27G29G31
  21176936.240   111285565.87909  21176932.360    86716012.28348
  22114060.360   116210208.92209  22114056.720    90553409.00747
  21608947.380   113556039.11209  21608942.920    88485307.04348
  23191859.860   121874076.31309  23191854.000    94966810.43746
  22423195.660   117834714.59309  22423194.380    91819263.51148
  24469504.080   128588567.76608  24469503.140   100199070.13046
  23778489.300   124956840.37908  23778485.500    97368969.60646
 15 02 26 00 29 30.0000000  0  7G16G18G21G22G27G29G31
  21166098.440   111228612.93709  21166094.520    86671633.37648
  22105133.980   116163299.86709  22105130.220    90516856.49047
  21618332.600   113605358.53709  21618328.060    88523737.76448
  23174324.080   121781925.60109  23174318.180    94895004.70746
  22411428.620   117772878.00209  22411427.240    91771079.16948
  24483817.100   128663782.20008  24483815.800   100257678.78946
  23796719.220   125052638.53008  23796715.140    97443617.48847
 15 02 26 00 30  0.0000000  0  7G16G18G21G22G27G29G31
  21155332.500   111172037.25109  21155328.540    86627548.42648
  22096282.900   116116786.88609  22096278.980    90480612.62947
  21627767.520   113654939.50509  21627763.000    88562372.29148
  23156812.300   121689901.24609  23156806.580    94823297.44646
  22399682.200   117711150.22209  22399680.900    91722979.62448
  24498137.100   128739033.08408  24498135.500   100316315.78046
  23814959.080   125148489.56808  23814954.980    97518306.57146
 15 02 26 00 30 30.0000000  0  7G16G18G21G22G27G29G31
  21144637.080   111115831.91909  21144633.060    86583752.07048
  22087505.840   116070662.98709  22087501.800    90444671.93147
  21637250.060   113704770.85409  21637245.540    88601201.91848
  23139323.420   121597997.06309  23139317.920    94751683.80847
  22387954.880   117649522.60809  22387953.560    91674958.10148
  24512462.300   128814311.21208  24512460.140   100374974.11544
  23833206.640   125244381.44508  23833202.620    97593027.47946
 15 02 26 00 31  0.0000000  0  7G16G18G21G22G27G29G31
  21134013.820   111060005.92009  21134009.800    86540251.29348
  22078804.400   116024936.43809  22078800.380    90409040.88147
  21646781.140   113754857.39109  21646776.740    88640230.38448
  23121859.340   121506222.88208  23121854.100    94680171.48147
  22376247.840   117588002.07309  22376246.600    91627020.03648
  24526793.900   128889623.76808  24526791.840   100433659.17246
  23851462.720   125340318.56008  23851458.940    97667783.62446
 15 02 26 00 31 30.0000000  0  7G16G18G21G22G27G29G31
  21123462.980   111004560.73409  21123458.920    86497047.25448
  22070178.820   115979608.77809  22070174.920    90373720.62847
  21656360.340   113805196.74709  21656356.040    88679455.85648
  23104420.360   121414580.36809  23104415.320    94608761.76547
  22364560.960   117526587.89809  22364559.900    91579164.84548
  24541131.820   128964969.80508  24541129.980   100492370.33146
  23869726.660   125436296.94008  23869723.180    97742571.93746
 15 02 26 00 32  0.0000000  0  7G16G18G21G22G27G29G31
  21112984.640   110949496.74609  21112980.580    86454140.25248
  22061629.100   115934680.25309  22061625.440    90338711.40847
  21665986.980   113855785.27609  21665982.720    88718875.49348
  23087006.720   121323070.44709  23087001.680    94537455.35847
  22352893.980   117465278.65209  22352893.160    91531391.41348
  24555475.660   129040347.84408  24555473.560   100551106.41245
  23887997.560   125532311.84608  23887994.360    97817388.72446
 15 02 26 00 32 30.0000000  0  6G16G18G21G22G27G31
  21102586.440   110894854.17309  21102582.460    86411561.62448
  22053162.900   115890190.71809  22053159.400    90304044.24447
  21675668.020   113906659.58409  21675663.760    88758517.80748
  23069626.240   121231734.54409  23069621.100    94466284.52447
  22341254.380   117404112.79609  22341253.620    91483729.73148
  23906282.200   125628398.85608  23906279.280    97892261.67646
 15 02 26 00 33  0.0000000  0  7G16G18G19G21G22G27G31
  21092253.560   110840555.07909  21092249.720    86369250.65448
  22044765.280   115846061.49209  22044761.860    90269657.83847
  24544797.440   128983782.11508  24544793.140   100506822.91646
  21685387.940   113957737.77509  21685383.660    88798319.00548
  23052264.000   121140494.56309  23052258.620    94395188.45647
  22329626.940   117343010.24409  22329626.080    91436117.38248
  23924564.700   125724474.62208  23924562.100    97967125.86946
 15 02 26 00 33 30.0000000  0  7G16G18G19G21G22G27G31
  21081980.140   110786568.57009  21081976.420    86327183.25548
  22036430.520   115802262.18209  22036427.040    90235528.53347
  24529588.780   128903854.90908  24529584.200   100444541.97746
  21695139.980   114008984.96809  21695135.720    88838251.87848
  23034914.160   121049320.51709  23034908.680    94324143.77347
  22318005.480   117281938.55009  22318004.460    91388529.05948
  23942838.280   125820503.48208  23942835.900    98041953.49346
 15 02 26 00 34  0.0000000  0  7G16G18G19G21G22G27G31
  21071796.220   110733052.30309  21071792.560    86285482.27048
  22028188.540   115758949.63909  22028184.820    90201778.50947
  24514405.880   128824067.62108  24514401.300   100382370.06446
  21704953.360   114060554.67709  21704949.120    88878436.06848
  23017606.860   120958370.42309  23017601.260    94253273.58847
  22306419.540   117221053.11009  22306418.380    91341085.86548
  23961132.060   125916638.05008  23961129.580    98116863.51746
 15 02 26 00 34 30.0000000  0  7G16G18G19G21G22G27G31
  21061687.080   110679928.48309  21061683.380    86244087.08248
  22020024.280   115716045.21909  22020020.300    90168346.50247
  24499234.140   128744339.98408  24499229.480   100320244.72145
  21714812.560   114112365.21809  21714808.300    88918807.90948
  23000327.240   120867566.46909  23000321.600    94182517.27947
  22294853.740   117160274.14409  22294852.620    91293725.63448
  23979430.220   126012794.92308  23979427.460    98191790.91746
 15 02 26 00 35  0.0000000  0  7G16G18G19G21G22G27G31
  21051652.040   110627193.81809  21051648.240    86202995.13448
  22011936.980   115673546.07409  22011932.960    90135230.29747
  24484073.120   128664667.63708  24484068.080   100258162.36645
  21724716.440   114164410.37709  21724712.080    88959362.57948
  22983075.100   120776906.83309  22983069.480    94111873.41747
  22283307.240   117099596.69109  22283306.120    91246444.52448
  23997731.180   126108966.31308  23997728.220    98266729.62246
 15 02 26 00 35 30.0000000  0  7G16G18G19G21G22G27G31
  21041693.540   110574861.23509  21041689.660    86162216.48948
  22003928.960   115631464.30709  22003925.120    90102439.31047
  24468924.320   128585061.41207  24468919.220   100196131.57046
  21734666.500   114216698.69509  21734662.220    89000106.70848
  22965853.120   120686405.22709  22965847.520    94041352.69347
  22271782.120   117039031.78209  22271781.000    91199251.08248
  24016036.460   126205160.65708  24016033.460    98341686.19246
 15 02 26 00 36  0.0000000  0  7G16G18G19G21G22G27G31
  21031810.140   110522923.61209  21031806.280    86121745.61648
  21995999.100   115589792.90009  21995995.380    90069968.08247
  24453786.540   128505512.13508  24453781.340   100134145.11245
  21744660.620   114269218.63609  21744656.480    89041031.34448
  22948659.900   120596054.58809  22948654.400    93970949.61847
  22260276.640   116978570.35709  22260275.520    91152138.30948
  24034343.720   126301365.30808  24034340.820    98416650.80246
 15 02 26 00 36 30.0000000  0  7G16G18G19G21G22G27G31
  21022002.100   110471382.11909  21021998.340    86081583.42948
  21988147.580   115548532.56909  21988143.800    90037817.19547
  24438659.500   128426018.83008  24438654.460   100072202.32046
  21754698.420   114321967.71509  21754694.400    89082134.52648
  22931495.860   120505856.99109  22931490.540    93900665.79547
  22248790.820   116918211.97109  22248789.620    91105105.81248
  24052652.220   126397576.27908  24052649.400    98491620.33946
 15 02 26 00 37  0.0000000  0  7G16G18G19G21G22G27G31
  21012271.440   110420246.96609  21012267.700    86041737.85148
  21980376.040   115507692.62509  21980372.200    90005993.87847
  24423544.560   128346589.35808  24423539.000   100010309.22945
  21764781.120   114374952.69309  21764777.160    89123421.52048
  22914363.060   120415823.05709  22914357.740    93830509.48947
  22237326.120   116857964.68409  22237324.880    91058159.88348
  24070962.900   126493798.95308  24070960.140    98566598.99346
 15 02 26 00 37 30.0000000  0  7G16G18G19G21G22G27G31
  21002617.860   110369516.56709  21002614.060    86002207.68248
  21972684.020   115467271.44609  21972680.260    89974496.86647
  24408441.160   128267219.88208  24408435.940    99948462.88946
  21774907.760   114428168.02209  21774903.680    89164888.00848
  22897261.260   120325951.70309  22897255.840    93760479.88347
  22225881.940   116797825.33809  22225880.740    91011298.07148
  24089274.600   126590027.11608  24089271.820    98641581.93846
 15 02 26 00 38  0.0000000  0  7G16G18G19G21G22G27G31
  20993041.460   110319191.94609  20993037.600    85962993.68948
  21965071.900   115427270.09009  21965068.260    89943326.98447
  24393349.080   128187910.25408  24393344.100    99886663.21946
  21785077.680   114481610.94709  21785073.540    89206531.83848
  22880190.680   120236245.21809  22880185.220    93690578.76347
  22214458.160   116737793.30809  22214457.100    90964519.87048
  24107586.600   126686257.00508  24107583.840    98716566.19946
 15 02 26 00 38 30.0000000  0  7G16G18G19G21G22G27G31
  20983543.320   110269278.66009  20983539.380    85924100.22448
  21957540.580   115387693.24609  21957537.040    89912487.89347
  24378268.740   128108663.69108  24378263.660    99824912.68346
  21795291.140   114535282.95509  21795287.000    89248354.18248
  22863152.540   120146709.36709  22863147.120    93620810.57547
  22203055.480   116677871.90209  22203054.520    90917827.88348
  24125899.100   126782489.08208  24125896.300    98791552.19346
 15 02 26 00 39  0.0000000  0  7G16G18G19G21G22G27G31
  20974123.100   110219774.47809  20974118.980    85885525.53348
  21950089.580   115348538.33909  21950086.100    89881977.58747
  24363199.660   128029475.70807  24363194.380    99763207.73546
  21805547.060   114589178.17809  21805542.920    89290350.46048
  22846146.440   120057342.31009  22846141.120    93551173.91947
  22191673.100   116618057.21709  22191672.240    90871219.05548
  24144210.620   126878716.17308  24144207.700    98866534.29646
 15 02 26 00 39 30.0000000  0  7G16G18G19G21G22G27G31
  20964782.400   110170688.49009  20964778.180    85847276.70748
  21942720.600   115309813.92209  21942717.140    89851802.71947
  24348142.900   127950353.33508  24348138.080    99701554.00246
  21815846.320   114643301.34109  21815842.140    89332524.34148
  22829174.380   119968154.22309  22829169.140    93481676.72847
  22180312.440   116558356.62509  22180311.640    90824699.11748
  24162521.860   126974942.28908  24162518.900    98941515.62446
 15 02 26 00 40  0.0000000  0  7G16G18G19G21G22G27G31
  20955519.020   110122009.67009  20955514.880    85809345.16748
  21935431.420   115271508.64509  21935427.900    89821954.47148
  24333096.500   127871283.88008  24333092.440    99639941.46646
  21826186.400   114697638.92808  21826182.160    89374865.32648
  22812234.400   119879134.59309  22812229.220    93412310.79847
  22168971.160   116498757.46309  22168970.180    90778258.21948
  24180829.880   127071151.75108  24180826.900    99016483.99746
 15 02 26 00 40 30.0000000  0  7G16G18G19G21G22G27G31
  20946336.220   110073754.58909  20946332.240    85771743.79948
  21928225.080   115233638.85709  21928221.440    89792445.54947
  24318062.720   127792281.91608  24318058.760    99578381.55546
  21836569.600   114752203.30208  21836565.420    89417383.01148
  22795329.760   119790300.54309  22795324.660    93343089.47547
  22157651.980   116439274.56809  22157650.840    90731907.91248
  24199136.880   127167356.23808  24199134.020    99091448.45846
 15 02 26 00 41  0.0000000  0  7G16G18G19G21G22G27G31
  20937232.260   110025913.53209  20937228.360    85734465.06148
  21921099.440   115196193.83409  21921095.820    89763267.62147
  24303039.800   127713336.04108  24303035.240    99516865.26646
  21846993.220   114806979.93409  21846989.040    89460066.10348
  22778458.740   119701642.64309  22778453.700    93274005.41147
  22146352.580   116379896.08009  22146351.500    90685638.98548
  24217440.060   127263540.71208  24217437.320    99166397.32646
 15 02 26 00 41 30.0000000  0  7G16G18G19G21G22G27G31
  20928208.880   109978495.59709  20928205.000    85697516.02148
  21914056.400   115159182.84009  21914052.860    89734427.88647
  24288028.960   127634452.88208  24288023.660    99455397.83545
  21857458.500   114861975.15209  21857454.300    89502919.52048
  22761623.280   119613171.29309  22761618.160    93205066.74547
  22135074.560   116320629.78809  22135073.460    90639457.46448
  24235740.500   127359710.19008  24235737.820    99241334.53446
 15 02 26 00 42  0.0000000  0  7G16G18G19G21G22G27G31
  20919266.580   109931503.35709  20919262.740    85660898.68548
  21907096.340   115122607.51209  21907092.760    89705927.63248
  24273029.980   127555633.01708  24273025.140    99393979.84545
  21867965.020   114917186.76909  21867960.780    89545941.55548
  22744823.920   119524889.76709  22744818.660    93136275.96347
  22123817.980   116261476.34909  22123816.900    90593363.88448
  24254037.620   127455862.10708  24254035.140    99316258.02246
 15 02 26 00 42 30.0000000  0  7G16G18G19G21G22G27G31
  20910405.440   109884937.97809  20910401.740    85624613.98248
  21900219.460   115086468.73509  21900215.780    89677767.57347
  24258042.780   127476875.80608  24258038.440    99332610.63646
  21878512.360   114972613.05009  21878508.160    89589130.85748
  22728060.920   119436799.57809  22728055.620    93067634.24147
  22112582.820   116202435.32709  22112581.720    90547357.90348
  24272330.620   127551992.62008  24272328.280    99391164.84046
 15 02 26 00 43  0.0000000  0  7G16G18G19G21G22G27G31
  20901625.380   109838798.19409  20901621.680    85588660.90448
  21893425.340   115050764.88609  21893421.640    89649946.38847
  24243067.060   127398178.00308  24243062.820    99271287.66946
  21889099.620   115028249.42409  21889095.440    89632483.86748
  22711334.160   119348900.14509  22711328.940    92999141.19147
  22101368.520   116143503.75109  22101367.320    90501437.21348
  24290618.560   127648095.81308  24290616.180    99466050.37546
 15 02 26 00 43 30.0000000  0  7G16G18G19G21G22G27G31
  20892927.740   109793091.28509  20892923.960    85553045.12948
  21886715.220   115015502.51609  21886711.480    89622469.22948
  24228103.640   127319545.20208  24228099.860    99210015.37946
  21899727.400   115084098.79809  21899723.160    89676002.85048
  22694645.240   119261199.43608  22694640.000    92930802.96848
  22090176.120   116084687.17109  22090174.880    90455606.12848
  24308901.760   127744174.12108  24308899.340    99540916.51546
 15 02 26 00 44  0.0000000  0  7G16G18G19G21G22G27G31
  20884311.500   109747812.10209  20884307.600    85517762.64248
  21880088.080   114980676.14509  21880084.220    89595331.80148
  24213151.420   127240970.55608  24213147.420    99148788.37246
  21910393.980   115140152.25909  21910389.840    89719680.86948
  22677993.320   119173693.12409  22677988.120    92862616.28947
  22079004.300   116025978.88209  22079003.120    90409859.41748
  24327178.420   127840218.01008  24327175.980    99615755.84446
 15 02 26 00 44 30.0000000  0  7G16G18G19G21G22G27G31
  20875777.560   109702965.83409  20875773.660    85482817.50148
  21873544.860   114946290.75909  21873540.940    89568538.01647
  24198210.900   127162457.14108  24198207.060    99087609.11646
  21921099.720   115196411.52909  21921095.640    89763519.25948
  22661379.660   119086387.36009  22661374.400    92794585.85047
  22067853.800   115967382.62209  22067852.680    90364200.02348
  24345448.580   127936227.82908  24345446.080    99690568.62046
 15 02 26 00 45  0.0000000  0  7G16G18G19G21G22G27G31
  20867327.040   109658558.18109  20867323.200    85448214.13648
  21867086.280   114912350.56509  21867082.380    89542091.11248
  24183282.700   127084008.31108  24183278.600    99026480.16246
  21931844.900   115252878.25109  21931840.880    89807519.29248
  22644805.320   118999288.06409  22644799.960    92726716.21747
  22056725.260   115908901.88609  22056724.140    90318630.62048
  24363712.320   128032203.91808  24363709.700    99765355.07646
 15 02 26 00 45 30.0000000  0  7G16G18G19G21G22G27G31
  20858959.360   109614585.60009  20858955.460    85413949.78348
  21860711.680   114878852.16309  21860707.880    89515988.46348
  24168365.820   127005619.58007  24168361.340    98965398.04846
  21942628.440   115309546.05009  21942624.340    89851676.01848
  22628269.820   118912392.56509  22628264.360    92659005.49648
  22045617.860   115850531.95609  22045616.660    90273147.56148
  24381968.200   128128138.57108  24381965.300    99840109.25546
 15 02 26 00 46  0.0000000  0  7G16G18G19G21G22G27G31
  20850675.920   109571055.66009  20850671.940    85380030.35248
  21854422.480   114845802.79309  21854418.780    89490235.70948
  24153461.500   126927296.25908  24153457.060    98904366.91146
  21953450.920   115366418.21409  21953446.740    89895991.98648
  22611774.660   118825709.31809  22611769.040    92591460.11547
  22034532.640   115792278.68909  22034531.400    90227755.41048
  24400216.740   128224034.50208  24400213.540    99914833.26145
 15 02 26 00 46 30.0000000  0  7G16G18G19G21G22G27G31
  20842476.820   109527968.99909  20842472.840    85346456.33948
  21848218.720   114813202.44209  21848215.060    89464832.85348
  24138569.160   126849037.27208  24138564.520    98843385.93646
  21964311.740   115423492.01909  21964307.480    89940465.08548
  22595320.140   118739240.13709  22595314.440    92524081.54748
  22023469.420   115734141.29709  22023468.220    90182453.56848
  24418457.340   128319888.16008  24418453.880    99989524.35146
 15 02 26 00 47  0.0000000  0  7G16G18G19G21G22G27G31
  20834362.000   109485325.77409  20834358.100    85313227.83948
  21842100.320   114781050.74009  21842096.680    89439779.57448
  24123688.400   126770840.45808  24123684.220    98782453.42346
  21975210.180   115480763.65309  21975205.900    89985092.31448
  22578906.300   118652985.47709  22578900.700    92456870.13047
  22012428.040   115676118.41909  22012426.860    90137240.93448
  24436688.840   128415694.37208  24436685.280   100064178.42846
 15 02 26 00 47 30.0000000  0  7G16G18G19G21G22G27G31
  20826331.380   109443124.80109  20826327.500    85280343.96548
  21836067.040   114749345.85009  21836063.360    89415074.47348
  24108819.420   126692703.19408  24108815.460    98721567.14746
  21986145.420   115538228.27209  21986141.060    90029869.93348
  22562533.200   118566944.83409  22562527.720    92389825.47947
  22001407.940   115618207.17909  22001406.700    90092115.30348
  24454910.140   128511447.33008  24454906.660   100138791.03646
 15 02 26 00 48  0.0000000  0  7G16G18G19G21G22G27G31
  20818385.820   109401370.87809  20818381.980    85247808.44048
  21830119.560   114718091.71609  21830115.900    89390720.61947
  24093962.380   126614628.25208  24093958.840    98660729.59946
  21997117.560   115595887.03609  21997113.240    90074798.83648
  22546201.860   118481123.64909  22546196.480    92322951.85948
  21990409.680   115560410.72009  21990408.380    90047079.11548
  24473121.240   128607147.29608  24473117.980   100213362.34446
 15 02 26 00 48 30.0000000  0  7G16G18G19G21G22G27G31
  20810526.300   109360068.98209  20810522.480    85215625.14648
  21824258.720   114687292.70709  21824255.080    89366721.39548
  24079117.820   126536619.18408  24079114.200    98599943.32546
  22008126.880   115653741.61109  22008122.640    90119880.32548
  22529913.380   118395527.57209  22529908.040    92256253.61347
  21979433.920   115502732.50409  21979432.580    90002135.04948
  24491322.140   128702794.71408  24491319.440   100287892.64846
 15 02 26 00 49  0.0000000  0  7G16G18G19G21G22G27G31
  20802752.000   109319215.21709  20802748.240    85183791.04748
  21818483.720   114656945.03209  21818480.100    89343073.86148
  24064284.940   126458669.89208  24064280.740    98539203.58246
  22019171.980   115711784.42309  22019167.800    90165108.49148
  22513667.320   118310153.86909  22513661.940    92189728.66448
  21968479.580   115445167.25909  21968478.260    89957279.03048
  24509511.480   128798381.04208  24509509.180   100362375.37946
 15 02 26 00 49 30.0000000  0  7G16G18G19G21G22G27G31
  20795064.420   109278817.20009  20795060.700    85152312.08648
  21812795.840   114627055.19209  21812792.280    89319783.09648
  24049464.720   126380786.88809  24049459.800    98478515.56145
  22030253.660   115770019.95909  22030249.740    90210486.83048
  22497465.260   118225011.10909  22497459.720    92123383.68347
  21957547.940   115387721.24009  21957546.680    89912515.90248
  24527689.960   128893909.55508  24527687.940   100436813.06446
 15 02 26 00 50  0.0000000  0  7G16G18G19G21G22G27G31
  20787463.320   109238873.36809  20787459.600    85121187.02848
  21807194.820   114597621.95409  21807191.360    89296848.11648
  24034656.220   126302966.77508  24034651.040    98417876.59746
  22041371.120   115828443.00809  22041367.340    90256011.29048
  22481307.000   118140098.51409  22481301.240    92057218.03047
  21946638.460   115330391.74009  21946637.260    89867843.57548
  24545856.460   128989374.29708  24545854.540   100511201.05646
 15 02 26 00 50 30.0000000  0  7G16G18G19G21G22G27G31
  20779949.980   109199390.19709  20779946.220    85090420.91548
  21801681.620   114568650.10709  21801678.200    89274272.66048
  24019860.120   126225213.45408  24019854.640    98357289.58546
  22052524.720   115887055.66409  22052520.980    90301683.48348
  22465193.700   118055422.79009  22465187.920    91991236.95948
  21935751.960   115273183.01209  21935750.760    89823265.34348
  24564011.120   129084776.37108  24564008.960   100585540.25046
 15 02 26 00 51  0.0000000  0  7G16G18G19G21G22G27G31
  20772524.100   109160366.75309  20772520.360    85060013.04048
  21796256.000   114540138.06909  21796252.580    89252055.49948
  24005076.100   126147524.51808  24005070.600    98296752.75446
  22063713.680   115945853.79309  22063709.900    90347500.20348
  22449125.400   117970983.53809  22449119.600    91925440.13948
  21924887.980   115216092.83209  21924886.900    89778779.50348
  24582152.740   129180110.52608  24582150.480   100659826.43945
 15 02 26 00 51 30.0000000  0  7G16G18G19G21G22G27G31
  20765186.220   109121805.76309  20765182.460    85029965.51148
  21790918.420   114512088.37409  21790914.980    89230198.58648
  23990304.580   126069901.29608  23990299.440    98236267.16546
  22074937.880   116004837.27509  22074934.120    90393461.33648
  22433102.900   117886784.97409  22433097.180    91859830.86448
  21914046.840   115159122.73509  21914045.880    89734387.21848
  24600281.060   129275375.19408  24600278.740   100734058.52546
 15 02 26 00 52  0.0000000  0  7G16G18G19G21G22G27G31
  20757936.100   109083705.85209  20757932.240    85000277.27748
  21785668.460   114484499.34809  21785665.000    89208700.65848
  23975545.200   125992340.79108  23975540.080    98175830.42046
  22086196.340   116064000.86909  22086192.500    90439562.83548
  22417126.160   117802826.64309  22417120.560    91794408.82648
  21903228.160   115102270.09609  21903227.140    89690086.48148
  24618395.000   129370564.52807  24618392.480   100808231.91146
 15 02 26 00 52 30.0000000  0  7G16G18G19G21G22G27G31
  20750774.580   109046071.36409  20750770.620    84970951.70048
  21780506.780   114457374.26109  21780503.200    89187564.23048
  23960798.460   125914845.69408  23960793.680    98115444.61446
  22097489.180   116123345.18008  22097485.320    90485805.14848
  22401196.100   117719113.55009  22401190.660    91729177.84448
  21892432.460   115045537.71609  21892431.340    89645879.43148
  24636494.600   129465678.28408  24636492.140   100882346.32446
 15 02 26 00 53  0.0000000  0  7G16G18G19G21G22G27G31
  20743701.500   109008901.53909  20743697.380    84941988.20048
  21775433.220   114430712.16609  21775429.480    89166788.57648
  23946063.540   125837412.89408  23946059.020    98055107.40646
  22108815.580   116182865.54309  22108811.700    90532184.66048
  22385312.680   117635645.63309  22385307.380    91664137.93948
  21881659.120   114988923.47109  21881658.060    89601764.46248
  24654578.940   129560711.07908  24654576.440   100956397.69446
 15 02 26 00 53 30.0000000  0  7G16G18G19G21G22G27G31
  20736718.520   108972205.18709  20736714.280    84913393.63248
  21770449.140   114404520.37009  21770445.240    89146379.39348
  23931341.740   125760050.08508  23931337.100    97994824.72146
  22120176.640   116242568.22709  22120172.740    90578706.22748
  22369477.680   117552432.35409  22369472.420    91599296.41948
  21870909.620   114932434.68309  21870908.600    89557747.21848
  24672648.680   129655667.36208  24672646.260   101030389.41946
 15 02 26 00 54  0.0000000  0  7G16G18G19G21G22G27G31
  20729823.840   108935973.40709  20729819.640    84885161.06848
  21765552.860   114378790.07209  21765548.960    89126329.82248
  23916631.320   125682747.00508  23916626.680    97934588.55846
  22131569.980   116302440.78808  22131566.080    90625360.15047
  22353689.620   117469466.23209  22353684.420    91534647.48948
  21860182.080   114876061.35309  21860181.100    89513819.95248
  24690701.360   129750533.97408  24690698.960   101104311.28345
 15 02 26 00 54 30.0000000  0  6G16G18G19G21G22G27
  20723017.140   108900204.51409  20723013.060    84857289.21248
  21760743.980   114353518.97109  21760740.080    89106638.05748
  23901931.800   125605500.29909  23901927.200    97874396.35846
  22142994.640   116362478.01808  22142990.740    90672142.40847
  22337948.400   117386746.44309  22337943.180    91470190.52948
  21849476.000   114819800.52009  21849474.980    89469980.35748
 15 02 26 00 55  0.0000000  0  6G16G18G19G21G22G27
  20716302.460   108864919.08509  20716298.480    84829794.07048
  21756026.280   114328726.94109  21756022.360    89087319.59648
  23887246.740   125528328.71808  23887241.940    97814262.64946
  22154453.940   116422697.09909  22154450.020    90719066.36448
  22322258.120   117304293.91409  22322252.820    91405941.83648
  21838794.980   114763671.41609  21838793.980    89426243.39848
 15 02 26 00 55 30.0000000  0  6G16G18G19G21G22G27
  20709678.920   108830112.07909  20709674.940    84802671.72348
  21751398.480   114304407.86409  21751394.580    89068369.67648
  23872574.520   125451225.65508  23872569.440    97754182.37346
  22165946.260   116483089.50109  22165942.340    90766125.38147
  22306618.160   117222104.78909  22306612.660    91341898.35148
  21828137.780   114707667.62809  21828136.780    89382604.09148
 15 02 26 00 56  0.0000000  0  6G16G18G19G21G22G27
  20703145.640   108795779.63409  20703141.680    84775919.16748
  21746859.820   114280557.48109  21746855.920    89049784.96448
  23857914.360   125374186.26508  23857909.120    97694151.70446
  22177470.260   116543648.50308  22177466.380    90813314.20647
  22291027.800   117140176.03309  22291022.200    91278057.78248
  21817503.440   114651784.17509  21817502.460    89339058.55648
 15 02 26 00 56 30.0000000  0  6G16G18G19G21G22G27
  20696703.500   108761926.24309  20696699.600    84749539.91048
  21742411.080   114257179.82209  21742407.260    89031568.61748
  23843266.820   125297212.89108  23843261.720    97634172.49746
  22189026.060   116604374.87108  22189022.240    90860633.44947
  22275487.880   117058512.97109  22275482.400    91214424.23648
  21806892.600   114596024.25509  21806891.660    89295609.28148
 15 02 26 00 57  0.0000000  0  6G16G18G19G21G22G27
  20690353.140   108728555.11609  20690349.320    84723536.43148
  21738052.720   114234277.13509  21738049.020    89013722.37148
  23828632.040   125220307.02408  23828627.180    97574245.87346
  22200613.580   116665267.79908  22200609.820    90908082.47647
  22259999.240   116977119.89709  22259993.960    91151001.08048
  21796305.660   114540389.86109  21796304.740    89252257.81948
 15 02 26 00 57 30.0000000  0  6G16G18G19G21G22G27
  20684095.140   108695669.14609  20684091.320    84697910.99648
  21733785.140   114211851.54209  21733781.680    88996247.89548
  23814010.320   125143469.91808  23814005.460    97514372.76146
  22212232.900   116726327.32009  22212229.060    90955661.31547
  22244562.560   116896000.35509  22244557.500    91087791.06648
  21785742.940   114484882.65109  21785742.060    89209005.45348
 15 02 26 00 58  0.0000000  0  6G16G18G19G21G22G27
  20677929.040   108663265.73209  20677925.200    84672661.58548
  21729607.800   114189899.98409  21729604.420    88979142.78648
  23799401.000   125066697.83108  23799396.220    97454550.39646
  22223882.980   116787548.20209  22223878.900    91003365.89748
  22229177.660   116815152.66709  22229172.740    91024792.86348
  21775203.700   114429498.98909  21775202.920    89165849.35448
 15 02 26 00 58 30.0000000  0  6G16G18G19G21G22G27
  20671855.100   108631346.47409  20671851.200    84647789.44248
  21725520.960   114168423.41609  21725517.480    88962407.81648
  23784804.160   124989991.10008  23784799.560    97394778.92247
  22235563.340   116848928.26409  22235559.120    91051194.50747
  22213845.080   116734579.38409  22213839.980    90962008.49948
  21764688.080   114374239.19509  21764687.320    89122789.79248
 15 02 26 00 59  0.0000000  0  6G16G18G19G21G22G27
  20665874.160   108599915.95409  20665870.160    84623298.12449
  21721525.220   114147425.52409  21721521.640    88946045.82448
  23770220.280   124913352.40108  23770215.580    97335060.46846
  22247274.200   116910468.58209  22247269.800    91099148.00147
  22198565.940   116654286.23109  22198560.540    90899442.42448
  21754196.720   114319106.77109  21754195.920    89079829.46148
 15 02 26 00 59 30.0000000  0  6G16G18G19G21G22G27
  20659986.440   108568975.55609  20659982.320    84599188.71948
  21717620.660   114126906.98609  21717617.120    88930057.36948
  23755649.460   124836782.08608  23755644.720    97275395.28347
  22259015.240   116972167.94008  22259010.800    91147225.42747
  22183340.480   116574275.60409  22183334.840    90837096.48348
  21743729.720   114264102.12009  21743728.880    89036968.70048
 15 02 26 01 00  0.0000000  0  6G16G18G19G21G22G27
  20654191.900   108538524.77509  20654187.700    84575460.83749
  21713807.100   114106866.79009  21713803.700    88914441.64048
  23741091.240   124760278.06608  23741086.760    97215781.79347
  22270785.640   117034022.24008  22270781.360    91195423.57148
  22168168.780   116494547.64109  22168162.960    90774970.81648
  21733286.760   114209223.52509  21733285.840    88994206.16548
 15 02 26 01 00 30.0000000  0  6G16G18G19G21G22G27
  20648491.560   108508569.17509  20648487.400    84552118.81848
  21710085.440   114087309.82909  21710082.140    88899202.46248
  23726546.480   124683844.62908  23726541.920    97156223.31246
  22282585.980   117096034.04009  22282581.840    91243744.44147
  22153052.160   116415109.05309  22153046.320    90713070.60448
  21722868.720   114154475.68509  21722867.660    88951545.51448
 15 02 26 01 01  0.0000000  0  6G16G18G19G21G22G27
  20642885.080   108479106.84309  20642880.980    84529161.14649
  21706455.300   114068233.32509  21706451.980    88884337.65048
  23712014.380   124607477.89908  23712009.660    97096716.76947
  22294415.320   117158197.71209  22294411.120    91292183.65847
  22137990.360   116335958.53409  22137984.580    90651394.88048
  21712474.860   114099855.44609  21712473.760    88908984.29548
 15 02 26 01 01 30.0000000  0  6G16G18G19G21G22G27
  20637372.920   108450140.46509  20637368.840    84506589.94848
  21702916.980   114049639.01209  21702913.520    88869848.58748
  23697495.400   124531179.94708  23697490.440    97037263.83446
  22306273.560   117220513.07609  22306269.360    91340741.08847
  22122984.120   116257100.03209  22122978.420    90589946.72248
  21702105.540   114045364.25109  21702104.400    88866523.62248
 15 02 26 01 02  0.0000000  0  6G16G18G19G21G22G27
  20631955.420   108421671.68809  20631951.360    84484406.48248
  21699470.680   114031528.07109  21699467.060    88855736.17448
  23682989.400   124454950.63108  23682984.160    96977864.36746
  22318160.400   117282978.73409  22318156.200    91389415.62748
  22108033.940   116178536.26409  22108028.380    90528728.19748
  21691760.860   113991002.80409  21691759.720    88824164.05448
 15 02 26 01 02 30.0000000  0  6G16G18G19G21G22G27
  20626632.700   108393700.85509  20626628.680    84462611.02048
  21696116.260   114013900.02909  21696112.620    88842000.03748
  23668496.220   124378788.71908  23668491.140    96918517.44746
  22330075.340   117345592.15809  22330071.120    91438205.29447
  22093140.080   116100268.51209  22093134.600    90467740.36748
  21681440.780   113936770.69809  21681439.740    88781905.28148
 15 02 26 01 03  0.0000000  0  6G16G18G19G21G22G27
  20621405.740   108366233.17109  20621401.780    84441207.62749
  21692854.680   113996759.70809  21692850.980    88828643.94348
  23654016.720   124302698.64508  23654011.640    96859226.51347
  22342018.800   117408355.39609  22342014.620    91487111.70547
  22078303.780   116022303.35009  22078298.300    90406988.29948
  21671146.200   113882672.32609  21671145.200    88739750.70548
 15 02 26 01 03 30.0000000  0  6G16G18G19G21G22G27
  20616274.080   108339265.97209  20616270.180    84420194.22949
  21689685.160   113980103.14309  21689681.340    88815664.80548
  23639550.160   124226676.10508  23639545.180    96799988.18247
  22353989.520   117471262.02809  22353985.360    91536129.85747
  22063524.600   115944638.26409  22063519.080    90346470.05848
  21660876.360   113828703.66609  21660875.280    88697697.20848
 15 02 26 01 04  0.0000000  0  6G16G18G19G21G22G27
  20611238.000   108312801.39509  20611234.220    84399572.48148
  21686607.960   113963931.94809  21686604.020    88803063.88748
  23625096.760   124150722.31609  23625091.720    96740803.42046
  22365987.360   117534311.67309  22365983.300    91585259.44347
  22048803.260   115867276.99009  22048797.680    90286188.55448
  21650631.460   113774866.19009  21650630.340    88655745.92648
 15 02 26 01 04 30.0000000  0  6G16G18G19G21G22G27
  20606298.420   108286844.02609  20606294.660    84379345.96249
  21683623.760   113948250.07609  21683619.820    88790844.25448
  23610657.060   124074840.61808  23610652.180    96681674.84047
  22378012.800   117597505.94109  22378008.800    91634501.72247
  22034140.720   115790224.83809  22034135.140    90226147.91848
  21640412.160   113721163.58209  21640411.080    88613899.75548
 15 02 26 01 05  0.0000000  0  6G16G18G19G21G22G27
  20601455.540   108261394.93009  20601451.800    84359515.49749
  21680732.700   113933057.82709  21680728.840    88779006.13848
  23596230.860   123999030.65608  23596226.020    96622602.16247
  22390065.440   117660842.89709  22390061.420    91683855.18647
  22019537.500   115713484.46409  22019531.920    90166350.24948
  21630218.560   113667596.17109  21630217.520    88572158.91748
 15 02 26 01 05 30.0000000  0  6G16G18G19G21G22G27
  20596709.420   108236453.49409  20596705.580    84340080.59849
  21677934.620   113918353.90109  21677930.700    88767548.53348
  23581817.900   123923290.38208  23581813.020    96563583.77446
  22402144.660   117724319.02009  22402140.580    91733317.09547
  22004993.600   115637056.17409  22004988.080    90106795.74548
  21620050.480   113614162.46309  21620049.400    88530522.26148
 15 02 26 01 06  0.0000000  0  6G16G18G19G21G22G27
  20592060.440   108212022.47109  20592056.520    84321043.44849
  21675229.820   113904140.12909  21675225.940    88756472.87948
  23567418.480   123847621.44408  23567413.700    96504620.99047
  22414250.200   117787933.67309  22414245.980    91782886.95947
  21990509.780   115560943.20509  21990504.220    90047486.95448
  21609908.140   113560863.99109  21609907.020    88488990.99948
 15 02 26 01 06 30.0000000  0  6G16G18G19G21G22G27
  20587507.700   108188097.59509  20587503.780    84302400.68549
  21672617.360   113890411.43209  21672613.460    88745775.19148
  23553031.560   123772018.34208  23553026.640    96445709.50547
  22426380.720   117851679.83908  22426376.560    91832559.27847
  21976085.340   115485142.36609  21976079.760    89988421.35648
  21599790.580   113507695.77309  21599789.480    88447561.21248
 15 02 26 01 07  0.0000000  0  6G16G18G19G21G22G27
  20583053.460   108164690.38309  20583049.560    84284161.30049
  21670099.340   113877178.70909  21670095.340    88735463.99548
  23538659.220   123696491.67408  23538654.360    96386857.58447
  22438537.860   117915566.26708  22438533.760    91882340.90647
  21961722.800   115409666.75409  21961717.260    89929609.19848
  21589699.880   113454668.84209  21589698.820    88406241.54448
 15 02 26 01 07 30.0000000  0  6G16G18G19G21G22G27
  20578697.020   108141796.80009  20578693.020    84266322.13549
  21667674.640   113864436.77009  21667670.580    88725535.20748
  23524300.500   123621036.22808  23524295.520    96328061.14747
  22450720.300   117979585.45509  22450716.180    91932225.98147
  21947421.540   115334513.25109  21947416.020    89871048.04848
  21579635.080   113401778.18909  21579634.060    88365028.04448
 15 02 26 01 08  0.0000000  0  6G16G18G19G21G22G27
  20574438.520   108119417.88409  20574434.460    84248884.01749
  21665343.440   113852186.35409  21665339.480    88715989.42648
  23509955.420   123545651.94008  23509950.220    96269320.13947
  22462927.760   118043736.27408  22462923.600    91982213.62047
  21933181.940   115259683.85809  21933176.440    89812739.44048
  21569596.320   113349024.26009  21569595.360    88323921.09048
 15 02 26 01 08 30.0000000  0  6G16G18G19G21G22G27
  20570278.520   108097556.91309  20570274.480    84231849.49049
  21663106.200   113840429.77909  21663102.360    88706828.46848
  23495624.300   123470341.14408  23495619.040    96210636.42147
  22475160.440   118108018.92909  22475156.220    92032304.00347
  21919004.900   115185182.96609  21918999.320    89754686.79548
  21559584.060   113296409.57309  21559583.140    88282922.63348
 15 02 26 01 09  0.0000000  0  6G16G18G19G21G22G27
  20566217.140   108076214.31409  20566213.120    84215218.88749
  21660962.800   113829166.44809  21660959.100    88698051.85248
  23481307.040   123395103.08608  23481301.900    96152009.39347
  22487417.600   118172430.91109  22487413.440    92082495.14147
  21904890.620   115111012.02109  21904884.960    89696891.26848
  21549598.220   113243933.75309  21549597.340    88242032.40048
 15 02 26 01 09 30.0000000  0  6G16G18G19G21G22G27
  20562254.600   108055391.26209  20562250.640    84198993.12849
  21658913.420   113818397.15709  21658909.780    88689660.19248
  23467003.520   123319937.65708  23466998.260    96093438.93747
  22499699.140   118236970.68109  22499694.960    92132785.87147
  21890839.680   115037173.73609  21890833.940    89639354.97048
  21539638.960   113191597.45209  21539638.040    88201250.86748
 15 02 26 01 10  0.0000000  0  6G16G18G19G21G22G27
  20558391.120   108035088.67209  20558387.220    84183172.92049
  21656958.140   113808122.00409  21656954.440    88681653.58448
  23452713.760   123244844.79809  23452708.480    96034925.06046
  22512004.580   118301636.10509  22512000.340    92183174.49147
  21876852.380   114963669.97809  21876846.600    89582079.31548
  21529706.340   113139401.01109  21529705.340    88160578.30748
 15 02 26 01 10 30.0000000  0  6G16G18G19G21G22G27
  20554627.200   108015309.32009  20554623.340    84167760.43849
  21655097.280   113798342.69909  21655093.440    88674033.35448
  23438438.260   123169826.47309  23438433.020    95976469.21847
  22524334.060   118366427.83909  22524329.780    92233661.55847
  21862929.380   114890504.43209  21862923.640    89525067.20548
  21519800.740   113087346.55809  21519799.700    88120016.41248
 15 02 26 01 11  0.0000000  0  6G16G18G19G21G22G27
  20550962.840   107996053.21009  20550959.020    84152755.68349
  21653330.640   113789058.72709  21653326.660    88666799.10548
  23424176.660   123094881.43509  23424171.480    95918070.50047
  22536686.900   118431342.33808  22536682.660    92284244.28547
  21849070.960   114817678.14009  21849065.260    89468319.44548
  21509922.060   113035433.48109  21509921.020    88079564.66848
 15 02 26 01 11 30.0000000  0  6G16G18G19G21G22G27
  20547399.100   107977325.70609  20547395.240    84138162.81649
  21651659.000   113780274.51309  21651655.020    88659954.26448
  23409929.800   123020014.08008  23409924.840    95859732.30147
  22549063.660   118496382.64609  22549059.280    92334925.04447
  21835278.480   114745197.75409  21835272.700    89411841.23648
  21500071.120   112983666.39709  21500070.140    88039226.68948
 15 02 26 01 12  0.0000000  0  6G16G18G19G21G22G27
  20543934.840   107959121.09109  20543931.040    84123977.40049
  21650081.220   113771983.39609  21650077.320    88653493.64548
  23395696.560   122945218.12008  23395691.660    95801449.78347
  22561462.620   118561539.97508  22561458.380    92385696.96247
  21821550.980   114673058.49709  21821545.120    89355628.83748
  21490246.720   112932038.99509  21490245.760    87998997.55148
 15 02 26 01 12 30.0000000  0  6G16G18G19G21G22G27
  20540570.300   107941440.76309  20540566.580    84110200.51549
  21648597.480   113764185.96909  21648593.580    88647417.73748
  23381477.180   122870494.06909  23381472.180    95743223.25347
  22573883.780   118626813.64308  22573879.560    92436559.55647
  21807889.000   114601263.68509  21807883.060    89299684.83848
  21480449.100   112880552.35409  21480448.160    87958878.10548
 15 02 26 01 13  0.0000000  0  6G16G18G19G21G22G27
  20537306.580   107924290.02009  20537302.880    84096836.30648
  21647208.620   113756887.04609  21647204.600    88641730.28248
  23367272.300   122795846.14908  23367267.020    95685056.04447
  22586327.540   118692206.28208  22586323.440    92487514.85647
  21794293.540   114529819.35209  21794287.680    89244013.94648
  21470679.220   112829211.35909  21470678.240    87918872.13448
 15 02 26 01 13 30.0000000  0  6G16G18G19G21G22G27
  20534145.100   107907676.41909  20534141.400    84083890.62349
  21645915.880   113750093.54109  21645911.840    88636436.63848
  23353083.040   122721280.75009  23353077.700    95626953.18947
  22598794.780   118757722.40708  22598790.740    92538566.36547
  21780766.220   114458733.68109  21780760.460    89188622.51948
  21460938.440   112778022.99909  21460937.360    87878985.09748
 15 02 26 01 14  0.0000000  0  6G16G18G19G21G22G27
  20531083.760   107891589.11609  20531080.140    84071355.06249
  21644716.940   113743793.59909  21644712.980    88631527.60148
  23338907.320   122646786.89909  23338902.000    95568906.00447
  22611283.080   118823348.75908  22611279.020    92589703.78047
  21767305.600   114387998.09509  21767299.900    89133503.87348
  21451224.600   112726976.15209  21451223.480    87839208.33748
 15 02 26 01 14 30.0000000  0  6G16G18G19G21G22G27
  20528124.340   107876037.18009  20528120.760    84059236.66849
  21643613.440   113737995.42209  21643609.580    88627009.53848
  23324746.560   122572372.61008  23324741.380    95510920.86046
  22623793.700   118889092.18708  22623789.660    92640932.41147
  21753913.600   114317622.47809  21753907.840    89078665.72848
  21441539.320   112676079.48609  21441538.120    87799548.59748
 15 02 26 01 15  0.0000000  0  6G16G18G19G21G22G27
  20525266.740   107861020.12809  20525263.080    84047535.06749
  21642605.080   113732697.12409  21642601.380    88622880.99948
  23310600.420   122498035.75608  23310595.640    95452996.06347
  22636325.840   118954948.77808  22636321.800    92692249.23947
  21740590.200   114247607.12109  21740584.340    89024108.31548
  21431882.300   112625331.60109  21431881.080    87760004.79748
 15 02 26 01 15 30.0000000  0  6G16G18G19G21G22G27
  20522510.780   107846537.02509  20522507.000    84036249.53249
  21641691.620   113727897.45109  21641688.100    88619141.00248
  23296468.900   122423775.49909  23296464.420    95395130.93447
  22648878.980   119020915.60609  22648874.900    92743651.95247
  21727335.280   114177952.13609  21727329.400    88969831.72548
  21422253.400   112574731.40109  21422252.100    87720576.07548
 15 02 26 01 16  0.0000000  0  6G16G18G19G21G22G27
  20519856.620   107832588.60009  20519852.700    84025380.61349
  21640873.180   113723596.48809  21640869.720    88615789.59848
  23282352.160   122349591.86008  23282347.700    95337325.52847
  22661452.820   119086990.97208  22661448.580    92795139.23847
  21714149.320   114108660.26809  21714143.600    88915838.05048
  21412652.680   112524279.54209  21412651.340    87681262.93048
 15 02 26 01 16 30.0000000  0  6G16G18G19G21G22G27
  20517304.060   107819173.82109  20517299.940    84014927.52649
  21640149.460   113719792.95909  21640145.960    88612825.80348
  23268249.860   122275483.17509  23268245.320    95279578.50647
  22674046.640   119153171.71109  22674042.300    92846708.62547
  21701032.460   114039731.63409  21701027.000    88862127.42648
  21403079.980   112473974.95309  21403078.640    87642064.54348
 15 02 26 01 17  0.0000000  0  6G16G18G19G21G22G27
  20514853.680   107806296.75109  20514849.520    84004893.44949
  21639520.840   113716489.06309  21639517.200    88610251.34948
  23254162.300   122201451.84609  23254157.640    95221891.77147
  22686660.720   119219458.43708  22686656.320    92898360.62347
  21687985.740   113971170.96509  21687980.480    88808703.55048
  21393535.900   112423820.63209  21393534.600    87602983.25448
 15 02 26 01 17 30.0000000  0  6G16G18G19G21G22G27
  20512506.280   107793961.11509  20512502.160    83995281.25949
  21638987.860   113713687.85009  21638984.100    88608068.58248
  23240090.200   122127501.49708  23240085.260    95164268.12847
  22699295.280   119285853.20109  22699290.860    92950096.79047
  21675010.140   113902983.31409  21675004.880    88755570.32448
  21384021.160   112373820.23809  21384019.880    87564021.90648
 15 02 26 01 18  0.0000000  0  6G16G18G19G21G22G27
  20510261.420   107782164.37709  20510257.320    83986088.99049
  21638549.900   113711386.30509  21638546.100    88606275.18048
  23226032.920   122053629.30608  23226027.860    95106705.39947
  22711949.420   119352351.02108  22711945.000    93001913.26047
  21662105.320   113835167.78309  21662099.960    88702727.07048
  21374535.240   112323971.33709  21374533.940    87525178.60848
 15 02 26 01 18 30.0000000  0  6G16G18G19G21G22G27
  20508119.980   107770911.09509  20508115.880    83977320.19949
  21638207.620   113709587.95309  21638203.920    88604873.86348
  23211991.080   121979838.76309  23211985.960    95049206.27647
  22724623.560   119418954.02408  22724619.100    93053811.69547
  21649272.400   113767730.10209  21649266.900    88650178.23348
  21365078.860   112274277.93709  21365077.660    87486456.48348
 15 02 26 01 19  0.0000000  0  6G16G18G19G21G22G27
  20506081.820   107760200.27909  20506077.680    83968974.09649
  21637960.700   113708290.85309  21637957.080    88603863.13748
  23197964.420   121906128.39308  23197959.300    94991769.67147
  22737317.000   119485658.71208  22737312.620    93105789.35347
  21636511.460   113700670.51809  21636505.760    88597924.01448
  21355651.800   112224739.04909  21355650.800    87447854.76048
 15 02 26 01 19 30.0000000  0  6G16G18G19G21G22G27
  20504146.640   107750030.72109  20504142.460    83961049.75749
  21637808.920   113707493.43309  21637805.240    88603241.77348
  23183952.640   121832496.45409  23183947.600    94934394.19047
  22750029.200   119552461.82608  22750024.760    93157843.73047
  21623822.500   113633988.79209  21623816.580    88545964.23048
  21346253.900   112175353.27209  21346253.040    87409372.34048
 15 02 26 01 20  0.0000000  0  6G16G18G19G21G22G27
  20502315.160   107740406.54109  20502311.040    83953550.39249
  21637752.920   113707198.55409  21637749.080    88603012.00248
  23169956.440   121758946.42109  23169951.440    94877082.45347
  22762760.340   119619364.69408  22762755.980    93209975.81547
  21611206.460   113567690.47109  21611200.440    88494303.20948
  21336886.020   112126124.43609  21336885.100    87371012.20248
 15 02 26 01 20 30.0000000  0  6G16G18G19G21G22G27
  20500586.780   107731324.47909  20500582.840    83946473.46249
  21637791.820   113707402.54409  21637787.900    88603170.96748
  23155975.180   121685474.62709  23155970.140    94819831.70547
  22775509.500   119686362.15108  22775505.180    93262181.61947
  21598663.000   113501773.86309  21598657.040    88442939.62848
  21327547.460   112077049.28809  21327546.400    87332771.82649
 15 02 26 01 21  0.0000000  0  6G16G18G19G21G22G27
  20498962.860   107722791.07409  20498959.060    83939824.05449
  21637926.620   113708110.87009  21637922.740    88603722.90648
  23142010.000   121612087.21108  23142004.960    94762646.70747
  22788277.640   119753458.98709  22788273.360    93314464.85647
  21586193.520   113436246.78709  21586187.740    88391879.58148
  21318239.300   112028134.39909  21318238.240    87294656.33348
 15 02 26 01 21 30.0000000  0  6G16G18G19G21G22G27
  20497443.420   107714806.16809  20497439.620    83933602.04549
  21638157.160   113709322.60809  21638153.280    88604667.12548
  23128060.740   121538783.46809  23128055.800    94705526.93447
  22801064.040   119820652.24308  22801059.880    93366823.23347
  21573798.400   113371110.33009  21573792.680    88341123.90748
  21308961.520   111979379.53309  21308960.500    87256665.53748
 15 02 26 01 22  0.0000000  0  6G16G18G19G21G22G27
  20496027.920   107707367.43409  20496024.040    83927805.61549
  21638482.920   113711034.49409  21638479.060    88606001.06248
  23114126.800   121465560.40208  23114121.920    94648470.03147
  22813867.980   119887937.48908  22813863.800    93419253.29247
  21561477.440   113306363.36709  21561471.720    88290671.73448
  21299713.760   111930782.21609  21299712.740    87218797.49849
 15 02 26 01 22 30.0000000  0  6G16G18G19G21G22G27
  20494716.740   107700477.41809  20494712.840    83922436.77149
  21638904.160   113713248.38009  21638900.320    88607726.16048
  23100208.660   121392420.27809  23100203.760    94591477.76047
  22826689.380   119955314.67408  22826685.260    93471754.97947
  21549231.400   113242009.95809  21549225.620    88240526.22048
  21290496.460   111882345.00609  21290495.400    87181054.21349
 15 02 26 01 23  0.0000000  0  6G16G18G19G21G22G27
  20493509.380   107694133.22909  20493505.580    83917493.24349
  21639420.200   113715960.80009  21639416.380    88609839.74248
  23086305.820   121319360.23708  23086300.840    94534547.81148
  22839527.580   120022779.83608  22839523.460    93524325.22747
  21537059.920   113178048.40409  21537054.080    88190686.05748
  21281309.120   111834065.42909  21281308.060    87143433.77449
 15 02 26 01 23 30.0000000  0  6G16G18G19G21G22G27
  20492407.600   107688343.44609  20492403.840    83912981.72249
  21640032.640   113719179.29709  21640028.840    88612347.66848
  23072419.700   121246387.69809  23072414.620    94477686.14847
  22852383.700   120090338.92208  22852379.540    93576968.66247
  21524964.880   113114488.72109  21524959.040    88141159.04348
  21272153.340   111785951.49109  21272152.320    87105942.40049
 15 02 26 01 24  0.0000000  0  6G16G18G19G21G22G27
  20491410.400   107683103.07509  20491406.620    83908898.31049
  21640740.320   113722897.97309  21640736.560    88615245.34148
  23058549.340   121173497.99108  23058544.160    94420888.99447
  22865256.340   120157984.81808  22865252.160    93629679.73547
  21512945.580   113051327.31009  21512939.840    88091942.36548
  21263028.260   111737998.59109  21263027.260    87068576.49949
 15 02 26 01 24 30.0000000  0  6G16G18G19G21G22G27
  20490519.320   107678420.41009  20490515.560    83905249.47849
  21641544.580   113727124.27509  21641540.860    88618538.56048
  23044696.020   121100698.54508  23044690.940    94364162.11847
  22878146.500   120225723.05508  22878142.240    93682462.76747
  21501003.860   112988573.50509  21500998.160    88043043.30348
  21253935.380   111690214.87709  21253934.360    87031342.44049
 15 02 26 01 25  0.0000000  0  6G16G18G19G21G22G27
  20489732.700   107674286.74409  20489728.900    83902028.43149
  21642443.760   113731848.97709  21642439.880    88622220.15648
  23030858.180   121027980.77009  23030853.260    94307498.98447
  22891052.500   120293544.32008  22891048.140    93735310.50847
  21489138.380   112926220.52509  21489132.760    87994456.57848
  21244873.120   111642592.25009  21244872.080    86994233.90849
 15 02 26 01 25 30.0000000  0  6G16G18G19G21G22G27
  20489051.240   107670705.26409  20489047.300    83899237.66449
  21643438.140   113737073.93309  21643434.060    88626291.55648
  23017036.480   120955347.28308  23017031.560    94250901.46047
  22903974.240   120361448.74508  22903969.940    93788223.03347
  21477350.100   112864272.65409  21477344.500    87946185.52348
  21235842.100   111595133.77509  21235840.980    86957253.27749
 15 02 26 01 26  0.0000000  0  6G16G18G19G21G22G27
  20488475.380   107667678.72409  20488471.280    83896879.30849
  21644528.200   113742801.80609  21644524.000    88630754.84048
  23003231.480   120882801.33709  23003226.420    94194372.17247
  22916912.140   120429437.80308  22916907.760    93841201.50547
  21465639.720   112802734.08609  21465634.120    87898233.38748
  21226842.940   111547842.78109  21226841.800    86920403.15549
 15 02 26 01 26 30.0000000  0  6G16G18G19G21G22G27
  20488004.820   107665205.82509  20488000.680    83894952.37049
  21645713.320   113749029.75609  21645709.240    88635607.78848
  22989442.700   120810340.61708  22989437.500    94137909.27547
  22929865.440   120497507.78308  22929861.120    93894243.04647
  21454007.160   112741604.63709  21454001.620    87850600.06248
  21217875.300   111500717.42009  21217874.140    86883682.09549
 15 02 26 01 27  0.0000000  0  6G16G18G19G21G22G27
  20487640.020   107663288.64109  20487635.940    83893458.45849
  21646993.820   113755759.15509  21646989.780    88640851.47648
  22975670.560   120737967.14109  22975665.180    94081514.36347
  22942834.240   120565658.90308  22942829.900    93947347.81747
  21442453.180   112680887.98609  21442447.680    87803288.39448
  21208939.620   111453760.27309  21208938.480    86847092.10849
 15 02 26 01 27 30.0000000  0  6G16G18G19G21G22G27
  20487381.460   107661929.24509  20487377.320    83892399.17849
  21648369.920   113762991.10009  21648365.900    88646486.76848
  22961915.420   120665682.77209  22961909.820    94025188.91847
  22955818.420   120633891.44708  22955814.120    94000516.00947
  21430978.420   112620587.58409  21430972.860    87756301.08248
  21200036.360   111406973.58309  21200035.260    86810634.95349
 15 02 26 01 28  0.0000000  0  6G16G18G19G21G22G27
  20487228.640   107661125.97809  20487224.480    83891773.24649
  21649841.400   113770724.16609  21649837.440    88652512.53448
  22948176.920   120593486.10809  22948171.300    93968931.78347
  22968817.400   120702201.80908  22968813.040    94053744.84947
  21419582.860   112560703.45609  21419577.260    87709638.12548
  21191165.380   111360356.51009  21191164.320    86774309.95849
 15 02 26 01 28 30.0000000  0  6G16G18G19G21G22G27
  20487181.540   107660878.73909  20487177.460    83891580.59049
  21651408.000   113778956.88109  21651404.080    88658927.64448
  22934454.940   120521376.95008  22934449.520    93912742.82147
  22981830.960   120770588.45208  22981826.660    94107033.13846
  21408266.700   112501236.65309  21408260.980    87663300.36948
  21182326.720   111313909.17509  21182325.660    86738117.24749
 15 02 26 01 29  0.0000000  0  7G04G16G18G19G21G22G27
  24572754.400   129130703.95707  24572754.240   100621319.39144
  20487241.600   107661194.47009  20487237.560    83891826.60649
  21653070.860   113787695.09009  21653066.940    88665736.63548
  22920750.820   120449361.96008  22920745.720    93856627.26048
  22994860.040   120839056.48808  22994855.660    94160384.86947
  21397031.540   112442196.00309  21397025.880    87617294.67248
  21173521.760   111267638.76109  21173520.700    86702062.38149
 15 02 26 01 29 30.0000000  0  7G04G16G18G19G21G22G27
  24554207.320   129033237.44307  24554206.760   100545371.51545
  20487415.680   107662109.18709  20487411.580    83892539.36949
  21654836.640   113796973.85409  21654832.660    88672966.84448
  22907071.460   120377477.00808  22907066.400    93800613.01447
  23007910.860   120907639.26408  23007906.600    94213825.98247
  21385884.500   112383618.38809  21385878.940    87571649.78548
  21164757.380   111221581.35009  21164756.300    86666173.49749
 15 02 26 01 30  0.0000000  0  7G04G16G18G19G21G22G27
  24535677.960   128935864.52608  24535677.280   100469496.58645
  20487686.580   107663532.61609  20487682.460    83893648.52249
  21656687.900   113806702.31509  21656683.840    88680547.46348
  22893399.600   120305631.83109  22893394.600    93744629.79647
  23020966.140   120976245.76508  23020962.140    94267285.56647
  21374808.760   112325414.90609  21374803.240    87526296.42648
  21156016.500   111175647.36609  21156015.380    86630380.78349
 15 02 26 01 30 30.0000000  0  7G04G16G18G19G21G22G27
  24517177.600   128838644.84808  24517177.040   100393741.09044
  20488065.540   107665523.83609  20488061.440    83895200.11549
  21658636.020   113816939.66809  21658631.900    88688524.62748
  22879746.660   120233886.09609  22879741.720    93688724.03148
  23034036.900   121044933.65308  23034033.120    94320808.58547
  21363816.020   112267647.08409  21363810.460    87481282.54148
  21147310.500   111129896.78009  21147309.360    86594730.97849
 15 02 26 01 31  0.0000000  0  7G04G16G18G19G21G22G27
  24498704.620   128741568.87207  24498703.900   100318097.50744
  20488550.800   107668073.67909  20488546.720    83897187.00649
  21660678.800   113827674.71209  21660674.760    88696889.60348
  22866110.940   120162229.92209  22866106.120    93632888.07447
  23047121.000   121113691.09408  23047117.280    94374385.80447
  21352904.460   112210306.20509  21352898.860    87436601.34948
  21138637.580   111084319.97309  21138636.360    86559216.59149
 15 02 26 01 31 30.0000000  0  7G04G16G18G19G21G22G27
  24480259.680   128644640.57107  24480258.820   100242569.02044
  20489142.960   107671185.43809  20489138.880    83899611.74949
  21662816.820   113838910.18309  21662812.880    88705644.51748
  22852493.020   120090666.77009  22852488.200    93577124.60347
  23060218.840   121182520.15408  23060215.120    94428018.83547
  21342075.060   112153397.11109  21342069.420    87392256.60048
  21129998.500   111038921.03609  21129997.180    86523840.79649
 15 02 26 01 32  0.0000000  0  7G04G16G18G19G21G22G27
  24461843.060   128547860.61607  24461842.100   100167156.13144
  20489842.060   107674858.99409  20489837.880    83902474.25849
  21665049.860   113850645.00809  21665045.940    88714788.54548
  22838892.660   120019196.75109  22838887.800    93521433.70147
  23073329.880   121251419.27608  23073326.060    94481706.44647
  21331328.140   112096921.32909  21331322.480    87348249.50848
  21121393.380   110993700.45209  21121391.940    86488603.97549
 15 02 26 01 32 30.0000000  0  7G04G16G18G19G21G22G27
  24443454.520   128451228.58308  24443453.260   100091858.48244
  20490647.780   107679092.91809  20490643.580    83905773.40849
  21667377.720   113862878.07409  21667373.780    88724320.79848
  22825309.840   119947819.02809  22825304.900    93465814.70547
  23086453.740   121320385.48108  23086449.900    94535446.34947
  21320663.720   112040879.30809  21320658.120    87304580.40048
  21112822.120   110948657.83009  21112820.640    86453505.82849
 15 02 26 01 33  0.0000000  0  7G04G16G18G19G21G22G27
  24425094.240   128354744.23708  24425092.800   100016675.91644
  20491560.020   107683886.78809  20491555.860    83909508.88049
  21669800.080   113875607.29109  21669796.040    88734239.66848
  22811744.620   119876533.16908  22811739.600    93410267.27648
  23099589.940   121389416.43908  23099586.280    94589236.69747
  21310081.940   111985272.15709  21310076.460    87261250.16148
  21104284.520   110903792.98809  21104283.180    86418546.22349
 15 02 26 01 33 30.0000000  0  7G04G16G18G19G21G22G27
  24406762.300   128258408.07808  24406760.620    99941608.80244
  20492578.880   107689241.21109  20492574.800    83913681.14449
  21672316.780   113888832.29409  21672312.720    88744544.86648
  22798196.960   119805339.19108  22798191.820    93354791.43748
  23112738.200   121458510.79909  23112734.300    94643076.44446
  21299583.040   111930101.10309  21299577.700    87218259.73148
  21095780.820   110859106.59409  21095779.640    86383725.65049
 15 02 26 01 34  0.0000000  0  7G04G16G18G19G21G22G27
  24388459.500   128162225.25908  24388457.760    99866661.22444
  20493705.200   107695160.62509  20493701.240    83918293.67749
  21674928.460   113902556.94709  21674924.540    88755239.39848
  22784667.820   119734242.50508  22784662.620    93299391.41448
  23125899.360   121527672.51808  23125895.220    94696968.69246
  21289168.400   111875372.78009  21289163.120    87175614.30048
  21087312.140   110814604.19509  21087311.100    86349048.46049
 15 02 26 01 34 30.0000000  0  7G04G16G18G19G21G22G27
  24370186.300   128066198.62408  24370184.560    99791835.34244
  20494939.280   107701646.21109  20494935.380    83923347.37849
  21677635.340   113916782.31209  21677631.520    88766324.10548
  22771157.360   119663244.64309  22771152.220    93244068.44547
  23139073.160   121596901.27208  23139068.860    94750913.17947
  21278838.660   111821090.02109  21278833.360    87133316.04448
  21078878.940   110770288.04009  21078878.000    86314516.39549
 15 02 26 01 35  0.0000000  0  7G04G16G18G19G21G22G27
  24351941.620   127970322.33908  24351939.900    99717126.60844
  20496280.220   107708692.83609  20496276.320    83928838.25049
  21680436.240   113931501.70609  21680432.460    88777793.77048
  22757664.600   119592339.89709  22757659.520    93188818.02647
  23152258.280   121666189.52708  23152254.140    94804904.00647
  21268593.060   111767248.65209  21268587.640    87091361.74648
  21070480.240   110726152.92509  21070479.380    86280125.40549
 15 02 26 01 35 30.0000000  0  7G04G16G18G19G21G22G27
  24333726.520   127874601.92508  24333724.760    99642539.29744
  20497728.780   107716304.74709  20497724.900    83934769.59749
  21683331.920   113946718.89309  21683328.180    88789651.31748
  22744190.560   119521533.50908  22744185.500    93133644.21648
  23165455.480   121735541.24408  23165451.240    94858944.29746
  21258432.720   111713854.99809  21258427.100    87049756.30448
  21062117.120   110682204.28309  21062116.200    86245879.70449
 15 02 26 01 36  0.0000000  0  7G04G16G18G19G21G22G27
  24315541.260   127779038.15908  24315539.480    99568074.07744
  20499284.960   107724482.37809  20499281.060    83941141.77349
  21686322.160   113962432.98909  21686318.460    88801896.06348
  22730735.220   119450825.73008  22730730.300    93078547.26248
  23178664.280   121804954.21708  23178660.160    94913032.31346
  21248357.840   111660910.54409  21248352.060    87008500.89248
  21053789.720   110638442.88109  21053788.620    86211779.91449
 15 02 26 01 36 30.0000000  0  7G04G16G18G19G21G22G27
  24297385.300   127683628.01708  24297383.480    99493728.53744
  20500948.080   107733221.99609  20500944.100    83947951.85149
  21689406.280   113978640.21709  21689402.580    88814525.07848
  22717298.180   119380213.58509  22717293.180    93023524.81548
  23191883.980   121874424.18608  23191879.860    94967164.73246
  21238368.060   111608413.23709  21238362.100    86967593.89248
  21045497.440   110594866.16409  21045496.200    86177824.02749
 15 02 26 01 37  0.0000000  0  7G04G16G18G19G21G22G27
  24279258.820   127588372.92408  24279257.220    99419503.89444
  20502718.180   107742523.90809  20502714.140    83955200.09649
  21692584.220   113995340.35709  21692580.500    88827538.17848
  22703879.600   119309698.02409  22703874.360    92968577.65148
  23205114.380   121943950.60408  23205110.280    95021341.15646
  21228463.820   111556365.55509  21228457.740    86927037.26448
  21037240.600   110551475.48909  21037239.240    86144013.12149
 15 02 26 01 37 30.0000000  0  7G04G16G18G19G21G22G27
  24261162.840   127493278.11708  24261161.240    99345404.08245
  20504596.220   107752393.25609  20504592.140    83962890.48749
  21695856.660   114012536.98509  21695852.940    88840938.14848
  22690480.420   119239284.11709  22690475.020    92913709.68047
  23218356.100   122013536.56208  23218352.020    95075563.97846
  21218646.180   111504773.26209  21218640.100    86886835.47648
  21029020.160   110508276.31209  21029018.700    86110351.42149
 15 02 26 01 38  0.0000000  0  7G04G16G18G19G21G22G27
  24243097.240   127398342.29608  24243095.440    99271428.16644
  20506581.800   107762827.84109  20506577.800    83971021.32649
  21699222.980   114030227.38409  21699219.320    88854722.87548
  22677100.240   119168970.27109  22677094.800    92858919.68447
  23231608.480   122083178.56008  23231604.460    95129830.45146
  21208915.120   111453636.27209  21208909.140    86846988.47648
  21020835.820   110465267.36009  21020834.340    86076837.94948
 15 02 26 01 38 30.0000000  0  7G04G16G18G19G21G22G27
  24225061.880   127303565.69008  24225060.000    99197576.29445
  20508674.900   107773827.03009  20508670.940    83979592.11849
  21702683.100   114048410.40609  21702679.440    88868891.46948
  22663738.940   119098756.42309  22663733.560    92804207.61848
  23244871.260   122152875.17508  23244867.280    95184139.50447
  21199270.740   111402955.48309  21199264.940    86807496.97048
  21012687.720   110422449.11209  21012686.280    86043473.08149
 15 02 26 01 39  0.0000000  0  7G04G16G18G19G21G22G27
  24207056.680   127208947.43408  24207054.600    99123847.78944
  20510875.160   107785389.42709  20510871.240    83988601.76649
  21706236.620   114067083.64709  21706232.820    88883442.05448
  22650396.400   119028641.24409  22650391.100    92749572.42748
  23258143.860   122222623.50108  23258140.080    95238488.83246
  21189713.140   111352731.01809  21189707.560    86768361.02548
  21004575.760   110379820.79309  21004574.400    86010256.20549
 15 02 26 01 39 30.0000000  0  7G04G16G18G19G21G22G27
  24189082.220   127114491.11908  24189080.280    99050245.49544
  20513183.040   107797517.62809  20513179.140    83998052.30849
  21709883.860   114086249.58309  21709880.040    88898376.55948
  22637073.400   118958628.58509  22637068.140    92695017.11748
  23271426.700   122292425.20408  23271423.000    95292879.76246
  21180243.180   111302966.99609  21180237.800    86729583.88248
  20996500.680   110337386.48709  20996499.480    85977190.52249
 15 02 26 01 40  0.0000000  0  7G04G16G18G19G21G22G27
  24171138.980   127020198.94108  24171137.140    98976771.13145
  20515598.880   107810213.33909  20515595.060    84007945.05849
  21713624.780   114105908.19309  21713620.920    88913694.95848
  22623770.220   118888720.31209  22623765.120    92640543.14648
  23284719.820   122362280.80608  23284716.100    95347312.69046
  21170861.560   111253666.69109  21170856.300    86691168.05648
  20988462.960   110295148.37709  20988461.880    85944277.70949
 15 02 26 01 40 30.0000000  0  7G04G16G18G19G21G22G27
  24153226.680   126926069.75708  24153224.920    98903423.76345
  20518122.440   107823474.81509  20518118.720    84018278.67249
  21717459.120   114126057.61209  21717455.180    88929395.80048
  22610486.600   118818914.87009  22610481.580    92586149.30548
  23298022.520   122432187.25008  23298018.900    95401785.23247
  21161568.280   111204830.18309  21161562.960    86653113.63848
  20980462.460   110253105.76509  20980461.420    85911517.23749
 15 02 26 01 41  0.0000000  0  7G04G16G18G19G21G22G27
  24135345.380   126832102.72908  24135343.740    98830202.78145
  20520753.300   107837299.85709  20520749.580    84029051.42149
  21721386.280   114146694.70409  21721382.300    88945476.65348
  22597222.440   118749211.26009  22597217.280    92531834.82447
  23311334.360   122502141.50408  23311330.880    95456295.02246
  21152363.200   111156456.74609  21152357.780    86615420.05948
  20972498.980   110211257.63209  20972497.920    85878908.29748
 15 02 26 01 41 30.0000000  0  7G04G16G18G19G21G22G27
  24117495.460   126738300.33808  24117493.640    98757110.06045
  20523491.780   107851690.18909  20523487.940    84040264.66149
  21725406.420   114167820.92709  21725402.460    88961938.65748
  22583978.180   118679611.98009  22583972.860    92477601.62048
  23324655.460   122572144.41008  23324652.000    95510842.72046
  21143246.940   111108549.77209  21143241.380    86578089.96048
  20964573.040   110169606.94109  20964572.000    85846453.21849
 15 02 26 01 42  0.0000000  0  7G04G16G18G19G21G22G27
  24099677.240   126644665.19108  24099675.040    98684147.63744
  20526338.220   107866648.08209  20526334.280    84051920.15249
  21729519.720   114189437.19409  21729515.940    88978782.49148
  22570754.320   118610119.62209  22570748.940    92423451.74948
  23337986.040   122642196.67608  23337982.460    95565428.90546
  21134220.060   111061112.82009  21134214.360    86541126.10748
  20956685.280   110128156.66309  20956684.240    85814154.29249
 15 02 26 01 42 30.0000000  0  7G04G16G18G19G21G22G27
  24081890.680   126551196.77608  24081888.180    98611315.10844
  20529292.280   107882172.02709  20529288.340    84064016.71849
  21733725.900   114211541.55309  21733722.280    88996006.66548
  22557550.520   118540733.13309  22557545.160    92369384.36847
  23351325.540   122712295.99308  23351322.120    95620051.70346
  21125282.540   111014145.96909  21125276.800    86504528.55548
  20948835.600   110086906.41409  20948834.600    85782011.23449
 15 02 26 01 43  0.0000000  0  7G04G16G18G19G21G22G27
  24064135.880   126457895.40808  24064133.480    98538612.75545
  20532353.900   107898261.08509  20532350.020    84076553.64049
  21738024.760   114234132.64809  21738021.260    89013610.12448
  22544366.780   118471452.78609  22544361.540    92315399.68748
  23364673.820   122782440.92108  23364670.320    95674710.06646
  21116434.700   110967650.59509  21116429.000    86468298.39748
  20941024.040   110045856.80109  20941023.120    85750024.53649
 15 02 26 01 43 30.0000000  0  7G04G16G18G19G21G22G27
  24046412.720   126364760.58208  24046410.580    98466040.17445
  20535522.840   107914914.10609  20535519.020    84089530.01649
  21742415.880   114257208.28609  21742412.440    89031591.15148
  22531203.220   118402278.01909  22531198.100    92261497.28448
  23378030.380   122852629.08808  23378026.360    95729402.18746
  21107676.600   110921626.68909  21107670.900    86432435.62848
  20933250.580   110005007.57909  20933249.800    85718193.98949
 15 02 26 01 44  0.0000000  0  7G04G16G18G19G21G22G27
  24028722.320   126271798.29008  24028720.640    98393602.11045
  20538800.020   107932136.04509  20538796.260    84102949.70349
  21746900.100   114280773.14809  21746896.640    89049953.38148
  22518060.940   118333215.06609  22518055.840    92207682.02648
  23391395.760   122922864.86708  23391391.920    95784131.30646
  21099009.540   110876081.16009  21099003.920    86396945.61348
  20925516.520   109964365.19609  20925515.820    85686524.60749
 15 02 26 01 44 30.0000000  0  7G04G16G18G19G21G22G27
  24011063.740   126179002.74008  24011062.420    98321293.95345
  20542184.340   107949920.54609  20542180.560    84116807.75349
  21751475.960   114304819.67209  21751472.520    89068690.94048
  22504938.800   118264257.83409  22504933.620    92153949.12648
  23404768.900   122993140.63808  23404764.860    95838891.68446
  21090432.480   110831008.62109  21090427.020    86361824.16748
  20917820.880   109923924.11609  20917820.160    85655012.09349
 15 02 26 01 45  0.0000000  0  7G04G16G18G19G21G22G27
  23993438.340   126086381.38208  23993437.340    98249121.52345
  20545676.940   107968273.60809  20545673.040    84131108.83249
  21756144.540   114329353.51509  21756141.060    89087808.22448
  22491838.060   118195413.26209  22491832.920    92100304.01548
  23418150.480   123063461.38108  23418146.480    95893687.01746
  21081947.020   110786417.40109  21081941.680    86327077.76448
  20910165.060   109883691.84309  20910164.240    85623662.26349
 15 02 26 01 45 30.0000000  0  7G04G16G18G19G21G22G27
  23975844.920   125993927.45708  23975843.840    98177079.51245
  20549276.320   107987187.79109  20549272.320    84145847.14549
  21760904.320   114354366.21509  21760900.780    89107298.64648
  22478757.480   118126674.73109  22478752.320    92046741.54848
  23431539.140   123133818.99908  23431534.920    95948511.15346
  21073552.100   110742301.35009  21073546.700    86292701.62848
  20902547.760   109843662.09409  20902546.840    85592470.25549
 15 02 26 01 46  0.0000000  0  7G04G16G18G19G21G22G27
  23958284.240   125901644.75408  23958282.920    98105170.92044
  20552982.920   108006665.87709  20552978.920    84161024.86649
  21765755.720   114379860.18609  21765752.080    89127164.07847
  22465697.820   118058046.16709  22465692.740    91993264.75348
  23444935.260   123204216.05108  23444931.040    96003365.97446
  21065248.580   110698665.27209  21065243.000    86258699.50248
  20894969.860   109803839.23809  20894968.800    85561439.45249
 15 02 26 01 46 30.0000000  0  7G04G16G18G19G21G22G27
  23940756.620   125809535.17208  23940754.860    98033397.22944
  20556796.920   108026708.77709  20556792.980    84176642.70649
  21770698.780   114405835.63209  21770695.040    89147404.68348
  22452659.460   117989529.27809  22452654.500    91939874.99048
  23458338.780   123274652.06008  23458334.520    96058251.16246
  21057036.700   110655511.25209  21057031.020    86225072.99448
  20887431.700   109764225.19609  20887430.460    85530571.36649
 15 02 26 01 47  0.0000000  0  7G04G16G18G19G21G22G27
  23923261.780   125717597.95908  23923259.500    97961757.86845
  20560718.060   108047314.55109  20560714.160    84192699.14949
  21775732.940   114432289.77509  21775729.040    89168018.31848
  22439642.300   117921123.29909  22439637.320    91886571.65448
  23471749.280   123345124.58208  23471745.020    96113164.80746
  21048916.540   110612839.53409  21048910.860    86191822.31548
  20879933.100   109724819.57709  20879931.760    85499865.70149
 15 02 26 01 47 30.0000000  0  7G04G16G18G19G21G22G27
  23905800.540   125625838.33708  23905798.160    97890256.89945
  20564747.280   108068487.82509  20564743.340    84209197.78349
  21780858.980   114459226.34309  21780854.960    89189007.85148
  22426647.280   117852833.31409  22426642.120    91833358.66948
  23485167.340   123415637.40208  23485163.080    96168109.82546
  21040889.180   110570655.60309  21040883.520    86158951.70848
  20872475.180   109685628.19509  20872473.880    85469326.95549
 15 02 26 01 48  0.0000000  0  7G04G16G18G19G21G22G27
  23888372.600   125534255.12108  23888370.440    97818893.42445
  20568884.000   108090226.08909  20568879.980    84226136.68249
  21786076.140   114486642.40409  21786072.120    89210371.02048
  22413674.040   117784658.03109  22413668.820    91780235.08448
  23498592.520   123486187.36708  23498588.240    96223083.83646
  21032954.680   110528959.30109  21032948.960    86126461.08748
  20865057.880   109646650.06309  20865056.580    85438954.38949
 15 02 26 01 48 30.0000000  0  7G04G16G18G19G21G22G27
  23870977.960   125442846.49908  23870976.040    97747665.92445
  20573127.560   108112526.19909  20573123.480    84243513.38549
  21791383.900   114514534.60409  21791379.800    89232105.20948
  22400722.280   117716596.03109  22400717.000    91727199.76948
  23512024.140   123556771.38308  23512019.940    96278084.34546
  21025112.780   110487749.43409  21025106.940    86094349.51048
  20857680.940   109607883.71409  20857679.580    85408746.84449
 15 02 26 01 49  0.0000000  0  7G04G16G18G19G21G22G27
  23853616.940   125351613.63908  23853615.220    97676575.42945
  20577478.100   108135388.65409  20577473.980    84261328.28549
  21796782.200   114542902.57009  21796778.000    89254210.12848
  22387792.280   117648648.51709  22387787.000    91674253.67948
  23525462.120   123627388.93308  23525458.000    96333111.01046
  21017363.720   110447027.80109  21017357.760    86062618.38248
  20850344.660   109569331.04209  20850343.260    85378705.81149
 15 02 26 01 49 30.0000000  0  7G04G16G18G19G21G22G27
  23836290.120   125260560.29608  23836288.440    97605624.79445
  20581936.120   108158815.95409  20581932.020    84279583.32249
  21802271.200   114571747.74309  21802267.060    89276686.88948
  22374884.640   117580818.76009  22374879.420    91621399.33648
  23538906.860   123698041.84208  23538902.820    96388165.20246
  21009708.280   110406798.40009  21009702.280    86031270.79548
  20843049.800   109530995.91009  20843048.420    85348834.28649
 15 02 26 01 50  0.0000000  0  7G04G16G18G19G21G22G27
  23818997.000   125169684.26108  23818995.400    97534812.32845
  20586500.920   108182804.40609  20586496.940    84298275.61449
  21807850.220   114601066.39509  21807846.220    89299532.59448
  22361999.080   117513104.75909  22361993.780    91568635.19948
  23552357.640   123768726.27508  23552353.700    96443243.98746
  21002146.120   110367059.58809  21002140.240    86000305.49548
  20835795.920   109492876.54809  20835794.640    85319130.88249
 15 02 26 01 50 30.0000000  0  7G04G16G18G19G21G22G27
  23801738.100   125078988.49408  23801736.360    97464140.32545
  20591173.040   108207356.50709  20591169.080    84317407.11349
  21813519.640   114630860.19009  21813515.780    89322748.54448
  22349136.260   117445509.83909  22349130.840    91515963.83548
  23565814.820   123839443.83908  23565811.120    96498348.54646
  20994678.020   110327815.17309  20994672.320    85969725.43948
  20828583.780   109454976.51709  20828582.540    85289598.39549
 15 02 26 01 51  0.0000000  0  7G04G16G18G19G21G22G27
  23784513.300   124988471.75408  23784511.380    97393607.80645
  20595951.920   108232469.35709  20595947.920    84336975.55649
  21819278.880   114661125.82509  21819275.100    89346332.14447
  22336295.840   117378032.62709  22336290.320    91463384.20248
  23579277.600   123910191.38608  23579273.860    96553476.49246
  20987303.900   110289064.31009  20987298.260    85939529.96448
  20821413.180   109417294.87509  20821411.920    85260236.08549
 15 02 26 01 51 30.0000000  0  7G04G16G18G19G21G22G27
  23767322.760   124898134.93308  23767320.820    97323215.50445
  20600837.440   108258142.88509  20600833.400    84356980.88849
  21825127.720   114691861.87109  21825123.920    89370282.30948
  22323477.920   117310674.09509  22323472.360    91410897.04048
  23592746.140   123980968.30308  23592742.460    96608627.34146
  20980024.000   110250808.45009  20980018.400    85909720.20948
  20814284.440   109379833.01509  20814283.080    85231045.02149
 15 02 26 01 52  0.0000000  0  7G04G16G18G19G21G22G27
  23750166.720   124807979.17408  23750164.720    97252964.29245
  20605829.560   108284377.07409  20605825.540    84377423.11049
  21831066.120   114723068.19009  21831062.360    89394598.92948
  22310682.760   117243435.22809  22310677.160    91358503.13648
  23606219.980   124051774.06808  23606216.460    96663800.60446
  20972838.640   110213049.16809  20972833.140    85880297.41248
  20807197.820   109342592.46809  20807196.380    85202026.41349
 15 02 26 01 52 30.0000000  0  7G04G16G18G19G21G22G27
  23733045.480   124718006.86308  23733043.620    97182856.02945
  20610928.500   108311172.74909  20610924.580    84398302.84748
  21837094.140   114754745.45109  21837090.480    89419282.49648
  22297910.880   117176318.93709  22297905.360    91306204.73648
  23619699.640   124122609.52108  23619695.720    96718997.10245
  20965748.380   110175789.45809  20965742.860    85851263.87248
  20800153.880   109305576.04509  20800152.360    85173182.43949
 15 02 26 01 53  0.0000000  0  7G04G16G18G19G21G22G27
  23715958.540   124628214.77108  23715956.620    97112888.21245
  20616133.560   108338525.93409  20616129.760    84419617.01949
  21843210.800   114786888.29409  21843207.080    89444328.88448
  22285161.580   117109321.84109  22285156.240    91253999.23348
  23633183.980   124193469.80108  23633180.080    96774212.88946
  20958752.540   110139026.14209  20958747.000    85822617.14248
  20793152.060   109268781.07509  20793150.520    85144511.04049
 15 02 26 01 53 30.0000000  0  7G04G16G18G19G21G22G27
  23698906.840   124538608.15808  23698905.000    97043064.88545
  20621445.360   108366440.23309  20621441.660    84441368.41349
  21849416.800   114819500.61609  21849413.120    89469741.08548
  22272436.040   117042449.27109  22272430.840    91201890.74748
  23646673.760   124264358.67408  23646669.740    96829450.96145
  20951852.360   110102765.57809  20951846.840    85794362.16548
  20786193.420   109232213.35409  20786191.920    85116016.72049
 15 02 26 01 54  0.0000000  0  7G04G16G18G19G21G22G27
  23681889.960   124449183.93408  23681888.220    96973383.69045
  20626863.200   108394911.57409  20626859.520    84463553.85948
  21855711.200   114852577.14609  21855707.240    89495515.00548
  22259733.760   116975698.34409  22259728.600    91149877.05048
  23660168.080   124335271.52608  23660163.920    96884707.73146
  20945047.300   110067004.91709  20945041.880    85766496.71948
  20779277.540   109195870.20109  20779276.120    85087697.38049
 15 02 26 01 54 30.0000000  0  7G04G16G18G19G21G22G27
  23664908.640   124359946.54708  23664907.160    96903848.07745
  20632387.680   108423942.75409  20632383.920    84486175.56049
  21862094.340   114886120.16609  21862090.260    89521652.42448
  22247055.600   116909073.65109  22247050.380    91097961.71348
  23673667.580   124406211.17808  23673663.460    96939985.34346
  20938338.340   110031749.12809  20938332.980    85739024.68048
  20772405.300   109159756.59109  20772404.020    85059556.90549
 15 02 26 01 55  0.0000000  0  7G04G16G18G19G21G22G27
  23647962.320   124270892.95608  23647960.880    96834455.66845
  20638017.960   108453529.73909  20638014.140    84509230.34548
  21868565.340   114920125.18309  21868561.020    89548149.85848
  22234400.900   116842572.45909  22234395.620    91046142.61348
  23687171.200   124477173.07008  23687166.920    96995280.32245
  20931725.060   109996995.65209  20931719.660    85711944.05848
  20765576.160   109123869.92009  20765575.080    85031593.27149
 15 02 26 01 55 30.0000000  0  7G04G16G18G19G21G22G27
  23631052.040   124182029.23408  23631050.740    96765211.24645
  20643754.940   108483677.62309  20643751.140    84532722.19049
  21875124.940   114954596.69409  21875120.820    89575010.76147
  22221770.900   116776200.92309  22221765.500    90994424.55148
  23700679.940   124548162.05608  23700675.880    97050596.38446
  20925208.620   109962750.97009  20925203.140    85685259.89648
  20758791.560   109088217.00309  20758790.580    85003811.77349
 15 02 26 01 56  0.0000000  0  7G04G16G18G19G21G22G27
  23614177.060   124093351.18308  23614175.900    96696111.51545
  20649597.600   108514380.52509  20649593.740    84556646.52248
  21881772.020   114989528.43609  21881768.220    89602230.30547
  22209164.700   116709954.78709  22209159.260    90942804.18948
  23714192.680   124619172.25808  23714188.820    97105928.96446
  20918788.180   109929011.08309  20918782.680    85658969.08548
  20752050.760   109052794.03109  20752049.740    84976209.45949
 15 02 26 01 56 30.0000000  0  7G04G16G18G19G21G22G27
  23597338.120   124004862.20608  23597336.940    96627159.09245
  20655546.200   108545640.36109  20655542.240    84581004.82748
  21888506.900   115024921.63609  21888503.420    89629809.41947
  22196583.100   116643838.22409  22196577.680    90891284.81048
  23727709.780   124690205.87008  23727705.760    97161279.85946
  20912464.480   109895779.68109  20912459.020    85633074.48648
  20745354.460   109017605.03609  20745353.400    84948789.45549
 15 02 26 01 57  0.0000000  0  7G04G16G18G19G21G22G27
  23580534.580   123916558.58908  23580533.220    96558351.10046
  20661599.740   108577452.01009  20661595.800    84605793.12748
  21895328.680   115060770.92309  21895325.320    89657743.93948
  22184025.340   116577847.28609  22184020.000    90839863.31048
  23741230.280   124761257.39708  23741226.520    97216644.67746
  20906237.020   109863053.86909  20906231.540    85607573.86848
  20738702.120   108982646.89009  20738701.020    84921549.35249
 15 02 26 01 57 30.0000000  0  7G04G16G18G19G21G22G27
  23563767.500   123828446.61408  23563765.960    96489692.41145
  20667759.180   108609820.02509  20667755.280    84631014.94749
  21902238.120   115097080.60409  21902234.620    89686037.19747
  22171492.740   116511988.23609  22171487.460    90788544.57248
  23754755.120   124832331.92008  23754751.680    97272027.37345
  20900106.900   109830839.78109  20900101.380    85582471.98448
  20732095.040   108947926.34309  20732093.920    84894494.37349
 15 02 26 01 58  0.0000000  0  7G04G16G18G19G21G22G27
  23547036.060   123740522.43408  23547034.540    96421180.08846
  20674023.760   108642740.30509  20674019.880    84656667.11148
  21909234.100   115133844.82209  21909230.660    89714684.62748
  22158984.620   116446257.82909  22158979.440    90737326.09248
  23768283.340   124903423.84508  23768279.860    97327423.69946
  20894073.420   109799134.26309  20894067.900    85557766.39148
  20725532.540   108913440.00709  20725531.420    84867621.90449
 15 02 26 01 58 30.0000000  0  7G04G16G18G19G21G22G27
  23530340.880   123652788.88708  23530339.440    96352816.31446
  20680393.720   108676213.87709  20680389.700    84682750.40649
  21916316.760   115171064.28809  21916313.300    89743686.80247
  22146501.560   116380658.97509  22146496.420    90686210.11648
  23781815.340   124974534.75608  23781811.940    97382834.79246
  20888137.260   109767940.35709  20888131.740    85533459.45148
  20719015.320   108879191.45909  20719014.160    84840934.72049
 15 02 26 01 59  0.0000000  0  7G04G16G18G19G21G22G27
  23513682.140   123565246.73308  23513680.760    96284601.64646
  20686868.800   108710239.63809  20686864.620    84709263.97349
  21923486.040   115208738.46009  21923482.560    89773043.30048
  22134043.780   116315192.85409  22134038.640    90635197.57148
  23795350.880   125045664.11308  23795347.460    97438260.24046
  20882298.780   109737259.36309  20882293.240    85509552.19848
  20712543.520   108845181.97309  20712542.380    84814433.82849
 15 02 26 01 59 30.0000000  0  7G04G16G18G19G21G22G27
  23497059.760   123477895.59408  23497058.460    96216535.86945
  20693448.500   108744815.66709  20693444.260    84736206.32148
  21930741.360   115246864.92509  21930737.640    89802752.23347
  22121611.220   116249859.22109  22121606.000    90584288.24648
  23808889.640   125116809.75708  23808886.180    97493698.40946
  20876557.780   109707090.69809  20876552.280    85486044.14748
  20706117.220   108811411.68809  20706116.100    84788119.31849
 15 02 26 02 00  0.0000000  0  7G04G16G18G19G21G22G27
  23480473.900   123390736.43008  23480472.580    96148619.67246
  20700132.740   108779941.51409  20700128.520    84763577.10948
  21938082.540   115285442.25309  21938078.720    89832812.49947
  22109204.180   116184659.50009  22109198.840    90533483.28048
  23822431.460   125187971.61908  23822427.980    97549149.17746
  20870914.620   109677436.01809  20870909.140    85462936.61648
  20699736.880   108777882.33909  20699735.660    84761992.55449
 15 02 26 02 00 30.0000000  0  7G04G16G18G19G21G22G27
  23463924.680   123303769.74708  23463923.240    96080853.44046
  20706921.440   108815616.61809  20706917.300    84791375.88949
  21945509.260   115324469.01609  21945505.180    89863222.97047
  22096822.740   116119594.35709  22096817.300    90482783.16948
  23835976.120   125259148.68608  23835972.400    97604611.80946
  20865369.460   109648295.99309  20865363.940    85440230.10948
  20693402.520   108744594.93409  20693401.260    84736054.31749
 15 02 26 02 01  0.0000000  0  7G04G16G18G19G21G22G27
  23447411.880   123216994.49408  23447410.420    96013236.37446
  20713814.060   108851838.32909  20713810.140    84819600.58148
  21953020.900   115363942.41209  21953016.640    89893981.45647
  22084466.640   116054663.08109  22084461.240    90432187.37048
  23849523.180   125330338.73508  23849519.140    97660084.55045
  20859922.160   109619670.02509  20859916.580    85417924.16548
  20687114.120   108711549.17209  20687112.860    84710304.36849
 15 02 26 02 01 30.0000000  0  7G04G16G18G19G21G22G27
  23430936.640   123130416.34208  23430935.100    95945772.89346
  20720811.380   108888610.63409  20720807.700    84848254.32148
  21960618.140   115403866.13009  21960613.820    89925090.85947
  22072137.140   115989871.64609  22072131.860    90381700.55448
  23863073.520   125401545.66908  23863069.360    97715570.46246
  20854573.780   109591563.80109  20854568.120    85396023.21948
  20680872.880   108678751.25509  20680871.600    84684747.55249
 15 02 26 02 02  0.0000000  0  7G04G16G18G19G21G22G27
  23414498.800   123044034.41108  23414497.180    95878462.30246
  20727913.000   108925930.80309  20727909.440    84877334.96048
  21968300.380   115444237.17309  21968296.220    89956548.80747
  22059834.120   115925219.48609  22059829.000    90331322.26048
  23876626.500   125472767.46508  23876622.360    97771067.91445
  20849324.080   109563976.46509  20849318.460    85374526.60248
  20674678.740   108646200.96109  20674677.500    84659383.69749
 15 02 26 02 02 30.0000000  0  7G04G16G18G19G21G22G27
  23398097.880   122957846.55608  23398096.180    95811302.93846
  20735118.420   108963795.91409  20735114.920    84906840.24148
  21976066.920   115485051.60909  21976062.980    89988352.26447
  22047557.360   115860705.00509  22047552.320    90281051.25248
  23890181.640   125544000.87308  23890177.120    97826574.50145
  20844172.860   109536906.45309  20844167.200    85353433.09648
  20668531.420   108613896.91309  20668530.260    84634211.71349
 15 02 26 02 03  0.0000000  0  7G04G16G18G19G21G22G27
  23381734.360   122871855.41008  23381732.680    95744296.88346
  20742427.720   109002206.68909  20742424.260    84936770.70348
  21983917.940   115526309.83609  21983914.160    90020501.53147
  22035307.360   115796330.81609  22035302.220    90230889.55448
  23903739.320   125615247.07608  23903734.840    97882091.04345
  20839120.680   109510356.58809  20839114.880    85332744.88948
  20662431.620   108581842.22709  20662430.480    84609234.03849
 15 02 26 02 03 30.0000000  0  7G04G16G18G19G21G22G27
  23365408.380   122786061.52508  23365406.740    95677444.53646
  20749840.580   109041161.62609  20749837.100    84967125.19548
  21991853.280   115568010.75709  21991849.680    90052995.75647
  22023084.300   115732097.84209  22023079.040    90180837.89248
  23917299.060   125686505.56908  23917295.220    97937617.08046
  20834167.600   109484327.27209  20834161.640    85312462.31648
  20656379.520   108550038.19009  20656378.340    84584451.67149
 15 02 26 02 04  0.0000000  0  7G04G16G18G19G21G22G27
  23349119.420   122700462.32308  23349117.680    95610743.87746
  20757356.200   109080656.30709  20757352.600    84997900.25948
  21999872.080   115610149.64909  21999868.420    90085831.25847
  22010887.720   115668004.23409  22010882.400    90130894.83448
  23930860.640   125757772.56808  23930857.000    97993149.80346
  20829313.160   109458816.21709  20829307.040    85292583.56949
  20650374.840   108518482.96009  20650373.520    84559863.17549
 15 02 26 02 04 30.0000000  0  7G04G16G18G19G21G22G27
  23332868.700   122615064.14508  23332866.780    95544199.87546
  20764975.700   109120696.71709  20764971.940    85029100.57048
  22007974.920   115652730.49709  22007971.300    90119011.12947
  21998719.000   115604056.63509  21998713.620    90081065.53648
  23944424.820   125829052.72608  23944421.180    98048692.80146
  20824558.580   109433830.22809  20824552.360    85273113.97448
  20644418.740   108487183.48009  20644417.440    84535473.96749
 15 02 26 02 05  0.0000000  0  7G04G16G18G19G21G22G27
  23316655.400   122529863.19808  23316653.440    95477809.55046
  20772697.940   109161276.93909  20772694.040    85060721.51848
  22016160.900   115695747.64209  22016157.120    90152530.98947
  21986577.360   115540251.52609  21986571.940    90031347.26948
  23957990.400   125900341.12408  23957987.120    98104242.13946
  20819903.100   109409365.46009  20819896.880    85254050.52149
  20638510.660   108456136.53609  20638509.460    84511281.53949
 15 02 26 02 05 30.0000000  0  7G04G16G18G19G21G22G27
  23300479.700   122444860.07308  23300477.860    95411573.35646
  20780522.620   109202395.49709  20780518.660    85092761.94348
  22024429.720   115739199.93009  22024425.780    90186389.91248
  21974462.980   115476589.93009  21974457.560    89981740.84348
  23971557.620   125971636.79708  23971554.480    98159797.18046
  20815346.860   109385422.35009  20815340.680    85235393.54549
  20632650.920   108425343.53709  20632649.840    84487286.99649
 15 02 26 02 06  0.0000000  0  7G04G16G18G19G21G22G27
  23284341.880   122360055.76608  23284340.180    95345492.11146
  20788449.700   109244052.05509  20788445.680    85125221.59548
  22032781.140   115783086.00309  22032777.000    90220586.86547
  21962376.000   115413073.15709  21962370.720    89932247.26648
  23985126.440   126042939.86908  23985123.040    98215358.03645
  20810890.160   109362002.04109  20810884.020    85217143.96248
  20626839.900   108394806.24209  20626838.860    84463491.70449
 15 02 26 02 06 30.0000000  0  7G04G16G18G19G21G22G27
  23268242.500   122275452.74808  23268240.720    95279567.68846
  20796479.220   109286246.93709  20796475.180    85158100.71548
  22041215.060   115827406.17609  22041210.800    90255122.05647
  21950317.160   115349704.21609  21950311.960    89882868.87248
  23998696.780   126114251.68808  23998693.060    98270925.65245
  20806533.540   109339107.35209  20806527.360    85199303.94749
  20621078.060   108364527.78609  20621077.080    84439898.11049
 15 02 26 02 07  0.0000000  0  7G04G16G18G19G21G22G27
  23252181.220   122191049.58708  23252179.340    95213799.01546
  20804610.740   109328977.80909  20804606.680    85191397.50048
  22049730.920   115872157.11009  22049726.640    90289992.92848
  21938286.360   115286482.26909  21938281.240    89833605.03048
  24012268.320   126185569.36708  24012264.300    98326497.85745
  20802276.580   109316736.96009  20802270.460    85181872.48349
  20615365.340   108334507.38709  20615364.340    84416505.59549
 15 02 26 02 07 30.0000000  0  7G04G16G18G19G21G22G27
  23236158.880   122106851.45108  23236156.840    95148190.09946
  20812844.800   109372247.39809  20812840.740    85225114.06148
  22058329.160   115917341.82809  22058325.080    90325201.79147
  21926284.640   115223412.75509  21926279.560    89784459.96048
  24025841.680   126256896.97808  24025837.180    98382077.79745
  20798120.200   109294895.67409  20798114.240    85164853.30149
  20609702.860   108304750.91209  20609701.840    84393318.73549
 15 02 26 02 08  0.0000000  0  7G04G16G18G19G21G22G27
  23220174.500   122022853.70808  23220172.620    95082737.33946
  20821179.960   109416049.13509  20821176.020    85259245.27348
  22067008.680   115962953.72009  22067004.800    90360743.53547
  21914311.180   115160491.59809  21914306.100    89735430.49948
  24039415.780   126328228.91108  24039410.960    98437661.13444
  20794063.680   109273579.16209  20794057.820    85148243.04248
  20604089.920   108275254.64209  20604088.900    84370334.63949
 15 02 26 02 08 30.0000000  0  7G04G16G18G19G21G22G27
  23204228.840   121939060.13908  23204227.220    95017443.67946
  20829616.740   109460385.66209  20829613.000    85293793.20848
  22075769.720   116008994.33209  22075766.100    90396619.33047
  21902366.860   115097723.08209  21902361.640    89686519.96148
  24052991.100   126399567.47008  24052986.400    98493249.60946
  20790107.800   109252791.25009  20790102.000    85132044.67849
  20598527.340   108246023.04709  20598526.300    84347556.77149
 15 02 26 02 09  0.0000000  0  7G04G16G18G19G21G22G27
  23188321.180   121855465.26608  23188319.660    94952304.81546
  20838153.900   109505250.00909  20838150.440    85328752.42948
  22084611.040   116055456.54609  22084607.620    90432823.65147
  21890450.660   115035102.27709  21890445.320    89637724.52448
  24066566.240   126470905.97207  24066562.000    98548838.01546
  20786251.420   109232526.42809  20786245.740    85116253.91148
  20593014.140   108217051.39609  20593013.140    84324981.46749
 15 02 26 02 09 30.0000000  0  7G04G16G18G19G21G22G27
  23172453.260   121772077.96408  23172451.600    94887327.72946
  20846792.720   109550648.51609  20846789.500    85364127.87448
  22093533.940   116102346.76009  22093530.500    90469361.48047
  21878564.240   114972638.34009  21878558.840    89589051.33748
  24080142.680   126542252.55608  24080138.960    98604432.68746
  20782496.280   109212793.24409  20782490.620    85100877.40649
  20587552.220   108188349.15409  20587551.240    84302616.08349
 15 02 26 02 10  0.0000000  0  7G04G16G18G19G21G22G27
  23156623.040   121688888.84208  23156621.160    94822505.04146
  20855531.360   109596570.83909  20855528.200    85399911.49948
  22102536.220   116149653.54809  22102532.640    90506223.92347
  21866705.940   114910322.62609  21866700.540    89540493.64448
  24093718.880   126613596.55908  24093715.160    98660025.42145
  20778840.740   109193582.91809  20778835.000    85085908.32948
  20582140.040   108159908.01409  20582139.040    84280454.15649
 15 02 26 02 10 30.0000000  0  7G04G16G18G19G21G22G27
  23140832.200   121605907.03908  23140830.160    94757843.93346
  20864371.160   109643023.93909  20864367.880    85436108.71748
  22111619.100   116197383.82209  22111615.420    90543416.35047
  21854877.660   114848164.76609  21854872.340    89492058.96448
  24107296.200   126684945.76608  24107292.340    98715622.26245
  20775286.320   109174904.20709  20775280.540    85071353.50249
  20576779.400   108131737.79209  20576778.440    84258503.34249
 15 02 26 02 11  0.0000000  0  7G04G16G18G19G21G22G27
  23125080.900   121523133.89308  23125078.880    94693345.39046
  20873311.980   109690006.89109  20873308.360    85472718.80448
  22120782.360   116245536.83409  22120778.660    90580938.17547
  21843079.600   114786166.11309  21843074.460    89443748.33848
  24120874.480   126756300.55307  24120870.980    98771223.33846
  20771833.200   109156758.31209  20771827.500    85057213.84549
  20571470.740   108103840.40409  20571469.780    84236765.10749
 15 02 26 02 11 30.0000000  0  7G04G16G18G19G21G22G27
  23109368.780   121440566.80008  23109366.800    94629007.42946
  20882352.800   109737515.12809  20882348.800    85509738.20948
  22130025.080   116294107.84209  22130021.360    90618785.72047
  21831311.580   114724325.21209  21831306.540    89395560.63848
  24134453.200   126827657.68308  24134449.900    98826826.22745
  20768480.980   109139142.53709  20768475.360    85043487.27449
  20566213.660   108076213.93909  20566212.680    84215237.98949
 15 02 26 02 12  0.0000000  0  7G04G16G18G19G21G22G27
  23093695.200   121358201.62309  23093693.140    94564826.79946
  20891492.420   109785543.14609  20891488.180    85547162.64148
  22139346.060   116343090.74509  22139342.420    90656954.20247
  21819573.000   114662638.72109  21819567.920    89347493.24848
  24148031.420   126899011.08608  24148027.820    98882426.33244
  20765228.820   109122052.75509  20765223.260    85030170.56448
  20561007.480   108048855.27809  20561006.460    84193919.55749
 15 02 26 02 12 30.0000000  0  7G04G16G18G19G21G22G27
  23078061.100   121276042.94309  23078058.800    94500807.07146
  20900731.240   109834093.46309  20900727.020    85584994.03848
  22148745.960   116392487.70009  22148742.320    90695445.34047
  21807864.720   114601111.48409  21807859.620    89299549.94848
  24161609.820   126970364.86908  24161605.920    98938026.67945
  20762077.620   109105493.59909  20762072.180    85017267.33248
  20555853.220   108021769.77409  20555852.180    84172813.96949
 15 02 26 02 13  0.0000000  0  7G04G16G18G19G21G22G27
  23062466.460   121194091.61309  23062463.900    94436948.89646
  20910069.240   109883165.45209  20910065.100    85623231.95048
  22158224.500   116442297.62709  22158220.820    90734258.27447
  21796187.020   114539744.82209  21796181.920    89251731.77848
  24175188.060   127041718.44508  24175184.140    98993626.80845
  20759027.500   109089465.57309  20759022.140    85004777.96549
  20550751.380   107994959.13209  20550750.240    84151922.56249
 15 02 26 02 13 30.0000000  0  7G04G16G18G19G21G22G27
  23046911.380   121112348.74809  23046908.780    94373253.16346
  20919506.040   109932757.60509  20919502.240    85661875.18248
  22167781.380   116492519.59609  22167777.760    90773392.26847
  21784540.200   114478540.56409  21784535.100    89204040.15348
  24188766.320   127113072.16008  24188762.360    99049227.07945
  20756078.660   109073969.64009  20756073.340    84992703.22549
  20545702.300   107968425.30709  20545701.040    84131246.86149
 15 02 26 02 14  0.0000000  0  7G04G16G18G19G21G22G27
  23031395.700   121030813.38909  23031393.120    94309719.12146
  20929041.360   109982867.62909  20929037.940    85700921.94148
  22177416.180   116543150.30509  22177412.540    90812844.77247
  21772924.340   114417498.73409  21772919.200    89156475.09748
  24202344.220   127184423.76808  24202340.120    99104825.72645
  20753230.940   109059004.87609  20753225.600    84981042.36949
  20540705.840   107942167.97609  20540704.500    84110786.59649
 15 02 26 02 14 30.0000000  0  7G04G16G18G19G21G22G27
  23015920.240   120949489.87608  23015917.760    94246350.17245
  20938675.780   110033497.58109  20938672.640    85740373.84848
  22187129.180   116594191.85509  22187125.600    90852617.40247
  21761340.280   114356623.99609  21761335.100    89109040.24048
  24215922.300   127255776.83108  24215918.200    99160425.49745
  20750485.080   109044575.17609  20750479.700    84969798.45848
  20535762.900   107916192.39909  20535761.540    84090545.88949
 15 02 26 02 15  0.0000000  0  7G04G16G18G19G21G22G27
  23000484.060   120868372.61209  23000481.600    94183141.94346
  20948407.980   110084640.36109  20948404.880    85780225.35148
  22196918.980   116645636.91009  22196915.220    90892704.47347
  21749787.060   114295911.31809  21749781.820    89061731.67648
  24229499.340   127327125.13308  24229495.420    99216021.56745
  20747840.040   109030675.15309  20747834.620    84958967.27749
  20530872.600   107890493.86709  20530871.280    84070521.06949
 15 02 26 02 15 30.0000000  0  8G04G11G16G18G19G21G22G27
  22985087.740   120787464.50708  22985085.220    94120096.66746
  24657703.080   129577117.10507  24657699.140   100969165.97544
  20958237.960   110136296.37209  20958234.680    85820476.78648
  22206785.620   116697485.81509  22206781.820    90933106.21447
  21738265.260   114235364.02609  21738259.980    89014551.96448
  24243075.680   127398470.04908  24243071.960    99271614.96546
  20745296.220   109017307.01309  20745290.760    84948550.54849
  20526035.740   107865076.09109  20526034.420    84050715.00149
 15 02 26 02 16  0.0000000  0  8G04G11G16G18G19G21G22G27
  22969730.480   120706761.46608  22969727.940    94057211.20346
  24640517.220   129486797.41808  24640512.900   100898786.97344
  20968164.640   110188460.27409  20968161.100    85861123.97248
  22216727.760   116749732.30009  22216723.800    90973817.75547
  21726774.360   114174978.79509  21726769.060    88967498.53748
  24256650.340   127469806.44107  24256646.880    99327201.72745
  20742852.860   109004466.80609  20742847.360    84938545.19749
  20521251.700   107839935.96209  20521250.360    84031125.28449
 15 02 26 02 16 30.0000000  0  8G04G11G16G18G19G21G22G27
  22954414.460   120626275.29009  22954411.980    93994494.73146
  24623344.600   129396550.35007  24623340.220   100828464.57244
  20978189.720   110241141.16909  20978185.800    85902174.02248
  22226747.460   116802386.02109  22226743.460    91014846.64147
  21715316.720   114114768.32709  21715311.420    88920581.31448
  24270225.500   127541145.53907  24270222.220    99382790.61845
  20740512.140   108992165.98209  20740506.560    84928960.14748
  20516522.860   107815085.85009  20516521.480    84011761.56349
 15 02 26 02 17  0.0000000  0  8G04G11G16G18G19G21G22G27
  22939139.280   120546003.91409  22939136.980    93931945.64446
  24606184.960   129306374.42508  24606180.720   100758197.66944
  20988312.400   110294335.28109  20988308.140    85943623.97548
  22236843.800   116855442.91109  22236839.820    91056189.67447
  21703892.080   114054731.24209  21703886.740    88873799.17148
  24283800.660   127612483.84108  24283797.440    99438378.89745
  20738273.520   108980402.03409  20738267.900    84919793.43849
  20511849.060   107790524.71609  20511847.680    83992623.01349
 15 02 26 02 17 30.0000000  0  8G04G11G16G18G19G21G22G27
  22923903.480   120465939.73908  22923901.360    93869557.98946
  24589037.320   129216261.63108  24589032.900   100687979.88945
  20998530.640   110348032.55309  20998526.260    85985465.99148
  22247014.920   116908893.12709  22247011.120    91097839.18547
  21692499.080   113994860.37609  21692493.640    88827146.54248
  24297374.300   127683813.16708  24297370.820    99493960.19845
  20736135.520   108969167.13609  20736129.960    84911038.97249
  20507228.900   107766245.69209  20507227.580    83973704.29149
 15 02 26 02 18  0.0000000  0  9G04G11G16G18G19G21G22G27G32
  22908708.360   120386089.21508  22908706.340    93807336.79946
  24571902.560   129126218.41408  24571898.520   100617816.40744
  21008845.440   110402238.02009  21008841.220    86027704.00748
  22257261.700   116962740.87409  22257258.000    91139798.46347
  21681139.100   113935163.20709  21681133.640    88780629.26848
  24310947.280   127755138.81308  24310943.780    99549538.60545
  20734099.440   108958467.63409  20734093.960    84902701.70049
  20502663.820   107742256.25109  20502662.560    83955011.22649
  24497735.280   128736472.93807  24497736.300   100314127.13645
