     2.11           OBSERVATION DATA    G                   RINEX VERSION / TYPE
SPIDER V4,0,0,3554                      2015 04 15 05:10    PGM / RUN BY / DATE 
CABS                                                        MARKER NAME         
CABS                                                        MARKER NUMBER       
                                                            OBSERVER / AGENCY   
462287              LEICA GRX1200PRO    8.10/2.127          REC # / TYPE / VERS 
103298              LEIAT504                                ANT # / TYPE        
  5116912.3402   671231.6412  3737143.4301                  APPROX POSITION XYZ 
        0.0600        0.0000        0.0000                  ANTENNA: DELTA H/E/N
     1     1                                                WAVELENGTH FACT L1/2
     4    C1    L1    P2    L2                              # / TYPES OF OBSERV 
    30.000                                                  INTERVAL            
  2015    01    29    00    00    0.0000000     GPS         TIME OF FIRST OBS   
  2015    01    29    23    59   30.0000000     GPS         TIME OF LAST OBS    
    16                                                      LEAP SECONDS        
    30                                                      # OF SATELLITES     
   G 1   800   800   800   800                              PRN / # OF OBS      
   G 2   940   940   940   940                              PRN / # OF OBS      
   G 3   847   847   847   847                              PRN / # OF OBS      
   G 4   831   831   831   831                              PRN / # OF OBS      
   G 5   646   646   646   646                              PRN / # OF OBS      
   G 6   830   830   830   830                              PRN / # OF OBS      
   G 7   672   672   672   672                              PRN / # OF OBS      
   G 9   808   808   808   808                              PRN / # OF OBS      
   G10   752   752   752   752                              PRN / # OF OBS      
   G11   771   771   771   771                              PRN / # OF OBS      
   G12   836   836   836   836                              PRN / # OF OBS      
   G13   791   791   791   791                              PRN / # OF OBS      
   G14   942   942   942   942                              PRN / # OF OBS      
   G15   699   699   699   699                              PRN / # OF OBS      
   G16   657   657   657   657                              PRN / # OF OBS      
   G17   941   941   941   941                              PRN / # OF OBS      
   G18   898   898   898   898                              PRN / # OF OBS      
   G19   751   751   751   751                              PRN / # OF OBS      
   G20   820   820   820   820                              PRN / # OF OBS      
   G21   742   742   742   742                              PRN / # OF OBS      
   G22   657   657   657   657                              PRN / # OF OBS      
   G23   755   755   755   755                              PRN / # OF OBS      
   G24   815   815   815   815                              PRN / # OF OBS      
   G25   855   855   855   855                              PRN / # OF OBS      
   G27   793   793   793   793                              PRN / # OF OBS      
   G28   876   876   876   876                              PRN / # OF OBS      
   G29   779   779   779   779                              PRN / # OF OBS      
   G30   717   717   717   717                              PRN / # OF OBS      
   G31   871   871   871   871                              PRN / # OF OBS      
   G32   772   772   772   772                              PRN / # OF OBS      
BIT 2 OF LLI FLAGS DATA COLLECTED UNDER A/S CONDITION       COMMENT             
SNR is mapped to RINEX snr flag value [2-9]                 COMMENT             
Lx:     = 25dBHz -> 1; 26-27dBHz -> 2; 28-31dBHz -> 3       COMMENT             
       32-35dBHz -> 4; 36-38dBHz -> 5; 39-41dBHz -> 6       COMMENT             
       42-44dBHz -> 7; 45-48dBHz -> 8; >=49dBHz -> 9        COMMENT             
                                                            END OF HEADER       
 15 01 29 00 00  0.0000000  0  5G12G21G25G29G31
  24241028.200   127387985.17806  24241029.760    99263618.14345
  21955779.480   115378577.34608  21955780.320    89905462.66947
  21333171.480   112106731.70708  21333175.460    87355973.15148
  20668235.960   108612692.76409  20668237.160    84633451.08649
  21001599.080   110364151.49609  21001599.400    85998041.57749
 15 01 29 00 00 30.0000000  0  5G12G21G25G29G31
  24256259.660   127468028.11306  24256261.400    99325989.25144
  21942858.320   115310676.27108  21942859.160    89852552.75147
  21341803.700   112152094.30608  21341807.720    87391320.61448
  20676736.740   108657364.75109  20676737.960    84668260.42449
  20998593.300   110348356.10809  20998593.620    85985733.47749
 15 01 29 00 01  0.0000000  0  5G12G21G25G29G31
  24271517.020   127548206.60106  24271518.740    99388465.99345
  21930003.840   115243125.68608  21930004.680    89799915.94347
  21350490.720   112197744.70208  21350494.740    87426892.34748
  20685283.380   108702277.59409  20685284.600    84703257.45449
  20995692.420   110333111.97509  20995692.760    85973854.92449
 15 01 29 00 01 30.0000000  0  5G12G21G25G29G31
  24286800.160   127628519.08006  24286801.580    99451047.14344
  21917216.260   115175926.43408  21917217.020    89747552.91247
  21359232.380   112243682.11708  21359236.340    87462687.71948
  20693875.320   108747428.43109  20693876.500    84738439.91549
  20992896.460   110318419.13009  20992896.800    85962405.95049
 15 01 29 00 02  0.0000000  0  5G12G21G25G29G31
  24302109.980   127708971.53706  24302111.060    99513737.30944
  21904496.860   115109085.55908  21904497.580    89695469.13447
  21368029.760   112289912.26208  21368033.640    87498711.19648
  20702513.360   108792821.38809  20702514.480    84773811.05149
  20990206.480   110304283.43909  20990206.880    85951391.12249
 15 01 29 00 02 30.0000000  0  5G12G21G25G29G31
  24317445.860   127789560.84806  24317446.640    99576534.14044
  21891845.280   115042601.41708  21891846.040    89643663.33247
  21376882.300   112336432.40008  21376886.060    87534960.64248
  20711196.560   108838451.84109  20711197.660    84809367.24249
  20987622.180   110290702.95909  20987622.620    85940808.92949
 15 01 29 00 03  0.0000000  0  5G12G21G25G29G31
  24332807.760   127870287.33406  24332808.520    99639437.87345
  21879262.260   114976477.40308  21879263.060    89592138.14147
  21385790.180   112383243.69408  21385793.920    87571436.97148
  20719924.860   108884319.48309  20719925.980    84845108.25349
  20985143.940   110277679.55409  20985144.340    85930660.81849
 15 01 29 00 03 30.0000000  0  5G12G21G25G29G31
  24348195.800   127951151.48806  24348196.620    99702448.87045
  21866748.220   114910715.77908  21866749.000    89540895.32347
  21394753.680   112430347.22308  21394757.400    87608140.99748
  20728698.060   108930423.41408  20728699.260    84881033.38849
  20982772.000   110265214.78609  20982772.380    85920948.00349
 15 01 29 00 04  0.0000000  0  5G12G21G25G29G31
  24363610.220   128032154.68107  24363611.180    99765568.24145
  21854303.700   114845319.45108  21854304.520    89489937.15747
  21403773.120   112477744.72608  21403776.860    87645074.11048
  20737516.260   108976763.61508  20737517.520    84917142.63449
  20980506.720   110253310.58309  20980507.080    85911671.99949
 15 01 29 00 04 30.0000000  0  5G12G21G25G29G31
  24379050.300   128113292.79106  24379051.340    99828792.75045
  21841928.300   114780286.35608  21841929.120    89439262.03048
  21412847.700   112525432.11308  21412851.520    87682233.10048
  20746378.340   109023334.48608  20746379.680    84953431.62649
  20978347.460   110241963.45609  20978347.820    85902830.07349
 15 01 29 00 05  0.0000000  0  5G12G21G25G29G31
  24394516.260   128194567.01706  24394517.380    99892123.33345
  21829622.540   114715619.55008  21829623.400    89388872.32847
  21421977.820   112573411.32808  21421981.700    87719619.48548
  20755284.400   109070135.97309  20755285.720    84989900.31649
  20976294.680   110231176.04509  20976295.020    85894424.29549
 15 01 29 00 05 30.0000000  0  5G12G21G25G29G31
  24410008.660   128275980.51806  24410009.900    99955562.37945
  21817387.460   114651323.90508  21817388.320    89338771.83747
  21431164.160   112621685.62908  21431168.020    87757235.80948
  20764234.600   109117169.35809  20764235.880    85026549.70049
  20974349.020   110220951.80109  20974349.400    85886457.34549
 15 01 29 00 06  0.0000000  0  5G12G21G25G29G31
  24425526.520   128357527.25106  24425527.760   100019105.26044
  21805222.380   114587395.88008  21805223.160    89288957.80747
  21440405.720   112670250.05708  21440409.540    87795078.21548
  20773227.860   109164428.99308  20773229.100    85063375.39049
  20972509.700   110211286.39009  20972510.120    85878925.85449
 15 01 29 00 06 30.0000000  0  5G12G21G25G29G31
  24441069.780   128439207.19806  24441070.940   100082751.94744
  21793127.540   114523836.98608  21793128.200    89239431.40447
  21449702.500   112719104.56608  21449706.200    87833146.66048
  20782263.720   109211912.69509  20782264.940    85100375.67349
  20970776.840   110202180.18309  20970777.260    85871830.10949
 15 01 29 00 07  0.0000000  0  5G12G21G25G29G31
  24456638.820   128521022.23006  24456639.900   100146503.89545
  21781103.620   114460650.63408  21781104.160    89190195.30247
  21459054.960   112768251.53208  21459058.480    87871442.97848
  20791342.320   109259620.80509  20791343.500    85137550.82148
  20969150.940   110193635.82709  20969151.340    85865172.15449
 15 01 29 00 07 30.0000000  0  5G12G21G25G29G31
  24472233.880   128602974.50606  24472234.820   100210362.81745
  21769151.380   114397841.11008  21769151.860    89141252.83647
  21468463.540   112817693.50408  21468466.960    87909969.18048
  20800463.820   109307554.52408  20800464.980    85174901.76948
  20967632.540   110185656.43109  20967632.920    85858954.43749
 15 01 29 00 08  0.0000000  0  5G12G21G25G29G31
  24487854.580   128685062.21106  24487855.480   100274327.23145
  21757270.820   114335408.45608  21757271.340    89092604.03547
  21477927.940   112867428.97808  21477931.300    87948724.08048
  20809627.620   109355710.43909  20809628.740    85212425.85548
  20966221.380   110178240.62809  20966221.760    85853175.88349
 15 01 29 00 08 30.0000000  0  5G12G21G25G29G31
  24503500.420   128767281.79506  24503501.300   100338394.40445
  21745461.700   114273350.95908  21745462.240    89044247.55947
  21487447.520   112917454.85008  21487450.920    87987705.26548
  20818832.860   109404084.21009  20818833.940    85250119.70249
  20964917.000   110171385.86009  20964917.360    85847834.49949
 15 01 29 00 09  0.0000000  0  5G12G21G25G29G31
  24519171.580   128849634.21506  24519172.420   100402565.08845
  21733724.500   114211671.36508  21733725.080    88996185.54147
  21497022.580   112967772.62408  21497026.080    88026913.89548
  20828079.520   109452675.72109  20828080.600    85287983.21348
  20963719.680   110165093.88709  20963720.080    85842931.65949
 15 01 29 00 09 30.0000000  0  5G12G21G25G29G31
  24534868.480   128932122.11806  24534869.220   100466841.36245
  21722060.140   114150374.67908  21722060.740    88948421.89848
  21506653.880   113018385.91508  21506657.440    88066352.81748
  20837367.920   109501486.60008  20837369.000    85326017.66249
  20962630.160   110159368.61609  20962630.620    85838470.39649
 15 01 29 00 10  0.0000000  0  5G12G21G25G29G31
  24550590.760   129014743.65106  24550591.540   100531221.76144
  21710468.440   114089460.03208  21710469.140    88900955.95948
  21516341.000   113069292.42608  21516344.600    88106020.21648
  20846697.280   109550512.86508  20846698.400    85364219.94348
  20961648.080   110154208.00809  20961648.600    85834449.14349
 15 01 29 00 10 30.0000000  0  5G12G21G25G29G31
  24566338.460   129097498.77506  24566339.340   100595706.25044
  21698949.760   114028929.09608  21698950.520    88853789.01147
  21526084.020   113120492.46308  21526087.700    88145916.33048
  20856067.480   109599753.72209  20856068.660    85402589.43548
  20960773.620   110149612.79209  20960774.200    85830868.45049
 15 01 29 00 11  0.0000000  0  5G12G21G25G29G31
  24582111.220   129180385.69505  24582112.260   100660293.45544
  21687504.240   113968782.62208  21687505.020    88806921.64148
  21535882.840   113171985.18108  21535886.540    88186040.51048
  20865478.000   109649206.29909  20865479.180    85441123.91148
  20960006.680   110145582.44809  20960007.260    85827727.91849
 15 01 29 00 11 30.0000000  0  5G12G21G25G29G31
  24597908.940   129263403.39006  24597910.040   100724982.54544
  21676131.940   113909020.98408  21676132.700    88760354.14348
  21545737.140   113223769.67708  21545740.900    88226392.04948
  20874928.380   109698868.28609  20874929.540    85479821.56348
  20959347.080   110142116.12409  20959347.640    85825026.88049
 15 01 29 00 12  0.0000000  0  5G12G21G25G29G31
  24613731.660   129346552.30506  24613732.800   100789773.89745
  21664833.300   113849646.33308  21664834.040    88714088.19348
  21555647.160   113275847.25008  21555651.060    88266971.97648
  20884418.600   109748739.61909  20884419.720    85518682.34248
  20958795.140   110139215.48109  20958795.680    85822766.63049
 15 01 29 00 12 30.0000000  0  5G12G21G25G29G31
  24629579.760   129429834.72006  24629580.980   100854669.27344
  21653609.120   113790663.01908  21653609.860    88668127.18448
  21565613.320   113328220.11808  21565617.400    88307782.00148
  20893948.720   109798820.60309  20893949.840    85557706.49048
  20958351.300   110136882.93909  20958351.800    85820949.05949
 15 01 29 00 13  0.0000000  0  5G12G21G25G29G31
  24645452.700   129513248.11106  24645454.060   100919666.67145
  21642459.280   113732070.12708  21642460.000    88622470.40048
  21575635.240   113380886.14208  21575639.420    88348820.44448
  20903518.100   109849108.10009  20903519.260    85596891.54848
  20958015.160   110135116.50109  20958015.660    85819572.60649
 15 01 29 00 13 30.0000000  0  5G12G21G25G29G31
  24661350.420   129596790.63606  24661351.680   100984764.72044
  21631383.740   113673867.64308  21631384.420    88577117.82348
  21585712.840   113433844.13508  21585716.980    88390086.40148
  20913126.220   109899599.08309  20913127.400    85636235.17148
  20957786.560   110133915.13709  20957787.040    85818636.47149
 15 01 29 00 14  0.0000000  0  5G12G21G25G29G31
  24677272.920   129680462.59006  24677273.980   101049963.65645
  21620382.800   113616057.47608  21620383.480    88532070.95048
  21595846.220   113487094.72508  21595850.180    88431580.35948
  20922772.880   109950292.56508  20922774.060    85675736.58248
  20957665.660   110133279.79009  20957666.140    85818141.39249
 15 01 29 00 14 30.0000000  0  5G12G21G25G29G31
  24693220.680   129764267.70506  24693221.640   101115266.33244
  21609457.600   113558645.37008  21609458.280    88487334.25448
  21606036.140   113540642.42308  21606039.940    88473305.81548
  20932458.600   110001191.67208  20932459.840    85715398.22248
  20957653.360   110133215.30009  20957653.880    85818091.13049
 15 01 29 00 15  0.0000000  0  5G12G21G25G29G31
  24709192.940   129848201.50906  24709193.760   101180669.27345
  21598607.520   113501628.08608  21598608.220    88442905.21148
  21616281.640   113594482.37608  21616285.360    88515259.01148
  20942182.220   110052289.81408  20942183.500    85755214.95148
  20957748.740   110133716.61409  20957749.300    85818481.75849
 15 01 29 00 15 30.0000000  0  5G12G21G25G29G31
  24725189.700   129932265.02206  24725190.560   101246173.27144
  21587833.200   113445008.61008  21587833.920    88398786.15148
  21626582.960   113648616.34108  21626586.720    88557441.32048
  20951943.920   110103587.86408  20951945.200    85795187.45448
  20957952.160   110134785.68609  20957952.760    85819314.79149
 15 01 29 00 16  0.0000000  0  5G12G21G25G29G31
  24741210.800   130016456.66006  24741211.840   101311777.10445
  21577134.700   113388787.50808  21577135.420    88354977.51748
  21636939.980   113703043.33208  21636943.860    88599851.95448
  20961743.100   110155082.99208  20961744.400    85835313.51848
  20958263.520   110136421.69909  20958264.120    85820589.59649
 15 01 29 00 16 30.0000000  0  4G21G25G29G31
  21566498.820   113332895.41008  21566499.540    88311425.23948
  21647339.420   113757693.20508  21647343.360    88642436.26448
  20971566.180   110206703.83408  20971567.520    85875537.54248
  20958669.460   110138554.68709  20958670.020    85822251.65649
 15 01 29 00 17  0.0000000  0  4G21G25G29G31
  21555960.580   113277516.40908  21555961.280    88268272.78548
  21657815.980   113812748.07308  21657819.920    88685336.15348
  20981447.520   110258630.85208  20981448.920    85916000.15148
  20959204.600   110141366.65309  20959205.140    85824442.79149
 15 01 29 00 17 30.0000000  0  4G21G25G29G31
  21545491.360   113222500.20508  21545492.040    88225403.02648
  21668340.920   113868056.78508  21668344.800    88728433.83248
  20991358.160   110310711.53808  20991359.540    85956582.50048
  20959840.200   110144706.57309  20959840.680    85827045.31749
 15 01 29 00 18  0.0000000  0  4G21G25G29G31
  21535097.580   113167880.58908  21535098.260    88182842.29248
  21678920.340   113923651.73908  21678924.140    88771754.57048
  21001303.900   110362976.73008  21001305.300    85997308.61848
  20960582.500   110148607.00709  20960582.900    85830084.60449
 15 01 29 00 18 30.0000000  0  4G21G25G29G31
  21524784.040   113113682.83508  21524784.720    88140610.28348
  21689558.840   113979557.30008  21689562.560    88815317.33648
  21011289.180   110415449.26108  21011290.500    86038196.30048
  20961436.000   110153092.07709  20961436.400    85833579.45849
 15 01 29 00 19  0.0000000  0  4G21G25G29G31
  21514549.180   113059718.62908  21514549.880    88098484.52848
  21700254.460   114035763.35908  21700258.160    88859114.23948
  21021311.800   110468118.07408  21021313.020    86079236.93048
  20962398.800   110158151.77309  20962399.220    85837522.07449
 15 01 29 00 19 30.0000000  0  4G21G25G29G31
  21504392.000   113006342.13608  21504392.680    88056892.46848
  21711006.020   114092263.53508  21711009.800    88903140.33248
  21031370.280   110520975.42308  21031371.440    86120424.47048
  20963469.760   110163779.82609  20963470.200    85841907.56249
 15 01 29 00 20  0.0000000  0  4G21G25G29G31
  21494309.660   112953358.97908  21494310.260    88015606.89948
  21721810.500   114149041.66608  21721814.320    88947383.01847
  21041461.220   110574003.54408  21041462.340    86161745.08448
  20964645.760   110169959.97409  20964646.240    85846723.25549
 15 01 29 00 20 30.0000000  0  4G21G25G29G31
  21484304.540   112900781.80508  21484305.120    87974637.67748
  21732670.020   114206109.03408  21732673.880    88991851.09547
  21051586.540   110627212.73108  21051587.740    86203206.77748
  20965928.980   110176703.51109  20965929.500    85851977.94849
 15 01 29 00 21  0.0000000  0  4G21G25G29G31
  21474378.280   112848619.19308  21474378.900    87933991.49248
  21743586.000   114263472.85108  21743589.920    89036550.16348
  21061747.420   110680608.75208  21061748.680    86244814.06348
  20967320.760   110184017.58309  20967321.340    85857677.21249
 15 01 29 00 21 30.0000000  0  4G21G25G29G31
  21464529.700   112796864.84208  21464530.380    87893663.43448
  21754557.020   114321125.85808  21754561.000    89081474.56448
  21071942.140   110734182.67208  21071943.460    86286559.97048
  20968819.720   110191894.69409  20968820.320    85863815.21349
 15 01 29 00 22  0.0000000  0  4G21G25G29G31
  21454758.980   112745519.56208  21454759.720    87853654.13548
  21765583.080   114379067.78208  21765587.120    89126624.10548
  21082170.540   110787933.31908  21082171.860    86328443.59148
  20970425.820   110200334.58309  20970426.380    85870391.74149
 15 01 29 00 22 30.0000000  0  4G21G25G29G31
  21445068.280   112694594.76308  21445069.080    87813972.48448
  21776666.060   114437308.61808  21776670.120    89172006.55848
  21092434.180   110841869.28208  21092435.500    86370471.61048
  20972140.900   110209347.23509  20972141.440    85877414.57649
 15 01 29 00 23  0.0000000  0  4G21G25G29G31
  21435456.120   112644082.55808  21435456.920    87774612.33548
  21787804.280   114495839.84908  21787808.380    89217615.30148
  21102731.160   110895980.55608  21102732.520    86412636.23148
  20973963.300   110218923.80109  20973963.820    85884876.82849
 15 01 29 00 23 30.0000000  0  4G21G25G29G31
  21425922.560   112593983.31808  21425923.320    87735573.98048
  21798997.480   114554659.92308  21799001.560    89263449.10548
  21113060.960   110950264.22108  21113062.340    86454935.19148
  20975892.720   110229062.81909  20975893.220    85892777.35349
 15 01 29 00 24  0.0000000  0  4G21G25G29G31
  21416469.340   112544306.38208  21416470.080    87696864.69048
  21810247.280   114613777.41708  21810251.300    89309514.67748
  21123425.060   111004728.23608  21123426.520    86497374.67548
  20977930.720   110239772.52109  20977931.220    85901122.57349
 15 01 29 00 24 30.0000000  0  4G21G25G29G31
  21407097.300   112495055.92408  21407098.000    87658487.72448
  21821554.160   114673194.91308  21821558.060    89355814.01248
  21133823.760   111059373.86008  21133825.280    86539955.67448
  20980077.780   110251055.51609  20980078.300    85909914.51949
 15 01 29 00 25  0.0000000  0  4G21G25G29G31
  21397805.460   112446226.92308  21397806.160    87620439.15748
  21832916.940   114732906.39908  21832920.800    89402342.42848
  21144255.580   111114193.51208  21144257.180    86582672.27648
  20982332.740   110262905.34009  20982333.240    85919148.13649
 15 01 29 00 25 30.0000000  0  4G21G25G29G31
  21388594.720   112397824.21808  21388595.440    87582722.77048
  21844336.340   114792915.76408  21844340.140    89449102.95648
  21154721.100   111169189.90708  21154722.700    86625526.60848
  20984696.260   110275325.69009  20984696.760    85928826.32249
 15 01 29 00 26  0.0000000  0  4G21G25G29G31
  21379465.120   112349847.75208  21379465.800    87545338.52348
  21855812.000   114853221.17208  21855815.780    89496094.15447
  21165219.740   111224360.20508  21165221.300    86668516.44248
  20987168.020   110288314.81309  20987168.500    85938947.71149
 15 01 29 00 26 30.0000000  0  4G21G25G29G31
  21370415.560   112302292.01708  21370416.220    87508282.11648
  21867342.840   114913816.46008  21867346.620    89543311.24147
  21175750.080   111279697.20008  21175751.600    86711636.17448
  20989746.780   110301866.23609  20989747.260    85949507.26149
 15 01 29 00 27  0.0000000  0  4G21G25G29G31
  21361445.920   112255156.10408  21361446.500    87471552.84648
  21878928.480   114974699.69308  21878932.280    89590752.71547
  21186311.500   111335197.45008  21186312.940    86754883.11648
  20992432.100   110315977.57509  20992432.600    85960503.10149
 15 01 29 00 27 30.0000000  0  4G21G25G29G31
  21352557.200   112208445.42308  21352557.720    87435154.91948
  21890569.660   115035874.89808  21890573.540    89638421.70048
  21196904.540   111390863.92008  21196905.900    86798259.58448
  20995224.680   110330652.66609  20995225.180    85971938.23149
 15 01 29 00 28  0.0000000  0  4G21G25G29G31
  21343749.280   112162159.47508  21343749.800    87399087.95548
  21902266.140   115097340.42608  21902270.060    89686316.90247
  21207528.660   111446693.95508  21207530.020    86841763.50648
  20998124.140   110345889.55209  20998124.680    85983811.13049
 15 01 29 00 28 30.0000000  0  4G21G25G29G31
  21335021.240   112116293.59108  21335021.780    87363348.31148
  21914016.880   115159090.92408  21914020.820    89734434.16947
  21218182.720   111502681.22908  21218184.080    86885389.94748
  21001129.420   110361682.55409  21001130.000    85996117.36349
 15 01 29 00 29  0.0000000  0  4G21G25G29G31
  21326375.080   112070858.15508  21326375.700    87327944.08748
  21925823.400   115221134.92008  21925827.420    89782780.13047
  21228868.000   111558832.71808  21228869.380    86929144.34648
  21004242.180   110378040.22709  21004242.800    86008863.59949
 15 01 29 00 29 30.0000000  0  4G21G25G29G31
  21317810.900   112025853.40308  21317811.580    87292875.45848
  21937685.680   115283471.72808  21937689.720    89831354.23947
  21239584.300   111615147.23408  21239585.680    86973025.78048
  21007462.120   110394960.99909  21007462.740    86022048.61349
 15 01 29 00 30  0.0000000  0  4G21G25G29G31
  21309327.780   111981274.62508  21309328.540    87258138.75148
  21949602.760   115346096.04308  21949606.700    89880152.38747
  21250330.420   111671618.25508  21250331.760    87017029.16548
  21010788.180   110412439.49209  21010788.780    86035668.20349
 15 01 29 00 30 30.0000000  0  4G21G25G29G31
  21300926.920   111937127.98608  21300927.740    87223738.77948
  21961575.540   115409012.99108  21961579.340    89929178.55947
  21261107.040   111728249.64108  21261108.320    87061157.51048
  21014221.260   110430480.47009  21014221.860    86049726.10649
 15 01 29 00 31  0.0000000  0  4G21G25G29G31
  21292609.660   111893420.32208  21292610.460    87189680.86748
  21973604.920   115472227.33408  21973608.580    89978436.46847
  21271914.860   111785045.01108  21271916.080    87105413.63048
  21017762.180   110449088.05109  21017762.760    86064225.51249
 15 01 29 00 31 30.0000000  0  4G21G25G29G31
  21284374.840   111850145.69108  21284375.560    87155960.38248
  21985689.660   115535732.70608  21985693.240    90027921.15547
  21282752.500   111841997.26408  21282753.720    87149791.99948
  21021409.680   110468255.83309  21021410.240    86079161.44149
 15 01 29 00 32  0.0000000  0  4G21G25G29G31
  21276222.620   111807305.07308  21276223.240    87122578.09248
  21997829.800   115599529.42708  21997833.360    90077632.87847
  21293619.820   111899105.43708  21293621.020    87194291.86448
  21025163.720   110487983.55609  21025164.260    86094533.68349
 15 01 29 00 32 30.0000000  0  4G21G25G29G31
  21268152.920   111764898.19008  21268153.460    87089533.78248
  22010024.920   115663615.32108  22010028.560    90127569.93247
  21304516.220   111956366.55308  21304517.400    87238910.90948
  21029023.840   110508268.66609  21029024.380    86110340.25649
 15 01 29 00 33  0.0000000  0  4G21G25G29G31
  21260165.760   111722925.14208  21260166.240    87056827.52148
  22022275.020   115727990.35908  22022278.740    90177732.27947
  21315441.560   112013779.69908  21315442.740    87283648.41548
  21032989.900   110529110.61209  21032990.500    86126580.72549
 15 01 29 00 33 30.0000000  0  4G21G25G29G31
  21252261.060   111681385.70508  21252261.520    87024459.13348
  22034579.720   115792652.34308  22034583.540    90228118.23147
  21326395.240   112071341.65308  21326396.400    87328501.87748
  21037061.500   110550506.98809  21037062.120    86143253.22449
 15 01 29 00 34  0.0000000  0  4G21G25G29G31
  21244439.680   111640284.37508  21244440.160    86992432.13148
  22046939.840   115857605.13608  22046943.680    90278730.77647
  21337377.780   112129055.52908  21337378.940    87373473.72948
  21041239.260   110572461.04209  21041239.860    86160360.27749
 15 01 29 00 34 30.0000000  0  5G16G21G25G29G31
  24554974.200   129037254.63906  24554975.460   100548515.58744
  21236693.720   111599579.41708  21236694.220    86960713.99048
  22059347.360   115922806.85208  22059351.220    90329537.28747
  21348381.020   112186878.36308  21348382.240    87418530.47748
  21045515.040   110594930.42309  21045515.680    86177868.87949
 15 01 29 00 35  0.0000000  0  5G16G21G25G29G31
  24537660.400   128946270.39706  24537661.640   100477618.79445
  21229039.320   111559355.31508  21229039.820    86929370.54248
  22071817.940   115988339.80608  22071821.760    90380601.91047
  21359420.440   112244891.28208  21359421.740    87463735.35148
  21049904.460   110617996.84609  21049905.060    86195842.71249
 15 01 29 00 35 30.0000000  0  5G16G21G25G29G31
  24520342.200   128855262.77806  24520343.360   100406703.80345
  21221467.360   111519564.48108  21221467.900    86898364.70648
  22084342.340   116054155.56008  22084346.160    90431886.90147
  21370486.720   112303045.00508  21370488.020    87509049.93648
  21054398.160   110641611.32809  21054398.720    86214243.59749
 15 01 29 00 36  0.0000000  0  5G16G21G25G29G31
  24503020.880   128764238.78006  24503022.000   100335776.02245
  21213979.100   111480213.34908  21213979.620    86867701.49848
  22096921.560   116120259.91708  22096925.500    90483396.77647
  21381580.820   112361344.87108  21381582.120    87554478.39948
  21058997.200   110665779.22309  21058997.700    86233075.70849
 15 01 29 00 36 30.0000000  0  5G16G21G25G29G31
  24485696.780   128673200.21206  24485697.900   100264836.89745
  21206574.860   111441303.74708  21206575.360    86837382.33448
  22109555.700   116186653.26308  22109559.820    90535131.84247
  21392702.580   112419790.14508  21392703.920    87600020.16948
  21063701.520   110690500.36309  21063701.960    86252338.92049
 15 01 29 00 37  0.0000000  0  5G16G21G25G29G31
  24468369.680   128582145.75505  24468370.620   100193885.39644
  21199254.400   111402834.38908  21199254.860    86807406.21748
  22122244.400   116253333.30708  22122248.600    90587090.30547
  21403851.480   112478377.45608  21403852.740    87645672.61748
  21068510.560   110715771.96809  21068510.980    86272031.06749
 15 01 29 00 37 30.0000000  0  5G16G21G25G29G31
  24451039.900   128491077.31206  24451040.840   100122922.98444
  21192017.700   111364805.35508  21192018.160    86777773.21248
  22134987.740   116320300.27808  22134991.900    90639272.33747
  21415027.340   112537106.45008  21415028.520    87691435.46348
  21073424.260   110741593.54109  21073424.660    86292151.75749
 15 01 29 00 38  0.0000000  0  5G16G21G25G29G31
  24433707.380   128399994.50406  24433708.300   100051949.35744
  21184864.800   111327216.66408  21184865.280    86748483.33148
  22147785.460   116387552.40708  22147789.440    90691676.56447
  21426229.660   112595974.59508  21426230.780    87737306.73948
  21078442.160   110767962.56009  21078442.520    86312699.03749
 15 01 29 00 38 30.0000000  0  5G16G21G25G29G31
  24416372.680   128308900.73505  24416373.720    99980967.23844
  21177796.280   111290071.38608  21177796.820    86719538.96448
  22160637.840   116455091.60708  22160641.600    90744304.50647
  21437458.620   112654983.19908  21437459.760    87783287.46148
  21083564.500   110794880.62309  21083564.880    86333674.13849
 15 01 29 00 39  0.0000000  0  5G16G21G25G29G31
  24399035.940   128217795.55605  24399037.100    99909976.20845
  21170811.940   111253368.50508  21170812.540    86690939.32348
  22173544.500   116522916.11908  22173548.160    90797154.75547
  21448713.720   112714129.16208  21448714.840    87829375.22048
  21088790.800   110822345.20409  21088791.280    86355075.10049
 15 01 29 00 39 30.0000000  0  5G16G21G25G29G31
  24381697.440   128126681.11305  24381698.580    99838977.96744
  21163912.220   111217110.19708  21163912.860    86662686.11148
  22186505.560   116591026.72308  22186509.240    90850227.95347
  21459994.980   112773412.80708  21459996.120    87875570.26248
  21094121.180   110850356.71609  21094121.760    86376902.24049
 15 01 29 00 40  0.0000000  0  5G16G21G25G29G31
  24364357.600   128035559.53406  24364358.620    99767974.12544
  21157097.300   111181297.57508  21157097.940    86634780.18148
  22199521.060   116659424.05508  22199524.940    90903524.56147
  21471302.380   112832834.09708  21471303.660    87921872.56048
  21099555.600   110878914.92509  21099556.220    86399155.38049
 15 01 29 00 40 30.0000000  0  5G16G21G25G29G31
  24347016.320   127944430.20906  24347017.260    99696964.26945
  21150366.840   111145928.85808  21150367.480    86607220.14848
  22212590.660   116728105.88908  22212594.760    90957042.85347
  21482635.400   112892389.92608  21482636.800    87968279.69148
  21105093.480   110908016.82309  21105094.160    86421832.17149
 15 01 29 00 41  0.0000000  0  5G16G21G25G29G31
  24329673.820   127853294.33606  24329674.740    99625949.29945
  21143721.080   111111005.33508  21143721.720    86580007.01748
  22225714.440   116797072.32308  22225718.700    91010782.91947
  21493993.940   112952079.51408  21493995.360    88014791.05148
  21110734.760   110937661.94409  21110735.460    86444932.25349
 15 01 29 00 41 30.0000000  0  5G16G21G25G29G31
  24312330.320   127762153.54906  24312331.300    99554930.51345
  21137160.240   111076528.20608  21137160.880    86553141.73248
  22238892.460   116866323.25408  22238896.720    91064744.67747
  21505377.900   113011902.42008  21505379.280    88061406.30048
  21116479.300   110967849.58709  21116479.980    86468455.07849
 15 01 29 00 42  0.0000000  0  5G16G21G25G29G31
  24294985.860   127671007.87806  24294986.940    99483907.93245
  21130684.200   111042496.59408  21130684.860    86526623.59748
  22252124.360   116935856.75108  22252128.500    91118926.61647
  21516786.700   113071855.97708  21516788.060    88108123.34948
  21122326.600   110998577.04409  21122327.240    86492398.53448
 15 01 29 00 42 30.0000000  0  5G16G21G25G29G31
  24277640.960   127579859.78206  24277642.120    99412883.46645
  21124293.360   111008912.61008  21124294.020    86500454.26648
  22265410.300   117005674.42708  22265414.300    91173329.97447
  21528220.500   113131941.00408  21528221.900    88154942.84548
  21128276.820   111029845.47109  21128277.420    86516763.52849
 15 01 29 00 43  0.0000000  0  5G16G21G25G29G31
  24260295.860   127488710.89206  24260297.120    99341858.39044
  21117987.820   110975776.77908  21117988.480    86474634.14448
  22278750.260   117075776.39008  22278754.180    91227954.85147
  21539679.160   113192156.92908  21539680.620    88201864.33248
  21134329.760   111061653.81809  21134330.360    86541549.24249
 15 01 29 00 43 30.0000000  0  5G16G21G25G29G31
  24242950.740   127397561.73206  24242952.040    99270833.09344
  21111767.540   110943088.94508  21111768.180    86449163.11448
  22292143.940   117146160.88708  22292147.840    91282799.90047
  21551162.300   113252501.25008  21551163.740    88248885.87748
  21140484.980   111093999.69609  21140485.600    86566753.81449
 15 01 29 00 44  0.0000000  0  5G16G21G25G29G31
  24225605.700   127306413.02105  24225606.980    99199808.14445
  21105632.540   110910849.28208  21105633.160    86424041.30748
  22305591.300   117216827.42508  22305595.260    91337864.72047
  21562669.660   113312972.79808  21562671.040    88296006.55648
  21146742.240   111126881.76409  21146742.900    86592376.20149
 15 01 29 00 44 30.0000000  0  5G16G21G25G29G31
  24208260.840   127215265.29006  24208261.980    99128783.94445
  21099582.800   110879057.56008  21099583.340    86399268.54348
  22319092.140   117287775.00208  22319096.200    91393148.53047
  21574201.020   113373570.43808  21574202.400    88343225.48648
  21153101.160   111160298.26709  21153101.860    86618415.03049
 15 01 29 00 45  0.0000000  0  5G16G21G25G29G31
  24190916.460   127124120.62006  24190917.680    99057762.15044
  21093618.560   110847715.15208  21093619.060    86374845.89748
  22332646.620   117359004.02008  22332650.720    91448651.65547
  21585756.300   113434293.71108  21585757.660    88390542.31748
  21159561.760   111194249.10609  21159562.500    86644870.22448
 15 01 29 00 45 30.0000000  0  5G16G21G25G29G31
  24173572.700   127032978.84306  24173573.880    98986742.58845
  21087739.580   110816820.90108  21087740.060    86350772.46548
  22346254.400   117430512.55108  22346258.420    91504372.58247
  21597335.020   113495139.99008  21597336.360    88437955.00048
  21166123.540   111228731.48809  21166124.280    86671739.60648
 15 01 29 00 46  0.0000000  0  5G16G21G25G29G31
  24156230.000   126941842.10506  24156231.060    98915726.97745
  21081946.180   110786376.49108  21081946.700    86327049.55248
  22359915.460   117502301.30708  22359919.360    91560311.85647
  21608937.160   113556109.61308  21608938.500    88485463.78948
  21172786.460   111263745.18209  21172787.180    86699022.99248
 15 01 29 00 46 30.0000000  0  5G16G21G25G29G31
  24138888.580   126850712.10206  24138889.660    98844716.59944
  21076238.380   110756381.88608  21076238.940    86303677.13948
  22373629.800   117574370.22508  22373633.520    91616469.43947
  21620562.560   113617201.50508  21620563.900    88533067.85548
  21179550.300   111299289.17809  21179551.000    86726719.60449
 15 01 29 00 47  0.0000000  0  5G16G21G25G29G31
  24121548.720   126759590.19406  24121549.780    98773712.51145
  21070616.460   110726838.47908  21070617.060    86280656.30648
  22387397.320   117646718.88908  22387400.840    91672845.01447
  21632211.080   113678415.10608  21632212.480    88580766.76148
  21186414.860   111335362.44209  21186415.520    86754828.62949
 15 01 29 00 47 30.0000000  0  5G16G21G25G29G31
  24104210.820   126668478.74906  24104211.760    98702716.60645
  21065080.580   110697747.34908  21065081.220    86257987.90448
  22401218.100   117719347.99808  22401221.540    91729439.10846
  21643882.800   113739750.60908  21643884.260    88628560.65348
  21193380.080   111371964.73409  21193380.700    86783349.88549
 15 01 29 00 48  0.0000000  0  5G16G21G25G29G31
  24086874.940   126577377.90606  24086875.860    98631728.93444
  21059630.600   110669107.57108  21059631.260    86235671.20448
  22415091.880   117792255.71708  22415095.360    91786250.30547
  21655577.420   113801206.20708  21655578.880    88676448.12448
  21200445.380   111409093.30909  21200446.040    86812281.23648
 15 01 29 00 48 30.0000000  0  5G16G21G25G29G31
  24069540.960   126486287.30306  24069541.900    98560749.26844
  21054266.380   110640918.42808  21054267.040    86213705.64848
  22429018.380   117865440.24908  22429022.020    91843277.19347
  21667294.300   113862778.75908  21667295.740    88724426.73148
  21207610.320   111446745.58609  21207611.040    86841620.66849
 15 01 29 00 49  0.0000000  0  5G16G21G25G29G31
  24052209.120   126395208.11106  24052210.100    98489778.45944
  21048987.800   110613179.45308  21048988.480    86192090.87348
  22442997.520   117938900.77608  22443001.300    91900519.14647
  21679033.300   113924467.43608  21679034.660    88772495.82848
  21214874.560   111484919.70309  21214875.320    86871366.73248
 15 01 29 00 49 30.0000000  0  5G16G21G25G29G31
  24034879.960   126304142.91306  24034880.980    98418818.58944
  21043795.160   110585892.13508  21043795.820    86170828.03148
  22457029.400   118012638.32508  22457033.380    91957976.95647
  21690794.460   113986272.67808  21690795.840    88820655.74348
  21222238.160   111523615.78209  21222238.960    86901519.51848
 15 01 29 00 50  0.0000000  0  5G16G21G25G29G31
  24017553.800   126213093.25606  24017554.780    98347870.83545
  21038688.640   110559057.10408  21038689.240    86149917.63048
  22471113.960   118086652.58608  22471118.080    92015650.40247
  21702577.600   114048193.67008  21702579.020    88868905.85848
  21229700.940   111562832.90609  21229701.740    86932078.30648
 15 01 29 00 50 30.0000000  0  6G16G18G21G25G29G31
  24000231.900   126122065.93106  24000232.860    98276940.47545
  24504210.160   128770492.07005  24504214.920   100340673.94043
  21033669.340   110532680.30208  21033669.840    86129364.28848
  22485252.020   118160948.35608  22485256.260    92073543.20247
  21714383.680   114110235.08108  21714385.100    88917249.81348
  21237263.560   111602574.55909  21237264.320    86963045.81348
 15 01 29 00 51  0.0000000  0  6G16G18G21G25G29G31
  23982912.640   126031052.65606  23982913.680    98206021.05344
  24489155.240   128691378.68305  24489160.020   100279027.69143
  21028735.420   110506752.17808  21028735.820    86109160.56148
  22499441.660   118235515.39408  22499445.900    92131647.37747
  21726210.580   114172385.99408  21726212.040    88965679.09448
  21244923.920   111642829.71709  21244924.640    86994413.45748
 15 01 29 00 51 30.0000000  0  6G16G18G21G25G29G31
  23965596.920   125940057.90906  23965598.020    98135116.07744
  24474087.960   128612201.94305  24474093.340   100217332.12944
  21023887.460   110481275.93208  21023887.820    86089308.95348
  22513683.400   118310356.45008  22513687.580    92189965.07547
  21738058.860   114234648.95208  21738060.320    89014195.67948
  21252682.380   111683600.36909  21252683.040    87026182.78748
 15 01 29 00 52  0.0000000  0  6G16G18G21G25G29G31
  23948284.780   125849082.24406  23948285.940    98064225.95444
  24459009.200   128532963.74405  24459014.700   100155588.66944
  21019125.460   110456251.39008  21019125.780    86069809.31049
  22527977.060   118385470.48208  22527981.200    92248495.47147
  21749928.220   114297022.47708  21749929.620    89062798.41948
  21260538.500   111724884.43409  21260539.140    87058352.18548
 15 01 29 00 52 30.0000000  0  6G16G18G21G25G29G31
  23930976.900   125758128.71806  23930977.960    97993353.08944
  24443919.440   128453667.88105  24443924.580   100093800.19744
  21014449.720   110431680.23408  21014450.060    86050662.95748
  22542322.900   118460858.51707  22542326.920    92307239.37347
  21761818.700   114359507.12908  21761820.040    89111487.75848
  21268492.280   111766681.85109  21268492.940    87090921.59748
 15 01 29 00 53  0.0000000  0  6G16G18G21G25G29G31
  23913673.500   125667198.30106  23913674.380    97922498.24744
  24428819.000   128374316.92706  24428824.340   100031968.85644
  21009860.220   110407562.32208  21009860.620    86031869.78349
  22556720.760   118536519.46908  22556724.620    92366195.91547
  21773730.120   114422101.51708  21773731.320    89160262.60248
  21276543.360   111808990.49909  21276544.020    87123889.36848
 15 01 29 00 53 30.0000000  0  6G16G18G21G25G29G31
  23896374.340   125576290.23406  23896374.960    97851660.80244
  24413708.220   128294911.17305  24413713.660    99970094.76944
  21005356.520   110383895.47608  21005356.980    86013428.08148
  22571170.040   118612450.63007  22571173.840    92425363.04147
  21785661.860   114484802.72208  21785663.000    89209120.66948
  21284691.000   111851806.65809  21284691.680    87157252.60448
 15 01 29 00 54  0.0000000  0  6G16G18G21G25G29G31
  23879080.920   125485412.38006  23879081.360    97780846.90744
  24398588.440   128215459.31705  24398594.140    99908184.75343
  21000939.980   110360686.40508  21000940.440    85995343.09448
  22585671.780   118688657.81707  22585675.620    92484745.25646
  21797614.940   114547616.38908  21797616.080    89258066.37648
  21292936.180   111895135.34709  21292936.880    87191015.21648
 15 01 29 00 54 30.0000000  0  6G16G18G21G25G29G31
  23861791.680   125394556.84006  23861792.060    97710050.39844
  24383458.980   128135954.51706  24383464.420    99846233.47544
  20996608.780   110337925.75308  20996609.220    85977607.52748
  22600224.160   118765131.26907  22600228.140    92544334.94447
  21809587.520   114610532.48808  21809588.680    89307091.90148
  21301276.800   111938965.47509  21301277.460    87225168.55448
 15 01 29 00 55  0.0000000  0  6G16G18G21G25G29G31
  23844508.260   125303731.98106  23844508.660    97639277.80844
  24368321.120   128056406.26006  24368326.380    99784248.42443
  20992364.280   110315620.90008  20992364.720    85960227.13449
  22614828.340   118841877.37307  22614832.460    92604137.10547
  21821580.620   114673556.70108  21821581.820    89356201.68248
  21309713.880   111983302.63009  21309714.500    87259716.97848
 15 01 29 00 55 30.0000000  0  6G16G18G21G25G29G31
  23827230.140   125212934.87406  23827230.520    97568526.81745
  24353174.980   127976813.12706  24353179.500    99722228.27643
  20988205.640   110293767.21708  20988206.060    85943198.29949
  22629483.440   118918891.13707  22629487.660    92664147.83147
  21833593.220   114736683.79208  21833594.500    89405391.61348
  21318246.240   112028140.56309  21318246.840    87294655.62548
 15 01 29 00 56  0.0000000  0  6G16G18G21G25G29G31
  23809958.120   125122170.08506  23809958.520    97497801.01245
  24338021.320   127897180.83906  24338025.560    99660177.63644
  20984133.500   110272368.14508  20984133.900    85926523.70249
  22644189.980   118996175.35407  22644194.340    92724369.28846
  21845625.960   114799917.10308  21845627.360    89454664.31448
  21326874.240   112073481.30309  21326874.880    87329986.06248
 15 01 29 00 56 30.0000000  0  6G16G18G21G25G29G31
  23792692.220   125031437.07606  23792692.580    97427099.94545
  24322860.220   127817509.28606  24322863.880    99598096.37943
  20980147.480   110251421.47408  20980147.860    85910201.62649
  22658947.500   119073727.06507  22658951.880    92784799.17346
  21857678.320   114863252.96408  21857679.740    89504016.93147
  21335597.120   112119320.57009  21335597.820    87365704.96148
 15 01 29 00 57  0.0000000  0  6G16G18G21G25G29G31
  23775433.160   124940740.13006  23775433.520    97356427.00445
  24307692.540   127737804.34206  24307695.980    99535989.08143
  20976248.120   110230930.32708  20976248.500    85894234.50749
  22673756.440   119151548.68807  22673760.740    92845439.37446
  21869750.680   114926693.47008  21869752.020    89553451.09048
  21344415.200   112165659.94109  21344415.920    87401813.55348
 15 01 29 00 57 30.0000000  0  6G16G18G21G25G29G31
  23758180.660   124850077.59407  23758181.140    97285780.88945
  24292518.280   127658065.42506  24292521.800    99473855.30444
  20972434.900   110210891.76308  20972435.300    85878620.05649
  22688616.240   119229636.48207  22688620.260    92906286.96846
  21881842.240   114990234.78408  21881843.500    89602963.79647
  21353327.500   112212494.35909  21353328.220    87438307.89548
 15 01 29 00 58  0.0000000  0  6G16G18G21G25G29G31
  23740935.440   124759453.36407  23740936.060    97215164.62045
  24277338.400   127578297.53605  24277342.040    99411698.91144
  20968708.220   110191308.03008  20968708.640    85863360.01249
  22703527.140   119307992.39008  22703530.840    92967343.49746
  21893953.360   115053878.86808  21893954.540    89652556.58848
  21362334.240   112259824.97909  21362334.960    87475188.89548
 15 01 29 00 58 30.0000000  0  6G16G18G21G25G29G31
  23723697.540   124668867.56707  23723698.340    97144578.29545
  24262153.220   127498501.93506  24262157.020    99349520.97544
  20965067.860   110172177.89308  20965068.300    85848453.41849
  22718488.580   119386614.31507  22718492.140    93028607.32146
  21906083.500   115117623.06808  21906084.660    89702227.38248
  21371434.760   112307648.34809  21371435.480    87512453.84648
 15 01 29 00 59  0.0000000  0  6G16G18G21G25G29G31
  23706466.980   124578320.44506  23706467.900    97074022.10645
  24246963.100   127418679.77205  24246966.960    99287322.24844
  20961513.580   110153499.86508  20961513.980    85833899.11949
  22733500.100   119465500.24307  22733503.780    93090076.85546
  21918232.340   115181465.70108  21918233.520    89751974.87347
  21380628.440   112355961.40708  21380629.180    87550100.37948
 15 01 29 00 59 30.0000000  0  6G16G18G21G25G29G31
  23689244.540   124487816.10606  23689245.520    97003499.24145
  24231768.760   127338836.12706  24231772.920    99225106.81844
  20958045.800   110135276.41408  20958046.160    85819699.03349
  22748562.180   119544652.16607  22748566.120    93151753.66347
  21930400.240   115245408.57008  21930401.420    89801800.47747
  21389915.400   112404764.89508  21389916.140    87588129.06548
 15 01 29 01 00  0.0000000  0  6G16G18G21G25G29G31
  23672029.880   124397352.51806  23672030.860    96933008.14545
  24216570.460   127258970.78606  24216574.820    99162874.43944
  20954663.900   110117504.40208  20954664.260    85805850.72049
  22763674.080   119624066.10107  22763678.320    93213634.64846
  21942586.400   115309447.37608  21942587.620    89851700.83947
  21399294.760   112454054.02809  21399295.540    87626536.17348
 15 01 29 01 00 30.0000000  0  6G16G18G21G25G29G31
  23654823.620   124306933.16606  23654824.480    96862551.48345
  24201368.800   127179087.66005  24201373.020    99100628.16045
  20951368.200   110100185.40008  20951368.560    85792355.39648
  22778836.140   119703743.23307  22778840.540    93275720.71647
  21954790.940   115373583.08408  21954792.280    89901676.71047
  21408766.480   112503828.41309  21408767.280    87665321.40248
 15 01 29 01 01  0.0000000  0  6G16G18G21G25G29G31
  23637626.060   124216559.59706  23637626.760    96792130.53645
  24186164.240   127099189.28405  24186168.620    99038370.04944
  20948158.680   110083319.28708  20948159.060    85779212.97549
  22794048.220   119783682.77707  22794052.640    93338011.24847
  21967013.860   115437815.12308  21967015.260    89951727.64548
  21418330.280   112554086.32109  21418331.040    87704483.39648
 15 01 29 01 01 30.0000000  0  6G16G18G21G25G29G31
  23620437.060   124126231.03906  23620437.680    96721744.64145
  24170957.000   127019275.99905  24170961.640    98976100.30345
  20945034.820   110066903.31808  20945035.220    85766421.31349
  22809309.740   119863881.74407  22809313.960    93400503.92746
  21979254.540   115502140.22208  21979255.940    90001851.09748
  21427985.280   112604823.37809  21427985.980    87744018.75348
 15 01 29 01 02  0.0000000  0  6G16G18G21G25G29G31
  23603257.960   124035954.35106  23603258.640    96651399.17845
  24155748.280   126939355.89505  24155752.940    98913825.18944
  20941997.640   110050942.77708  20941998.020    85753984.53649
  22824621.460   119944344.70107  22824625.400    93463202.31246
  21991513.860   115566563.34208  21991515.260    90052050.91848
  21437732.200   112656043.39509  21437732.860    87783930.44048
 15 01 29 01 02 30.0000000  0  6G16G18G21G25G29G31
  23586088.000   123945725.90206  23586088.740    96581091.28344
  24140537.920   126859426.18305  24140542.600    98851542.60744
  20939046.180   110035432.85508  20939046.560    85741898.88949
  22839982.140   120025065.78207  22839985.920    93526101.83546
  22003790.620   115631078.24308  22003792.020    90102322.25747
  21447569.620   112707739.09409  21447570.240    87824212.79348
 15 01 29 01 03  0.0000000  0  6G16G18G21G25G29G31
  23568928.280   123855551.18006  23568929.020    96510825.25644
  24125326.840   126779493.84605  24125331.520    98789257.97043
  20936181.220   110020377.41508  20936181.580    85730167.38149
  22855392.480   120106048.57407  22855396.300    93589205.29846
  22016085.580   115695688.58608  22016087.000    90152667.97547
  21457497.960   112759912.88908  21457498.600    87864867.68848
 15 01 29 01 03 30.0000000  0  6G16G18G21G25G29G31
  23551777.960   123765425.83706  23551778.860    96440597.71045
  24110114.880   126699555.17906  24110119.240    98726968.36244
  20933401.500   110005769.98508  20933401.860    85718784.97449
  22870851.180   120187285.95007  22870855.200    93652507.14246
  22028397.420   115760387.42208  22028398.800    90203082.64247
  21467515.660   112812556.37808  21467516.340    87905888.57848
 15 01 29 01 04  0.0000000  0  6G16G18G21G25G29G31
  23534638.300   123675356.15606  23534639.200    96370413.53645
  24094903.060   126619617.71105  24094907.340    98664679.70644
  20930707.880   109991615.12708  20930708.260    85707755.21649
  22886359.180   120268782.20907  22886363.460    93716010.71746
  22040726.900   115825178.66408  22040728.160    90253569.31447
  21477623.320   112865672.62408  21477624.040    87947277.85348
 15 01 29 01 04 30.0000000  0  6G16G18G21G25G29G31
  23517508.820   123585339.91806  23517509.660    96300271.00745
  24079691.560   126539679.95806  24079695.380    98602390.75944
  20928099.580   109977908.50708  20928099.960    85697074.73749
  22901915.720   120350532.57507  22901920.100    93779712.28346
  22053073.080   115890057.94708  22053074.260    90304124.57747
  21487819.880   112919256.06408  21487820.660    87989031.16848
 15 01 29 01 05  0.0000000  0  6G16G18G21G25G29G31
  23500390.780   123495383.77406  23500391.560    96230175.32545
  24064481.380   126459749.81305  24064484.920    98540107.81844
  20925577.560   109964655.50708  20925578.000    85686747.73149
  22917521.560   120432541.48707  22917526.040    93843615.32546
  22065436.740   115955029.44708  22065437.900    90354751.70447
  21498105.900   112973309.56108  21498106.700    88031150.76648
 15 01 29 01 05 30.0000000  0  6G16G18G21G25G29G31
  23483283.600   123405485.26506  23483284.500    96160124.54945
  24049272.560   126379825.95506  24049275.700    98477829.72044
  20923141.000   109951851.33508  20923141.440    85676770.45649
  22933175.780   120514804.07807  22933180.220    93907716.03046
  22077817.160   116020088.81008  22077818.280    90405447.31147
  21508480.200   113027826.76209  21508480.980    88073631.69248
 15 01 29 01 06  0.0000000  0  6G16G18G21G25G29G31
  23466188.360   123315649.70306  23466189.440    96090122.82345
  24034066.080   126299915.00306  24034068.940    98415561.68144
  20920790.560   109939499.44808  20920790.980    85667145.62549
  22948878.800   120597323.37907  22948883.220    93972016.76946
  22090214.800   116085238.76108  22090215.900    90456213.50047
  21518943.160   113082809.88308  21518943.920    88116475.67448
 15 01 29 01 06 30.0000000  0  7G16G18G21G25G27G29G31
  23449105.460   123225878.50207  23449106.640    96020171.25645
  24018862.560   126220018.96506  24018865.060    98353305.26444
  20918526.160   109927599.64308  20918526.560    85657873.05449
  22964630.460   120680098.32507  22964634.800    94036516.71246
  24623165.240   129395603.47905  24623170.620   100827756.48844
  22102629.520   116150478.66508  22102630.660    90507049.78947
  21529494.340   113138256.49008  21529495.080    88159680.80848
 15 01 29 01 07  0.0000000  0  7G16G18G21G25G27G29G31
  23432034.100   123136167.92906  23432035.240    95950266.93245
  24003661.120   126140134.84506  24003663.200    98291058.08244
  20916346.720   109916146.22508  20916347.080    85648948.32149
  22980429.560   120763122.64107  22980433.800    94101210.96646
  24608377.940   129317895.21005  24608382.080   100767204.68844
  22115060.220   116215802.23808  22115061.360    90557951.26847
  21540132.240   113194158.97108  21540133.020    88203241.18148
 15 01 29 01 07 30.0000000  0  7G16G18G21G25G27G29G31
  23414975.080   123046521.92707  23414976.120    95880412.92445
  23988462.840   126060267.87006  23988464.860    98228824.25444
  20914252.580   109905141.13208  20914252.900    85640372.93249
  22996276.320   120846397.86707  22996280.440    94166100.74446
  24593606.280   129240271.53105  24593609.620   100706717.76444
  22127507.120   116281211.14608  22127508.280    90608919.25147
  21550856.980   113250517.56908  21550857.760    88247156.95948
 15 01 29 01 08  0.0000000  0  7G16G18G21G25G27G29G31
  23397929.600   122956947.06707  23397930.560    95810614.33345
  23973269.040   125980425.57806  23973270.920    98166609.65743
  20912244.520   109894588.72208  20912244.860    85632150.28349
  23012171.600   120929928.22907  23012175.540    94231189.32446
  24578851.980   129162737.52905  24578855.800   100646301.75344
  22139971.120   116346709.70108  22139972.260    90659957.08247
  21561669.060   113307335.27508  21561669.820    88291430.48648
 15 01 29 01 08 30.0000000  0  7G16G18G21G25G27G29G31
  23380896.880   122867439.59307  23380897.780    95740868.25545
  23958079.300   125900605.15506  23958081.380    98104412.11344
  20910321.420   109884483.18908  20910321.820    85624275.84749
  23028114.300   121013707.47807  23028118.000    94296471.82546
  24564113.740   129085287.97505  24564117.880   100585951.51344
  22152451.000   116412291.98408  22152452.160    90711060.14147
  21572567.080   113364604.68809  21572567.820    88336055.99048
 15 01 29 01 09  0.0000000  0  7G16G18G21G25G27G29G31
  23363877.800   122778003.80307  23363878.620    95671178.04345
  23942894.700   125820812.29206  23942896.880    98042236.02644
  20908483.880   109874827.27908  20908484.320    85616751.76449
  23044104.760   121097737.31407  23044108.220    94361949.60446
  24549392.040   129007925.26405  24549396.420   100525668.94844
  22164947.140   116477959.69008  22164948.300    90762229.76847
  21583551.080   113422325.90308  21583551.820    88381033.54848
 15 01 29 01 09 30.0000000  0  7G16G18G21G25G27G29G31
  23346871.900   122688637.14007  23346872.640    95601541.67645
  23927715.080   125741044.43706  23927717.300    97980079.41244
  20906731.020   109865616.27608  20906731.460    85609574.36649
  23060141.860   121182012.68307  23060145.260    94427618.71546
  24534686.180   128930645.26105  24534690.520   100465450.82845
  22177458.680   116543707.86408  22177459.740    90813462.10147
  21594619.900   113480492.84808  21594620.640    88426358.42848
 15 01 29 01 10  0.0000000  0  7G16G18G21G25G27G29G31
  23329880.160   122599344.89407  23329880.920    95531963.30144
  23912541.780   125661308.70406  23912543.800    97917947.81744
  20905063.440   109856853.43608  20905063.900    85602746.18749
  23076226.180   121266536.32907  23076229.660    94493481.28646
  24519996.800   128853451.67005  24520001.040   100405300.04145
  22189986.120   116609539.92408  22189987.120    90864759.78147
  21605773.780   113539106.92208  21605774.560    88472031.72448
 15 01 29 01 10 30.0000000  0  7G16G18G21G25G27G29G31
  23312902.760   122510128.26007  23312903.540    95462443.85845
  23897375.020   125581607.24706  23897376.940    97855842.97844
  20903480.960   109848537.36908  20903481.380    85596266.13449
  23092357.520   121351307.07907  23092361.140    94559536.39646
  24505323.780   128776344.17205  24505328.100   100345216.32645
  22202529.320   116675454.86908  22202530.280    90916122.06247
  21617012.240   113598165.48608  21617013.060    88518051.37648
 15 01 29 01 11  0.0000000  0  7G16G18G21G25G27G29G31
  23295939.980   122420988.50107  23295940.800    95392984.32245
  23882215.120   125501942.26806  23882217.040    97793766.53344
  20901983.420   109840667.43308  20901983.740    85590133.72549
  23108535.580   121436323.75307  23108539.460    94625783.15646
  24490667.100   128699322.39405  24490671.320   100285199.40344
  22215087.960   116741451.34608  22215088.940    90967547.88047
  21628334.840   113657666.09808  21628335.660    88564415.47948
 15 01 29 01 11 30.0000000  0  7G16G18G21G25G27G29G31
  23278992.120   122331926.97507  23278992.940    95323585.73845
  23867062.660   125422315.91606  23867064.460    97731720.16443
  20900570.600   109833242.96908  20900570.920    85584348.43749
  23124760.200   121521584.86407  23124764.240    94692220.36946
  24476026.620   128622385.96605  24476030.720   100225248.95845
  22227661.920   116807528.17008  22227662.940    91019036.30047
  21639741.060   113717606.14908  21639741.860    88611122.00048
 15 01 29 01 12  0.0000000  0  7G16G18G21G25G27G29G31
  23262059.920   122242947.42107  23262060.720    95254251.03845
  23851918.460   125342732.81505  23851920.300    97669707.51445
  20899242.780   109826265.41508  20899243.120    85578911.38149
  23141031.580   121607091.77707  23141035.740    94758849.12445
  24461402.520   128545534.04605  24461406.220   100165381.73045
  22240251.540   116873687.36408  22240252.620    91070588.92747
  21651230.880   113777985.49308  21651231.660    88658170.82148
 15 01 29 01 12 30.0000000  0  7G16G18G21G25G27G29G31
  23245142.960   122154048.34107  23245143.860    95184979.05445
  23836782.320   125263192.64306  23836784.280    97607728.29045
  20897999.340   109819731.36108  20897999.740    85573819.91549
  23157348.960   121692840.22407  23157353.120    94825666.07846
  24446794.700   128468769.27105  24446798.480   100105565.05945
  22252856.060   116939924.75008  22252857.200    91122202.46447
  21662803.240   113838798.53908  21662803.980    88705557.59048
 15 01 29 01 13  0.0000000  0  7G16G18G21G25G27G29G31
  23228242.240   122065234.66607  23228243.180    95115773.59645
  23821655.340   125183700.97206  23821657.460    97545786.84745
  20896840.760   109813643.19508  20896841.180    85569075.89649
  23173712.700   121778832.48407  23173716.760    94892672.99346
  24432203.400   128392091.93505  24432207.380   100045816.51644
  22265476.060   117006243.10108  22265477.200    91173879.09347
  21674458.280   113900046.24808  21674459.000    88753283.07148
 15 01 29 01 13 30.0000000  0  7G16G18G21G25G27G29G31
  23211357.540   121976505.16807  23211358.440    95046633.74445
  23806537.600   125104257.47706  23806539.820    97483882.92744
  20895766.420   109807997.56608  20895766.840    85564676.71649
  23190122.080   121865064.68907  23190126.000    94959866.90045
  24417628.160   128315499.09605  24417632.260    99986133.85444
  22278110.800   117072638.89508  22278111.920    91225616.06147
  21686195.000   113961723.34408  21686195.760    88801343.12748
 15 01 29 01 14  0.0000000  0  7G16G18G21G25G27G29G31
  23194489.440   121887862.55707  23194490.200    94977561.58845
  23791429.720   125024865.92206  23791432.160    97422019.50945
  20894776.440   109802795.11508  20894776.840    85560622.86949
  23206577.180   121951536.93907  23206580.940    95027247.84646
  24403069.260   128238991.69205  24403073.340    99926517.75244
  22290760.220   117139111.96908  22290761.380    91277413.25847
  21698013.200   114023828.44108  21698014.000    88849736.69748
 15 01 29 01 14 30.0000000  0  7G16G18G21G25G27G29G31
  23177638.200   121799308.53807  23177638.860    94908558.47745
  23776332.440   124945528.97606  23776334.760    97360198.61444
  20893870.640   109798035.26208  20893871.080    85556913.90049
  23223077.800   122038248.31907  23223081.500    95094815.13445
  24388526.680   128162569.91005  24388530.640    99866968.35345
  22303424.360   117205662.46608  22303425.560    91329270.76347
  21709912.500   114086359.70508  21709913.340    88898462.35448
 15 01 29 01 15  0.0000000  0  7G16G18G21G25G27G29G31
  23160804.060   121710844.43307  23160804.740    94839625.41245
  23761246.060   124866249.28206  23761248.360    97298422.38144
  20893048.740   109793716.08808  20893049.160    85553548.32249
  23239623.680   122125197.39507  23239627.360    95162567.65545
  24374000.320   128086233.11305  24374004.060    99807485.18544
  22316103.040   117272289.24608  22316104.260    91381187.71647
  21721892.260   114149313.78508  21721893.140    88947517.46848
 15 01 29 01 15 30.0000000  0  7G16G18G21G25G27G29G31
  23143987.580   121622473.09507  23143988.200    94770764.63945
  23746171.180   124787029.77206  23746173.260    97236692.99145
  20892310.860   109789838.36808  20892311.240    85550526.73349
  23256214.800   122212384.05107  23256218.480    95230505.30145
  24359490.260   128009982.25205  24359493.860    99748068.96945
  22328796.220   117338992.13608  22328797.360    91433163.97147
  21733952.240   114212689.34708  21733953.120    88996901.01548
 15 01 29 01 16  0.0000000  0  7G16G18G21G25G27G29G31
  23127188.940   121534195.77707  23127189.560    94701977.12546
  23731108.200   124707873.12306  23731110.140    97175012.59445
  20891656.960   109786401.98208  20891657.320    85547849.04049
  23272850.980   122299807.15507  23272854.640    95298627.19146
  24344996.480   127933817.13105  24344999.920    99688719.52244
  22341503.760   117405770.67808  22341504.860    91485199.17647
  21746092.020   114276484.13008  21746092.840    89046611.22348
 15 01 29 01 16 30.0000000  0  7G16G18G21G25G27G29G31
  23110408.560   121446014.31907  23110409.100    94633264.30545
  23716057.720   124628782.30106  23716059.560    97113383.49844
  20891086.880   109783406.14208  20891087.240    85545514.62949
  23289532.080   122387465.80007  23289535.700    95366932.61746
  24330519.000   127857737.83105  24330522.480    99629437.00145
  22354225.680   117472624.77108  22354226.740    91537293.26747
  21758311.140   114340695.74708  21758311.840    89096646.23548
 15 01 29 01 17  0.0000000  0  7G16G18G21G25G27G29G31
  23093647.020   121357931.71107  23093647.480    94564628.51746
  23701020.320   124549761.05306  23701022.160    97051808.59245
  20890600.600   109780850.87808  20890601.000    85543523.52249
  23306257.920   122475360.21207  23306261.620    95435421.74046
  24316058.140   127781745.62205  24316061.820    99570222.33245
  22366961.940   117539554.56908  22366963.060    91589446.34247
  21770609.380   114405323.10108  21770609.980    89147005.19848
 15 01 29 01 17 30.0000000  0  7G16G18G21G25G27G29G31
  23076904.480   121269949.05407  23076904.900    94496070.61045
  23685996.220   124470810.77706  23685998.160    96990289.00745
  20890197.880   109778734.84308  20890198.340    85541874.66849
  23323028.160   122563488.36807  23323032.000    95504093.02746
  24301613.620   127705839.45105  24301617.620    99511074.70845
  22379712.260   117606558.12108  22379713.420    91641656.88747
  21782985.980   114470362.39408  21782986.560    89197685.15048
 15 01 29 01 18  0.0000000  0  7G16G18G21G25G27G29G31
  23060181.120   121182067.19107  23060181.540    94427591.23846
  23670986.040   124391933.55906  23670988.140    96928826.34444
  20889878.520   109777056.69008  20889879.020    85540567.02049
  23339842.500   122651848.72007  23339846.520    95572945.23746
  24287185.380   127630018.67805  24287189.580    99451993.61645
  22392476.580   117673635.20708  22392477.840    91693924.73647
  21795440.400   114535810.85508  21795441.060    89248683.93948
 15 01 29 01 18 30.0000000  0  7G16G18G21G25G27G29G31
  23043477.260   121094287.70907  23043477.720    94359191.64046
  23655990.200   124313132.09006  23655992.420    96867422.68445
  20889642.340   109775815.66108  20889642.840    85539599.99549
  23356700.720   122740440.06006  23356704.900    95641977.43246
  24272773.480   127554283.23005  24272777.620    99392979.02345
  22405254.700   117740784.84308  22405256.060    91746249.11847
  21807972.240   114601666.02908  21807972.960    89299999.64548
 15 01 29 01 19  0.0000000  0  7G16G18G21G25G27G29G31
  23026793.360   121006613.40907  23026793.960    94290874.01046
  23641009.640   124234409.58006  23641011.920    96806080.55045
  20889489.300   109775011.56908  20889489.780    85538973.43449
  23373602.760   122829261.90506  23373607.080    95711189.23246
  24258377.780   127478633.53905  24258381.860    99334031.22245
  22418046.660   117808007.03408  22418048.060    91798630.02547
  21820581.060   114667925.79408  21820581.840    89351630.61848
 15 01 29 01 19 30.0000000  0  7G16G18G21G25G27G29G31
  23010129.760   120919045.97607  23010130.560    94222639.65746
  23626044.700   124155768.66806  23626046.880    96744801.99344
  20889419.400   109774643.91408  20889419.780    85538686.95449
  23390548.600   122918313.23706  23390552.980    95780579.86045
  24243998.280   127403069.64205  24244002.480    99275150.28845
  22430852.360   117875301.22308  22430853.820    91851067.04847
  21833266.480   114734588.02908  21833267.300    89403575.20648
 15 01 29 01 20  0.0000000  0  7G16G18G21G25G27G29G31
  22993486.600   120831585.69007  22993487.500    94154488.77446
  23611095.500   124077210.47806  23611097.580    96683587.91344
  20889432.060   109774710.15408  20889432.340    85538738.57349
  23407537.780   123007591.78306  23407542.000    95850147.55445
  24229634.920   127327590.33805  24229639.100    99216335.24844
  22443671.400   117942665.54108  22443672.800    91903558.72047
  21846027.720   114801648.75608  21846028.540    89455830.30648
 15 01 29 01 20 30.0000000  0  7G16G18G21G25G27G29G31
  22976864.240   120744234.46707  22976865.140    94086422.87646
  23596162.780   123998738.26906  23596164.680    96622440.79644
  20889527.260   109775210.00508  20889527.460    85539128.07249
  23424570.120   123097096.65307  23424574.100    95919891.59745
  24215287.780   127252195.76105  24215291.880    99157586.25145
  22456503.740   118010099.74908  22456505.020    91956104.84347
  21858864.380   114869105.92508  21858865.180    89508394.32548
 15 01 29 01 21  0.0000000  0  7G16G18G21G25G27G29G31
  22960263.300   120656995.61607  22960264.180    94018444.55246
  23581247.120   123920355.87506  23581248.900    96561363.68744
  20889705.000   109776143.78508  20889705.140    85539855.69949
  23441645.600   123186827.96607  23441649.300    95989812.08145
  24200956.900   127176886.99805  24200961.040    99098904.14146
  22469349.480   118077604.44508  22469350.720    92008705.88147
  21871776.160   114936957.97108  21871777.000    89561266.03348
 15 01 29 01 21 30.0000000  0  7G16G18G21G25G27G29G31
  22943683.980   120569870.55407  22943684.840    93950554.89846
  23566348.960   123842065.43506  23566350.680    96500358.22444
  20889965.140   109777510.68508  20889965.280    85540920.82249
  23458763.860   123276784.31207  23458767.440    96059907.92345
  24186642.320   127101663.72205  24186646.320    99040288.62044
  22482208.460   118145178.83008  22482209.700    92061361.21547
  21884762.560   115005201.99208  21884763.440    89614443.18248
 15 01 29 01 22  0.0000000  0  7G16G18G21G25G27G29G31
  22927126.640   120482861.25007  22927127.560    93882755.44346
  23551468.900   123763870.23406  23551470.580    96439426.96445
  20890307.620   109779310.43508  20890307.740    85542323.22949
  23475924.760   123366965.04607  23475928.260    96130178.61245
  24172344.220   127026526.40005  24172348.080    98981740.07445
  22495080.720   118212822.71908  22495081.860    92114070.71246
  21897823.140   115073836.07708  21897824.100    89667924.27748
 15 01 29 01 22 30.0000000  0  7G16G18G21G25G27G29G31
  22910591.440   120395968.46107  22910592.400    93815046.78846
  23536607.180   123685771.09706  23536608.820    96378570.55645
  20890731.920   109781540.22808  20890732.060    85544060.73849
  23493127.680   123457367.28706  23493131.340    96200621.89545
  24158062.240   126951473.18705  24158065.900    98923257.07545
  22507965.860   118280533.86908  22507966.840    92166832.63747
  21910957.160   115142855.90708  21910958.160    89721705.95348
 15 01 29 01 23  0.0000000  0  7G16G18G21G25G27G29G31
  22894079.300   120309196.98107  22894080.280    93747432.64646
  23521764.880   123607773.71706  23521766.420    96317793.42745
  20891238.400   109784202.09808  20891238.600    85546134.92449
  23510373.060   123547993.10306  23510376.940    96271239.38846
  24143796.800   126876507.26406  24143800.280    98864842.13345
  22520864.340   118348315.44508  22520865.280    92219649.42547
  21924164.720   115212262.25308  21924165.760    89775788.80748
 15 01 29 01 23 30.0000000  0  7G16G18G21G25G27G29G31
  22877590.360   120222547.08807  22877591.280    93679913.25546
  23506942.140   123529879.32707  23506943.700    96257096.56045
  20891826.760   109787294.22408  20891827.000    85548544.37749
  23527660.380   123638840.07806  23527664.600    96342029.22246
  24129547.640   126801627.18305  24129551.180    98806494.02945
  22533775.800   118416165.14208  22533776.720    92272519.31047
  21937445.100   115282050.89508  21937446.120    89830169.54948
 15 01 29 01 24  0.0000000  0  7G16G18G21G25G27G29G31
  22861125.000   120136020.63508  22861125.740    93612490.03846
  23492139.360   123452090.47707  23492141.040    96196481.94546
  20892496.780   109790815.24208  20892497.020    85551288.03449
  23544989.540   123729906.77906  23544994.100    96412990.24945
  24115314.740   126726832.72805  24115318.340    98748212.68146
  22546700.080   118484082.14808  22546700.960    92325441.64247
  21950797.760   115352219.13208  21950798.680    89884846.08348
 15 01 29 01 24 30.0000000  0  7G16G18G21G25G27G29G31
  22844683.460   120049619.38307  22844684.100    93545164.38646
  23477357.160   123374410.14606  23477358.960    96135951.88745
  20893248.320   109794764.66708  20893248.600    85554365.51249
  23562360.520   123821192.23406  23562365.320    96484121.75345
  24101098.020   126652123.92805  24101101.820    98689998.05146
  22559637.120   118552066.58608  22559638.080    92378416.49347
  21964222.140   115422764.47208  21964222.960    89939816.46048
 15 01 29 01 25  0.0000000  0  7G16G18G21G25G27G29G31
  22828265.680   119963343.17007  22828266.320    93477936.16046
  23462595.700   123296838.88306  23462597.580    96075506.79445
  20894080.820   109799139.46808  20894081.120    85557774.45849
  23579772.760   123912693.26106  23579777.560    96555421.24146
  24086897.240   126577498.77505  24086901.260    98631848.60645
  22572586.440   118620115.71708  22572587.460    92431441.76747
  21977717.420   115493682.29308  21977718.120    89995077.08148
 15 01 29 01 25 30.0000000  0  7G16G18G21G25G27G29G31
  22811872.580   119877196.85107  22811873.280    93410809.14746
  23447856.000   123219382.08306  23447857.980    96015150.86645
  20894994.580   109803941.18608  20894994.880    85561516.05849
  23597226.440   124004411.45306  23597231.020    96626889.92246
  24072712.860   126502959.93305  24072717.020    98573766.40645
  22585548.420   118688231.42108  22585549.460    92484518.92647
  21991283.520   115564972.75308  21991284.240    90050628.07448
 15 01 29 01 26  0.0000000  0  7G16G18G21G25G27G29G31
  22795504.340   119791181.30607  22795505.120    93343784.05546
  23433138.340   123142041.42406  23433140.320    95954885.47145
  20895989.340   109809168.73008  20895989.660    85565589.47749
  23614721.060   124096344.86906  23614725.380    96698526.32445
  24058544.760   126428506.54605  24058548.960    98515750.79246
  22598522.920   118756412.95208  22598524.000    92537647.37247
  22004919.880   115636632.57108  22004920.680    90106466.87748
 15 01 29 01 26 30.0000000  0  7G16G18G21G25G27G29G31
  22779161.300   119705298.20608  22779162.120    93276862.16146
  23418443.300   123064819.24606  23418445.240    95894712.40245
  20897064.900   109814820.89608  20897065.260    85569993.76549
  23632256.300   124188492.08907  23632260.400    96770329.33945
  24044392.880   126354138.34505  24044397.100    98457801.54246
  22611509.760   118824659.59808  22611510.900    92590826.55247
  22018625.900   115708658.64208  22018626.860    90162591.07848
 15 01 29 01 27  0.0000000  0  7G16G18G21G25G27G29G31
  22762843.760   119619548.99407  22762844.560    93210044.59846
  23403771.420   122987718.00606  23403773.200    95834633.55745
  20898220.840   109820895.34908  20898221.180    85574727.10749
  23649831.780   124280851.56306  23649835.640    96842297.74045
  24030257.240   126279854.97405  24030261.360    98399918.41345
  22624508.840   118892970.38308  22624510.060    92644055.72047
  22032401.140   115781048.18708  22032402.180    90218998.50848
 15 01 29 01 27 30.0000000  0  7G16G18G21G25G27G29G31
  22746552.320   119533936.89107  22746553.100    93143333.87046
  23389123.320   122910741.31707  23389124.980    95774651.77944
  20899457.260   109827393.12208  20899457.660    85579790.30849
  23667447.400   124373423.01206  23667451.240    96914431.31445
  24016137.880   126205657.15805  24016141.980    98342101.95345
  22637520.300   118961345.86908  22637521.520    92697335.29447
  22046245.240   115853799.23708  22046246.280    90275687.62348
 15 01 29 01 28  0.0000000  0  7G16G18G21G25G27G29G31
  22730287.340   119448464.09407  22730288.160    93076731.69346
  23374499.680   122833892.35607  23374501.040    95714769.53545
  20900774.200   109834313.81708  20900774.620    85585183.06249
  23685103.080   124466205.85006  23685107.040    96986729.62344
  24002034.980   126131545.61105  24002039.000    98284352.71046
  22650544.100   119029786.17708  22650545.280    92750665.38547
  22060157.780   115926909.77408  22060158.760    90332656.86448
 15 01 29 01 28 30.0000000  0  7G16G18G21G25G27G29G31
  22714048.860   119363130.82007  22714049.800    93010238.23946
  23359900.480   122757171.74407  23359901.440    95654987.27544
  20902170.980   109841653.91108  20902171.360    85590902.62449
  23702798.500   124559196.86406  23702802.580    97059190.11045
  23987948.120   126057518.20705  23987952.100    98226669.04946
  22663579.800   119098288.46208  22663580.900    92804043.77547
  22074137.900   116000375.28008  22074138.760    90389902.69548
 15 01 29 01 29  0.0000000  0  7G16G18G21G25G27G29G31
  22697837.720   119277941.06507  22697838.760    92943856.62546
  23345326.440   122680584.29707  23345327.180    95595308.80045
  20903647.780   109849414.58208  20903648.160    85596949.90449
  23720533.780   124652397.20406  23720537.940    97131813.74945
  23973877.600   125983577.18306  23973881.660    98169052.71046
  22676627.740   119166855.34308  22676628.800    92857472.49747
  22088185.420   116074195.11508  22088186.160    90447424.62148
 15 01 29 01 29 30.0000000  0  7G16G18G21G25G27G29G31
  22681653.920   119192894.41907  22681654.920    92877586.51847
  23330777.720   122604130.95407  23330778.520    95535734.79745
  20905204.060   109857592.83808  20905204.420    85603322.56949
  23738308.380   124745803.28906  23738312.440    97204597.68344
  23959823.140   125909720.19506  23959827.140    98111501.82945
  22689687.260   119235483.64708  22689688.400    92910949.06447
  22102299.360   116148364.30408  22102300.040    90505218.77548
 15 01 29 01 30  0.0000000  0  7G16G18G21G25G27G29G31
  22665497.880   119107993.43307  22665498.780    92811429.90846
  23316254.920   122527814.45707  23316255.900    95476267.44045
  20906839.540   109866187.62808  20906839.940    85610019.81049
  23756122.060   124839414.36206  23756126.020    97277541.35845
  23945784.780   125835947.66106  23945788.680    98054016.75646
  22702758.460   119304173.29208  22702759.660    92964473.44747
  22116479.340   116222880.75708  22116480.000    90563283.52548
 15 01 29 01 30 30.0000000  0  7G16G18G21G25G27G29G31
  22649370.140   119023241.46908  22649371.040    92745389.41046
  23301758.940   122451639.17107  23301760.220    95416910.10144
  20908554.640   109875200.54908  20908555.060    85617042.86849
  23773974.880   124933230.96806  23773978.820    97350645.16845
  23931762.760   125762261.33005  23931766.560    97996598.85246
  22715841.620   119372925.94608  22715842.900    93018046.92546
  22130725.220   116297743.55608  22130725.940    90621618.15548
 15 01 29 01 31  0.0000000  0  7G16G18G21G25G27G29G31
  22633271.240   118938641.44607  22633272.140    92679467.31346
  23287290.400   122375607.85207  23287291.960    95357664.96045
  20910349.080   109884630.40808  20910349.520    85624390.81649
  23791866.580   125027252.28106  23791870.700    97423908.50445
  23917757.160   125688661.57106  23917760.820    97939248.43545
  22728936.720   119441741.54207  22728938.060    93071669.45147
  22145036.560   116372950.14008  22145037.380    90680220.67348
 15 01 29 01 31 30.0000000  0  7G16G18G21G25G27G29G31
  22617201.100   118854192.63507  22617202.040    92613663.04047
  23272849.460   122299720.77807  23272851.140    95298532.21845
  20912222.200   109894473.68108  20912222.660    85632060.90149
  23809796.620   125121474.61806  23809800.880    97497328.47445
  23903767.540   125615145.90005  23903771.100    97881963.51746
  22742043.280   119510617.52908  22742044.720    93125339.03947
  22159412.460   116448495.57608  22159413.320    90739087.23048
 15 01 29 01 32  0.0000000  0  7G16G18G21G25G27G29G31
  22601160.400   118769898.29008  22601161.400    92547979.14547
  23258436.980   122223982.39207  23258438.680    95239515.33545
  20914174.060   109904730.91108  20914174.560    85640053.55449
  23827764.940   125215897.98306  23827769.340    97570905.08646
  23889794.060   125541715.45106  23889797.760    97824745.03246
  22755161.480   119579554.54307  22755163.060    93179056.19147
  22173852.540   116524378.20408  22173853.460    90798216.53348
 15 01 29 01 32 30.0000000  0  7G16G18G21G25G27G29G31
  22585149.100   118685758.09608  22585150.080    92482415.36847
  23244052.940   122148392.93507  23244054.600    95180614.50445
  20916204.100   109915398.83808  20916204.600    85648366.22249
  23845770.920   125310519.02706  23845775.380    97644635.73745
  23875836.480   125468368.14606  23875840.240    97767591.33145
  22768290.780   119648549.97107  22768292.500    93232818.84247
  22188355.820   116600593.17408  22188356.800    90857604.81048
 15 01 29 01 33  0.0000000  0  7G16G18G21G25G27G29G31
  22569167.940   118601776.56008  22569168.960    92416975.22047
  23229698.260   122072957.24207  23229699.720    95121833.47845
  20918312.520   109926478.62808  20918313.020    85656999.83149
  23863814.780   125405338.80606  23863819.140    97718521.25645
  23861895.220   125395106.24305  23861899.040    97710504.15946
  22781431.600   119717605.85907  22781433.420    93286628.59647
  22202922.200   116677140.15108  22202923.240    90917251.79048
 15 01 29 01 33 30.0000000  0  7G16G18G21G25G27G29G31
  22553217.400   118517955.81208  22553218.400    92351660.35547
  23215373.300   121997678.08707  23215374.640    95063174.42445
  20920499.060   109937968.83408  20920499.520    85665953.24449
  23881896.100   125500356.07006  23881900.360    97792560.63945
  23847970.260   125321929.76405  23847974.160    97653483.54446
  22794583.900   119786721.44107  22794585.620    93340484.87346
  22217551.140   116754016.15208  22217552.260    90977155.15247
 15 01 29 01 34  0.0000000  0  7G16G18G21G25G27G29G31
  22537298.020   118434298.92108  22537299.020    92286473.17247
  23201078.760   121922559.46707  23201080.100    95004640.46045
  20922763.800   109949870.14208  20922764.220    85675226.98849
  23900014.920   125595570.93806  23900019.140    97866754.00445
  23834061.700   125248839.99005  23834065.800    97596530.49646
  22807747.880   119855898.18707  22807749.460    93394388.81447
  22232242.520   116831220.13808  22232243.680    91037314.08647
 15 01 29 01 34 30.0000000  0  7G16G18G21G25G27G29G31
  22521409.900   118350806.22408  22521410.900    92221413.93547
  23186814.780   121847601.88307  23186816.120    94946231.98346
  20925106.140   109962179.09308  20925106.540    85684818.38149
  23918170.540   125690979.88506  23918174.740    97941098.60445
  23820169.320   125175834.81206  23820173.360    97539643.37346
  22820923.060   119925133.81807  22820924.460    93448338.64247
  22246995.500   116908747.56608  22246996.600    91097725.04647
 15 01 29 01 35  0.0000000  0  7G16G18G21G25G27G29G31
  22505553.500   118267480.26908  22505554.500    92156484.63446
  23172582.000   121772808.84707  23172583.460    94887951.72045
  20927525.960   109974895.40108  20927526.380    85694727.19449
  23936362.940   125786582.58305  23936367.220    98015594.20444
  23806293.280   125102914.93406  23806297.200    97482822.70346
  22834109.460   119994428.64107  22834110.840    93502334.58047
  22261809.520   116986595.66408  22261810.560    91158385.87947
 15 01 29 01 35 30.0000000  0  7G16G18G21G25G27G29G31
  22489728.960   118184321.75508  22489729.920    92091685.80547
  23158380.900   121698182.42707  23158382.440    94829801.30845
  20930022.940   109988017.02008  20930023.340    85704951.83649
  23954591.720   125882376.79005  23954596.180    98090239.00245
  23792433.340   125030079.44606  23792436.980    97426067.77946
  22847306.920   120063781.38307  22847308.280    93556375.65346
  22276683.900   117064760.81408  22276684.920    91219293.76648
 15 01 29 01 36  0.0000000  0  7G16G18G21G25G27G29G31
  22473937.160   118101335.19708  22473938.020    92027020.95247
  23144212.320   121623726.70707  23144213.740    94771783.88045
  20932597.160   110001544.67408  20932597.540    85715492.86849
  23972857.060   125978362.88506  23972861.640    98165033.32044
  23778589.660   124957330.07206  23778593.160    97369379.97246
  22860515.520   120133193.31307  22860516.960    93610462.85946
  22291618.540   117143242.43008  22291619.500    91280448.25448
 15 01 29 01 36 30.0000000  0  7G16G18G21G25G27G29G31
  22458178.220   118018521.65308  22458179.080    91962490.93047
  23130076.500   121549443.29107  23130077.840    94713900.73045
  20935248.200   110015476.01708  20935248.580    85726348.45849
  23991158.680   126074538.73106  23991163.200    98239975.53044
  23764762.040   124884665.83805  23764765.480    97312758.50546
  22873735.120   120202663.39707  22873736.720    93664595.37247
  22306612.620   117222036.50808  22306613.560    91341846.22048
 15 01 29 01 37  0.0000000  0  7G16G18G21G25G27G29G31
  22442452.260   117935881.37708  22442453.120    91898095.92847
  23115973.820   121475333.38407  23115975.000    94656152.78945
  20937975.520   110029808.29608  20937975.900    85737516.47249
  24009496.120   126170901.46506  24009500.220    98315063.31744
  23750950.240   124812085.24805  23750953.700    97256202.22246
  22886965.400   120272189.49207  22886967.160    93718771.53547
  22321665.220   117301138.49208  22321666.200    91403484.11347
 15 01 29 01 37 30.0000000  0  7G16G18G21G25G27G29G31
  22426759.640   117853416.21608  22426760.440    91833837.36746
  23101904.660   121401399.61707  23101905.800    94598542.08845
  20940778.920   110044540.41808  20940779.320    85748996.04949
  24027868.980   126267449.57506  24027872.800    98390295.59844
  23737154.320   124739588.01405  23737157.840    97199710.90746
  22900206.340   120341771.27007  22900208.220    93772991.09846
  22336775.920   117380545.66408  22336776.860    91465359.81847
 15 01 29 01 38  0.0000000  0  7G16G18G21G25G27G29G31
  22411101.600   117771132.35308  22411102.280    91769720.07147
  23087870.320   121327648.57307  23087871.440    94541073.75945
  20943658.960   110059675.20108  20943659.380    85760789.38849
  24046277.640   126364185.86506  24046281.340    98465674.47144
  23723374.960   124667178.25206  23723378.580    97143287.74145
  22913458.640   120411412.70007  22913460.600    93827257.12946
  22351944.980   117460259.34408  22351945.820    91527474.34747
 15 01 29 01 38 30.0000000  0  7G16G18G21G25G27G29G31
  22395477.900   117689028.96908  22395478.540    91705743.41647
  23073870.680   121254079.53207  23073871.760    94483747.26645
  20946614.840   110075208.43408  20946615.260    85772893.21349
  24064721.180   126461105.84606  24064724.800    98541196.49445
  23709611.660   124594852.81306  23709615.420    97086930.27244
  22926721.560   120481109.83107  22926723.580    93881566.56346
  22367171.260   117540273.67808  22367172.000    91589823.15647
 15 01 29 01 39  0.0000000  0  7G16G18G21G25G27G29G31
  22379888.880   117607108.10008  22379889.520    91641908.97747
  23059906.160   121180695.20307  23059907.340    94426564.68045
  20949646.280   110091138.66408  20949646.680    85785306.37949
  24083199.240   126558208.11206  24083202.920    98616860.56845
  23695864.540   124522611.62206  23695868.320    97030638.46445
  22939995.240   120550862.98807  22939997.200    93935919.65646
  22382454.120   117620585.59208  22382454.840    91652403.83947
 15 01 29 01 39 30.0000000  0  7G16G18G21G25G27G29G31
  22364335.320   117525373.81908  22364335.980    91578219.93647
  23045977.720   121107500.52907  23045979.000    94369529.88745
  20952753.460   110107466.79308  20952753.800    85798029.60449
  24101711.940   126655493.60106  24101715.900    98692667.40745
  23682133.980   124450456.86606  23682137.720    96974413.97745
  22953279.900   120620673.77507  22953281.700    93990317.65846
  22397793.460   117701194.35508  22397794.200    91715215.83447
 15 01 29 01 40  0.0000000  0  7G16G18G21G25G27G29G31
  22348817.360   117443826.72508  22348818.120    91514676.75646
  23032085.600   121034496.79807  23032086.980    94312643.88645
  20955935.860   110124190.26308  20955936.180    85811060.87949
  24120258.740   126752959.44805  24120263.220    98768614.77845
  23668419.660   124378387.09006  23668423.280    96918255.73246
  22966575.140   120690540.66407  22966576.840    94044759.36146
  22413188.440   117782095.72008  22413189.320    91778255.83247
 15 01 29 01 40 30.0000000  0  7G16G18G21G25G27G29G31
  22333335.600   117362469.55608  22333336.380    91451281.57547
  23018230.420   120961687.13107  23018231.920    94255909.11346
  20959193.300   110141308.30708  20959193.640    85824399.61549
  24138839.600   126850604.83905  24138844.680    98844702.05044
  23654721.600   124306402.77006  23654725.100    96862164.07146
  22979880.980   120760463.51207  22979882.680    94099244.68046
  22428638.720   117863287.56908  22428639.740    91841522.18747
 15 01 29 01 41  0.0000000  0  7G16G18G21G25G27G29G31
  22317890.140   117281303.00608  22317890.880    91388034.91947
  23004412.320   120889072.47007  23004413.880    94199326.27145
  20962525.260   110158817.89308  20962525.580    85838043.44849
  24157454.140   126948426.87005  24157459.700    98920926.96844
  23641039.500   124234502.34006  23641042.920    96806137.77446
  22993197.260   120830440.61507  22993198.860    94153772.27346
  22444143.440   117944765.30408  22444144.540    91905011.31147
 15 01 29 01 41 30.0000000  0  7G16G18G21G25G27G29G31
  22302481.480   117200329.99308  22302482.220    91324939.08147
  22990632.020   120816656.52007  22990633.560    94142898.27045
  20965931.740   110176719.12408  20965932.060    85851992.46849
  24176102.420   127046425.19105  24176108.280    98997289.25144
  23627373.480   124162686.84606  23627376.980    96750177.66346
  23006524.000   120900472.90707  23006525.600    94208342.85946
  22459702.220   118026527.11608  22459703.340    91968721.79147
 15 01 29 01 42  0.0000000  0  7G16G18G21G25G27G29G31
  22287109.640   117119550.56208  22287110.440    91261994.08347
  22976889.640   120744440.08907  22976891.200    94086625.74145
  20969412.080   110195008.52408  20969412.420    85866243.94849
  24194783.880   127144596.60305  24194789.660    99073786.41844
  23613723.220   124090954.39306  23613726.840    96694282.25746
  23019860.960   120970558.35307  23019862.480    94262954.87946
  22475314.200   118108568.34908  22475315.300    92032650.00047
 15 01 29 01 42 30.0000000  0  7G16G18G21G25G27G29G31
  22271775.720   117038970.40508  22271776.540    91199204.36046
  22963186.260   120672428.77207  22963187.780    94030513.03445
  20972966.680   110213688.01708  20972967.020    85880799.40049
  24213498.700   127242942.49505  24213504.120    99150419.51544
  23600089.260   124019307.75706  23600093.000    96638453.73646
  23033208.520   121040699.53407  23033209.880    94317610.31246
  22490979.300   118190888.67408  22490980.340    92096795.67747
 15 01 29 01 43  0.0000000  0  7G16G18G21G25G27G29G31
  22256479.840   116958589.80908  22256480.600    91136570.13747
  22949522.040   120600623.54207  22949523.560    93974560.92746
  20976594.960   110232754.84408  20976595.320    85895656.67249
  24232246.240   127341460.27906  24232251.100    99227186.60244
  23586471.400   123947745.72506  23586475.300    96582691.12246
  23046566.180   121110894.37207  23046567.580    94372307.57646
  22506696.700   118273484.24208  22506697.700    92161155.82947
 15 01 29 01 43 30.0000000  0  7G16G18G21G25G27G29G31
  22241222.300   116878410.61408  22241222.980    91074092.84247
  22935897.440   120529026.50007  22935898.920    93918771.05745
  20980296.540   110252207.08608  20980296.980    85910814.26049
  24251026.260   127440148.12106  24251030.460    99304086.16044
  23572869.580   123876267.83606  23572873.540    96526994.08446
  23059934.020   121181142.73307  23059935.460    94427046.54246
  22522465.800   118356351.66308  22522466.780    92225727.81347
 15 01 29 01 44  0.0000000  0  7G16G18G21G25G27G29G31
  22226003.620   116798436.00208  22226004.240    91011774.96447
  22922313.240   120457641.77007  22922314.720    93863146.62346
  20984071.540   110272045.08108  20984072.020    85926272.44349
  24269838.560   127539005.82506  24269842.400    99381118.11844
  23559284.020   123804875.33306  23559287.900    96471363.57746
  23073312.160   121251445.64607  23073313.720    94481828.01447
  22538286.320   118439489.18008  22538287.240    92290510.26147
 15 01 29 01 44 30.0000000  0  7G16G18G21G25G27G29G31
  22210824.460   116718669.09408  22210825.020    90949618.93346
  22908770.200   120386472.95607  22908771.620    93807690.43546
  20987919.840   110292268.37808  20987920.380    85942030.85849
  24288682.960   127638033.00906  24288686.800    99458282.11645
  23545714.920   123733569.16806  23545718.660    96415800.34846
  23086700.740   121321803.69707  23086702.480    94536652.43146
  22554157.980   118522895.23008  22554158.880    92355501.95847
 15 01 29 01 45  0.0000000  0  7G16G18G21G25G27G29G31
  22195685.020   116639111.01208  22195685.560    90887625.62747
  22895268.500   120315521.14307  22895269.860    93752403.33345
  20991840.940   110312874.01608  20991841.500    85958087.20549
  24307558.900   127737226.71106  24307562.960    99535575.83344
  23532161.980   123662347.84906  23532165.560    96360303.21446
  23100099.540   121392215.07107  23100101.360    94591518.41046
  22570079.860   118606565.22408  22570080.820    92420699.33147
 15 01 29 01 45 30.0000000  0  8G16G18G21G22G25G27G29G31
  22180586.360   116559766.91408  22180586.860    90825799.05647
  22881809.280   120244792.05007  22881810.520    93697289.76846
  20995835.160   110333863.85208  20995835.700    85974442.92049
  24553932.500   129031786.33306  24553937.960   100544259.44644
  24326466.860   127836588.87206  24326471.120    99613000.81144
  23518625.760   123591214.66106  23518629.220    96304874.77246
  23113509.160   121462682.99507  23113510.980    94646428.44946
  22586051.980   118690499.36308  22586053.040    92486102.52347
 15 01 29 01 46  0.0000000  0  8G16G18G21G22G25G27G29G31
  22165525.800   116480623.25008  22165526.400    90764128.66747
  22868389.980   120174272.53707  22868391.180    93642339.52145
  20999899.240   110355220.84508  20999899.800    85991084.73649
  24535842.640   128936722.19506  24535847.420   100470183.92245
  24345403.460   127936102.22805  24345407.980    99690543.62144
  23505103.320   123520153.77306  23505106.600    96249502.69445
  23126926.460   121533191.48207  23126928.300    94701370.10946
  22602070.860   118774679.08508  22602072.000    92551697.08747
 15 01 29 01 46 30.0000000  0  8G16G18G21G22G25G27G29G31
  22150507.860   116401703.45008  22150508.520    90702632.72347
  22855015.100   120103986.70307  22855016.380    93587571.34946
  21004036.960   110376964.73108  21004037.500    86008028.02449
  24517740.180   128841593.62405  24517744.620   100396058.23745
  24364372.760   128035786.69305  24364377.500    99768219.73545
  23491598.720   123449186.53406  23491601.900    96194203.57845
  23140355.460   121603761.37407  23140357.280    94756359.59946
  22618139.980   118859122.76708  22618141.200    92617497.33147
 15 01 29 01 47  0.0000000  0  8G16G18G21G22G25G27G29G31
  22135531.160   116323000.67008  22135531.880    90641305.88046
  22841683.440   120033927.92407  22841684.780    93532980.09245
  21008246.420   110399085.65608  21008246.940    86025265.10649
  24499623.920   128746393.87806  24499628.460   100321877.08745
  24383372.780   128135631.72305  24383377.480    99846020.97745
  23478110.200   123378303.87806  23478113.360    96138970.37046
  23153794.500   121674383.68307  23153796.220    94811389.94146
  22634257.100   118943818.52408  22634258.320    92683493.98547
 15 01 29 01 47 30.0000000  0  8G16G18G21G22G25G27G29G31
  22120596.420   116244518.31308  22120597.160    90580150.79047
  22828395.720   119964100.26007  22828397.160    93478568.93646
  21012527.580   110421583.17708  21012528.080    86042795.64749
  24481494.900   128651126.93706  24481499.200   100247643.67044
  24402403.360   128235637.28205  24402407.940    99923947.33944
  23464638.080   123307507.21706  23464641.220    96083804.13946
  23167243.740   121745059.54307  23167245.300    94866462.02146
  22650421.920   119028764.79508  22650423.020    92749685.85047
 15 01 29 01 48  0.0000000  0  8G16G18G21G22G25G27G29G31
  22105703.900   116166257.75808  22105704.700    90519168.54147
  22815152.220   119894505.15308  22815153.780    93424338.98146
  21016879.920   110444454.78608  21016880.360    86060617.68049
  24463353.140   128555793.50706  24463357.580   100173358.38044
  24421463.980   128335800.98005  24421468.620   100001996.91544
  23451182.120   123236795.57606  23451185.240    96028704.17745
  23180702.960   121815787.88007  23180704.340    94921574.99246
  22666633.660   119113957.43808  22666634.580    92816069.68747
 15 01 29 01 48 30.0000000  0  8G16G18G21G22G25G27G29G31
  22090854.300   116088222.51008  22090855.100    90458361.86147
  22801953.760   119825146.86708  22801955.340    93370293.57146
  21021303.580   110467701.18508  21021304.020    86078731.75849
  24445199.440   128460398.44105  24445203.980   100099024.99945
  24440554.620   128436123.03305  24440559.440   100080169.87444
  23437742.660   123166170.56907  23437745.780    95973671.71446
  23194172.380   121886569.86307  23194173.680    94976729.76246
  22682892.020   119199395.42108  22682892.860    92882644.70447
 15 01 29 01 49  0.0000000  0  8G16G18G21G22G25G27G29G31
  22076047.520   116010412.24808  22076048.320    90397730.49047
  22788800.240   119756024.86607  22788801.720    93316432.27345
  21025797.700   110491317.91808  21025798.120    86097134.41249
  24427033.940   128364941.41805  24427038.860   100024643.45145
  24459674.540   128536598.96706  24459679.260   100158462.74444
  23424319.100   123095629.38206  23424322.300    95918704.57046
  23207651.440   121957402.60407  23207652.800    95031924.09546
  22699195.860   119285072.93108  22699196.720    92949406.36147
 15 01 29 01 49 30.0000000  0  8G16G18G21G22G25G27G29G31
  22061284.060   115932829.59208  22061284.900    90337276.47647
  22775692.400   119687142.68408  22775693.700    93262757.86645
  21030362.140   110515304.23908  21030362.540    86115825.05549
  24408857.320   128269425.45706  24408862.140    99950215.95244
  24478823.680   128637228.14906  24478828.520   100236875.04044
  23410911.620   123025172.72806  23410914.840    95863803.29446
  23221140.300   122028286.63207  23221141.700    95087158.39346
  22715544.780   119370987.87108  22715545.860    93016353.03047
 15 01 29 01 50  0.0000000  0  8G16G18G21G22G25G27G29G31
  22046564.700   115855478.88808  22046565.620    90277003.20547
  22762631.200   119618505.18108  22762632.200    93209274.11646
  21034997.000   110539660.59808  21034997.380    86134804.03849
  24390670.280   128173854.57306  24390675.180    99875745.66244
  24498002.120   128738011.01606  24498007.000   100315407.07144
  23397520.560   122954802.47706  23397523.840    95808969.35046
  23234639.240   122099223.59907  23234640.600    95142433.94946
  22731938.600   119457138.76508  22731939.940    93083483.55447
 15 01 29 01 50 30.0000000  0  8G16G18G21G22G25G27G29G31
  22031889.500   115778360.44408  22031890.500    90216910.91747
  22749616.560   119550112.32908  22749617.280    93155981.00746
  21039701.660   110564383.87608  21039702.060    86154068.93349
  24372473.060   128078229.35305  24372477.800    99801232.83645
  24517209.160   128838944.30405  24517214.000   100394056.31044
  23384145.620   122884516.86906  23384148.960    95754201.35846
  23248147.880   122170211.53707  23248149.200    95197749.19946
  22748376.600   119543521.00908  22748378.060    93150794.36547
 15 01 29 01 51  0.0000000  0  8G16G18G21G22G25G27G29G31
  22017258.800   115701475.80408  22017259.860    90157000.81647
  22736648.860   119481966.42908  22736649.440    93102880.33346
  21044475.700   110589471.72808  21044476.100    86173617.90649
  24354265.820   127982552.14406  24354270.680    99726679.59345
  24536444.600   128940025.80905  24536449.320   100472821.05044
  23370786.680   122814315.34106  23370790.080    95699498.88446
  23261666.140   122241249.83507  23261667.400    95253103.69046
  22764858.100   119630131.30008  22764859.520    93218282.85947
 15 01 29 01 51 30.0000000  0  8G16G18G21G22G25G27G29G31
  22002673.360   115624828.64708  22002674.340    90097275.76347
  22723728.820   119414071.25808  22723729.340    93049975.02345
  21049319.200   110614924.45808  21049319.600    86193451.20749
  24336049.520   127886826.04706  24336054.260    99652088.25545
  24555708.160   129041255.35005  24555712.680   100551701.10743
  23357443.980   122744199.12406  23357447.380    95644862.87046
  23275194.160   122312339.46307  23275195.380    95308498.18346
  22781382.720   119716967.81908  22781383.980    93285947.63747
 15 01 29 01 52  0.0000000  0  8G16G18G21G22G25G27G29G31
  21988133.600   115548421.47508  21988134.500    90037737.70247
  22710856.980   119346429.69708  22710857.560    92997267.30345
  21054231.880   110640740.70808  21054232.280    86213567.76949
  24317824.540   127791054.38407  24317829.120    99577461.40945
  24574999.680   129142631.97805  24575004.080   100630695.77445
  23344117.600   122674168.70606  23344121.060    95590293.70946
  23288731.780   122383480.48107  23288733.000    95363932.71246
  22797949.940   119804027.93308  22797950.980    93353786.63747
 15 01 29 01 52 30.0000000  0  8G16G18G21G22G25G27G29G31
  21973639.960   115472256.88808  21973640.820    89978388.67947
  22698033.880   119279044.72408  22698034.660    92944759.53446
  21059213.580   110666919.74208  21059214.040    86233967.01449
  24299591.400   127695240.52806  24299595.980    99502801.75744
  24594319.000   129244154.57305  24594323.280   100709804.17942
  23330807.680   122604224.71406  23330811.160    95535791.91846
  23302279.320   122454673.68607  23302280.480    95419407.91446
  22814559.240   119891309.65108  22814560.120    93421798.31947
 15 01 29 01 53  0.0000000  0  8G16G18G21G22G25G27G29G31
  21959192.540   115396335.02008  21959193.320    89919228.77947
  22685259.800   119211916.82808  22685260.780    92892452.07846
  21064263.660   110693458.06508  21064264.140    86254646.22749
  24281350.100   127599384.00706  24281354.680    99428108.60045
  24613665.400   129345819.55105  24613669.460   100789023.55244
  23317513.780   122534364.87507  23317517.300    95481355.70246
  23315836.280   122525916.41706  23315837.400    95474921.70046
  22831209.560   119978807.37308  22831210.360    93489978.30747
 15 01 29 01 53 30.0000000  0  8G16G18G21G22G25G27G29G31
  21944792.180   115320660.85708  21944792.940    89860261.90247
  22672535.780   119145051.90408  22672536.960    92840349.54046
  21069382.320   110720356.80308  21069382.840    86275606.28449
  24263101.800   127503490.90005  24263106.360    99353387.09145
  24633039.040   129447628.50105  24633043.140   100868355.07444
  23304236.500   122464592.36307  23304240.000    95426987.53346
  23329403.220   122597211.90906  23329404.520    95530476.58846
  22847900.920   120066521.40908  22847901.800    93558326.85547
 15 01 29 01 54  0.0000000  0  8G16G18G21G22G25G27G29G31
  21930438.940   115245234.10308  21930439.660    89801487.80847
  22659861.620   119078448.79308  22659862.920    92788451.02246
  21074568.680   110747611.51308  21074569.280    86296843.72149
  24244846.300   127407560.37505  24244851.300    99278636.29344
  24652439.220   129549576.49706  24652443.340   100947794.97945
  23290975.240   122394903.87407  23290978.720    95372684.84346
  23342979.520   122668556.53507  23342980.980    95586069.78046
  22864632.200   120154445.35908  22864633.240    93626838.98047
 15 01 29 01 54 30.0000000  0  8G16G18G21G22G25G27G29G31
  21916133.880   115170060.68708  21916134.660    89742911.12447
  22647238.620   119012113.92308  22647239.800    92736761.52846
  21079823.120   110775223.80808  21079823.740    86318359.79749
  24226584.880   127311598.63206  24226590.060    99203861.11545
  24671866.160   129651666.07306  24671870.460   101027345.17344
  23277730.720   122325303.43307  23277734.180    95318450.77146
  23356565.860   122739954.04607  23356567.560    95641704.18046
  22881403.680   120242580.55508  22881404.840    93695515.71447
 15 01 29 01 55  0.0000000  0  8G16G18G21G22G25G27G29G31
  21901876.520   115095137.79108  21901877.320    89684529.64947
  22634666.280   118946045.25008  22634667.260    92685279.45746
  21085144.680   110803188.62108  21085145.260    86340150.56149
  24208317.560   127215604.04505  24208322.780    99129060.38645
  24691318.800   129753891.10905  24691323.400   101107000.94345
  23264502.100   122255786.48507  23264505.600    95264281.73846
  23370161.480   122811399.64807  23370163.420    95697376.04046
  22898214.000   120330919.24608  22898215.180    93764350.99947
 15 01 29 01 55 30.0000000  0  8G16G18G21G22G25G27G29G31
  21887667.940   115020471.31708  21887668.800    89626347.98547
  22622145.560   118880248.31208  22622146.380    92634009.13246
  21090533.640   110831507.67608  21090534.200    86362217.36349
  24190045.120   127119582.07706  24190050.140    99054238.39145
  24710797.340   129856253.19605  24710802.440   101186763.48744
  23251289.920   122186356.19707  23251293.500    95210180.23546
  23383766.920   122882896.86207  23383769.080    95753088.12346
  22915063.080   120419461.60908  22915064.280    93833344.99346
 15 01 29 01 56  0.0000000  0  8G16G18G21G22G25G27G29G31
  21873508.200   114946061.07708  21873509.060    89568365.98447
  22609676.560   118814723.57208  22609677.300    92582950.91146
  21095989.220   110860176.63808  21095989.680    86384556.81549
  24171767.600   127023532.82707  24171772.220    98979395.04345
  24730301.340   129958748.59505  24730306.740   101266629.90344
  23238093.800   122117010.41207  23238097.460    95156144.58246
  23397381.780   122954443.04007  23397384.000    95808838.37146
  22931950.020   120508202.32408  22931951.100    93902493.55047
 15 01 29 01 56 30.0000000  0  8G16G18G21G22G25G27G29G31
  21859397.600   114871909.21008  21859398.440    89510585.31347
  22597259.700   118749473.32308  22597260.540    92532106.58046
  21101511.160   110889194.45008  21101511.560    86407168.09749
  24153485.420   126927459.07305  24153489.740    98904532.65043
  24749830.600   130061375.74105  24749836.000   101346598.93844
  23224913.820   122047749.16307  23224917.520    95102174.78546
  23411005.900   123026038.13207  23411008.100    95864626.75846
  22948874.120   120597138.30508  22948875.060    93971794.24546
 15 01 29 01 57  0.0000000  0  8G16G18G21G22G25G27G29G31
  21845336.620   114798018.02508  21845337.420    89453007.76447
  22584895.480   118684500.12008  22584896.560    92481478.12446
  21107099.180   110918559.63808  21107099.540    86430050.06449
  24135199.180   126831363.65006  24135203.160    98829653.52145
  24769384.840   130164133.13305  24769389.880   101426669.52444
  23211749.880   121978572.58807  23211753.680    95048270.97746
  23424639.260   123097681.95906  23424641.560    95920453.10746
  22965834.820   120686267.00908  22965835.680    94041245.12246
 15 01 29 01 57 30.0000000  0  8G16G18G21G22G25G27G29G31
  21831326.240   114724393.05508  21831327.020    89395637.66147
  22572585.140   118619809.85508  22572586.480    92431070.13846
  21112753.540   110948273.44808  21112753.900    86453203.68249
  24116909.740   126735252.15206  24116913.520    98754761.79846
  24788964.240   130267022.61305  24788968.940   101506843.00843
  23198602.700   121909483.99307  23198606.560    94994435.70046
  23438282.320   123169377.64306  23438284.900    95976319.85146
  22982832.180   120775588.57907  22982833.060    94110846.29247
 15 01 29 01 58  0.0000000  0  8G16G18G21G22G25G27G29G31
  21817366.480   114651034.15208  21817367.300    89338474.88247
  22560328.740   118555402.37708  22560330.280    92380882.48946
  21118473.500   110978332.02208  21118473.880    86476625.94849
  24098617.100   126639124.36006  24098620.760    98679857.47045
  24808568.060   130370039.77205  24808572.620   101587115.96743
  23185471.740   121840480.75307  23185475.620    94940666.95446
  23451934.760   123241122.28306  23451937.420    96032224.73645
  22999865.100   120865097.39807  22999866.100    94180593.35646
 15 01 29 01 58 30.0000000  0  7G16G18G21G22G27G29G31
  21803457.940   114577944.17108  21803458.760    89281521.66047
  22548126.860   118491280.87908  22548128.460    92330917.68146
  21124258.880   111008734.65108  21124259.320    86500316.30949
  24080321.860   126542983.62806  24080325.400    98604943.05444
  23172357.260   121771563.73007  23172361.060    94886965.37346
  23465596.840   123312916.84806  23465599.360    96088168.53345
  23016933.280   120954791.24708  23016934.380    94250484.60046
 15 01 29 01 59  0.0000000  0  7G16G18G21G22G27G29G31
  21789601.320   114505126.97608  21789602.120    89224780.99347
  22535980.300   118427449.43208  22535981.780    92281178.89946
  21130109.800   111039481.66708  21130110.280    86524275.02249
  24062024.800   126446834.62206  24062028.600    98530022.32045
  23159259.560   121702734.71507  23159263.240    94833332.37546
  23479268.820   123384762.91807  23479271.120    96144152.46346
  23034036.480   121044668.92308  23034037.680    94320519.08946
 15 01 29 01 59 30.0000000  0  7G16G18G21G22G27G29G31
  21775795.940   114432579.03008  21775796.680    89168250.12848
  22523888.220   118363904.19008  22523889.540    92231663.13246
  21136024.760   111070565.08308  21136025.220    86548495.86649
  24043725.480   126350673.28806  24043729.140    98455091.90446
  23146177.480   121633987.80207  23146181.000    94779763.36646
  23492949.620   123456654.50407  23492951.520    96200171.84845
  23051173.000   121134721.34408  23051174.220    94390689.73747
 15 01 29 02 00  0.0000000  0  7G16G18G21G22G27G29G31
  21762043.220   114360308.17008  21762043.980    89111935.17847
  22511852.160   118300653.36908  22511853.240    92182376.78646
  21142004.620   111101989.46208  21142005.060    86572982.39948
  24025425.360   126254507.65006  24025428.880    98380158.07445
  23133112.140   121565328.60407  23133115.460    94726262.70746
  23506640.040   123528596.75207  23506641.600    96256230.72446
  23068343.340   121224951.38608  23068344.540    94460998.79346
 15 01 29 02 00 30.0000000  0  7G16G18G21G22G27G29G31
  21748342.600   114288311.11808  21748343.360    89055833.57947
  22499871.400   118237693.99008  22499872.340    92133317.54446
  21148047.920   111133747.28908  21148048.360    86597728.75648
  24007124.060   126158335.33706  24007127.480    98305219.00945
  23120062.440   121496751.63707  23120065.600    94672826.12746
  23520339.000   123600584.42107  23520340.300    96312324.98146
  23085545.860   121315350.47108  23085546.980    94531439.55346
 15 01 29 02 01  0.0000000  0  7G16G18G21G22G27G29G31
  21734696.400   114216599.99208  21734697.200    88999954.78048
  22487948.320   118175038.38308  22487949.220    92084495.00846
  21154156.360   111165847.14808  21154156.780    86622741.63548
  23988823.880   126062168.70606  23988827.020    98230284.40844
  23107030.300   121428267.01307  23107033.400    94619461.50446
  23534048.380   123672627.09507  23534049.760    96368462.10746
  23102781.860   121405925.46408  23102782.860    94602017.38746
 15 01 29 02 01 30.0000000  0  7G16G18G21G22G27G29G31
  21721103.800   114145170.41808  21721104.620    88944295.37148
  22476082.200   118112682.24008  22476083.180    92035905.82246
  21160328.300   111198280.55908  21160328.660    86648014.42749
  23970524.080   125966003.90306  23970526.880    98155351.32645
  23094014.400   121359868.20707  23094017.520    94566163.75846
  23547766.900   123744718.43006  23547768.520    96424637.14746
  23120049.420   121496666.67307  23120050.340    94672724.75546
 15 01 29 02 02  0.0000000  0  7G16G18G21G22G27G29G31
  21707565.760   114074027.63708  21707566.600    88888859.44248
  22464274.020   118050630.65508  22464275.060    91987553.94446
  21166563.980   111231049.09808  21166564.300    86673548.35548
  23952225.560   125869845.79607  23952227.980    98080423.34845
  23081015.380   121291557.99307  23081018.540    94512935.04846
  23561494.940   123816860.88106  23561496.900    96480852.03646
  23137348.440   121587573.83407  23137349.380    94743561.41446
 15 01 29 02 02 30.0000000  0  7G16G18G21G22G27G29G31
  21694082.160   114003170.83308  21694082.980    88833646.35648
  22452523.900   117988883.56308  22452524.980    91939439.33246
  21172862.540   111264148.19108  21172862.860    86699339.86049
  23933928.240   125773694.51706  23933930.380    98005500.83245
  23068032.640   121223333.40207  23068035.820    94459773.03947
  23575232.100   123889051.20106  23575234.360    96537104.22446
  23154677.920   121678641.39407  23154678.980    94814523.05946
 15 01 29 02 03  0.0000000  0  7G16G18G21G22G27G29G31
  21680653.420   113932602.05508  21680654.180    88778657.69448
  22440832.120   117927442.76008  22440833.300    91891563.39346
  21179223.640   111297576.06808  21179223.960    86725387.55648
  23915632.540   125677551.95606  23915634.480    97930584.91345
  23055066.240   121155194.55807  23055069.480    94406677.87346
  23588978.580   123961289.48506  23588980.980    96593393.78946
  23172037.340   121769866.23007  23172038.560    94885607.26046
 15 01 29 02 03 30.0000000  0  7G16G18G21G22G27G29G31
  21667280.340   113862325.93008  21667281.060    88723897.07748
  22429199.660   117866313.13908  22429200.920    91843929.93246
  21185647.540   111331333.96108  21185647.860    86751692.41348
  23897339.440   125581423.96706  23897341.320    97855680.39146
  23042116.660   121087144.19507  23042119.980    94353651.63446
  23602734.700   124033578.25806  23602737.120    96649722.67346
  23189426.540   121861247.45507  23189427.940    94956813.32446
 15 01 29 02 04  0.0000000  0  7G16G18G21G22G27G29G31
  21653963.180   113792343.75008  21653963.860    88669365.50248
  22417626.600   117805495.55808  22417627.900    91796539.61946
  21192133.580   111365418.21608  21192133.840    86778251.57648
  23879049.060   125485311.02706  23879051.060    97780787.52845
  23029183.560   121019180.75807  23029187.000    94300693.11646
  23616500.200   124105915.98607  23616502.540    96706089.73046
  23206844.800   121952780.92107  23206846.400    95028138.01346
 15 01 29 02 04 30.0000000  0  7G16G18G21G22G27G29G31
  21640702.160   113722656.77708  21640702.860    88615063.97348
  22406113.160   117744991.60208  22406114.480    91749393.68846
  21198681.340   111399826.73808  21198681.560    86805063.41348
  23860761.900   125389215.08906  23860764.020    97705907.96745
  23016266.860   120951303.38307  23016270.340    94247801.67447
  23630274.920   124178301.50607  23630277.040    96762494.00546
  23224291.360   122044462.83507  23224293.100    95099578.37746
 15 01 29 02 05  0.0000000  0  7G16G18G21G22G27G29G31
  21627497.980   113653268.34008  21627498.700    88560995.05948
  22394660.020   117684804.77408  22394661.280    91702494.85546
  21205290.700   111434559.09808  21205290.900    86832127.59148
  23842478.680   125293139.86806  23842481.020    97631044.45246
  23003366.780   120883513.35507  23003370.280    94194978.28147
  23644058.980   124250735.94307  23644060.860    96818936.38046
  23241765.860   122136291.17407  23241767.660    95171132.83746
 15 01 29 02 05 30.0000000  0  7G16G18G21G22G27G29G31
  21614350.760   113584179.20708  21614351.500    88507159.37548
  22383267.180   117624935.40608  22383268.380    91655843.39546
  21211961.000   111469611.56708  21211961.140    86859441.20948
  23824199.780   125197086.46706  23824202.240    97556197.93745
  22990483.060   120815809.32207  22990486.580    94142221.91447
  23657852.060   124323217.87507  23657853.820    96875415.77346
  23259267.380   122228261.42607  23259269.160    95242797.86046
 15 01 29 02 06  0.0000000  0  7G16G18G21G22G27G29G31
  21601261.320   113515393.76708  21601262.120    88453560.33548
  22371935.720   117565388.83308  22371936.820    91609443.48046
  21218692.440   111504985.43108  21218692.580    86887005.25448
  23805926.260   125101059.85606  23805928.520    97481372.27045
  22977616.180   120748193.73207  22977619.760    94089534.46447
  23671654.440   124395749.15107  23671656.020    96931933.62646
  23276795.860   122320373.17507  23276797.540    95314573.13446
 15 01 29 02 06 30.0000000  0  7G16G18G21G22G27G29G31
  21588229.900   113446913.32408  21588230.700    88400198.95348
  22360665.980   117506166.17008  22360666.900    91563295.95346
  21225484.480   111540677.70608  21225484.620    86914817.42548
  23787658.380   125005061.41706  23787660.380    97406568.52745
  22964766.000   120680665.45407  22964769.560    94036915.04147
  23685465.980   124468329.26007  23685467.460    96988489.53546
  23294350.420   122412621.94307  23294352.060    95386455.18746
 15 01 29 02 07  0.0000000  0  7G16G18G21G22G27G29G31
  21575257.040   113378740.78608  21575257.880    88347077.49548
  22349458.460   117447270.02708  22349459.180    91517402.86246
  21232336.960   111576687.66308  21232337.140    86942877.13148
  23769396.700   124909094.65306  23769398.260    97331789.46645
  22951932.600   120613225.29807  22951936.160    93984364.29747
  23699286.740   124540958.39906  23699288.340    97045083.62146
  23311930.540   122505005.55407  23311932.140    95458442.29346
 15 01 29 02 07 30.0000000  0  7G16G18G21G22G27G29G31
  21562343.340   113310879.04208  21562344.220    88294198.22048
  22338313.660   117388703.17408  22338314.220    91471766.35846
  21239249.640   111613014.16208  21239249.880    86971183.49748
  23751141.640   124813162.85406  23751142.940    97257037.66445
  22939116.160   120545874.04707  22939119.680    93931882.82947
  23713116.900   124613637.33106  23713118.800    97101716.54646
  23329535.800   122597521.83507  23329537.440    95530532.78146
 15 01 29 02 08  0.0000000  0  7G16G18G21G22G27G29G31
  21549489.460   113243331.53408  21549490.340    88241563.80248
  22327232.240   117330469.33008  22327232.740    91426389.34746
  21246222.460   111649656.96708  21246222.780    86999736.33248
  23732893.800   124717269.31807  23732894.820    97182315.62845
  22926316.800   120478612.88207  22926320.320    93879471.55047
  23726956.480   124686366.77805  23726958.780    97158388.81546
  23347165.900   122690168.79407  23347167.520    95602725.09746
 15 01 29 02 08 30.0000000  0  7G16G18G21G22G27G29G31
  21536695.380   113176098.09508  21536696.220    88189174.10748
  22316214.200   117272568.78708  22316214.760    91381272.04547
  21253254.680   111686611.95608  21253255.080    87028532.42548
  23714653.360   124621415.02307  23714654.320    97107624.16945
  22913534.160   120411439.83207  22913537.700    93827128.93847
  23740805.300   124759144.81706  23740807.820    97215098.94145
  23364819.960   122782941.29807  23364821.540    95675015.23946
 15 01 29 02 09  0.0000000  0  7G16G18G21G22G27G29G31
  21523960.840   113109177.57308  21523961.620    88137028.24248
  22305259.000   117214999.31408  22305259.820    91336412.72747
  21260345.300   111723873.55708  21260345.700    87057567.44148
  23696419.860   124525598.13807  23696420.960    97032961.87845
  22900767.580   120344350.98807  22900771.100    93774851.93147
  23754662.860   124831967.38306  23754665.280    97271843.81045
  23382496.680   122875832.50007  23382498.220    95747397.85746
 15 01 29 02 09 30.0000000  0  7G16G18G21G22G27G29G31
  21511286.840   113042575.20808  21511287.600    88085130.29848
  22294367.820   117157766.92008  22294368.980    91291816.06246
  21267494.600   111761443.54008  21267495.000    87086842.75448
  23678194.620   124429824.79807  23678195.940    96958333.50546
  22888017.720   120277349.72707  22888021.120    93722643.17547
  23768529.780   124904837.85906  23768532.000    97328625.97846
  23400196.000   122968842.57807  23400197.540    95819873.11646
 15 01 29 02 10  0.0000000  0  7G16G18G21G22G27G29G31
  21498674.040   112976294.46808  21498674.820    88033482.97848
  22283541.380   117100874.64208  22283542.760    91247484.41547
  21274702.380   111799320.84508  21274702.800    87116357.53548
  23659978.580   124334099.36607  23659980.000    96883742.49745
  22875284.780   120210437.55507  22875288.120    93670503.82047
  23782406.140   124977757.48807  23782408.100    97385446.42145
  23417917.600   123061969.49007  23417919.140    95892439.39146
 15 01 29 02 10 30.0000000  0  7G16G18G21G22G27G29G31
  21486122.960   112910337.89008  21486123.740    87982088.24448
  22272780.260   117044325.16608  22272781.740    91203419.89047
  21281968.620   111837505.09408  21281969.020    87146111.50048
  23641772.120   124238424.24907  23641773.560    96809190.66646
  22862568.800   120143614.71007  22862572.120    93618434.08847
  23796291.900   125050726.20206  23796293.600    97442305.16145
  23435661.040   123155211.06307  23435662.560    95965095.02146
 15 01 29 02 11  0.0000000  0  7G16G18G21G22G27G29G31
  21473634.300   112844709.27108  21473635.060    87930949.06048
  22262085.120   116988121.91808  22262086.540    91159625.17446
  21289293.160   111875995.62008  21289293.540    87176104.12148
  23623576.040   124142803.57407  23623577.460    96734681.18846
  22849870.080   120076882.80707  22849873.440    93566435.20647
  23810187.160   125123745.42406  23810188.600    97499203.23245
  23453426.020   123248565.62007  23453427.500    96037838.68546
 15 01 29 02 11 30.0000000  0  7G16G18G21G22G27G29G31
  21461208.340   112779410.33108  21461209.140    87880066.77548
  22251456.400   116932267.31508  22251457.620    91116102.11346
  21296675.600   111914790.32308  21296675.940    87206333.75848
  23605390.760   124047239.68407  23605392.100    96660215.96346
  22837188.660   120010241.77407  22837192.020    93514507.12647
  23824091.780   125196815.15206  23824093.380    97556140.65846
  23471211.820   123342029.83107  23471213.320    96110667.79146
 15 01 29 02 12  0.0000000  0  7G16G18G21G22G27G29G31
  21448845.360   112714442.31508  21448846.120    87829442.35348
  22240894.220   116876762.02208  22240895.160    91072851.25046
  21304115.380   111953886.72308  21304115.740    87236798.48748
  23587216.520   123951733.87607  23587217.720    96585795.99846
  22824524.300   119943690.42507  22824527.660    93462648.95147
  23838005.580   125269934.05206  23838007.600    97613116.38745
  23489017.660   123435599.51407  23489019.220    96183579.07646
 15 01 29 02 12 30.0000000  0  7G16G18G21G22G27G29G31
  21436545.460   112649805.90708  21436546.200    87779076.32948
  22230398.720   116821606.77308  22230399.400    91029873.13846
  21311611.960   111993281.59808  21311612.340    87267495.79448
  23569053.600   123856287.67307  23569054.700    96511422.46946
  22811876.740   119877227.45107  22811880.140    93410859.63247
  23851928.520   125343100.38406  23851930.820    97670129.09345
  23506842.660   123529270.02207  23506844.340    96256568.91846
 15 01 29 02 13  0.0000000  0  7G16G18G21G22G27G29G31
  21424309.180   112585504.03909  21424309.920    87728970.98048
  22219970.260   116766804.32008  22219970.860    90987169.93046
  21319165.080   112032973.41708  21319165.440    87298424.48948
  23550902.520   123760904.15206  23550903.580    96437097.78746
  22799246.160   119810853.73307  22799249.600    93359139.87747
  23865860.620   125416314.73106  23865863.000    97727179.25845
  23524686.420   123623039.16407  23524688.180    96329635.61246
 15 01 29 02 13 30.0000000  0  7G16G18G21G22G27G29G31
  21412136.600   112521536.85509  21412137.340    87679126.42248
  22209608.880   116712354.93208  22209609.560    90944741.83846
  21326774.060   112072958.95508  21326774.440    87329582.04948
  23532763.540   123665584.38807  23532764.600    96362822.76246
  22786632.280   119744567.64107  22786635.760    93307488.39747
  23879801.820   125489575.58206  23879804.080    97784265.59145
  23542548.060   123716902.47707  23542549.880    96402775.66346
 15 01 29 02 14  0.0000000  0  7G16G18G21G22G27G29G31
  21400028.440   112457907.96309  21400029.160    87629545.46848
  22199315.180   116658261.58608  22199316.040    90902591.17647
  21334438.720   112113236.98708  21334439.120    87360967.52848
  23514637.180   123570331.31806  23514638.240    96288599.71045
  22774035.280   119678369.73807  22774038.720    93255905.63447
  23893752.200   125562883.41406  23893754.260    97841388.55446
  23560427.140   123810857.51307  23560429.020    96475987.20046
 15 01 29 02 14 30.0000000  0  7G16G18G21G22G27G29G31
  21387985.520   112394621.81509  21387986.200    87580231.58648
  22189090.160   116604528.99808  22189091.200    90860721.62947
  21342159.360   112153809.09208  21342159.760    87392582.15648
  23496524.580   123475150.58706  23496525.640    96214433.13345
  22761455.640   119612263.06008  22761459.060    93204393.95647
  23907712.080   125636240.79507  23907713.840    97898550.11545
  23578323.620   123904903.69107  23578325.440    96549269.75646
 15 01 29 02 15  0.0000000  0  7G16G18G21G22G27G29G31
  21376008.060   112331679.76209  21376008.720    87531185.83548
  22178934.020   116551158.29008  22178935.100    90819134.06747
  21349935.340   112194671.80708  21349935.700    87424423.24048
  23478426.140   123380043.76207  23478427.140    96140324.19346
  22748893.220   119546246.64608  22748896.560    93152952.60847
  23921681.200   125709646.88006  23921682.500    97955749.62546
  23596236.660   123999036.62907  23596238.480    96622619.89446
 15 01 29 02 15 30.0000000  0  7G16G18G21G22G27G29G31
  21364096.640   112269084.81409  21364097.280    87482410.55548
  22168847.320   116498152.11908  22168848.360    90777830.57147
  21357766.560   112235825.14008  21357766.920    87456490.76948
  23460342.540   123285014.36207  23460343.320    96066275.57546
  22736348.160   119480321.47208  22736351.420    93101582.35747
  23935659.620   125783102.34906  23935660.600    98012987.60346
  23614166.060   124093254.97407  23614167.800    96696036.58046
 15 01 29 02 16  0.0000000  0  7G16G18G21G22G27G29G31
  21352251.820   112206839.94609  21352252.440    87433908.06148
  22158830.600   116445513.58808  22158831.540    90736813.53647
  21365652.780   112277267.68708  21365653.160    87488783.66948
  23442274.300   123190065.21207  23442274.740    95992289.40045
  22723820.620   119414488.52108  22723823.860    93050283.96647
  23949647.440   125856608.17207  23949648.420    98070264.82146
  23632111.400   124187556.52207  23632113.000    96769518.09745
 15 01 29 02 16 30.0000000  0  7G16G18G21G22G27G29G31
  21340474.080   112144947.70709  21340474.760    87385680.34848
  22148884.280   116393245.29708  22148885.160    90696084.99546
  21373593.780   112318998.18708  21373594.200    87521300.94148
  23424222.140   123095200.21407  23424222.280    95918368.79445
  22711310.780   119348748.61807  22711314.000    92999058.08247
  23963644.640   125930164.50406  23963645.880    98127581.42646
  23650072.060   124281938.74607  23650073.620    96843062.46046
 15 01 29 02 17  0.0000000  0  7G16G18G21G22G27G29G31
  21328763.780   112083409.84909  21328764.520    87337728.77248
  22139008.580   116341348.30608  22139009.460    90655645.79647
  21381589.100   112361014.21908  21381589.600    87554040.70648
  23406186.220   123000420.75107  23406186.220    95844514.79646
  22698818.400   119283100.81807  22698821.660    92947903.96047
  23977651.020   126003770.33505  23977652.640    98184936.62045
  23668047.180   124376397.36807  23668048.800    96916666.34546
 15 01 29 02 17 30.0000000  0  7G16G18G21G22G27G29G31
  21317120.920   112022226.16509  21317121.660    87290053.17448
  22129203.460   116289822.56508  22129204.440    90615495.87247
  21389638.040   112403312.02008  21389638.580    87587000.03248
  23388166.600   122905727.36407  23388166.560    95770727.87046
  22686343.160   119217543.16307  22686346.440    92896820.08547
  23991666.500   126077423.71906  23991668.420    98242328.83745
  23686035.860   124470927.57807  23686037.560    96990326.01246
 15 01 29 02 18  0.0000000  0  7G16G18G21G22G27G29G31
  21305546.060   111961399.83409  21305546.800    87242656.03548
  22119469.620   116238671.34508  22119470.680    90575637.78747
  21397740.460   112445890.89808  21397741.080    87620178.37848
  23370164.000   122811124.16307  23370164.020    95697011.21346
  22673885.400   119152077.23207  22673888.660    92845807.67547
  24005691.400   126151125.91805  24005693.580    98299759.13946
  23704037.800   124565527.81507  23704039.660    97064040.25146
 15 01 29 02 18 30.0000000  0  7G16G18G21G22G27G29G31
  21294039.500   111900932.63709  21294040.280    87195538.74148
  22109807.320   116187895.84208  22109808.400    90536072.47247
  21405895.880   112488748.06908  21405896.500    87653573.57448
  23352178.900   122716613.15707  23352179.100    95623366.38446
  22661444.920   119086702.32607  22661448.220    92794866.20047
  24019725.500   126224876.40205  24019727.880    98357227.02746
  23722052.280   124660194.07106  23722054.320    97137805.90646
 15 01 29 02 19  0.0000000  0  7G16G18G21G22G27G29G31
  21282601.740   111840827.15708  21282602.540    87148703.30648
  22100217.040   116137498.55908  22100218.100    90496801.87947
  21414104.100   112531882.53508  21414104.720    87687184.84748
  23334211.920   122622197.09907  23334212.260    95549795.54046
  22649021.820   119021418.98907  22649025.160    92743996.07847
  24033769.000   126298675.15306  24033771.280    98414732.45745
  23740078.840   124754923.77606  23740081.000    97211620.98946
 15 01 29 02 19 30.0000000  0  7G16G18G21G22G27G29G31
  21271233.480   111781086.73409  21271234.300    87102152.32348
  22090699.280   116087482.11508  22090700.260    90457828.04647
  21422365.020   112575293.82308  21422365.600    87721011.82348
  23316263.780   122527879.63007  23316264.220    95476301.50546
  22636616.380   118956228.33407  22636619.720    92693198.17447
  24047822.020   126372522.97407  24047823.860    98472276.22044
  23758117.040   124849714.71806  23758119.380    97285483.77845
 15 01 29 02 20  0.0000000  0  7G16G18G21G22G27G29G31
  21259935.080   111721713.47009  21259935.940    87055887.44248
  22081254.420   116037849.08808  22081255.360    90419152.97847
  21430678.360   112618980.32808  21430678.860    87755053.25748
  23298335.020   122433663.53107  23298335.420    95402886.45946
  22624228.660   118891130.78607  22624231.980    92642472.81847
  24061884.420   126446420.25006  24061885.820    98529858.50845
  23776166.400   124944564.52906  23776168.920    97359392.43146
 15 01 29 02 20 30.0000000  0  7G16G18G21G22G27G29G31
  21248706.760   111662708.15809  21248707.640    87009909.27948
  22071882.540   115988599.55508  22071883.480    90380776.73147
  21439043.320   112662938.21708  21439043.720    87789306.15548
  23280425.760   122339549.92107  23280426.140    95329551.26946
  22611858.420   118826124.94108  22611861.720    92591818.92347
  24075955.920   126520365.61706  24075957.140    98587478.22045
  23794226.100   125039468.52606  23794228.800    97433343.29246
 15 01 29 02 21  0.0000000  0  7G16G18G21G22G27G29G31
  21237549.080   111604074.20909  21237550.000    86964220.49148
  22062584.300   115939737.20808  22062585.340    90342702.19147
  21447459.960   112707167.91108  21447460.360    87823770.85248
  23262536.860   122245543.27507  23262537.280    95256299.41646
  22599506.040   118761212.60208  22599509.320    92541237.88747
  24090036.780   126594360.23406  24090037.980    98645136.32245
  23812296.020   125134425.44506  23812298.860    97507335.39246
 15 01 29 02 21 30.0000000  0  7G16G18G21G22G27G29G31
  21226462.640   111545814.55309  21226463.560    86918823.35448
  22053360.160   115891264.28208  22053361.280    90304931.08547
  21455928.020   112751667.89608  21455928.440    87858446.16948
  23244668.780   122151646.56407  23244669.360    95183133.23846
  22587171.580   118696394.40908  22587174.840    92490730.20247
  24104127.080   126668404.71906  24104128.180    98702833.35045
  23830375.520   125229432.67706  23830378.480    97581366.67546
 15 01 29 02 22  0.0000000  0  7G16G18G21G22G27G29G31
  21215447.760   111487930.83909  21215448.680    86873719.16248
  22044210.420   115843182.22908  22044211.560    90267464.55447
  21464447.160   112796436.31308  21464447.620    87893330.64948
  23226821.880   122057861.98007  23226822.800    95110054.42946
  22574855.020   118631670.30708  22574858.300    92440295.84847
  24118226.720   126742498.71206  24118228.000    98760568.92345
  23848464.100   125324487.24506  23848467.040    97655434.82246
 15 01 29 02 22 30.0000000  0  7G16G18G21G22G27G29G31
  21204505.120   111430426.63009  21204506.000    86828910.68848
  22035135.740   115795494.39308  22035136.920    90230305.21547
  21473017.240   112841472.35308  21473017.700    87928423.66648
  23208997.080   121964193.44707  23208998.320    95037066.05346
  22562556.660   118567041.54508  22562559.880    92389935.77548
  24132335.800   126816643.45005  24132337.460    98818344.05946
  23866561.300   125419586.64206  23866564.100    97729537.90046
 15 01 29 02 23  0.0000000  0  7G16G18G21G22G27G29G31
  21193634.860   111373302.87109  21193635.720    86784398.66748
  22026136.240   115748201.53308  22026137.420    90193453.63647
  21481637.740   112886773.32608  21481638.200    87963723.12748
  23191194.920   121870642.81507  23191196.180    94964169.53446
  22550276.260   118502507.35308  22550279.460    92339649.39447
  24146454.180   126890838.08204  24146456.580    98876157.99947
  23884666.480   125514727.59306  23884669.080    97803673.35246
 15 01 29 02 23 30.0000000  0  7G16G18G21G22G27G29G31
  21182836.960   111316559.38408  21182837.780    86740182.96348
  22017211.780   115701302.86108  22017212.920    90156909.22947
  21490307.900   112932335.17908  21490308.320    87999225.87048
  23173415.320   121777209.74807  23173416.320    94891364.62846
  22538013.420   118438065.30008  22538016.520    92289434.81147
  24160581.580   126965079.49905  24160584.540    98934008.45447
  23902778.460   125609904.33906  23902780.920    97877836.65346
 15 01 29 02 24  0.0000000  0  7G16G18G21G22G27G29G31
  21172112.600   111260202.50508  21172113.400    86696268.51648
  22008363.560   115654804.90408  22008364.600    90120677.06347
  21499028.160   112978160.46008  21499028.580    88034933.87948
  23155659.640   121683901.64507  23155660.200    94818657.08146
  22525768.960   118373720.23108  22525772.020    92239295.79847
  24174718.860   127039372.26105  24174722.180    98991898.84646
  23920897.480   125705118.49306  23920899.880    97952029.11346
 15 01 29 02 24 30.0000000  0  7G16G18G21G22G27G29G31
  21161461.700   111204231.77108  21161462.500    86652654.96048
  21999591.260   115608706.38308  21999592.240    90084756.14347
  21507797.600   113024244.12108  21507798.000    88070843.22748
  23137927.660   121590718.28907  23137927.800    94746046.74646
  22513542.400   118309469.42708  22513545.480    92189230.24347
  24188865.560   127113713.71806  24188868.700    99049827.27546
  23939022.340   125800364.22106  23939024.920    98026246.14846
 15 01 29 02 25  0.0000000  0  7G16G18G21G22G27G29G31
  21150884.420   111148647.84809  21150885.220    86609342.81348
  21990895.100   115563008.12608  21990896.080    90049147.12147
  21516615.720   113070583.64608  21516616.120    88106951.94848
  23120219.640   121497661.16507  23120219.540    94673534.77346
  22501333.580   118245311.88608  22501336.680    92139237.35247
  24203021.560   127188102.78406  24203024.300    99107792.68944
  23957152.380   125895637.58806  23957155.260    98100484.73245
 15 01 29 02 25 30.0000000  0  7G16G18G21G22G27G29G31
  21140382.040   111093457.40509  21140382.860    86566337.27648
  21982276.300   115517716.38708  21982277.320    90013854.87047
  21525483.080   113117182.05608  21525483.480    88143262.39948
  23102536.880   121404737.17707  23102536.620    94601126.54646
  22489143.400   118181252.43908  22489146.560    92089320.90247
  24217187.440   127262543.95807  24217189.780    99165798.81346
  23975287.900   125990939.90606  23975291.260    98174745.83645
 15 01 29 02 26  0.0000000  0  7G16G18G21G22G27G29G31
  21129954.580   111038660.66509  21129955.400    86523638.51748
  21973734.780   115472830.57008  21973735.840    89978878.92147
  21534398.860   113164034.98808  21534399.280    88179771.17648
  23084879.540   121311947.36007  23084879.180    94528822.85846
  22476971.520   118117289.02708  22476974.740    92039479.27847
  24231362.700   127337034.63007  24231364.980    99223843.28344
  23993427.940   126086265.92106  23993431.740    98249025.42446
 15 01 29 02 26 30.0000000  0  7G16G18G21G22G27G29G31
  21119601.840   110984256.53809  21119602.620    86481245.68748
  21965270.180   115428349.04608  21965271.260    89944218.00247
  21543362.220   113211137.84708  21543362.640    88216474.70448
  23067247.360   121219290.44107  23067247.020    94456622.73346
  22464817.400   118053418.73008  22464820.660    91989710.21547
  24245546.780   127411571.65606  24245548.500    99281924.16945
  24011571.460   126181609.61606  24011575.520    98323318.76245
 15 01 29 02 27  0.0000000  0  7G16G18G21G22G27G29G31
  21109325.260   110930252.73809  21109326.020    86439164.80448
  21956884.200   115384280.31308  21956885.220    89909878.73247
  21552373.900   113258494.67108  21552374.340    88253376.12548
  23049642.180   121126775.47607  23049641.880    94384533.21346
  22452682.220   117989647.79408  22452685.480    91940018.58747
  24259740.820   127486161.30706  24259742.240    99340045.94845
  24029719.100   126276974.42106  24029723.220    98397628.53546
 15 01 29 02 27 30.0000000  0  7G16G18G21G22G27G29G31
  21099124.920   110876649.71809  21099125.680    86397396.21948
  21948576.740   115340624.11908  21948577.720    89875860.92447
  21561433.280   113306102.10508  21561433.740    88290472.82148
  23032064.200   121034403.47607  23032063.900    94312555.08946
  22440565.640   117925974.71308  22440568.920    91890403.19747
  24273944.300   127560801.73907  24273946.040    99398207.18444
  24047869.880   126372355.49606  24047874.120    98471950.92845
 15 01 29 02 28  0.0000000  0  7G16G18G21G22G27G29G31
  21089000.460   110823445.45309  21089001.260    86355938.34648
  21940347.220   115297377.62608  21940348.220    89842162.36247
  21570539.220   113353954.05308  21570539.660    88327760.05848
  23014513.160   120942172.73507  23014512.760    94240687.03946
  22428466.920   117862395.37408  22428470.140    91840860.87147
  24288156.620   127635488.46004  24288158.540    99456404.78145
  24066022.480   126467745.59906  24066026.760    98546280.36946
 15 01 29 02 28 30.0000000  0  7G16G18G21G22G27G29G31
  21078953.340   110770647.59409  21078954.180    86314797.15748
  21932197.160   115254548.90308  21932198.260    89808789.34447
  21579692.540   113402054.93008  21579692.980    88365241.26448
  22996990.760   120850092.15107  22996990.220    94168935.99446
  22416387.240   117798916.29808  22416390.420    91791396.67347
  24302379.240   127710227.85006  24302381.140    99514643.31245
  24084177.480   126563147.99806  24084181.760    98620619.39946
 15 01 29 02 29  0.0000000  0  7G16G18G21G22G27G29G31
  21068983.840   110718257.52409  21068984.660    86273973.72348
  21924126.520   115212137.69808  21924127.740    89775741.65547
  21588892.540   113450401.08008  21588892.960    88402913.58748
  22979497.020   120758162.23207  22979496.440    94097302.34646
  22404326.340   117735535.88308  22404329.460    91742009.34647
  24316611.320   127785017.86407  24316613.540    99572921.08745
  24102333.940   126658557.75506  24102338.040    98694964.14046
 15 01 29 02 29 30.0000000  0  7G16G18G21G22G27G29G31
  21059091.380   110666272.35809  21059092.220    86233465.80748
  21916134.880   115170141.59908  21916136.200    89743017.42847
  21598138.140   113498986.77108  21598138.520    88440772.56948
  22962031.600   120666381.30607  22962031.080    94025784.80246
  22392283.400   117672250.12408  22392286.540    91692695.78747
  24330852.360   127859854.41706  24330854.500    99631235.29044
  24120490.540   126753968.00806  24120494.420    98769309.25346
 15 01 29 02 30  0.0000000  0  7G16G18G21G22G27G29G31
  21049277.620   110614700.73609  21049278.480    86193280.12948
  21908223.720   115128568.47708  21908225.120    89710622.79847
  21607430.160   113547816.62908  21607430.520    88478821.81348
  22944596.400   120574758.99307  22944596.000    93954390.82946
  22380259.780   117609065.85308  22380262.940    91643461.30647
  24345103.480   127934743.84406  24345105.460    99689590.71844
  24138647.840   126849382.47306  24138651.640    98843657.63846
 15 01 29 02 30 30.0000000  0  7G16G18G21G22G27G29G31
  21039542.180   110563540.74509  21039543.060    86153415.20348
  21900392.700   115087416.27308  21900394.120    89678556.15247
  21616767.600   113596885.03108  21616767.920    88517056.93048
  22927191.140   120483294.14907  22927190.960    93883119.57847
  22368254.800   117545979.39908  22368257.980    91594303.03647
  24359363.880   128009682.48906  24359365.720    99747984.40845
  24156804.580   126944793.94306  24156808.320    98918003.70845
 15 01 29 02 31  0.0000000  0  7G16G18G21G22G27G29G31
  21029885.800   110512796.09209  21029886.660    86113873.90848
  21892642.420   115046688.14308  21892643.800    89646819.95747
  21626150.320   113646191.53908  21626150.640    88555477.58748
  22909816.580   120391990.69607  22909816.640    93811974.07447
  22356268.800   117482992.63608  22356272.020    91545222.44448
  24373634.160   128084671.50006  24373635.660    99806417.39844
  24174960.440   127040201.63906  24174964.260    98992346.79245
 15 01 29 02 31 30.0000000  0  7G16G18G21G22G27G29G31
  21020309.380   110462471.44909  21020310.180    86074659.89948
  21884973.680   115006388.46408  21884975.000    89615417.61747
  21635578.580   113695737.19308  21635578.840    88594084.59548
  22892473.620   120300853.29407  22892473.920    93740957.96647
  22344302.280   117420108.26708  22344305.540    91496221.63747
  24387914.360   128159713.74607  24387915.700    99864891.83244
  24193115.320   127135604.67506  24193119.300    99066686.25145
 15 01 29 02 32  0.0000000  0  8G16G18G19G21G22G27G29G31
  21010813.740   110412571.40109  21010814.480    86035776.73948
  21877387.200   114966521.04008  21877388.420    89584352.10147
  24546400.980   128992203.38806  24546401.100   100513409.84445
  21645052.540   113745523.09708  21645052.780    88632878.80948
  22875163.460   120209887.98307  22875163.800    93670075.95747
  22332355.860   117357329.49008  22332359.160    91447303.11447
  24402204.940   128234811.78405  24402206.300    99923409.80145
  24211269.380   127231003.35406  24211273.480    99141022.31646
 15 01 29 02 32 30.0000000  0  8G16G18G19G21G22G27G29G31
  21001394.760   110363074.36409  21001395.520    85997207.62548
  21869878.840   114927064.30008  21869880.000    89553606.59747
  24531081.100   128911698.68006  24531081.160   100450678.93645
  21654567.320   113795523.69308  21654567.580    88671840.31348
  22857882.120   120119073.63707  22857882.340    93599311.57447
  22320425.020   117294632.84408  22320428.400    91398448.59348
  24416501.360   128309941.79606  24416503.000    99981952.65144
  24229417.420   127326370.69406  24229421.780    99215333.93845
 15 01 29 02 33  0.0000000  0  8G16G18G19G21G22G27G29G31
  20992059.320   110314016.28809  20992060.080    85958980.55348
  21862455.280   114888053.29708  21862456.440    89523208.42147
  24515773.560   128831258.24406  24515773.640   100387998.09344
  21664129.060   113845771.11208  21664129.360    88710994.15048
  22840636.380   120028446.44607  22840636.380    93528693.04646
  22308516.300   117232052.30108  22308519.700    91349684.55148
  24430810.320   128385137.67806  24430812.360   100040546.80445
  24247565.560   127421738.06406  24247570.020    99289645.58646
 15 01 29 02 33 30.0000000  0  8G16G18G19G21G22G27G29G31
  20982804.140   110265380.11509  20982804.940    85921082.24048
  21855113.280   114849470.92108  21855114.480    89493144.24547
  24500474.820   128750863.44006  24500474.760   100325352.82045
  21673733.880   113896244.84508  21673734.200    88750324.33248
  22823423.160   119937990.46407  22823422.900    93458207.90646
  22296626.220   117169569.58708  22296629.600    91300996.73748
  24445128.380   128460380.98106  24445130.820   100099177.89645
  24265709.580   127517083.54906  24265714.200    99363940.20446
 15 01 29 02 34  0.0000000  0  8G16G18G19G21G22G27G29G31
  20973630.200   110217170.55809  20973630.980    85883516.35648
  21847853.680   114811321.18408  21847854.820    89463417.18347
  24485185.320   128670517.10106  24485185.160   100262745.29144
  21683381.880   113946945.64008  21683382.280    88789831.44248
  22806243.480   119847711.19607  22806242.980    93387860.45946
  22284755.360   117107187.66308  22284758.740    91252387.46048
  24459456.120   128535673.97305  24459458.900   100157847.79244
  24283849.460   127612406.92006  24283854.200    99438217.58745
 15 01 29 02 34 30.0000000  0  8G16G18G19G21G22G27G29G31
  20964538.340   110169392.37809  20964539.080    85846286.60148
  21840677.260   114773608.40108  21840678.320    89434030.61747
  24469905.540   128590221.59606  24469905.280   100200177.39045
  21693073.200   113997873.99108  21693073.640    88829515.87448
  22789098.220   119757613.30607  22789097.620    93317654.35046
  22272904.200   117044909.13908  22272907.580    91203858.75447
  24473793.740   128611019.30006  24473796.640   100216558.34745
  24301985.180   127707708.10506  24301990.040    99512477.65345
 15 01 29 02 35  0.0000000  0  8G16G18G19G21G22G27G29G31
  20955527.980   110122042.53209  20955528.680    85809390.61548
  21833583.260   114736328.80108  21833584.240    89404981.58547
  24454634.460   128509972.01806  24454634.200   100137645.26544
  21702806.660   114049023.97608  21702807.180    88869373.00148
  22771987.040   119667694.82507  22771986.500    93247588.04846
  22261071.840   116982729.48108  22261075.180    91155407.07348
  24488140.700   128686411.83305  24488143.400   100275305.81445
  24320115.240   127802979.15806  24320120.220    99586714.20245
 15 01 29 02 35 30.0000000  0  8G16G18G19G21G22G27G29G31
  20946600.680   110075129.09409  20946601.340    85772834.68948
  21826573.140   114699490.19608  21826574.100    89376276.18847
  24439373.360   128429774.79306  24439373.140   100075153.95445
  21712583.140   114100399.93608  21712583.740    88909406.21648
  22754911.780   119577964.61807  22754911.380    93177668.45447
  22249259.500   116920655.27908  22249262.840    91107037.57248
  24502497.920   128761857.95206  24502500.380   100334094.92545
  24338240.180   127898223.50406  24338245.360    99660929.98045
 15 01 29 02 36  0.0000000  0  8G16G18G19G21G22G27G29G31
  20937756.220   110028651.03009  20937756.860    85736618.01248
  21819646.680   114663091.38208  21819647.660    89347913.48247
  24424121.700   128349627.09905  24424121.520   100012701.20945
  21722401.700   114151997.08508  21722402.340    88949611.78548
  22737872.480   119488422.39308  22737872.160    93107895.33247
  22237466.800   116858684.10408  22237470.100    91058748.34948
  24516864.680   128837354.82905  24516866.980   100392923.64645
  24356358.900   127993435.57706  24356364.340    99735120.59346
 15 01 29 02 36 30.0000000  0  8G16G18G19G21G22G27G29G31
  20928995.360   109982612.44709  20928996.020    85700743.78548
  21812804.520   114627135.85908  21812805.560    89319896.19247
  24408879.900   128269531.00705  24408879.640    99950288.69744
  21732262.340   114203815.19008  21732263.000    88989989.52948
  22720870.000   119399073.00608  22720869.660    93038272.47247
  22225694.100   116796818.26908  22225697.420    91010541.21748
  24531241.240   128912904.20606  24531243.620   100451793.24845
  24374471.400   128088614.54506  24374477.020    99809285.39745
 15 01 29 02 37  0.0000000  0  8G16G18G19G21G22G27G29G31
  20920318.200   109937013.86609  20920318.920    85665212.42148
  21806046.600   114591623.29108  21806047.740    89292224.06147
  24393647.620   128189484.95106  24393647.300    99887915.16945
  21742164.600   114255851.91208  21742165.280    89030537.62248
  22703904.420   119309917.13008  22703904.000    92968800.39047
  22213941.240   116735056.44108  22213944.540    90962415.12248
  24545627.400   128988504.71506  24545629.900   100510702.69344
  24392576.780   128183755.81206  24392582.500    99883420.86345
 15 01 29 02 37 30.0000000  0  7G16G18G19G21G22G27G31
  20911720.020   109891830.33009  20911720.780    85630004.47148
  21799368.140   114556528.32008  21799369.360    89264877.34847
  24378419.840   128109462.29306  24378419.380    99825559.89844
  21752103.020   114308078.49608  21752103.680    89071233.66448
  22686971.040   119220930.99508  22686970.600    92899460.58147
  22202203.180   116673372.32808  22202206.440    90914349.59348
  24410669.360   128278829.81606  24410675.120    99957503.92545
 15 01 29 02 38  0.0000000  0  7G16G18G19G21G22G27G31
  20903214.080   109847131.52609  20903214.880    85595174.23148
  21792782.340   114521920.06508  21792783.580    89237909.88347
  24363209.460   128029530.87306  24363208.880    99763275.69745
  21762090.020   114360560.29908  21762090.660    89112128.57548
  22670083.220   119132184.82608  22670082.880    92830307.75547
  22190492.860   116611833.98408  22190496.120    90866397.63548
  24428761.500   128373901.76306  24428767.360   100031585.37246
 15 01 29 02 38 30.0000000  0  7G16G18G19G21G22G27G31
  20894790.000   109802862.72409  20894790.800    85560679.05648
  21786278.760   114487743.67308  21786279.960    89211278.93947
  24348005.700   127949634.48306  24348005.020    99701018.78444
  21772114.740   114413240.31608  21772115.340    89153177.93748
  22653230.760   119043624.91308  22653230.540    92761300.05347
  22178799.600   116550385.40608  22178802.840    90818515.63048
  24446841.880   128468912.45306  24446847.960   100105619.15246
 15 01 29 02 39  0.0000000  0  7G16G18G19G21G22G27G31
  20886451.360   109759042.77509  20886452.120    85526533.63348
  21779860.820   114454016.91608  21779861.940    89184998.35747
  24332811.700   127869789.43506  24332810.980    99638801.89645
  21782179.820   114466132.49208  21782180.400    89194392.62048
  22636417.300   118955270.26308  22636417.220    92692452.30847
  22167126.600   116489043.37708  22167129.860    90770716.66348
  24464913.020   128563875.35206  24464919.460   100179615.64145
 15 01 29 02 39 30.0000000  0  7G16G18G19G21G22G27G31
  20878198.580   109715674.17109  20878199.320    85492739.91348
  21773528.820   114420741.64508  21773529.840    89159069.58347
  24317627.600   127789996.33806  24317626.920    99576625.49245
  21792285.080   114519236.08408  21792285.660    89235772.04648
  22619643.500   118867124.02408  22619643.480    92623766.95847
  22155474.080   116427808.91908  22155477.340    90723001.51348
  24482974.660   128658788.44806  24482981.320   100253573.39345
 15 01 29 02 40  0.0000000  0  7G16G18G19G21G22G27G31
  20870031.900   109672757.98009  20870032.640    85459298.72448
  21767282.860   114387918.63608  21767283.860    89133493.22447
  24302453.340   127710255.00006  24302452.780    99514489.40145
  21802430.140   114572548.74208  21802430.740    89277314.37348
  22602909.700   118779188.05508  22602909.720    92555245.45246
  22143842.000   116366681.85708  22143845.260    90675370.03948
  24501026.000   128753647.92806  24501032.940   100327489.26646
 15 01 29 02 40 30.0000000  0  7G16G18G19G21G22G27G31
  20861951.500   109630295.10209  20861952.240    85426210.76548
  21761122.960   114355548.01708  21761123.960    89108269.36747
  24287288.760   127630564.49706  24287288.300    99452392.90945
  21812614.480   114626067.64208  21812615.040    89319017.41248
  22586216.380   118691464.49208  22586216.300    92486889.45846
  22132230.220   116305661.55508  22132233.440    90627821.76748
  24519066.480   128848450.58705  24519073.820   100401360.93145
 15 01 29 02 41  0.0000000  0  7G16G18G19G21G22G27G31
  20853957.780   109588287.91509  20853958.560    85393477.89448
  21755049.620   114323632.59908  21755050.640    89083400.21347
  24272133.980   127550925.84606  24272133.720    99390336.83446
  21822837.980   114679792.35508  21822838.500    89360880.82148
  22569564.140   118603956.83208  22569563.920    92418701.68746
  22120639.020   116244749.54008  22120642.200    90580357.86248
  24537095.920   128943194.81706  24537103.580   100475187.13245
 15 01 29 02 41 30.0000000  0  7G16G18G19G21G22G27G31
  20846051.520   109546740.26709  20846052.340    85361103.10548
  21749063.320   114292174.54408  21749064.340    89058887.44647
  24256989.140   127471340.15206  24256989.160    99328322.00546
  21833100.400   114733721.69108  21833100.900    89402903.67848
  22552953.720   118516668.58308  22552953.340    92350684.90347
  22109068.660   116183946.98808  22109071.820    90532979.25448
  24555113.920   129037878.49806  24555121.680   100548966.14745
 15 01 29 02 42  0.0000000  0  7G16G18G19G21G22G27G31
  20838232.660   109505651.95409  20838233.480    85329086.23649
  21743163.980   114261173.24008  21743164.980    89034730.58447
  24241854.120   127391805.84706  24241854.300    99266347.22846
  21843401.240   114787852.83708  21843401.720    89445083.78748
  22536385.320   118429600.86908  22536384.820    92282839.95047
  22097518.900   116123252.85508  22097522.080    90485685.12448
  24573119.640   129132497.29306  24573127.360   100622694.60645
 15 01 29 02 42 30.0000000  0  7G16G18G19G21G22G27G31
  20830501.440   109465024.05809  20830502.220    85297428.13548
  21737351.740   114230629.66008  21737352.780    89010930.40447
  24226728.920   127312322.82606  24226729.180    99204412.42346
  21853740.060   114842183.46408  21853740.500    89487419.34348
  22519859.360   118342755.88308  22519858.820    92215168.57447
  22085989.800   116062667.11708  22085992.980    90438475.47148
  24591112.440   129227047.65406  24591120.000   100696369.79045
 15 01 29 02 43  0.0000000  0  7G16G18G19G21G22G27G31
  20822858.120   109424858.04909  20822858.860    85266129.94449
  21731626.740   114200544.33208  21731627.780    88987487.29347
  24211613.500   127232890.21106  24211613.600    99142516.91046
  21864116.380   114896711.32508  21864116.800    89529908.58348
  22503376.120   118256135.32308  22503375.580    92147672.05447
  22074481.240   116002189.46308  22074484.480    90391350.02648
  24609091.800   129321526.71806  24609099.120   100769989.39345
 15 01 29 02 43 30.0000000  0  7G16G18G19G21G22G27G31
  20815303.540   109385158.42109  20815304.280    85235195.17149
  21725989.640   114170920.99808  21725990.640    88964404.19247
  24196508.220   127153510.82406  24196508.080    99080662.86545
  21874530.340   114951436.99608  21874530.740    89572551.96148
  22486936.560   118169744.29008  22486936.040    92080354.38947
  22062993.860   115941822.84208  22062997.100    90344311.10048
  24627057.580   129415934.58606  24627064.660   100843553.63845
 15 01 29 02 44  0.0000000  0  7G16G18G19G21G22G27G31
  20807837.880   109345926.02609  20807838.600    85204624.47249
  21720440.500   114141760.04208  21720441.520    88941681.38347
  24181412.980   127074184.15106  24181412.500    99018849.87145
  21884981.540   115006358.49908  21884981.960    89615347.94048
  22470540.960   118083584.95108  22470540.560    92013217.25847
  22051527.600   115881567.10708  22051530.800    90297358.58248
  24645008.960   129510267.15806  24645015.900   100917059.09845
 15 01 29 02 44 30.0000000  0  7G16G18G19G21G22G27G31
  20800461.840   109307164.63709  20800462.520    85174420.79249
  21714979.920   114113064.62408  21714981.000    88919321.32847
  24166328.000   126994911.92506  24166327.340    98957079.34446
  21895469.960   115061475.66608  21895470.380    89658296.38148
  22454190.160   117997661.65308  22454189.960    91946264.06347
  22040082.880   115821424.60308  22040086.020    90250494.30348
  24662945.880   129604523.84606  24662952.740   100990505.46145
 15 01 29 02 45  0.0000000  0  7G16G18G19G21G22G27G31
  20793175.420   109268874.22909  20793176.100    85144584.10648
  21709607.820   114084834.25808  21709608.940    88897323.65448
  24151253.000   126915692.58406  24151252.360    98895350.02245
  21905995.080   115116785.58408  21905995.480    89701395.01948
  22437884.460   117911975.27808  22437884.360    91879495.46847
  22028659.440   115761393.99708  22028662.560    90203717.22648
  24680867.440   129698700.25906  24680874.260   101063889.31745
 15 01 29 02 45 30.0000000  0  7G16G18G19G21G22G27G31
  20785979.200   109231057.67709  20785979.860    85115116.66149
  21704324.480   114057070.49208  21704325.680    88875689.56148
  24136188.340   126836527.55006  24136187.760    98833663.01145
  21916556.620   115172286.94108  21916557.000    89744642.82948
  22421624.600   117826529.44408  22421624.500    91812914.31347
  22017257.520   115701476.56608  22017260.660    90157028.33148
  24698773.180   129792794.09206  24698780.200   101137208.75045
 15 01 29 02 46  0.0000000  0  6G16G18G19G21G22G27
  20778871.940   109193708.79709  20778872.640    85086013.64049
  21699128.780   114029767.18508  21699130.000    88854414.26647
  24121132.540   126757409.09706  24121132.080    98772012.29745
  21927152.880   115227970.77608  21927153.260    89788032.82448
  22405409.600   117741318.99708  22405409.360    91746516.57247
  22005875.780   115641665.19008  22005878.960    90110422.07648
 15 01 29 02 46 30.0000000  0  6G16G18G19G21G22G27
  20771856.460   109156842.23808  20771857.220    85057286.44949
  21694023.360   114002938.37708  21694024.580    88833508.70747
  24106088.020   126678349.88706  24106087.620    98710407.72445
  21937786.060   115283848.43208  21937786.420    89831573.85548
  22389242.460   117656359.59808  22389242.000    91680314.46647
  21994516.800   115581973.09508  21994519.960    90063908.76248
 15 01 29 02 47  0.0000000  0  6G16G18G19G21G22G27
  20764931.960   109120453.92309  20764932.760    85028931.92049
  21689007.340   113976579.19208  21689008.540    88812969.09147
  24091053.760   126599344.64306  24091053.340    98648845.23345
  21948454.640   115339912.18008  21948454.960    89875259.88948
  22373122.420   117571647.65408  22373121.740    91614305.19547
  21983179.520   115522395.06808  21983182.640    90017484.33148
 15 01 29 02 47 30.0000000  0  6G16G18G19G21G22G27
  20758099.100   109084546.90709  20758099.900    85000952.42749
  21684081.100   113950691.97808  21684082.280    88792797.24047
  24076029.980   126520394.57706  24076029.680    98587325.67746
  21959158.500   115396161.36808  21959158.840    89919090.42748
  22357050.200   117487186.90308  22357049.260    91548491.64847
  21971864.180   115462932.67108  21971867.320    89971150.00848
 15 01 29 02 48  0.0000000  0  6G16G18G19G21G22G27
  20751357.780   109049120.96309  20751358.560    84973347.79549
  21679244.500   113925275.65808  21679245.640    88772992.31947
  24061016.460   126441498.23406  24061016.240    98525848.03145
  21969897.080   115452593.19908  21969897.480    89963063.27648
  22341025.980   117402978.61408  22341024.860    91482874.82047
  21960570.560   115403584.68908  21960573.760    89924904.82748
 15 01 29 02 48 30.0000000  0  6G16G18G19G21G22G27
  20744708.460   109014178.45309  20744709.220    84946119.86449
  21674497.900   113900332.16408  21674499.040    88753555.84347
  24046013.300   126362656.11106  24046013.120    98464412.62845
  21980670.080   115509205.95408  21980670.540    90007177.10548
  22325050.200   117319025.42408  22325049.060    91417456.76847
  21949298.880   115344352.14608  21949302.160    89878749.61448
 15 01 29 02 49  0.0000000  0  6G16G18G19G21G22G27
  20738151.280   108979720.24009  20738152.060    84919269.30649
  21669841.380   113875862.03108  21669842.520    88734488.21347
  24031020.440   126283867.88806  24031020.180    98403019.21246
  21991477.140   115565997.79008  21991477.680    90051430.48148
  22309123.260   117235329.62208  22309122.320    91352239.27447
  21938049.260   115285235.16508  21938052.540    89832684.43848
 15 01 29 02 49 30.0000000  0  6G16G18G19G21G22G27
  20731686.960   108945750.16709  20731687.780    84892799.12549
  21665275.480   113851868.11708  21665276.600    88715791.66447
  24016038.140   126205135.47706  24016037.920    98341669.27646
  22002318.360   115622968.67508  22002318.880    90095823.37948
  22293246.100   117151895.68708  22293245.500    91287225.83047
  21926822.060   115226236.03908  21926825.340    89786711.08648
 15 01 29 02 50  0.0000000  0  6G16G18G19G21G22G27
  20725315.740   108912269.24309  20725316.560    84866710.09549
  21660800.320   113828350.75908  21660801.400    88697466.46047
  24001066.380   126126458.31606  24001066.120    98280362.43446
  22013193.240   115680116.37408  22013193.700    90140354.05348
  22277419.120   117068725.13108  22277418.800    91222417.61647
  21915617.180   115167354.49108  21915620.500    89740829.36448
 15 01 29 02 50 30.0000000  0  6G16G18G19G21G22G27
  20719038.020   108879279.51209  20719038.820    84841003.81249
  21656416.080   113805311.14108  21656417.120    88679513.52247
  23986105.260   126047837.26306  23986104.980    98219099.30046
  22024101.580   115737439.87208  22024102.000    90185021.71247
  22261642.920   116985821.07408  22261642.820    91157817.06447
  21904434.940   115108591.58808  21904438.200    89695040.08648
 15 01 29 02 51  0.0000000  0  6G16G18G19G21G22G27
  20712853.940   108846781.71609  20712854.700    84815680.85449
  21652122.740   113782749.51108  21652123.800    88661933.03947
  23971154.720   125969271.66306  23971154.440    98157879.37746
  22035042.920   115794936.82808  22035043.280    90229824.53548
  22245918.040   116903185.85908  22245917.860    91093425.99247
  21893275.340   115049947.40308  21893278.540    89649343.32648
 15 01 29 02 51 30.0000000  0  6G16G18G19G21G22G27
  20706763.820   108814777.69609  20706764.540    84790742.65449
  21647920.600   113760667.12708  21647921.720    88644726.00248
  23956214.840   125890762.01906  23956214.620    98096703.05046
  22046017.020   115852606.15808  22046017.340    90274761.67348
  22230244.820   116820821.89908  22230244.460    91029246.30147
  21882138.460   114991422.53008  21882141.620    89603739.53548
 15 01 29 02 52  0.0000000  0  6G16G18G19G21G22G27
  20700767.880   108783268.73209  20700768.540    84766190.21549
  21643809.620   113739063.62108  21643810.720    88627892.11248
  23941285.580   125812307.87406  23941285.320    98035569.96845
  22057023.420   115910445.17208  22057023.720    90319831.03548
  22214623.520   116738730.89308  22214622.900    90965279.30247
  21871024.240   114933016.67608  21871027.380    89558228.47448
 15 01 29 02 52 30.0000000  0  6G16G18G19G21G22G27
  20694866.800   108752258.42609  20694867.460    84742026.33449
  21639790.520   113717942.93908  21639791.580    88611434.43848
  23926367.240   125733911.37606  23926366.980    97974481.82946
  22068062.240   115968454.46308  22068062.520    90365033.08448
  22199055.000   116656917.61908  22199054.160    90901528.71547
  21859933.160   114874732.58908  21859936.340    89512812.31248
 15 01 29 02 53  0.0000000  0  6G16G18G19G21G22G27
  20689060.640   108721746.94408  20689061.300    84718251.15749
  21635863.180   113697304.35008  21635864.160    88595352.42947
  23911459.680   125655571.46406  23911459.460    97913437.76846
  22079132.900   116026631.14008  22079133.200    90410365.56148
  22183539.540   116575383.44708  22183538.520    90837995.61647
  21848865.100   114816569.63308  21848868.360    89467490.53548
 15 01 29 02 53 30.0000000  0  6G16G18G19G21G22G27
  20683349.340   108691734.14608  20683350.060    84694864.55949
  21632027.500   113677147.43908  21632028.420    88579645.74748
  23896562.760   125577287.41906  23896562.500    97852437.24046
  22090234.880   116084972.63508  22090235.240    90455826.46547
  22168077.400   116494129.95708  22168076.440    90774681.22747
  21837820.000   114758527.28508  21837823.340    89422262.74148
 15 01 29 02 54  0.0000000  0  6G16G18G19G21G22G27
  20677734.200   108662226.57608  20677734.960    84671871.64749
  21628284.440   113657477.25108  21628285.260    88564318.33348
  23881677.180   125499063.58306  23881676.940    97791483.62047
  22101368.760   116143481.63008  22101369.160    90501417.87948
  22152669.860   116413163.65508  22152669.160    90711590.61647
  21826798.780   114700610.30408  21826802.120    89377132.63548
 15 01 29 02 54 30.0000000  0  6G16G18G19G21G22G27
  20672214.880   108633222.57608  20672215.720    84649271.12849
  21624633.480   113638291.33408  21624634.220    88549368.27548
  23866802.400   125420896.64406  23866802.160    97730574.32545
  22112533.520   116202152.84508  22112533.900    90547135.70747
  22137316.840   116332483.67908  22137316.440    90648723.11747
  21815800.880   114642815.97108  21815804.200    89332098.09348
 15 01 29 02 55  0.0000000  0  6G16G18G19G21G22G27
  20666791.820   108604724.19308  20666792.680    84627064.59849
  21621074.980   113619591.48208  21621075.720    88534796.97447
  23851938.700   125342787.80906  23851938.400    97669710.32545
  22123729.080   116260985.85508  22123729.480    90592979.61147
  22122019.060   116252093.61808  22122018.840    90586081.51547
  21804826.620   114585145.76408  21804829.860    89287160.28648
 15 01 29 02 55 30.0000000  0  6G16G18G19G21G22G27
  20661464.960   108576731.40508  20661465.840    84605252.03249
  21617608.820   113601377.06208  21617609.600    88520603.92948
  23837085.940   125264736.22606  23837085.700    97608890.95845
  22134954.880   116319977.96108  22134955.320    90638947.47747
  22106776.660   116171994.11508  22106776.520    90523666.32447
  21793875.840   114527598.96608  21793879.020    89242318.63148
 15 01 29 02 56  0.0000000  0  6G16G18G19G21G22G27
  20656235.160   108549248.85408  20656236.100    84583837.05949
  21614235.600   113583651.06508  21614236.420    88506791.47748
  23822244.560   125186744.56806  23822244.260    97548118.27346
  22146211.100   116379130.01408  22146211.580    90685039.98647
  22091590.740   116092191.17608  22091590.580    90461482.22347
  21782949.140   114470178.84308  21782952.320    89197575.69148
 15 01 29 02 56 30.0000000  0  6G16G18G19G21G22G27
  20651102.380   108522276.05008  20651103.340    84562819.28149
  21610955.260   113566413.19508  21610956.140    88493359.37448
  23807414.280   125108811.33305  23807413.920    97487391.07046
  22157497.120   116438438.71508  22157497.660    90731254.55247
  22076461.320   116012685.34508  22076461.120    90399529.63647
  21772046.380   114412884.37708  21772049.540    89152930.64648
 15 01 29 02 57  0.0000000  0  6G16G18G19G21G22G27
  20646067.020   108495814.93908  20646067.920    84542200.23449
  21607767.980   113549664.37008  21607768.920    88480308.34248
  23792595.340   125030937.30106  23792594.960    97426710.02746
  22168812.820   116497903.43308  22168813.380    90777590.69647
  22061388.900   115933479.31208  22061388.640    90337810.66647
  21761167.720   114355716.66408  21761170.880    89108384.38548
 15 01 29 02 57 30.0000000  0  6G16G18G19G21G22G27
  20641129.440   108469867.74408  20641130.320    84521981.63249
  21604674.040   113533405.88408  21604675.040    88467639.39848
  23777787.740   124953123.41406  23777787.440    97366075.88046
  22180158.080   116557523.14008  22180158.600    90824047.61447
  22046374.160   115854576.48608  22046373.780    90276327.96147
  21750313.420   114298677.01708  21750316.640    89063937.92348
 15 01 29 02 58  0.0000000  0  6G16G18G19G21G22G27
  20636289.380   108444432.74708  20636290.220    84502162.15049
  21601673.100   113517635.84108  21601674.140    88455351.05848
  23762991.240   124875367.33606  23762990.980    97305486.75046
  22191531.980   116617293.33008  22191532.500    90870621.78647
  22031417.060   115775976.66808  22031416.560    90215081.36447
  21739483.120   114241763.35908  21739486.380    89019589.62248
 15 01 29 02 58 30.0000000  0  6G16G18G19G21G22G27
  20631547.600   108419514.39908  20631548.420    84482745.25749
  21598765.780   113502357.44508  21598766.820    88443445.81948
  23748206.260   124797671.74506  23748205.980    97244944.75146
  22202934.720   116677214.99608  22202935.220    90917313.99447
  22016518.520   115697684.53508  22016517.920    90154074.51547
  21728677.380   114184978.89308  21728680.660    88975341.99248
 15 01 29 02 59  0.0000000  0  6G16G18G19G21G22G27
  20626904.120   108395112.84108  20626904.980    84463731.05749
  21595951.940   113487569.94608  21595952.920    88431923.09948
  23733432.620   124720035.61606  23733432.360    97184449.09946
  22214365.820   116737285.61908  22214366.320    90964122.26847
  22001678.800   115619701.28308  22001678.180    90093308.35747
  21717896.100   114128322.88708  21717899.360    88931194.46348
 15 01 29 02 59 30.0000000  0  6G16G18G19G21G22G27
  20622359.340   108371230.00108  20622360.260    84445121.05149
  21593231.780   113473274.86508  21593232.700    88420784.08548
  23718670.540   124642460.12106  23718670.220    97124000.67745
  22225825.180   116797504.55808  22225825.640    91011046.10847
  21986898.680   115542030.93908  21986898.060    90032786.01947
  21707139.640   114071797.06908  21707142.820    88887148.37648
 15 01 29 03 00  0.0000000  0  6G16G18G19G21G22G27
  20617913.900   108347869.03208  20617914.820    84426917.69349
  21590605.620   113459474.24308  21590606.520    88410030.36448
  23703920.280   124564946.72906  23703919.920    97063600.65846
  22237312.640   116857871.27908  22237313.060    91058085.11947
  21972178.780   115464676.79108  21972178.160    89972510.06847
  21696408.300   114015403.33708  21696411.420    88843205.21348
 15 01 29 03 00 30.0000000  0  6G16G18G19G21G22G27
  20613567.780   108325029.80508  20613568.640    84409120.88849
  21588073.400   113446167.74708  21588074.340    88399661.68048
  23689181.720   124487494.84806  23689181.320    97003248.56746
  22248827.840   116918383.67708  22248828.200    91105237.63547
  21957519.300   115387640.24408  21957518.720    89912481.60247
  21685702.020   113959141.43708  21685705.100    88799364.77448
 15 01 29 03 01  0.0000000  0  6G16G18G19G21G22G27
  20609321.280   108302713.97309  20609322.040    84391731.92249
  21585635.340   113433356.13908  21585636.360    88389678.62147
  23674454.960   124410105.22806  23674454.560    96942944.96946
  22260370.460   116979040.36808  22260370.820    91152502.58747
  21942920.740   115310923.94108  21942920.160    89852702.67747
  21675021.000   113903012.33508  21675024.060    88755627.81848
 15 01 29 03 01 30.0000000  0  6G16G18G19G21G22G27
  20605174.980   108280924.72009  20605175.660    84374753.27749
  21583291.840   113421041.36508  21583292.920    88380082.69748
  23659740.240   124332779.10206  23659739.880    96882690.86246
  22271940.460   117039841.01508  22271940.800    91199879.72147
  21928383.840   115234531.89508  21928383.220    89793176.40747
  21664365.620   113847018.06908  21664368.700    88711995.93048
 15 01 29 03 02  0.0000000  0  6G16G18G19G21G22G27
  20601128.280   108259658.79508  20601128.880    84358182.41649
  21581042.340   113409220.43608  21581043.480    88370871.59648
  23645037.060   124255513.74006  23645036.800    96822484.11145
  22283537.000   117100781.20208  22283537.360    91247365.57747
  21913908.440   115158463.24408  21913907.800    89733902.14647
  21653735.360   113791155.98808  21653738.480    88668467.04948
 15 01 29 03 02 30.0000000  0  6G16G18G19G21G22G27
  20597181.560   108238918.74108  20597182.160    84342021.32949
  21578886.880   113397893.64608  21578888.040    88362045.53448
  23630345.540   124178309.46006  23630345.320    96762324.95645
  22295159.680   117161858.92408  22295160.100    91294958.60547
  21899494.960   115082720.19508  21899494.260    89674881.60547
  21643130.400   113735426.73908  21643133.560    88625041.66248
 15 01 29 03 03  0.0000000  0  6G16G18G19G21G22G27
  20593335.840   108218709.62508  20593336.500    84326273.96249
  21576826.400   113387065.69308  21576827.540    88353608.17248
  23615666.480   124101170.30306  23615666.220    96702216.54146
  22306809.200   117223077.62508  22306809.640    91342661.48147
  21885144.660   115007309.38008  21885143.920    89616119.94547
  21632551.660   113679835.15908  21632554.860    88581723.55148
 15 01 29 03 03 30.0000000  0  6G16G18G19G21G22G27
  20589590.780   108199029.34408  20589591.500    84310938.67249
  21574860.400   113376733.85708  21574861.440    88345557.40148
  23600999.280   124024093.72006  23600999.020    96642156.85346
  22318484.580   117284432.04808  22318485.040    91390470.11847
  21870857.520   114932230.06008  21870856.700    89557616.59347
  21621998.660   113624378.85408  21622001.900    88538510.84648
 15 01 29 03 04  0.0000000  0  6G16G18G19G21G22G27
  20585946.600   108179878.97508  20585947.360    84296016.30449
  21572989.120   113366899.73808  21572990.060    88337894.45648
  23586344.140   123947080.61006  23586343.900    96582146.66146
  22330185.560   117345921.29408  22330186.020    91438383.80647
  21856634.040   114857485.13108  21856633.180    89499373.81047
  21611471.660   113569059.26108  21611474.920    88495404.67448
 15 01 29 03 04 30.0000000  0  6G16G18G19G21G22G27
  20582403.920   108161261.98408  20582404.700    84281509.55449
  21571212.700   113357564.31808  21571213.580    88330620.10848
  23571701.320   123870132.15606  23571701.100    96522186.85346
  22341912.160   117407545.18008  22341912.640    91486402.41247
  21842474.840   114783077.92508  21842473.980    89441394.18148
  21600971.000   113513877.81808  21600974.260    88452406.15748
 15 01 29 03 05  0.0000000  0  6G16G18G19G21G22G27
  20578963.080   108143180.30608  20578963.860    84267419.93149
  21569531.360   113348728.82208  21569532.260    88323735.31848
  23557071.020   123793249.60006  23557070.800    96462278.37546
  22353664.220   117469303.01608  22353664.760    91534525.38947
  21828380.520   114709011.77908  21828379.740    89383680.31748
  21590496.980   113458836.30008  21590500.240    88409516.66548
 15 01 29 03 05 30.0000000  0  6G16G18G19G21G22G27
  20575623.980   108125633.17208  20575624.760    84253746.83749
  21567944.960   113340392.36708  21567945.940    88317239.39048
  23542453.000   123716431.87506  23542452.880    96402420.42446
  22365441.240   117531191.85308  22365441.780    91582750.45047
  21814351.160   114635287.34708  21814350.500    89326232.72048
  21580049.460   113403933.95708  21580052.740    88366735.62548
 15 01 29 03 06  0.0000000  0  6G16G18G19G21G22G27
  20572386.700   108108621.03008  20572387.440    84240490.61749
  21566453.420   113332554.45808  21566454.480    88311131.93748
  23527847.320   123639678.59506  23527847.200    96342612.67846
  22377242.800   117593209.57408  22377243.320    91631075.94647
  21800387.200   114561906.60408  21800386.640    89269052.92748
  21569628.440   113349170.94108  21569631.700    88324063.15048
 15 01 29 03 06 30.0000000  0  6G16G18G19G21G22G27
  20569251.660   108092146.16808  20569252.380    84227653.05449
  21565057.120   113325217.11808  21565058.260    88305414.53648
  23513254.220   123562991.34007  23513254.100    96282856.39846
  22389068.900   117655356.08908  22389069.420    91679501.78947
  21786489.340   114488873.41708  21786488.900    89212143.95448
  21559234.340   113294549.50308  21559237.580    88281500.99148
 15 01 29 03 07  0.0000000  0  6G16G18G19G21G22G27
  20566218.900   108076208.74408  20566219.580    84215234.28449
  21563755.680   113318378.48508  21563756.880    88300085.73848
  23498673.600   123486369.22807  23498673.360    96223150.86946
  22400918.920   117717628.36408  22400919.440    91728025.63247
  21772657.780   114416188.43808  21772657.400    89155506.32048
  21548866.960   113240068.69508  21548870.180    88239048.41248
 15 01 29 03 07 30.0000000  0  6G16G18G19G21G22G27
  20563288.600   108060809.79008  20563289.260    84203235.09749
  21562549.300   113312039.20708  21562550.500    88295146.04748
  23484105.500   123409812.62907  23484105.080    96163496.39446
  22412792.680   117780025.33108  22412793.220    91776646.64147
  21758892.960   114343853.71308  21758892.480    89099141.61647
  21538526.460   113185729.20608  21538529.700    88196705.96148
 15 01 29 03 08  0.0000000  0  6G16G18G19G21G22G27
  20560461.200   108045951.79208  20560461.880    84191657.43649
  21561438.360   113306201.44608  21561439.580    88290597.14648
  23469550.140   123333323.41207  23469549.580    96103894.40746
  22424690.180   117842547.02908  22424690.740    91825364.84147
  21745195.720   114271873.79208  21745195.020    89043053.37848
  21528213.380   113131533.88908  21528216.680    88154475.84948
 15 01 29 03 08 30.0000000  0  6G16G18G19G21G22G27
  20557737.020   108031636.40508  20557737.760    84180502.58349
  21560422.980   113300865.84308  21560424.200    88286439.54448
  23455007.680   123256902.16107  23455007.100    96044345.39046
  22436611.280   117905192.56108  22436611.800    91874179.54547
  21731566.500   114200251.03308  21731565.540    88987243.45447
  21517927.920   113077483.64708  21517931.260    88112358.78248
 15 01 29 03 09  0.0000000  0  6G16G18G19G21G22G27
  20555116.180   108017863.99008  20555116.960    84169770.82949
  21559503.060   113296031.83008  21559504.260    88282672.78548
  23440478.060   123180548.41107  23440477.480    95984848.97846
  22448555.480   117967959.82408  22448556.000    91923089.09347
  21718005.520   114128987.11808  21718004.420    88931713.15048
  21507670.120   113023578.58108  21507673.440    88070354.83448
 15 01 29 03 09 30.0000000  0  6G16G18G19G21G22G27
  20552598.880   108004635.82308  20552599.720    84159463.16249
  21558678.780   113291700.17308  21558679.960    88279297.48048
  23425961.600   123104263.65507  23425961.020    95925406.31546
  22460522.560   118030847.67208  22460523.120    91972092.60647
  21704513.240   114058084.53808  21704512.100    88876464.40048
  21497440.220   112969820.05408  21497443.520    88028465.07948
 15 01 29 03 10  0.0000000  0  6G16G18G19G21G22G27
  20550185.340   107991952.79208  20550186.220    84149580.28349
  21557950.100   113287870.62908  21557951.240    88276313.42848
  23411458.220   123028047.63707  23411457.620    95866017.20846
  22472512.340   118093854.73508  22472512.920    92021189.01347
  21691090.040   113987545.53208  21691089.020    88821498.94948
  21487238.300   112916208.54208  21487241.540    87986689.87548
 15 01 29 03 10 30.0000000  0  6G16G18G19G21G22G27
  20547875.700   107979815.63608  20547876.600    84140122.75749
  21557317.060   113284543.48708  21557318.140    88273720.85448
  23396967.920   122951900.89107  23396967.340    95806682.10146
  22484524.520   118156979.32208  22484525.120    92070376.99347
  21677736.400   113917372.25508  21677735.580    88766818.48448
  21477064.500   112862744.87608  21477067.740    87945029.87748
 15 01 29 03 11  0.0000000  0  6G16G18G19G21G22G27
  20545670.360   107968226.32508  20545671.240    84131092.12549
  21556779.860   113281719.94408  21556780.840    88271520.70048
  23382491.020   122875824.53007  23382490.440    95747401.83346
  22496559.120   118220221.38808  22496559.700    92119656.52347
  21664453.020   113847568.00108  21664452.320    88712425.55648
  21466919.220   112809430.95908  21466922.440    87903486.56848
 15 01 29 03 11 30.0000000  0  6G16G18G19G21G22G27
  20543569.080   107957183.80108  20543569.900    84122487.55749
  21556338.080   113279397.91708  21556338.980    88269711.32548
  23368027.200   122799817.02207  23368026.620    95688175.20546
  22508615.340   118283577.13408  22508615.920    92169024.63047
  21651239.940   113778132.91208  21651239.300    88658320.29748
  21456802.140   112756265.39208  21456805.340    87862058.85348
 15 01 29 03 12  0.0000000  0  6G16G18G19G21G22G27
  20541572.320   107946690.55708  20541573.080    84114310.99849
  21555992.040   113277579.14708  21555992.900    88268294.09948
  23353576.800   122723880.23507  23353576.260    95629003.67746
  22520693.260   118347046.81108  22520693.820    92218481.51747
  21638097.980   113709071.31208  21638097.340    88604506.07148
  21446713.740   112703250.67608  21446716.960    87820748.68748
 15 01 29 03 12 30.0000000  0  6G16G18G19G21G22G27
  20539680.400   107936748.40608  20539681.160    84106563.86549
  21555741.820   113276264.21608  21555742.700    88267269.48048
  23339140.000   122648015.17207  23339139.520    95569888.04546
  22532792.680   118410629.65308  22532793.280    92268026.57947
  21625027.540   113640385.43408  21625026.860    88550984.62048
  21436654.300   112650388.10208  21436657.540    87779557.08148
 15 01 29 03 13  0.0000000  0  6G16G18G19G21G22G27
  20537893.040   107927355.68108  20537893.800    84099244.85849
  21555587.100   113275451.39308  21555588.020    88266636.11748
  23324716.660   122572220.39507  23324716.200    95510827.20546
  22544913.120   118474322.73208  22544913.680    92317657.54147
  21612028.560   113572075.48308  21612027.860    88497756.09948
  21426623.600   112597676.57008  21426626.880    87738483.16648
 15 01 29 03 13 30.0000000  0  6G16G18G19G21G22G27
  20536210.620   107918514.68608  20536211.440    84092355.76449
  21555528.060   113275141.49308  21555529.020    88266394.64148
  23310306.920   122496496.93107  23310306.460    95451821.90646
  22557054.420   118538125.40308  22557054.920    92367373.90847
  21599101.720   113504144.70408  21599101.000    88444823.03448
  21416622.040   112545118.02508  21416625.340    87697528.47048
 15 01 29 03 14  0.0000000  0  6G16G18G19G21G22G27
  20534633.440   107910226.75708  20534634.320    84085897.63549
  21555564.960   113275335.83008  21555565.980    88266546.08048
  23295911.100   122420846.50807  23295910.700    95392873.52246
  22569216.480   118602037.14708  22569216.920    92417175.26747
  21586247.620   113436596.41708  21586246.960    88392188.01848
  21406649.980   112492714.29908  21406653.240    87656694.40448
 15 01 29 03 14 30.0000000  0  6G16G18G19G21G22G27
  20533161.420   107902491.37308  20533162.320    84079870.06249
  21555697.420   113276032.18508  21555698.480    88267088.70348
  23281529.020   122345267.86707  23281528.620    95333981.08846
  22581398.640   118666054.53308  22581399.000    92467058.94247
  21573466.420   113369430.92408  21573465.780    88339851.28248
  21396707.200   112440464.36409  21396710.380    87615980.16548
 15 01 29 03 15  0.0000000  0  6G16G18G19G21G22G27
  20531794.520   107895308.26508  20531795.440    84074272.83549
  21555925.460   113277230.67508  21555926.540    88268022.59748
  23267160.640   122269760.95307  23267160.180    95275144.54546
  22593600.680   118730176.34108  22593601.000    92517023.98847
  21560758.460   113302650.08308  21560757.800    88287814.26748
  21386793.780   112388368.75409  21386796.860    87575386.18748
 15 01 29 03 15 30.0000000  0  6G16G18G19G21G22G27
  20530533.680   107888682.34108  20530534.580    84069109.76949
  21556249.600   113278934.29108  21556250.760    88269350.10148
  23252806.520   122194329.01807  23252806.000    95216366.42247
  22605822.880   118794404.46008  22605823.220    92567071.86647
  21548124.720   113236259.07608  21548124.000    88236081.02148
  21376910.480   112336431.63308  21376913.520    87534915.70548
 15 01 29 03 16  0.0000000  0  6G16G18G19G21G22G27
  20529378.660   107882612.38608  20529379.540    84064379.92849
  21556669.640   113281141.70108  21556670.840    88271070.16448
  23238466.560   122118971.75707  23238466.040    95157646.49946
  22618064.780   118858736.12608  22618065.160    92617200.43147
  21535565.420   113170258.87008  21535564.560    88184652.29248
  21367057.220   112284652.54409  21367060.280    87494568.36948
 15 01 29 03 16 30.0000000  0  6G16G18G19G21G22G27
  20528329.380   107877098.31908  20528330.220    84060083.24849
  21557185.360   113283851.89308  21557186.620    88273182.00748
  23224140.680   122043688.61507  23224140.120    95098984.33346
  22630325.940   118923169.37408  22630326.400    92667408.16347
  21523080.740   113104650.79008  21523079.780    88133529.12348
  21357234.080   112233031.69008  21357237.160    87454344.33148
 15 01 29 03 17  0.0000000  0  6G16G18G19G21G22G27
  20527386.480   107872143.24108  20527387.280    84056222.14449
  21557797.120   113287066.77708  21557798.420    88275687.12548
  23209829.340   121968482.06307  23209828.760    95040381.85246
  22642606.520   118987704.75707  22642607.080    92717695.46847
  21510671.420   113039439.02708  21510670.420    88082714.77048
  21347441.560   112181571.84909  21347444.660    87414245.76248
 15 01 29 03 17 30.0000000  0  6G16G18G19G21G22G27
  20526549.860   107867746.88608  20526550.660    84052796.40749
  21558504.760   113290785.39708  21558506.020    88278584.75448
  23195532.440   121893351.50207  23195531.860    94981838.56946
  22654906.100   119052340.08507  22654906.800    92768060.65147
  21498337.620   112974624.45508  21498336.640    88032209.92148
  21337679.720   112130272.98709  21337682.780    87374272.63348
 15 01 29 03 18  0.0000000  0  6G16G18G19G21G22G27
  20525819.520   107863909.06308  20525820.360    84049805.88949
  21559308.200   113295007.48508  21559309.420    88281874.69848
  23181250.080   121818297.50907  23181249.560    94923354.95146
  22667224.440   119117073.78707  22667225.200    92818502.48946
  21486079.760   112910209.20208  21486078.820    87982016.23248
  21327948.660   112079135.73209  21327951.680    87334425.42248
 15 01 29 03 18 30.0000000  0  6G16G18G19G21G22G27
  20525195.780   107860631.36908  20525196.640    84047251.83349
  21560207.440   113299733.04408  21560208.600    88285556.95848
  23166982.300   121743320.25807  23166981.820    94864931.14346
  22679561.400   119181905.15707  22679562.180    92869020.42747
  21473898.300   112846195.64408  21473897.440    87932135.54848
  21318248.600   112028161.32009  21318251.580    87294705.10548
 15 01 29 03 19  0.0000000  0  6G16G18G19G21G22G27
  20524678.360   107857912.15108  20524679.180    84045132.96049
  21561202.180   113304960.42708  21561203.260    88289630.24648
  23152728.980   121668418.77107  23152728.500    94806566.35947
  22691916.320   119246830.71608  22691917.100    92919611.76146
  21461793.360   112782584.18408  21461792.580    87882568.18848
  21308579.380   111977349.12609  21308582.380    87255111.19448
 15 01 29 03 19 30.0000000  0  6G16G18G19G21G22G27
  20524267.920   107855755.00308  20524268.680    84043452.05849
  21562292.920   113310692.24708  21562293.920    88294096.60748
  23138490.740   121593596.71707  23138490.300    94748263.45346
  22704289.660   119311852.51008  22704290.340    92970278.09647
  21449765.840   112719379.60208  21449765.160    87833317.87748
  21298941.740   111926702.86609  21298944.720    87215646.57748
 15 01 29 03 20  0.0000000  0  6G16G18G19G21G22G27
  20523964.660   107854161.08008  20523965.360    84042210.03049
  21563479.480   113316927.44908  21563480.400    88298955.21448
  23124267.560   121518853.93707  23124267.180    94690022.34146
  22716680.980   119376968.79708  22716681.600    93021018.04246
  21437816.040   112656583.46008  21437815.440    87784385.82648
  21289335.760   111876223.00809  21289338.700    87176311.63148
 15 01 29 03 20 30.0000000  0  6G16G18G19G21G22G27
  20523767.960   107853127.33008  20523768.680    84041404.50249
  21564761.260   113323663.20608  21564762.160    88304203.86448
  23110059.080   121444188.08407  23110058.740    94631841.16246
  22729089.480   119442175.18208  22729090.040    93071828.20647
  21425943.860   112594194.85908  21425943.280    87735771.34248
  21279761.060   111825907.72009  21279764.000    87137104.91548
 15 01 29 03 21  0.0000000  0  6G16G18G19G21G22G27
  20523678.100   107852655.12108  20523678.840    84041036.54349
  21566138.540   113330900.63308  21566139.420    88309843.42448
  23095865.620   121369601.05907  23095865.300    94573721.40246
  22741515.220   119507472.15608  22741515.680    93122708.95747
  21414149.980   112532217.50408  21414149.380    87687477.30648
  21270218.100   111775759.24709  21270221.060    87098028.18948
 15 01 29 03 21 30.0000000  0  6G16G18G19G21G22G27
  20523695.100   107852744.56908  20523695.880    84041106.23349
  21567611.140   113338639.09808  21567612.020    88315873.40148
  23081687.180   121295092.86907  23081686.880    94515663.08546
  22753957.740   119572857.66208  22753958.180    93173658.68547
  21402434.620   112470652.68308  21402433.940    87639504.72248
  21260706.940   111725778.05609  21260710.000    87059081.81349
 15 01 29 03 22  0.0000000  0  6G16G18G19G21G22G27
  20523819.920   107853400.51308  20523820.700    84041617.35249
  21569179.660   113346881.81108  21569180.560    88322296.29848
  23067524.480   121220667.40507  23067524.160    94457669.21346
  22766417.520   119638334.07208  22766417.920    93224679.25446
  21390798.800   112409505.88608  21390798.020    87591857.87748
  21251228.480   111675968.60709  21251231.580    87020269.25948
 15 01 29 03 22 30.0000000  0  6G16G18G19G21G22G27
  20524052.320   107854621.67908  20524053.080    84042568.90149
  21570843.800   113355627.10708  21570844.740    88329110.81648
  23053377.380   121146323.72707  23053377.040    94399739.08646
  22778894.040   119703898.74508  22778894.420    93275768.59947
  21379242.640   112348777.66408  21379241.780    87544537.18748
  21241782.660   111626330.60909  21241785.760    86981590.30348
 15 01 29 03 23  0.0000000  0  6G16G18G19G21G22G27
  20524391.940   107856406.25708  20524392.660    84043959.47549
  21572603.140   113364872.53808  21572604.080    88336315.05448
  23039245.640   121072060.68007  23039245.240    94341871.78546
  22791386.760   119769548.59708  22791387.140    93326924.31846
  21367766.160   112288468.23108  21367765.260    87497542.82748
  21232369.280   111576862.97909  21232372.360    86943044.09648
 15 01 29 03 23 30.0000000  0  6G16G18G19G21G22G27
  20524839.060   107858755.78608  20524839.780    84045790.26949
  21574457.860   113374619.32008  21574458.820    88343909.95348
  23025129.600   120997880.07907  23025129.140    94284068.72146
  22803895.660   119835283.52608  22803896.080    93378146.33646
  21356369.960   112228580.82708  21356369.020    87450877.33248
  21222988.720   111527568.02909  21222991.840    86904632.45348
 15 01 29 03 24  0.0000000  0  6G16G18G19G21G22G27
  20525393.720   107861670.55208  20525394.440    84048061.50949
  21576407.720   113384866.14008  21576408.740    88351894.49348
  23011029.160   120923781.54007  23011028.700    94226329.62347
  22816420.420   119901101.79207  22816420.880    93429433.29346
  21345054.260   112169116.52708  21345053.300    87404541.53148
  21213641.080   111478445.96209  21213644.220    86866355.52248
 15 01 29 03 24 30.0000000  0  6G16G18G19G21G22G27
  20526056.380   107865152.93308  20526057.140    84050775.04249
  21578453.120   113395614.84708  21578454.200    88360270.11348
  22996944.900   120849768.13107  22996944.480    94168656.85147
  22828961.200   119967004.28207  22828961.680    93480785.87446
  21333819.860   112110079.58008  21333818.920    87358538.72348
  21204326.980   111429500.08109  21204330.120    86828215.87749
 15 01 29 03 25  0.0000000  0  6G16G18G19G21G22G27
  20526826.960   107869202.36608  20526827.760    84053930.43849
  21580593.820   113406864.35908  21580594.940    88369035.97148
  22982876.720   120775839.32307  22982876.360    94111049.99347
  22841517.660   120032989.03007  22841518.140    93532202.55346
  21322666.980   112051470.91808  21322666.060    87312869.64448
  21195046.480   111380730.61709  21195049.560    86790213.70548
 15 01 29 03 25 30.0000000  0  6G16G18G19G21G22G27
  20527705.460   107873818.75908  20527706.260    84057527.62449
  21582829.600   113418613.48408  21582830.740    88378191.13448
  22968824.640   120701995.04707  22968824.280    94053509.01146
  22854089.440   120099054.29007  22854089.900    93583681.96846
  21311595.820   111993291.69508  21311594.940    87267535.18748
  21185799.580   111332137.70309  21185802.620    86752349.10549
 15 01 29 03 26  0.0000000  0  6G16G18G19G21G22G27
  20528691.860   107879002.17408  20528692.640    84061566.64249
  21585160.360   113430861.72608  21585161.440    88387735.22748
  22954788.760   120628235.87308  22954788.380    93996034.34746
  22866676.340   120165199.04307  22866676.840    93635223.31846
  21300606.740   111935543.85808  21300605.920    87222536.88048
  21176586.480   111283722.62209  21176589.520    86714623.06849
 15 01 29 03 26 30.0000000  0  7G04G16G18G19G21G22G27
  24557023.360   129048030.57506  24557027.380   100556923.80044
  20529786.180   107884752.96408  20529787.000    84066047.76949
  21587586.060   113443608.99708  21587587.060    88397668.17048
  22940769.280   120554563.08207  22940768.900    93938626.97347
  22879278.180   120231422.07507  22879278.700    93686825.67246
  21289700.180   111878229.55708  21289699.380    87177876.39848
  21167407.460   111235486.64909  21167410.520    86677036.60849
 15 01 29 03 27  0.0000000  0  7G04G16G18G19G21G22G27
  24538730.740   128951903.31906  24538734.840   100482019.70545
  20530995.620   107891108.79308  20530996.480    84071000.35749
  21590113.620   113456891.51908  21590114.580    88408018.18748
  22926773.280   120481013.59507  22926772.840    93881315.68547
  22891901.740   120297759.30507  22891902.280    93738516.99346
  21278883.480   111821387.51708  21278882.640    87133583.91448
  21158269.760   111187467.60409  21158272.800    86639619.17249
 15 01 29 03 27 30.0000000  0  7G04G16G18G19G21G22G27
  24520458.080   128855881.55106  24520462.360   100407197.77544
  20532306.260   107897996.32608  20532307.120    84076367.26249
  21592729.100   113470635.88108  21592730.000    88418728.09048
  22912786.900   120407514.70907  22912786.440    93824043.85046
  22904532.800   120364135.68408  22904533.280    93790238.84946
  21268143.100   111764946.55208  21268142.220    87089603.95148
  21149159.540   111139593.09609  21149162.600    86602314.36649
 15 01 29 03 28  0.0000000  0  7G04G16G18G19G21G22G27
  24502212.760   128760003.04805  24502217.380   100332487.48945
  20533725.180   107905452.66708  20533726.000    84082177.39449
  21595439.380   113484878.15108  21595440.180    88429825.96548
  22898817.260   120334104.09707  22898816.840    93766840.78847
  22917178.240   120430587.55407  22917178.660    93842019.50946
  21257486.380   111708945.35008  21257485.500    87045966.65948
  21140084.080   111091901.34509  21140087.180    86565151.96549
 15 01 29 03 28 30.0000000  0  7G04G16G18G19G21G22G27
  24483994.680   128664267.18706  24483999.320   100257888.35445
  20535252.080   107913476.30208  20535252.800    84088429.57349
  21598244.040   113499616.49208  21598244.780    88441310.39748
  22884864.340   120260781.15707  22884863.920    93709706.01847
  22929837.560   120497112.57007  22929837.940    93893857.17746
  21246913.360   111653383.98608  21246912.500    87002672.09848
  21131043.320   111044391.87709  21131046.460    86528131.60349
 15 01 29 03 29  0.0000000  0  7G04G16G18G19G21G22G27
  24465804.220   128568675.72206  24465808.660   100183401.71544
  20536887.300   107922069.28908  20536887.960    84095125.39849
  21601143.160   113514851.23108  21601143.900    88453181.62048
  22870928.340   120187547.33807  22870927.980    93652640.70647
  22942510.720   120563710.49307  22942511.100    93945751.65146
  21236424.640   111598265.44008  21236423.760    86959722.59048
  21122037.620   110997066.78009  21122040.780    86491254.91449
 15 01 29 03 29 30.0000000  0  7G04G16G18G19G21G22G27
  24447641.400   128473229.12806  24447645.500   100109027.94444
  20538630.700   107931230.89708  20538631.340    84102264.30549
  21604136.480   113530581.46508  21604137.300    88465438.95148
  22857009.380   120114402.79107  22857009.040    93595644.96747
  22955197.480   120630379.62007  22955197.840    93997701.62046
  21226020.460   111543591.07608  21226019.580    86917119.19648
  21113067.140   110949926.67409  21113070.300    86454522.36249
 15 01 29 03 30  0.0000000  0  7G04G16G18G19G21G22G27
  24429506.600   128377929.92706  24429510.480   100034769.05045
  20540482.600   107940962.75508  20540483.260    84109847.56549
  21607224.300   113546808.37108  21607225.240    88478083.29348
  22843107.900   120041349.85207  22843107.520    93538720.60147
  22967897.880   120697120.41007  22967898.220    94049707.41846
  21215701.460   111489364.32308  21215700.600    86874864.59548
  21104132.360   110902974.22509  21104135.480    86417936.04049
 15 01 29 03 30 30.0000000  0  7G04G16G18G19G21G22G27
  24411399.720   128282777.51707  24411403.420    99960624.50744
  20542442.820   107951263.73608  20542443.460    84117874.29549
  21610406.280   113563530.21208  21610407.340    88491113.30548
  22829223.720   119968387.94907  22829223.340    93481867.16246
  22980611.460   120763930.53507  22980611.780    94101767.23946
  21205467.740   111435585.57008  21205466.860    86832959.08148
  21095233.300   110856209.36509  21095236.380    86381495.88949
 15 01 29 03 31  0.0000000  0  7G04G16G18G19G21G22G27
  24393321.160   128187774.58206  24393324.860    99886596.42245
  20544511.660   107962135.56908  20544512.300    84126345.84149
  21613682.620   113580747.63208  21613683.740    88504529.48148
  22815357.280   119895519.25707  22815356.860    93425086.38247
  22993338.340   120830810.66407  22993338.680    94153881.61946
  21195319.860   111382258.17408  21195319.020    86791405.28148
  21086370.460   110809634.81009  21086373.540    86345204.03149
 15 01 29 03 31 30.0000000  0  7G04G16G18G19G21G22G27
  24375270.960   128092921.26006  24375274.700    99812684.90944
  20546689.100   107973578.02508  20546689.780    84135262.03049
  21617053.100   113598459.59508  21617054.220    88518331.01248
  22801508.520   119822743.72407  22801508.100    93368378.17447
  23006078.180   120897759.14907  23006078.580    94206049.26146
  21185258.060   111329383.40808  21185257.300    86750204.17248
  21077543.920   110763250.98809  21077547.000    86309060.79449
 15 01 29 03 32  0.0000000  0  7G04G16G18G19G21G22G27
  24357249.140   127998217.20706  24357252.920    99738889.70344
  20548974.880   107985589.76708  20548975.580    84144621.82149
  21620517.380   113616664.41208  21620518.440    88532516.59048
  22787677.500   119750061.25507  22787677.040    93311742.48046
  23018830.620   120964773.73407  23018831.040    94258268.41446
  21175282.520   111276961.84608  21175281.800    86709356.22248
  21068753.700   110717057.98609  21068756.760    86273066.24949
 15 01 29 03 32 30.0000000  0  7G04G16G18G19G21G22G27
  24339256.180   127903665.28006  24339260.060    99665213.02644
  20551369.440   107998173.08308  20551370.140    84154426.99749
  21624075.720   113635363.64408  21624076.720    88547087.42648
  22773864.700   119677474.40608  22773864.200    93255181.30146
  23031595.780   121031855.36207  23031596.240    94310539.80346
  21165393.980   111224997.25408  21165393.200    86668864.33948
  21060000.440   110671059.00709  21060003.460    86237222.89449
 15 01 29 03 33  0.0000000  0  7G04G16G18G19G21G22G27
  24321291.820   127809263.69406  24321295.680    99591653.50444
  20553872.220   108011325.38308  20553872.980    84164675.54049
  21627727.460   113654553.69808  21627728.400    88562040.72248
  22760069.720   119604981.17408  22760069.180    93198693.07846
  23044372.960   121099000.56607  23044373.500    94362860.73146
  21155592.280   111173488.55809  21155591.380    86628727.69948
  21051283.780   110625252.55509  21051286.820    86201529.55249
 15 01 29 03 33 30.0000000  0  7G04G16G18G19G21G22G27
  24303356.520   127715014.34906  24303360.320    99518212.59944
  20556483.540   108025048.02808  20556484.340    84175368.50049
  21631472.780   113674235.29308  21631473.560    88577377.03648
  22746293.000   119532583.90608  22746292.440    93142279.62547
  23057162.180   121166209.42007  23057162.880    94415231.25646
  21145877.940   111122438.68709  21145876.920    86588948.58448
  21042604.220   110579641.02309  21042607.260    86165988.09949
 15 01 29 03 34  0.0000000  0  7G04G16G18G19G21G22G27
  24285450.160   127620916.65406  24285453.940    99444889.86744
  20559203.020   108039339.03108  20559203.800    84186504.34349
  21635311.140   113694406.00908  21635311.860    88593094.48447
  22732534.300   119460281.38908  22732533.740    93085940.01547
  23069963.120   121233479.41507  23069963.960    94467649.42846
  21136250.940   111071848.03509  21136249.860    86549527.30348
  21033961.620   110534223.90909  21033964.660    86130598.14149
 15 01 29 03 34 30.0000000  0  7G04G16G18G19G21G22G27
  24267573.120   127526972.50606  24267576.820    99371686.76245
  20562030.880   108054199.60208  20562031.660    84198084.00449
  21639242.680   113715066.37008  21639243.340    88609193.47748
  22718793.980   119388075.34908  22718793.420    93029675.58347
  23082775.720   121300810.59207  23082776.680    94520115.27446
  21126711.760   111021719.01909  21126710.680    86510465.74148
  21025356.420   110489003.51409  21025359.480    86095361.47249
 15 01 29 03 35  0.0000000  0  7G04G16G18G19G21G22G27
  24249725.500   127433182.37806  24249729.080    99298603.66645
  20564967.020   108069629.23508  20564967.800    84210107.08449
  21643267.140   113736215.10808  21643267.780    88625673.01848
  22705072.080   119315966.44608  22705071.560    92973486.83647
  23095599.820   121368201.62207  23095600.680    94572627.75846
  21117260.600   110972053.07409  21117259.600    86471765.00948
  21016788.860   110443980.68809  21016791.900    86060278.74649
 15 01 29 03 35 30.0000000  0  7G04G16G18G19G21G22G27
  24231907.360   127339546.92606  24231910.780    99225641.09545
  20568011.500   108085628.08508  20568012.280    84222573.71749
  21647384.460   113757851.77308  21647385.120    88642532.76548
  22691368.760   119243955.22608  22691368.300    92917374.21347
  23108435.200   121435651.57007  23108435.920    94625186.15646
  21107897.840   110922851.93508  21107896.960    86433426.45948
  21008259.140   110399156.66409  21008262.180    86025350.93849
 15 01 29 03 36  0.0000000  0  7G04G16G18G19G21G22G27
  24214119.020   127246067.80907  24214122.320    99152800.32345
  20571164.440   108102196.80508  20571165.220    84235484.39949
  21651594.620   113779976.18708  21651595.320    88659772.56848
  22677684.340   119172043.29508  22677683.920    92861338.95547
  23121281.800   121503160.10807  23121282.400    94677790.19746
  21098623.940   110874117.80608  21098623.160    86395451.81448
  20999767.560   110354533.20209  20999770.620    85990579.41349
 15 01 29 03 36 30.0000000  0  7G04G16G18G19G21G22G27
  24196360.640   127152746.63506  24196363.900    99080082.62345
  20574425.920   108119335.98708  20574426.700    84248839.60049
  21655897.500   113802587.65908  21655898.220    88677391.90348
  22664019.140   119100232.26108  22664018.740    92805382.31547
  23134139.520   121570727.06807  23134140.020    94730439.75846
  21089439.400   110825853.19208  21089438.660    86357843.02548
  20991314.520   110310112.30609  20991317.580    85955965.73049
 15 01 29 03 37  0.0000000  0  7G04G16G18G19G21G22G27
  24178632.260   127059583.75506  24178635.540    99007488.26644
  20577795.880   108137045.16508  20577796.620    84262638.94949
  21660293.000   113825685.93808  21660293.740    88695390.56248
  22650373.160   119028522.32208  22650372.800    92749504.44747
  23147008.080   121638351.03207  23147008.480    94783133.74346
  21080344.420   110778058.84508  21080343.620    86320600.68048
  20982900.200   110265894.86609  20982903.280    85921510.58849
 15 01 29 03 37 30.0000000  0  7G04G16G18G19G21G22G27
  24160934.120   126966580.27106  24160937.480    98935018.12545
  20581274.280   108155324.33508  20581275.040    84276882.46149
  21664781.020   113849270.54508  21664781.800    88713768.18448
  22636746.700   118956914.84708  22636746.340    92693706.43047
  23159887.380   121706031.53807  23159887.700    94835871.78946
  21071339.460   110730737.33408  21071338.620    86283726.78648
  20974524.900   110221882.52509  20974528.020    85887215.26249
 15 01 29 03 38  0.0000000  0  7G04G16G18G19G21G22G27
  24143266.400   126873736.88006  24143269.900    98862672.73044
  20584861.020   108174172.86308  20584861.820    84291569.61549
  21669361.340   113873340.21908  21669362.120    88732523.77847
  22623139.840   118885410.31208  22623139.420    92637988.62447
  23172777.140   121773767.36007  23172777.460    94888652.94246
  21062424.680   110683889.69708  21062423.800    86247222.14248
  20966188.760   110178076.17109  20966191.940    85853080.44249
 15 01 29 03 38 30.0000000  0  7G04G16G18G19G21G22G27
  24125628.960   126781052.67606  24125632.500    98790451.34644
  20588555.840   108193589.17108  20588556.640    84306699.19949
  21674033.500   113897892.49608  21674034.200    88751655.42748
  22609552.320   118814007.62108  22609551.880    92582350.17947
  23185676.900   121841555.87007  23185677.240    94941475.15146
  21053600.060   110637515.82708  21053599.180    86211086.67148
  20957891.760   110134475.40009  20957894.980    85819105.81549
 15 01 29 03 39  0.0000000  0  7G04G16G18G19G21G22G27
  24108022.280   126688529.83106  24108025.840    98718355.71544
  20592358.880   108213574.38008  20592359.720    84322272.08249
  21678797.540   113922927.71308  21678798.200    88771163.39248
  22595984.640   118742709.22307  22595984.140    92526793.00047
  23198586.700   121909397.46607  23198587.100    94994338.72646
  21044866.120   110591618.51309  21044865.240    86175322.53448
  20949634.380   110091082.76909  20949637.640    85785293.38449
 15 01 29 03 39 30.0000000  0  7G04G16G18G19G21G22G27
  24090446.280   126596167.43606  24090449.680    98646385.10744
  20596269.820   108234126.52508  20596270.660    84338286.73549
  21683653.040   113948443.53808  21683653.620    88791045.86147
  22582436.640   118671514.31207  22582436.120    92471316.46547
  23211506.220   121977290.18107  23211506.660    95047242.13446
  21036222.860   110546197.64409  21036221.960    86139929.65548
  20941416.580   110047897.94909  20941419.880    85751642.87349
 15 01 29 03 40  0.0000000  0  7G04G16G18G19G21G22G27
  24072901.200   126503967.16606  24072904.340    98574540.82945
  20600288.860   108255246.74108  20600289.700    84354744.04049
  21688600.000   113974439.94908  21688600.500    88811302.80747
  22568908.700   118600424.44708  22568908.120    92415921.77947
  23224435.360   122045233.38007  23224435.800    95100184.88146
  21027670.700   110501255.51409  21027669.740    86104909.82048
  20933238.760   110004923.05009  20933242.040    85718155.94449
 15 01 29 03 40 30.0000000  0  7G04G16G18G19G21G22G27
  24055387.320   126411930.89007  24055390.160    98502824.34045
  20604416.080   108276935.46808  20604416.920    84371644.34149
  21693638.480   114000917.29308  21693638.920    88831934.50847
  22555401.120   118529441.55908  22555400.500    92360610.43447
  23237374.080   122113227.29107  23237374.620    95153167.14146
  21019210.140   110456794.82409  21019209.160    86070265.13748
  20925101.340   109962160.38809  20925104.600    85684834.39649
 15 01 29 03 41  0.0000000  0  7G04G16G18G19G21G22G27
  24037904.580   126320058.35506  24037907.300    98431235.45544
  20608651.300   108299191.44408  20608652.080    84388986.65849
  21698768.040   114027873.44908  21698768.500    88852939.31347
  22541913.860   118458565.60808  22541913.280    92305382.43647
  23250322.100   122181269.86607  23250322.680    95206187.31146
  21010841.320   110412816.13109  21010840.300    86035996.03148
  20917004.340   109919610.26809  20917007.580    85651678.46349
 15 01 29 03 41 30.0000000  0  7G04G16G18G19G21G22G27
  24020453.260   126228351.09706  24020456.000    98359775.31945
  20612994.500   108322014.84108  20612995.240    84406771.11149
  21703988.660   114055308.11808  21703989.160    88874316.98348
  22528447.260   118387798.29708  22528446.760    92250239.08547
  23263279.500   122249361.67307  23263280.120    95259245.84946
  21002564.500   110369321.17409  21002563.500    86002103.86648
  20908948.160   109877274.72509  20908951.420    85618689.73049
 15 01 29 03 42  0.0000000  0  7G04G16G18G19G21G22G27
  24003033.300   126136808.94106  24003036.260    98288443.86945
  20617445.480   108345404.68308  20617446.200    84424996.95449
  21709300.040   114083219.88508  21709300.620    88896066.41447
  22515001.280   118317139.32908  22515000.880    92195180.15347
  23276245.900   122317500.68807  23276246.560    95312341.17046
  20994379.960   110326311.32109  20994378.980    85968589.70048
  20900932.860   109835154.10209  20900936.100    85585868.46749
 15 01 29 03 42 30.0000000  0  7G04G16G18G19G21G22G27
  23985644.860   126045432.39606  23985647.880    98217241.45445
  20622004.060   108369360.07008  20622004.780    84443663.47949
  21714701.860   114111606.87708  21714702.560    88918186.15047
  22501576.040   118246589.29108  22501575.740    92140206.12247
  23289221.080   122385685.28607  23289221.580    95365472.01046
  20986287.800   110283787.21608  20986286.880    85935454.04548
  20892958.620   109793249.23809  20892961.820    85553215.32449
 15 01 29 03 43  0.0000000  0  7G04G16G18G19G21G22G27
  23968288.300   125954223.54606  23968291.360    98146169.70145
  20626670.380   108393881.57108  20626671.100    84462771.13449
  21720194.200   114140469.77008  21720195.040    88940676.71848
  22488172.000   118176150.60908  22488171.740    92085318.86047
  23302205.060   122453916.00707  23302205.440    95418638.77346
  20978288.600   110241751.76708  20978287.760    85902699.15848
  20885025.960   109751562.86509  20885029.140    85520732.44049
 15 01 29 03 43 30.0000000  0  7G04G16G18G19G21G22G27
  23950963.680   125863183.13806  23950966.980    98075229.21445
  20631444.480   108418969.69608  20631445.260    84482320.31849
  21725776.980   114169807.74508  21725777.900    88963537.48447
  22474789.320   118105824.13708  22474789.060    92030519.03747
  23315197.700   122522192.21307  23315197.960    95471841.00345
  20970382.600   110200205.75909  20970381.800    85870325.65348
  20877135.180   109710096.33209  20877138.320    85488420.85849
 15 01 29 03 44  0.0000000  0  7G04G16G18G19G21G22G27
  23933670.860   125772309.83306  23933674.380    98004418.88944
  20636325.780   108444621.11108  20636326.600    84502308.42649
  21731449.500   114199617.42008  21731450.480    88986765.80047
  22461427.780   118035608.70808  22461427.460    91975805.73347
  23328198.560   122590511.38907  23328198.680    95525076.70345
  20962569.700   110159148.76909  20962568.940    85838333.20948
  20869286.040   109668848.84409  20869289.160    85456279.96249
 15 01 29 03 44 30.0000000  0  7G04G16G18G19G21G22G27
  23916410.320   125681606.29706  23916413.960    97933740.87545
  20641314.620   108470837.93408  20641315.520    84522737.11749
  21737212.040   114229899.83208  21737213.020    89010362.48947
  22448087.880   117965507.06008  22448087.500    91921181.09547
  23341207.660   122658874.38207  23341207.640    95578346.55346
  20954850.560   110118584.12509  20954849.740    85806724.40448
  20861479.200   109627823.50209  20861482.260    85424312.16349
 15 01 29 03 45  0.0000000  0  7G04G16G18G19G21G22G27
  23899182.120   125591072.40206  23899185.760    97863195.03744
  20646410.780   108497618.49908  20646411.700    84543605.08349
  21743064.280   114260653.35908  21743065.180    89034326.27847
  22434769.680   117895519.32108  22434769.200    91866645.20247
  23354224.620   122727279.06607  23354224.620    95631648.89646
  20947225.180   110078512.24409  20947224.280    85775499.57248
  20853714.700   109587020.94909  20853717.800    85392517.97349
 15 01 29 03 45 30.0000000  0  7G04G16G18G19G21G22G27
  23881986.340   125500707.92806  23881989.880    97792781.22645
  20651613.900   108524961.04208  20651614.800    84564910.95549
  21749005.740   114291875.80308  21749006.540    89058655.46347
  22421473.120   117825645.41808  22421472.560    91812198.02447
  23367249.260   122795724.65507  23367249.400    95684983.11545
  20939693.620   110038933.46009  20939692.660    85744658.96448
  20845992.640   109546441.46809  20845995.800    85360897.60249
 15 01 29 03 46  0.0000000  0  7G04G16G18G19G21G22G27
  23864823.120   125410514.01806  23864826.520    97722500.32045
  20656924.060   108552865.90809  20656924.900    84586654.99849
  21755036.320   114323566.49908  21755037.000    89083349.51947
  22408198.420   117755886.64908  22408197.880    91757840.56447
  23380281.500   122864210.41807  23380281.840    95738348.62945
  20932256.200   109999849.74109  20932255.240    85714204.12148
  20838313.380   109506086.62409  20838316.520    85329452.27349
 15 01 29 03 46 30.0000000  0  7G04G16G18G19G21G22G27
  23847692.380   125320490.15006  23847695.520    97652351.91545
  20662340.740   108581330.72808  20662341.560    84608835.36749
  21761155.560   114355723.14908  21761156.120    89108406.65447
  22394945.540   117686242.46808  22394945.000    91703572.37947
  23393320.980   122932733.82407  23393321.460    95791743.48245
  20924912.800   109961260.24709  20924911.900    85684134.39648
  20830676.900   109465956.52009  20830680.020    85298182.06049
 15 01 29 03 47  0.0000000  0  7G04G16G18G19G21G22G27
  23830594.680   125230640.05306  23830597.400    97582338.92045
  20667864.540   108610358.59008  20667865.340    84631454.47449
  21767363.740   114388347.44708  21767364.320    89133828.18547
  22381715.260   117616717.00008  22381714.740    91649396.70547
  23406368.140   123001297.33307  23406368.660    95845169.58945
  20917664.460   109923170.24709  20917663.600    85654453.88348
  20823084.020   109426055.62409  20823087.140    85267090.45949
 15 01 29 03 47 30.0000000  0  7G04G16G18G19G21G22G27
  23813529.920   125140963.57107  23813532.440    97512461.22444
  20673495.180   108639947.87108  20673495.980    84654511.04849
  21773660.500   114421437.51708  21773661.220    89159612.66047
  22368507.640   117547310.59708  22368507.140    91595313.80747
  23419422.600   123069899.18307  23419423.180    95898625.57046
  20910511.200   109885579.85409  20910510.380    85625162.68048
  20815534.860   109386384.36809  20815537.940    85236177.79449
 15 01 29 03 48  0.0000000  0  7G04G16G18G19G21G22G27
  23796498.240   125051461.47806  23796500.760    97442719.38445
  20679232.480   108670097.36308  20679233.260    84678004.15549
  21780045.660   114454992.14608  21780046.540    89185759.12847
  22355322.800   117478023.90508  22355322.280    91541324.17747
  23432484.280   123138538.82207  23432484.880    95952111.00146
  20903453.200   109848489.67709  20903452.340    85596261.25348
  20808029.620   109346944.06809  20808032.700    85205445.09949
 15 01 29 03 48 30.0000000  0  7G04G16G18G19G21G22G27
  23779499.720   124962134.08406  23779502.260    97373113.67845
  20685076.360   108700806.92309  20685077.140    84701933.67249
  21786519.040   114489010.13208  21786520.020    89212266.65347
  22342160.900   117408857.81408  22342160.340    91487428.53047
  23445553.020   123207215.05507  23445553.540    96005624.93645
  20896490.700   109811901.29309  20896489.800    85567750.83448
  20800568.540   109307735.80409  20800571.620    85174893.20949
 15 01 29 03 49  0.0000000  0  7G04G16G18G19G21G22G27
  23762534.440   124872981.81606  23762537.040    97303644.42145
  20691026.560   108732075.17009  20691027.300    84726298.52949
  21793080.340   114523489.81708  21793081.300    89239133.93947
  22329022.120   117339813.12508  22329021.520    91433627.48247
  23458628.500   123275926.86607  23458629.060    96059166.59345
  20889623.840   109775815.49209  20889622.900    85539632.03548
  20793151.740   109268760.48909  20793154.880    85144522.83749
 15 01 29 03 49 30.0000000  0  7G04G16G18G19G21G22G27
  23745602.780   124784006.63506  23745605.600    97234313.16045
  20697083.080   108763902.40709  20697083.820    84751098.96849
  21799729.520   114558431.26808  21799730.440    89266361.05147
  22315906.800   117270891.45908  22315906.160    91379922.28747
  23471710.780   123344674.74606  23471711.420    96112736.35546
  20882852.960   109740234.29609  20882852.020    85511906.43648
  20785779.820   109230020.79309  20785782.980    85114336.06549
 15 01 29 03 50  0.0000000  0  7G04G16G18G19G21G22G27
  23728704.500   124695206.33106  23728707.420    97165118.14545
  20703245.400   108796285.56509  20703246.120    84776332.58749
  21806465.820   114593830.52208  21806466.700    89293944.88347
  22302814.560   117202091.02108  22302813.920    91326311.56747
  23484799.260   123413455.24306  23484799.980    96166331.54645
  20876177.740   109705155.90709  20876176.820    85484572.63848
  20778452.400   109191515.15609  20778455.640    85084331.68349
 15 01 29 03 50 30.0000000  0  7G04G16G18G19G21G22G27
  23711839.880   124606582.42206  23711842.820    97096060.59745
  20709513.420   108829224.18008  20709514.140    84801999.03249
  21813289.120   114629687.11308  21813289.980    89321885.08347
  22289745.760   117133413.97908  22289745.140    91272796.99747
  23497893.940   123482268.32206  23497894.640    96219952.11645
  20869598.620   109670582.45109  20869597.700    85457632.28748
  20771169.980   109153245.66809  20771173.200    85054511.30549
 15 01 29 03 51  0.0000000  0  7G04G16G18G19G21G22G27
  23695009.240   124518136.56006  23695012.120    97027141.75745
  20715887.220   108862718.78308  20715887.980    84828098.71949
  21820199.380   114666000.84608  21820200.240    89350181.49747
  22276700.780   117064862.13108  22276700.180    91219379.98547
  23510994.800   123551114.10306  23510995.540    96273598.15946
  20863115.960   109636516.00009  20863115.040    85431087.00749
  20763932.960   109115214.85809  20763936.160    85024876.91049
 15 01 29 03 51 30.0000000  0  7G04G16G18G19G21G22G27
  23678212.300   124429867.97107  23678215.120    96958361.07345
  20722366.380   108896767.12708  20722367.200    84854629.88849
  21827196.120   114702769.19608  21827197.040    89378832.16247
  22263679.540   116996435.18908  22263678.960    91166060.30247
  23524101.680   123619990.99907  23524102.460    96327268.44745
  20856729.720   109602956.00609  20856728.800    85404936.37048
  20756741.320   109077422.58709  20756744.520    84995428.39349
 15 01 29 03 52  0.0000000  0  7G04G16G18G19G21G22G27
  23661449.480   124341778.74906  23661452.280    96889720.17145
  20728950.980   108931369.60208  20728951.880    84881592.85149
  21834279.420   114739992.18408  21834280.360    89407837.08847
  22250682.540   116928135.66208  22250681.960    91112839.90147
  23537214.520   123688899.12607  23537215.260    96380963.06845
  20850440.380   109569905.43609  20850439.500    85379182.69348
  20749595.600   109039871.67809  20749598.800    84966167.95049
 15 01 29 03 52 30.0000000  0  7G04G16G18G19G21G22G27
  23644721.020   124253870.19306  23644723.760    96821220.02645
  20735641.020   108966526.04109  20735641.940    84908987.46949
  21841449.100   114777668.86208  21841450.000    89437195.53847
  22237710.020   116859964.77208  22237709.420    91059719.72947
  23550333.260   123757838.59106  23550334.000    96434682.11045
  20844248.160   109537365.53608  20844247.400    85353826.94249
  20742496.160   109002563.93709  20742499.360    84937096.99049
 15 01 29 03 53  0.0000000  0  7G04G16G18G19G21G22G27
  23628026.840   124166142.03206  23628029.560    96752860.45245
  20742436.240   109002235.35508  20742437.220    84936812.90749
  21848704.840   114815797.59708  21848705.660    89466906.24347
  22224762.040   116791922.72508  22224761.460    91006699.96348
  23563457.600   123826807.62306  23563458.360    96488424.20546
  20838153.160   109505336.30809  20838152.440    85328869.11849
  20735443.120   108965499.88509  20735446.300    84908215.91049
 15 01 29 03 53 30.0000000  0  7G04G16G18G19G21G22G27
  23611367.120   124078595.31706  23611369.940    96684642.27145
  20749336.440   109038496.46908  20749337.480    84965068.31049
  21856046.320   114854377.20308  21856047.120    89496968.27647
  22211838.900   116724011.18408  22211838.360    90953781.88747
  23576587.620   123895806.26506  23576588.320    96542189.36846
  20832155.600   109473819.12709  20832154.940    85304310.28649
  20728436.820   108928681.29109  20728439.940    84879526.10349
 15 01 29 03 54  0.0000000  0  7G04G16G18G19G21G22G27
  23594741.700   123991229.00706  23594744.600    96616564.64845
  20756341.120   109075306.68408  20756342.200    84993751.59049
  21863472.960   114893404.49708  21863473.760    89527379.15447
  22198940.460   116656229.43508  22198939.940    90900964.95247
  23589722.760   123964831.82906  23589723.360    96595975.49745
  20826255.460   109442813.57509  20826254.800    85280150.12149
  20721477.180   108892107.88909  20721480.240    84851027.35249
 15 01 29 03 54 30.0000000  0  7G04G16G18G19G21G22G27
  23578151.100   123904045.48806  23578154.060    96548629.48545
  20763450.460   109112666.59708  20763451.540    85022863.20449
  21870984.880   114932879.95308  21870985.680    89558139.25147
  22186067.240   116588580.24108  22186066.780    90848251.30948
  23602863.140   124033885.13106  23602863.780    96649783.26545
  20820453.160   109412322.09609  20820452.480    85256390.53649
  20714564.740   108855782.80309  20714567.800    84822722.09949
 15 01 29 03 55  0.0000000  0  7G04G16G18G19G21G22G27
  23561595.080   123817043.70906  23561598.040    96480835.92745
  20770664.020   109150574.02608  20770665.060    85052401.45549
  21878581.520   114972800.64908  21878582.320    89589246.29247
  22173219.140   116521062.85208  22173218.680    90795640.36748
  23616008.540   124102964.61406  23616009.240    96703611.40045
  20814748.540   109382343.88709  20814747.800    85233030.90049
  20707699.460   108819705.65509  20707702.540    84794610.03749
 15 01 29 03 55 30.0000000  0  7G04G16G18G19G21G22G27
  23545074.080   123730225.42906  23545076.960    96413185.35544
  20777981.920   109189029.33509  20777982.860    85082366.62249
  21886262.860   115013166.65508  21886263.720    89620700.32747
  22160396.540   116453679.56908  22160396.080    90743133.92447
  23629158.920   124172070.31406  23629159.640    96757459.99445
  20809141.980   109352881.27809  20809141.220    85210073.02649
  20700881.840   108783879.09109  20700884.980    84766693.24449
 15 01 29 03 56  0.0000000  0  7G04G16G18G19G21G22G27
  23528587.820   123643589.23206  23528590.500    96345676.65145
  20785403.380   109228028.94009  20785404.240    85112755.91649
  21894028.240   115053974.42608  21894029.140    89652498.58947
  22147599.240   116386429.38508  22147598.760    90690731.19247
  23642313.900   124241199.90906  23642314.600    96811327.19045
  20803633.260   109323932.82509  20803632.460    85187515.79749
  20694111.760   108748302.29309  20694114.920    84738971.06849
 15 01 29 03 56 30.0000000  0  7G04G16G18G19G21G22G27
  23512136.520   123557136.75706  23512139.080    96278311.13345
  20792928.520   109267573.49408  20792929.320    85143569.84949
  21901877.620   115095223.48808  21901878.560    89684640.71747
  22134827.720   116319314.79608  22134827.220    90638434.12047
  23655473.540   124310353.55106  23655474.200    96865213.13746
  20798222.800   109295500.71809  20798222.000    85165360.91548
  20687389.760   108712977.91609  20687392.900    84711445.58249
 15 01 29 03 57  0.0000000  0  7G04G16G18G19G21G22G27
  23495720.660   123470870.73406  23495723.180    96211090.89844
  20800557.360   109307663.38008  20800558.180    85174808.71249
  21909811.140   115136914.35408  21909812.100    89717127.10847
  22122082.500   116252338.25008  22122081.960    90586244.61247
  23668638.020   124379532.49006  23668638.640    96919118.78945
  20792911.060   109267587.34409  20792910.240    85143610.24049
  20680716.380   108677909.04109  20680719.480    84684119.19049
 15 01 29 03 57 30.0000000  0  7G04G16G18G19G21G22G27
  23479340.100   123384790.10006  23479342.600    96144015.13045
  20808289.500   109348296.15508  20808290.360    85206470.61149
  21917828.180   115179044.14408  21917829.160    89749955.51847
  22109363.480   116185499.38808  22109362.920    90534162.39847
  23681806.800   124448734.44706  23681807.420    96973042.38045
  20787697.960   109240192.38209  20787697.140    85122263.52749
  20674091.620   108643095.70609  20674094.680    84656991.91749
 15 01 29 03 58  0.0000000  0  7G04G16G18G19G21G22G27
  23462994.940   123298895.38906  23462997.440    96077084.21846
  20816124.760   109389470.98408  20816125.680    85238554.88349
  21925928.500   115221611.61008  21925929.480    89783124.97547
  22096670.960   116118799.55608  22096670.320    90482188.50947
  23694979.860   124517958.86906  23694980.480    97026983.48446
  20782583.620   109213316.46409  20782582.820    85101321.26449
  20667515.740   108608539.33309  20667518.820    84630064.87649
 15 01 29 03 58 30.0000000  0  7G04G16G18G19G21G22G27
  23446685.560   123213189.06306  23446688.220    96010300.09446
  20824063.220   109431187.98108  20824064.180    85271061.63049
  21934112.100   115264616.62908  21934113.060    89816635.37547
  22084005.340   116052241.21408  22084004.660    90430324.87848
  23708157.240   124587206.34506  23708157.840    97080942.54345
  20777568.460   109186961.74709  20777567.680    85080785.12649
  20660989.320   108574242.73309  20660992.360    84603340.25549
 15 01 29 03 59  0.0000000  0  7G04G16G18G19G21G22G27
  23430411.780   123127669.71906  23430414.600    95943661.68045
  20832104.380   109473444.55609  20832105.340    85303988.82549
  21942378.380   115308056.21608  21942379.300    89850484.40447
  22071366.520   115985823.94508  22071365.860    90378571.17247
  23721338.580   124656474.94306  23721339.200    97134918.06745
  20772652.380   109161127.40109  20772651.560    85060654.47849
  20654512.280   108540205.60309  20654515.320    84576817.82049
 15 01 29 03 59 30.0000000  0  7G04G16G18G19G21G22G27
  23414173.760   123042338.55106  23414176.720    95877169.87446
  20840248.080   109516239.83109  20840248.980    85337335.78449
  21950727.180   115351929.55608  21950728.080    89884671.42447
  22058754.800   115919549.19008  22058754.200    90326928.51248
  23734523.900   124725764.19106  23734524.480    97188909.66645
  20767835.520   109135814.54209  20767834.660    85040930.17849
  20648085.020   108506429.84809  20648088.020    84550499.05349
 15 01 29 04 00  0.0000000  0  7G04G16G18G19G21G22G27
  23397971.420   122957195.00006  23397974.440    95810824.26945
  20848493.900   109559571.59009  20848494.720    85371100.77749
  21959158.040   115396233.76408  21959158.840    89919194.18547
  22046170.180   115853416.94408  22046169.680    90275396.90648
  23747713.000   124795072.98006  23747713.420    97242916.50245
  20763117.860   109111023.00509  20763116.940    85021612.10649
  20641707.580   108472915.85109  20641710.480    84524384.24949
 15 01 29 04 00 30.0000000  0  7G04G16G18G19G21G22G27
  23381805.700   122872244.31706  23381808.820    95744628.94946
  20856842.420   109603443.19809  20856843.200    85405286.44248
  21967671.520   115440972.16708  21967672.220    89954055.28547
  22033613.820   115787433.23108  22033613.460    90223981.03948
  23760906.540   124864405.23506  23760906.840    97296941.62445
  20758500.380   109086758.11309  20758499.460    85002704.40549
  20635381.060   108439669.68809  20635383.920    84498478.15049
 15 01 29 04 01  0.0000000  0  7G04G16G18G19G21G22G27
  23365675.180   122787478.41406  23365678.260    95678577.65045
  20865291.780   109647844.91909  20865292.560    85439885.17749
  21976265.660   115486134.51708  21976266.280    89989246.73147
  22021084.340   115721590.32508  22021083.960    90172674.88048
  23774102.800   124933752.01806  23774103.040    97350978.05544
  20753981.600   109063011.92409  20753980.680    84984200.89249
  20629104.120   108406684.12709  20629106.980    84472775.11749
 15 01 29 04 01 30.0000000  0  7G04G16G18G19G21G22G27
  23349580.860   122702902.45106  23349583.800    95612674.33145
  20873842.660   109692780.34309  20873843.500    85474899.78349
  21984941.080   115531724.04608  21984941.620    90024771.03747
  22008582.800   115655894.14708  22008582.380    90121483.06947
  23787302.540   125003116.79906  23787302.740    97405028.52245
  20749562.500   109039789.47009  20749561.560    84966105.48449
  20622877.860   108373965.03909  20622880.760    84447279.72449
 15 01 29 04 02  0.0000000  0  7G04G16G18G19G21G22G27
  23333523.020   122618518.04307  23333525.840    95546920.27745
  20882495.080   109738249.21509  20882495.960    85510330.06449
  21993697.680   115577740.37408  21993698.240    90060627.91647
  21996109.580   115590346.49208  21996109.020    90070406.98348
  23800505.780   125072500.32006  23800506.040    97459093.59745
  20745243.400   109017092.43109  20745242.420    84948419.48749
  20616702.760   108341514.98009  20616705.740    84421993.96549
 15 01 29 04 02 30.0000000  0  7G04G16G18G19G21G22G27
  23317501.640   122534324.78907  23317504.220    95481315.18545
  20891248.480   109784248.95508  20891249.460    85546174.01149
  22002534.940   115624180.53908  22002535.500    90096815.06147
  21983664.640   115524947.51508  21983663.940    90019446.75148
  23813712.160   125141901.03006  23813712.540    97513172.02545
  20741024.200   108994920.26209  20741023.160    84931142.48049
  20610578.920   108309334.24309  20610581.960    84396918.07149
 15 01 29 04 03  0.0000000  0  7G04G16G18G19G21G22G27
  23301516.480   122450321.77007  23301518.860    95415858.31645
  20900102.320   109830776.42908  20900103.420    85582429.17849
  22011452.260   115671041.67108  22011452.940    90133330.22747
  21971247.940   115459696.94808  21971247.100    89968602.15648
  23826921.340   125211316.39106  23826921.880    97567261.90345
  20736904.720   108973272.07509  20736903.620    84914273.76949
  20604506.320   108277422.69909  20604509.420    84372051.93249
 15 01 29 04 03 30.0000000  0  7G04G16G18G19G21G22G27
  23285568.060   122366511.91607  23285570.300    95350551.98345
  20909056.980   109877833.54809  20909058.140    85619097.05948
  22020449.880   115718324.71508  22020450.660    90170174.15547
  21958860.300   115394599.02708  21958859.340    89917876.50548
  23840133.820   125280748.92806  23840134.520    97621365.17045
  20732885.640   108952151.43809  20732884.480    84897816.14149
  20598485.740   108245784.45609  20598488.900    84347398.76049
 15 01 29 04 04  0.0000000  0  7G04G16G18G19G21G22G27
  23269656.240   122282894.53507  23269658.460    95285395.61545
  20918111.900   109925417.48408  20918113.100    85656175.44749
  22029527.280   115766026.94708  22029528.100    90207344.72647
  21946501.480   115329653.00608  21946500.500    89867269.23648
  23853349.180   125350196.29306  23853350.000    97675479.99745
  20728966.760   108931557.43509  20728965.580    84881768.87249
  20592517.180   108214419.52909  20592520.360    84322958.55649
 15 01 29 04 04 30.0000000  0  7G04G16G18G19G21G22G27
  23253780.980   122199469.69907  23253783.280    95220389.26045
  20927266.720   109973526.30109  20927267.900    85693662.82948
  22038684.080   115814146.26108  22038684.940    90244840.29547
  21934171.760   115264859.99208  21934170.800    89816781.18248
  23866567.420   125419658.22106  23866568.180    97729606.14744
  20725148.080   108911490.21309  20725146.940    84866132.08349
  20586600.860   108183329.02109  20586604.020    84298732.19049
 15 01 29 04 05  0.0000000  0  7G04G16G18G19G21G22G27
  23237942.540   122116238.57107  23237945.020    95155533.84646
  20936521.300   110022159.27209  20936522.420    85731558.64348
  22047920.040   115862681.66108  22047920.900    90282660.08547
  21921871.380   115200221.46108  21921870.520    89766413.49948
  23879788.420   125489134.20906  23879789.020    97783743.26845
  20721429.760   108891950.49809  20721428.660    84850906.33649
  20580737.140   108152514.87809  20580740.260    84274721.17349
 15 01 29 04 05 30.0000000  0  7G04G16G18G19G21G22G27
  23222141.000   122033201.25707  23222143.620    95090829.46346
  20945875.260   110071314.24009  20945876.280    85769861.21048
  22057234.820   115911630.96008  22057235.600    90320802.39947
  21909600.480   115135738.08508  21909599.760    89716166.72348
  23893011.960   125558623.90606  23893012.560    97837891.05145
  20717811.860   108872938.42409  20717810.780    84836091.73649
  20574926.140   108121977.93309  20574929.280    84250926.15549
 15 01 29 04 06  0.0000000  0  7G04G16G18G19G21G22G27
  23206376.620   121950359.29106  23206379.300    95026277.29445
  20955328.500   110120990.92309  20955329.420    85808570.30448
  22066628.240   115960993.77608  22066629.020    90359266.93747
  21897359.700   115071412.59308  21897359.000    89666042.97148
  23906238.040   125628127.14106  23906238.580    97892049.39045
  20714294.740   108854455.79909  20714293.680    84821689.70149
  20569168.380   108091720.74909  20569171.500    84227349.13149
 15 01 29 04 06 30.0000000  0  7G04G16G18G19G21G22G27
  23190649.440   121867712.68607  23190652.200    94961877.37145
  20964880.740   110171188.07309  20964881.600    85847684.96048
  22076099.900   116010767.81408  22076100.700    90398051.89347
  21885149.080   115007245.63108  21885148.400    89616042.74948
  23919466.480   125697643.03106  23919466.980    97946217.59945
  20710878.260   108836501.98909  20710877.180    84807699.73049
  20563464.040   108061744.25109  20563467.160    84203990.82349
 15 01 29 04 07  0.0000000  0  7G04G16G18G19G21G22G27
  23174959.520   121785261.72307  23174962.280    94897629.89645
  20974531.520   110221903.31209  20974532.380    85887203.31948
  22085649.600   116060951.70808  22085650.360    90437156.22647
  21872968.760   114943237.78508  21872968.120    89566166.51048
  23932697.180   125767171.24406  23932697.740    98000395.41144
  20707562.520   108819077.61009  20707561.400    84794122.30249
  20557813.360   108032049.79009  20557816.500    84180852.28649
 15 01 29 04 07 30.0000000  0  7G04G16G18G19G21G22G27
  23159306.900   121703006.31107  23159309.500    94833534.78445
  20984280.620   110273135.11209  20984281.460    85927124.19548
  22095276.820   116111542.83808  22095277.580    90476577.88847
  21860818.800   114879389.36208  21860818.180    89516414.50848
  23945929.920   125836710.49306  23945930.620    98054581.83445
  20704347.380   108802181.93309  20704346.180    84780956.84549
  20552216.520   108002638.03709  20552219.640    84157934.04149
 15 01 29 04 08  0.0000000  0  7G04G16G18G19G21G22G27
  23143691.520   121620946.46507  23143693.860    94769592.07845
  20994127.560   110324880.97109  20994128.360    85967445.63948
  22104981.000   116162538.61708  22104981.800    90516314.85447
  21848699.460   114815701.66608  21848698.760    89466787.74048
  23959164.580   125906259.66006  23959165.360    98108775.95045
  20701232.920   108785815.38809  20701231.660    84768203.70349
  20546673.580   107973509.76709  20546676.740    84135236.69449
 15 01 29 04 08 30.0000000  0  7G04G16G18G19G21G22G27
  23128113.720   121539084.08707  23128115.800    94705803.24345
  21004072.300   110377140.88509  21004073.080    86008167.63548
  22114762.300   116213939.52208  22114763.120    90556367.51447
  21836611.260   114752177.51308  21836610.460    89417288.40848
  23972401.340   125975819.66606  23972402.220    98162978.54145
  20698219.420   108769979.67209  20698218.160    84755864.19549
  20541185.180   107944668.11709  20541188.380    84112762.68549
 15 01 29 04 09  0.0000000  0  7G04G16G18G19G21G22G27
  23112573.560   121457419.83007  23112575.500    94642168.79145
  21014114.420   110429912.64809  21014115.200    86049288.48548
  22124620.360   116265743.64608  22124621.140    90596734.35947
  21824554.320   114688817.70208  21824553.480    89367917.13648
  23985640.140   126045390.43106  23985641.060    98217189.51945
  20695306.900   108754674.86709  20695305.760    84743938.38149
  20535751.580   107916114.33809  20535754.780    84090512.98949
 15 01 29 04 09 30.0000000  0  7G04G16G18G19G21G22G27
  23097070.880   121375952.92207  23097072.820    94578688.11345
  21024253.660   110483194.85809  21024254.500    86090807.08248
  22134554.540   116317947.99808  22134555.280    90637413.06847
  21812528.660   114625622.45608  21812527.840    89318674.10148
  23998880.640   126114969.73106  23998881.640    98271407.12144
  20692495.260   108739900.12009  20692494.220    84732425.60149
  20530372.860   107887848.72109  20530376.000    84068487.83749
 15 01 29 04 10  0.0000000  0  7G04G16G18G19G21G22G27
  23081605.880   121294684.39507  23081607.980    94515361.97445
  21034489.740   110536985.97909  21034490.680    86132722.24048
  22144564.660   116370551.68108  22144565.420    90678402.95047
  21800534.640   114562593.49508  21800533.820    89269560.63348
  24012122.940   126184558.17706  24012123.880    98325631.87244
  20689784.720   108725656.54809  20689783.780    84721326.72049
  20525049.320   107859873.34809  20525052.460    84046688.84549
 15 01 29 04 10 30.0000000  0  7G04G16G18G19G21G22G27
  23066178.740   121213615.19407  23066181.160    94452191.18246
  21044822.440   110591284.81809  21044823.440    86175033.01348
  22154650.440   116423553.24608  22154651.260    90719702.86747
  21788572.640   114499732.74208  21788571.800    89220578.23948
  24025366.980   126254155.75906  24025367.940    98379863.72945
  20687175.440   108711944.76009  20687174.560    84710642.21449
  20519781.340   107832190.06009  20519784.500    84025117.45249
 15 01 29 04 11  0.0000000  0  7G04G16G18G19G21G22G27
  23050789.540   121132745.36907  23050792.220    94389175.76146
  21055251.360   110646089.17009  21055252.380    86217737.69948
  22164811.540   116476950.50008  22164812.400    90761311.11346
  21776642.740   114437040.88108  21776641.940    89171727.45448
  24038612.540   126323761.14006  24038613.360    98434101.67244
  20684667.360   108698764.45109  20684666.480    84700371.84749
  20514569.100   107804799.72009  20514572.260    84003774.33449
 15 01 29 04 11 30.0000000  0  7G04G16G18G19G21G22G27
  23035438.240   121052074.26907  23035441.100    94326315.17745
  21065775.980   110701396.33009  21065777.000    86260834.18348
  22175047.460   116530740.76708  22175048.300    90803225.60046
  21764745.020   114374518.09608  21764744.280    89123008.40948
  24051859.340   126393373.23906  24051860.060    98488344.83745
  20682260.300   108686114.91009  20682259.400    84690515.06949
  20509412.700   107777702.79209  20509415.860    83982659.84449
 15 01 29 04 12  0.0000000  0  7G04G16G18G19G21G22G27
  23020125.040   120971602.70707  23020127.840    94263610.08346
  21076396.060   110757205.11909  21076397.060    86304321.53948
  22185357.900   116584922.71308  22185358.740    90845445.30146
  21752879.800   114312166.17508  21752879.120    89074422.50548
  24065107.440   126462992.24806  24065108.260    98542593.39344
  20679954.340   108673996.67009  20679953.380    84681072.29049
  20504312.500   107750901.03609  20504315.660    83961775.35949
 15 01 29 04 12 30.0000000  0  7G04G16G18G19G21G22G27
  23004850.060   120891331.47807  23004852.680    94201061.09246
  21087111.320   110813514.23309  21087112.320    86348198.76248
  22195742.540   116639494.62208  22195743.380    90887968.86646
  21741047.300   114249986.09408  21741046.640    89025970.50448
  24078356.660   126532617.11706  24078357.500    98596846.51545
  20677749.500   108662409.89209  20677748.480    84672043.64249
  20499268.800   107724396.05109  20499271.900    83941122.12049
 15 01 29 04 13  0.0000000  0  7G04G16G18G19G21G22G27
  22989613.340   120811261.12607  22989615.720    94138668.64446
  21097921.460   110870321.99909  21097922.480    86392464.54648
  22206201.140   116694455.16708  22206201.940    90930795.26547
  21729247.900   114187979.81508  21729247.220    88977653.92748
  24091607.060   126602248.10306  24091607.960    98651104.41044
  20675645.900   108651355.26309  20675644.840    84663429.65649
  20494281.920   107698189.55209  20494284.940    83920701.46949
 15 01 29 04 13 30.0000000  0  7G04G16G18G19G21G22G27
  22974414.760   120731391.37907  22974416.920    94076432.50446
  21108825.960   110927625.60709  21108826.980    86437116.70248
  22216733.140   116749801.55808  22216733.960    90973922.32547
  21717481.700   114126147.77308  21717480.960    88929473.12348
  24104858.520   126671884.53006  24104859.320    98705366.53444
  20673643.360   108640831.99409  20673642.300    84655229.72249
  20489351.940   107672282.15309  20489354.900    83900513.88649
 15 01 29 04 14  0.0000000  0  8G04G11G16G18G19G21G22G27
  22959255.300   120651727.72607  22959257.360    94014356.96145
  24632818.200   129446335.30505  24632819.060   100867270.52143
  21119825.360   110985427.89909  21119826.400    86482157.44148
  22227339.300   116805537.29508  22227340.060    91017352.76946
  21705749.780   114064496.21708  21705749.040    88881432.95548
  24118111.720   126741530.05906  24118112.500    98759635.76546
  20671742.900   108630845.26409  20671741.860    84647447.86149
  20484480.060   107646680.26109  20484483.020    83880564.36049
 15 01 29 04 14 30.0000000  0  8G04G11G16G18G19G21G22G27
  22944133.120   120572260.46007  22944135.140    93952434.43445
  24615606.540   129355887.50005  24615608.180   100796791.76344
  21130917.740   111043718.59709  21130918.780    86527578.75648
  22238017.320   116861650.44308  22238018.000    91061077.29546
  21694050.520   114003016.34608  21694049.780    88833526.56048
  24131364.740   126811174.55506  24131365.500    98813904.18045
  20669942.580   108621384.72609  20669941.580    84640076.02249
  20479664.640   107621375.17209  20479667.680    83860846.11049
 15 01 29 04 15  0.0000000  0  8G04G11G16G18G19G21G22G27
  22929049.800   120492997.75907  22929051.920    93890671.32646
  24598406.780   129265502.16705  24598408.600   100726361.65844
  21142104.060   111102503.04709  21142105.120    86573384.81748
  22248768.320   116918146.95108  22248768.940    91105100.55047
  21682385.620   113941716.98508  21682384.920    88785760.83548
  24144619.000   126880825.63106  24144619.800    98868177.73145
  20668243.980   108612458.64609  20668242.980    84633120.64349
  20474907.460   107596376.15609  20474910.540    83841366.35649
 15 01 29 04 15 30.0000000  0  8G04G11G16G18G19G21G22G27
  22914005.400   120413939.46807  22914007.580    93829067.47946
  24581218.860   129175178.51205  24581220.800   100655979.63944
  21153383.840   111161778.63909  21153384.920    86619573.58348
  22259591.760   116975024.07808  22259592.380    91149420.39446
  21670755.300   113880599.28308  21670754.680    88738136.65748
  24157874.180   126950481.89605  24157875.000    98922455.32545
  20666646.900   108604066.00809  20666645.920    84626580.92749
  20470208.660   107571683.87109  20470211.760    83822125.60849
 15 01 29 04 16  0.0000000  0  8G04G11G16G18G19G21G22G27
  22898999.740   120335084.46807  22899002.020    93767622.03945
  24564042.500   129084916.01305  24564044.520   100585645.26244
  21164756.360   111221541.68208  21164757.420    86666142.18048
  22270487.040   117032278.78808  22270487.680    91194034.45246
  21659159.480   113819663.01908  21659158.940    88690653.86248
  24171129.960   127020141.83906  24171130.920    98976735.78744
  20665151.160   108596205.76009  20665150.160    84620456.06849
  20465568.240   107547298.43609  20465571.380    83803123.96949
 15 01 29 04 16 30.0000000  0  8G04G11G16G18G19G21G22G27
  22884033.080   120256434.32807  22884035.440    93706336.23645
  24546877.960   128994716.15605  24546880.080   100515359.69344
  21176221.560   111281791.98508  21176222.660    86713090.45848
  22281454.020   117089910.34908  22281454.700    91238942.16247
  21647598.580   113758910.20008  21647598.020    88643314.01248
  24184386.420   127089805.85006  24184387.420    99031019.42344
  20663756.880   108588878.82409  20663755.900    84614746.77849
  20460986.700   107523222.13709  20460989.820    83784363.21849
 15 01 29 04 17  0.0000000  0  9G04G11G16G18G19G21G22G27G32
  22869107.100   120177997.56707  22869109.520    93645216.70246
  24529726.920   128904587.29505  24529729.240   100445129.39144
  21187780.680   111342535.61309  21187781.780    86760423.15148
  22292493.960   117147925.25508  22292494.640    91284148.58447
  21636074.500   113698350.74308  21636073.860    88596124.82948
  24197645.240   127159481.76705  24197646.220    99085312.32045
  20662465.600   108582093.01809  20662464.580    84609459.14349
  20456465.800   107499464.66809  20456468.920    83765850.90249
  24508636.080   128793751.10905  24508642.740   100358794.63654
 15 01 29 04 17 30.0000000  0  9G04G11G16G18G19G21G22G27G32
  22854216.020   120099744.00607  22854218.380    93584239.90646
  24512583.780   128814499.60205  24512585.940   100374931.21545
  21199427.480   111403740.01809  21199428.580    86808114.89148
  22303600.600   117206290.74308  22303601.240    91329628.18946
  21624581.560   113637955.09108  21624580.920    88549063.29448
  24210900.440   127229138.80705  24210901.320    99139590.55044
  20661271.500   108575818.03009  20661270.500    84604569.55449
  20452000.020   107475996.87809  20452003.120    83747564.31649
  24485944.020   128674504.43005  24485950.840   100265875.69445
 15 01 29 04 18  0.0000000  0  9G04G11G16G18G19G21G22G27G32
  22839365.660   120021704.50107  22839367.940    93523429.91045
  24495454.260   128724483.54105  24495456.340   100304788.86443
  21211167.420   111465433.83009  21211168.540    86856187.97748
  22314779.300   117265035.15008  22314779.920    91375403.05247
  21613125.900   113577755.27008  21613125.280    88502154.35348
  24224157.760   127298806.96605  24224158.660    99193877.37444
  20660180.380   108570084.42609  20660179.420    84600101.81349
  20447595.380   107452850.60609  20447598.520    83729528.25549
  24463262.280   128555311.89406  24463268.820   100172998.93245
 15 01 29 04 18 30.0000000  0  9G04G11G16G18G19G21G22G27G32
  22824554.500   119943871.11407  22824556.740    93462780.54246
  24478336.880   128634531.29305  24478338.800   100234696.22444
  21222998.580   111527607.02709  21222999.720    86904634.62148
  22326028.280   117324148.98908  22326028.860    91421465.78347
  21601706.140   113517744.07908  21601705.540    88455392.39048
  24237415.620   127368477.44905  24237416.560    99248166.04444
  20659190.640   108564883.64909  20659189.740    84596049.26549
  20443250.620   107430018.78009  20443253.780    83711737.22649
  24440589.740   128436167.56506  24440596.040   100080159.69844
 15 01 29 04 19  0.0000000  0  9G04G11G16G18G19G21G22G27G32
  22809782.580   119866244.17407  22809784.800    93402292.03445
  24461231.720   128544643.24905  24461233.540   100164653.60343
  21234920.560   111590257.35409  21234921.720    86953453.05148
  22337347.160   117383629.96008  22337347.700    91467814.59646
  21590322.480   113457922.57308  21590321.860    88408778.24248
  24250673.880   127438149.82606  24250674.920    99302456.20344
  20658302.240   108560215.44909  20658301.380    84592411.71749
  20438965.960   107407502.76909  20438969.120    83694192.27849
  24417926.840   128317074.04106  24417932.940    99987360.05844
 15 01 29 04 19 30.0000000  0  9G04G11G16G18G19G21G22G27G32
  22795049.720   119788822.90607  22795051.980    93341963.79646
  24444138.760   128454818.99705  24444140.240   100094660.66643
  21246932.780   111653381.89408  21246933.940    87002640.99748
  22348735.280   117443474.86908  22348735.800    91514446.98246
  21578975.000   113398291.14208  21578974.380    88362312.20248
  24263932.200   127507822.66805  24263933.300    99356746.69344
  20657514.940   108556078.32709  20657514.080    84589187.99649
  20434741.480   107385302.94809  20434744.620    83676893.71449
  24395273.880   128198033.03906  24395279.740    99894601.33144
 15 01 29 04 20  0.0000000  0  9G04G11G16G18G19G21G22G27G32
  22780356.120   119711608.25007  22780358.440    93281796.55445
  24427058.160   128365059.26205  24427059.380   100024718.06344
  21259034.960   111716979.26608  21259036.140    87052197.38748
  22360192.460   117503682.65608  22360192.980    91561362.14347
  21567664.060   113338851.84108  21567663.480    88315995.86948
  24277190.740   127577496.20905  24277191.740    99411037.73944
  20656828.840   108552472.85809  20656827.960    84586378.55249
  20430577.500   107363421.13509  20430580.640    83659842.94649
  24372631.420   128079047.54606  24372637.200    99801885.83344
 15 01 29 04 20 30.0000000  0  9G04G11G16G18G19G21G22G27G32
  22765701.600   119634599.02607  22765703.980    93221789.38145
  24409989.640   128275362.87006  24409990.960    99954834.79943
  21271226.420   111781045.78908  21271227.580    87102119.34548
  22371718.040   117564249.90708  22371718.540    91608557.39747
  21556389.680   113279604.53708  21556389.080    88269829.14748
  24290449.040   127647168.77005  24290450.040    99465328.02445
  20656243.600   108549397.29909  20656242.700    84583982.02049
  20426474.040   107341857.29709  20426477.180    83643039.95349
  24349999.780   127960118.84406  24350005.460    99709214.60345
 15 01 29 04 21  0.0000000  0  9G04G11G16G18G19G21G22G27G32
  22751087.100   119557799.40807  22751089.400    93161945.55745
  24392933.740   128185733.89906  24392935.260    99884994.06343
  21283507.540   111845583.27709  21283508.640    87152408.28648
  22383312.400   117625178.42708  22383312.880    91656034.16746
  21545152.800   113220554.00808  21545152.140    88223815.75448
  24303707.760   127716843.67405  24303708.760    99519620.11444
  20655759.900   108546855.22009  20655758.980    84582001.18649
  20422432.060   107320616.59609  20422435.220    83626488.76049
  24327380.200   127841253.27306  24327385.580    99616592.54544
 15 01 29 04 21 30.0000000  0  9G04G11G16G18G19G21G22G27G32
  22736511.960   119481206.47807  22736514.220    93102262.78945
  24375890.160   128096169.64205  24375891.540    99815203.76343
  21295877.300   111910586.40709  21295878.300    87203060.06848
  22394974.480   117686462.99008  22394974.960    91703788.36946
  21533952.940   113161698.45708  21533952.320    88177954.29448
  24316966.220   127786517.02905  24316967.200    99573911.00945
  20655377.040   108544843.06409  20655376.100    84580433.27449
  20418451.200   107299697.00409  20418454.360    83610187.77749
  24304772.460   127722449.98006  24304777.460    99524018.98845
 15 01 29 04 22  0.0000000  0  9G04G11G16G18G19G21G22G27G32
  22721976.420   119404821.40007  22721978.600    93042741.97446
  24358859.260   128006671.57105  24358860.340    99745465.02144
  21308335.440   111976054.16509  21308336.400    87254073.89548
  22406704.160   117748102.88708  22406704.620    91751819.46046
  21522790.620   113103040.21908  21522790.000    88132246.58748
  24330224.540   127856189.75005  24330225.500    99628201.43944
  20655095.160   108543361.74309  20655094.200    84579279.00549
  20414531.920   107279100.95409  20414535.080    83594138.90349
  24282177.160   127603712.74506  24282181.940    99431496.92844
 15 01 29 04 22 30.0000000  0  9G04G11G16G18G19G21G22G27G32
  22707480.700   119328645.47807  22707482.860    92983384.14346
  24341841.120   127917240.79405  24341842.080    99675778.73044
  21320881.720   112041985.20409  21320882.700    87305448.72248
  22418501.120   117810096.63808  22418501.620    91800126.27546
  21511666.220   113044581.36808  21511665.620    88086694.24348
  24343482.680   127925861.93005  24343483.860    99682491.39845
  20654914.340   108542411.42009  20654913.360    84578538.49949
  20410674.580   107258830.46909  20410677.740    83578343.72249
  24259595.040   127485044.87706  24259599.660    99339028.88544
 15 01 29 04 23  0.0000000  0  9G04G11G16G18G19G21G22G27G32
  22693024.540   119252677.47407  22693026.620    92924188.31046
  24324835.620   127827876.34705  24324836.680    99606144.10044
  21333515.520   112108376.28109  21333516.520    87357182.02548
  22430364.780   117872440.75208  22430365.340    91848706.10446
  21500579.820   112986322.08008  21500579.220    88041297.40548
  24356740.540   127995532.09406  24356741.620    99736779.83245
  20654834.280   108541990.60709  20654833.300    84578210.59749
  20406879.200   107238885.61509  20406882.380    83562802.27549
  24237026.280   127366447.69906  24237030.900    99246615.90645
 15 01 29 04 23 30.0000000  0  9G04G11G16G18G19G21G22G27G32
  22678608.080   119176918.29407  22678610.160    92865155.20846
  24307842.880   127738579.12905  24307844.100    99536561.86044
  21346236.500   112175225.48208  21346237.520    87409272.31048
  22442294.880   117935133.97208  22442295.460    91897557.95546
  21489531.720   112928263.98508  21489531.120    87996057.33848
  24369998.120   128065200.51905  24369999.140    99791066.88244
  20654855.040   108542099.45009  20654854.020    84578295.41849
  20403146.140   107219268.25809  20403149.340    83547516.02549
  24214471.580   127247924.30806  24214476.280    99154260.40544
 15 01 29 04 24  0.0000000  0  9G04G11G16G18G19G21G22G27G32
  22664231.440   119101368.43607  22664233.560    92806285.19946
  24290863.100   127649349.70105  24290864.440    99467032.43444
  21359044.280   112242530.86508  21359045.340    87461718.05048
  22454290.960   117998174.13208  22454291.600    91946680.15046
  21478522.280   112870408.74308  21478521.600    87950975.33348
  24383255.280   128134866.91606  24383256.140    99845352.35344
  20654976.460   108542737.48209  20654975.440    84578792.59449
  20399475.660   107199979.70509  20399478.880    83532485.98249
  24191931.440   127129477.30305  24191936.120    99061964.39045
 15 01 29 04 24 30.0000000  0  9G04G11G16G18G19G21G22G27G32
  22649894.760   119026028.50907  22649896.900    92747578.77246
  24273896.360   127560188.82005  24273897.720    99397556.42143
  21371938.520   112310290.70908  21371939.600    87514517.92448
  22466352.880   118061560.13308  22466353.580    91996071.84146
  21467551.720   112812758.09308  21467551.000    87906052.75348
  24396512.040   128204531.53405  24396512.740    99899636.45443
  20655198.640   108543904.98009  20655197.600    84579702.34149
  20395868.140   107181021.88609  20395871.340    83517713.65949
  24169406.460   127011109.86806  24169411.140    98969730.39845
 15 01 29 04 25  0.0000000  0  9G04G11G16G18G19G21G22G27G32
  22635597.980   118950898.49608  22635600.160    92689035.92446
  24256942.660   127471096.55205  24256944.100    99328133.88244
  21384918.720   112378502.20108  21384919.820    87567669.72948
  22478480.140   118125289.49308  22478480.880    92045731.08946
  21456620.280   112755312.90108  21456619.520    87861290.27648
  24409768.160   128274193.39005  24409768.820    99953918.41043
  20655521.340   108545600.89309  20655520.300    84581023.83749
  20392323.680   107162395.57309  20392326.880    83503199.65149
  24146897.020   126892824.08806  24146901.680    98877559.98045
 15 01 29 04 25 30.0000000  0  9G04G11G16G18G19G21G22G27G32
  22621341.080   118875978.25208  22621343.320    92630656.52746
  24240002.000   127382073.04306  24240003.480    99258764.91444
  21397984.520   112447163.47509  21397985.640    87621172.01648
  22490672.280   118189359.82308  22490673.080    92095656.01746
  21445728.080   112698074.05608  21445727.320    87816688.58748
  24423023.740   128343851.92805  24423024.280   100008197.77444
  20655944.500   108547824.73709  20655943.480    84582756.70749
  20388842.500   107144101.97009  20388845.720    83488944.90049
  24124403.200   126774622.45506  24124408.220    98785455.12245
 15 01 29 04 26  0.0000000  0  9G04G11G16G18G19G21G22G27G32
  22607124.160   118801267.96908  22607126.380    92572440.74346
  24223074.420   127293118.25906  24223075.980    99189449.51144
  21411135.400   112516271.76609  21411136.540    87675022.62648
  22502928.840   118253768.75708  22502929.720    92145844.79546
  21434875.400   112641043.02208  21434874.700    87772248.82648
  24436278.660   128413506.46405  24436278.760   100062474.03344
  20656467.960   108550575.65909  20656466.920    84584900.28949
  20385424.840   107126141.99009  20385428.060    83474950.11049
  24101926.200   126656507.13505  24101931.240    98693417.52344
 15 01 29 04 26 30.0000000  0  9G04G11G16G18G19G21G22G27G32
  22592947.500   118726769.22108  22592949.620    92514389.78046
  24206160.320   127204234.14306  24206161.760    99120189.17744
  21424371.260   112585826.45208  21424372.400    87729221.07648
  22515249.740   118318516.00408  22515250.660    92196297.18946
  21424062.800   112584222.43608  21424062.120    87727973.05348
  24449533.040   128483158.17105  24449533.020   100116748.06845
  20657091.900   108553854.63809  20657090.860    84587455.34449
  20382071.180   107108518.45109  20382074.420    83461217.48249
  24079466.740   126538482.21805  24079471.400    98601450.33245
 15 01 29 04 27  0.0000000  0  9G04G11G16G18G19G21G22G27G32
  22578810.700   118652479.93308  22578812.700    92456502.04746
  24189259.340   127115418.70106  24189260.680    99050982.34545
  21437691.100   112655822.54908  21437692.240    87783763.47948
  22527634.200   118383596.91708  22527635.120    92247009.58146
  21413290.060   112527611.15308  21413289.340    87683860.37348
  24462786.420   128552804.63005  24462786.240   100171017.98143
  20657815.780   108557658.80309  20657814.760    84590419.63049
  20378781.320   107091230.19309  20378784.580    83447746.11149
  24057024.280   126420547.95206  24057028.880    98509553.79444
 15 01 29 04 27 30.0000000  0  9G04G11G16G18G19G21G22G27G32
  22564714.300   118578403.01908  22564716.160    92398779.80846
  24172372.040   127026674.92806  24172373.260    98981831.40144
  21451095.000   112726260.63208  21451096.160    87838650.29148
  22540082.340   118449012.24308  22540083.260    92297982.56446
  21402557.940   112471213.32108  21402557.180    87639914.01948
  24476039.200   128622448.10605  24476038.800   100225285.64144
  20658640.000   108561990.41309  20658639.060    84593794.91549
  20375556.060   107074281.35909  20375559.280    83434539.23149
  24034600.320   126302709.79906  24034604.700    98417732.11144
 15 01 29 04 28  0.0000000  0  9G04G11G16G18G19G21G22G27G32
  22550658.000   118504536.95508  22550659.820    92341221.84846
  24155498.120   126938001.38906  24155499.260    98912735.16343
  21464582.220   112797136.45708  21464583.360    87893878.20448
  22552593.380   118514757.91808  22552594.280    92349212.96046
  21391866.360   112415028.49708  21391865.600    87596133.63448
  24489291.060   128692086.27806  24489290.560   100279549.11143
  20659564.100   108566846.77509  20659563.200    84597579.09749
  20372395.280   107057671.19509  20372398.440    83421596.24049
  24012194.700   126184968.25706  24012198.900    98325985.68844
 15 01 29 04 28 30.0000000  0  9G04G11G16G18G19G21G22G27G32
  22536642.160   118430883.67608  22536644.000    92283829.69146
  24138638.020   126849400.58206  24138639.060    98843695.61244
  21478152.700   112868449.85808  21478153.820    87949447.08248
  22565167.180   118580833.57808  22565168.100    92400700.47946
  21381215.880   112359059.83908  21381215.160    87552521.70348
  24502542.240   128761720.85106  24502541.760   100333809.77844
  20660588.380   108572229.43709  20660587.500    84601773.38349
  20369299.540   107041402.94609  20369302.660    83408919.68849
  23989808.360   126067327.86606  23989812.340    98234318.10145
 15 01 29 04 29  0.0000000  0  9G04G11G16G18G19G21G22G27G32
  22522666.900   118357443.49708  22522668.860    92226603.58746
  24121791.660   126760872.21806  24121792.620    98774712.49844
  21491805.960   112940198.04208  21491806.980    88005354.74848
  22577803.440   118647237.30708  22577804.380    92452443.64046
  21370606.720   112303308.40908  21370606.020    87509079.03648
  24515792.420   128831350.78006  24515792.020   100388066.84944
  20661712.660   108578137.31609  20661711.740    84606376.92749
  20366269.020   107025477.47409  20366272.120    83396510.22549
  23967441.700   125949790.91606  23967445.560    98142731.09245
 15 01 29 04 29 30.0000000  0  9G04G11G16G18G19G21G22G27G32
  22508731.940   118284214.83508  22508733.940    92169542.30746
  24104958.940   126672415.42305  24104959.860    98705785.15943
  21505541.260   113012377.47808  21505542.260    88061598.45648
  22590501.400   118713965.64008  22590502.360    92504439.74446
  21360038.900   112247774.27408  21360038.160    87465805.69048
  24529041.420   128900974.81105  24529041.020   100442319.27744
  20662936.500   108584568.29709  20662935.500    84611388.09249
  20363303.720   107009894.74909  20363306.820    83384367.84249
  23945095.020   125832358.54006  23945098.680    98051225.56845
 15 01 29 04 30  0.0000000  0  9G04G11G16G18G19G21G22G27G32
  22494837.720   118211199.98208  22494839.720    92112647.62046
  24088140.120   126584032.42905  24088141.020    98636915.36044
  21519358.460   113084987.42508  21519359.460    88118177.62848
  22603261.040   118781018.33708  22603262.040    92556688.58846
  21349513.000   112192460.48008  21349512.240    87422704.03948
  24542289.520   128970594.41605  24542289.300   100496568.30045
  20664260.140   108591523.88109  20664259.080    84616808.03349
  20360404.260   106994658.01009  20360407.400    83372495.05749
  23922769.200   125715035.37806  23922772.620    97959805.11445
 15 01 29 04 30 30.0000000  0  9G04G11G16G18G19G21G22G27G32
  22480984.180   118138398.83308  22480986.160    92055919.47346
  24071335.300   126495723.40005  24071336.380    98568103.16844
  21533257.120   113158025.43708  21533258.180    88175090.36248
  22616081.860   118848392.37608  22616082.860    92609187.84046
  21339029.280   112137368.24108  21339028.520    87379775.02448
  24555536.600   129040209.04605  24555536.720   100550813.43544
  20665683.380   108599003.05709  20665682.320    84622635.97149
  20357570.820   106979768.02209  20357573.940    83360892.47149
  23900464.540   125597823.54606  23900467.820    97868471.39944
 15 01 29 04 31  0.0000000  0  9G04G11G16G18G19G21G22G27G32
  22467171.360   118065811.79608  22467173.320    91999358.15946
  24054544.580   126407488.91305  24054545.900    98499349.02944
  21547236.780   113231489.11408  21547237.920    88232334.77848
  22628963.640   118916086.54508  22628964.620    92661936.55146
  21328588.060   112082499.40708  21328587.340    87337020.10048
  24568782.680   129109818.65405  24568783.040   100605054.67242
  20667206.120   108607005.21809  20667205.100    84628871.42749
  20354803.660   106965226.39009  20354806.780    83349561.32949
  23878181.580   125480726.04206  23878184.740    97777226.78644
 15 01 29 04 31 30.0000000  0  9G04G11G16G18G19G21G22G27G32
  22453399.040   117993437.44208  22453400.940    91942962.57846
  24037767.840   126319327.56105  24037769.360    98430651.88844
  21561296.760   113305374.66908  21561297.880    88289907.93948
  22641905.560   118984096.94408  22641906.520    92714931.66746
  21318189.300   112027853.47308  21318188.580    87294438.86148
  24582027.400   129179421.25205  24582028.060   100659290.45444
  20668827.940   108615527.92909  20668826.920    84635512.50249
  20352102.680   106951032.59709  20352105.800    83338501.23149
  23855920.480   125363743.67406  23855923.580    97686071.88645
 15 01 29 04 32  0.0000000  0  9G04G11G16G18G19G21G22G27G32
  22439667.520   117921277.58908  22439669.360    91886734.13746
  24021005.500   126231241.29505  24021007.240    98362013.27045
  21575436.860   113379681.00708  21575437.900    88347808.97648
  22654907.480   119052422.73308  22654908.480    92768172.53846
  21307833.500   111973433.41308  21307832.720    87252033.62448
  24595271.060   129249018.50304  24595272.120   100713522.03745
  20670549.020   108624572.28909  20670548.000    84642560.05849
  20349468.460   106937189.53609  20349471.560    83327714.42349
  23833682.080   125246880.64806  23833685.180    97595009.96444
 15 01 29 04 32 30.0000000  0  9G04G11G14G16G18G19G22G27G32
  22425977.920   117849338.20008  22425979.700    91830677.49346
  24004258.800   126143236.65905  24004260.580    98293438.27145
  24683461.300   129712459.71005  24683464.100   101074655.86544
  21589657.740   113454411.95408  21589658.680    88406040.88348
  22667970.340   119121068.21108  22667971.300    92821662.52446
  21297521.980   111919246.06708  21297521.180    87209809.72848
  20672370.280   108634143.23809  20672369.280    84650017.94449
  20346902.280   106923704.15309  20346905.360    83317206.33549
  23811467.980   125130145.28506  23811471.040    97504047.49145
 15 01 29 04 33  0.0000000  0 10G04G11G14G16G18G19G21G22G27G32
  22412326.380   117777599.10508  22412328.180    91774776.91146
  23987523.640   126055293.13306  23987525.420    98224910.88044
  24668874.400   129635807.24104  24668876.420   101014926.77444
  21603955.080   113529544.73608  21603955.940    88464585.89948
  22681089.760   119190010.78408  22681090.660    92875384.00446
  21287251.160   111865272.86208  21287250.440    87167752.69348
  24621755.480   129388195.31105  24621756.100   100821976.32643
  20674287.720   108644219.68409  20674286.720    84657869.72049
  20344400.560   106910557.56309  20344403.640    83306962.23849
  23789274.760   125013520.09906  23789277.820    97413170.89045
 15 01 29 04 33 30.0000000  0 10G04G11G14G16G18G19G21G22G27G32
  22398716.380   117706078.49008  22398718.220    91719046.58046
  23970803.740   125967429.86506  23970805.580    98156446.02844
  24654292.400   129559178.43705  24654294.280   100955215.95646
  21618331.720   113605094.26108  21618332.520    88523455.65148
  22694268.700   119259266.13208  22694269.520    92929349.20246
  21277024.820   111811533.34008  21277024.160    87125877.75248
  24634994.920   129457768.15805  24634995.480   100876188.92043
  20676304.640   108654818.82809  20676303.640    84666128.79449
  20341966.940   106897768.77409  20341970.000    83296996.94749
  23767106.420   124897025.42406  23767109.440    97322395.99145
 15 01 29 04 34  0.0000000  0 10G04G11G14G16G18G19G21G22G27G32
  22385148.300   117634778.12608  22385150.200    91663487.87246
  23954099.500   125879648.45706  23954101.300    98088044.95445
  24639715.360   129482577.72705  24639717.760   100895527.15044
  21632787.540   113681060.11008  21632788.360    88582649.81548
  22707507.080   119328833.81008  22707507.780    92983557.78046
  21266843.520   111758030.45208  21266842.900    87084187.19848
  24648233.800   129527339.35905  24648234.620   100930400.19844
  20678421.200   108665941.37109  20678420.180    84674795.71249
  20339601.940   106885340.71809  20339605.020    83287312.74549
  23744963.720   124780665.56506  23744966.700    97231726.09045
 15 01 29 04 34 30.0000000  0 10G04G11G14G16G18G19G21G22G27G32
  22371620.860   117563691.17008  22371622.800    91608095.46746
  23937409.540   125791942.23106  23937411.360    98019702.48244
  24625143.140   129406001.11905  24625145.860   100835857.15444
  21647320.740   113757432.82308  21647321.640    88642161.01148
  22720803.080   119398704.56208  22720803.780    93038002.51446
  21256706.180   111704758.19808  21256705.500    87042676.35248
  24661471.000   129596901.58805  24661471.660   100984604.49245
  20680635.880   108677579.54309  20680634.820    84683864.42249
  20337304.440   106873267.42909  20337307.560    83277904.98349
  23722845.820   124664435.88306  23722848.760    97141157.61545
 15 01 29 04 35  0.0000000  0 10G04G11G14G16G18G19G21G22G27G32
  22358134.360   117492819.32608  22358136.320    91552870.67446
  23920734.280   125704313.06406  23920736.040    97951420.05645
  24610576.440   129329452.26505  24610579.000   100776208.68144
  21661931.060   113834211.12208  21661932.100    88701988.25348
  22734156.560   119468877.62608  22734157.300    93092682.81746
  21246613.340   111651719.70008  21246612.580    87001347.65948
  24674706.720   129666455.74005  24674707.200   101038802.49744
  20682948.780   108689733.80409  20682947.700    84693335.27249
  20335074.940   106861551.62709  20335078.120    83268775.78949
  23700753.480   124548340.56706  23700756.500    97050693.84145
 15 01 29 04 35 30.0000000  0 10G04G11G14G16G18G19G21G22G27G32
  22344689.040   117422163.82908  22344691.020    91497814.46146
  23904073.960   125616762.34906  23904075.560    97883198.76944
  24596015.740   129252935.69305  24596018.260   100716585.44745
  21676618.400   113911394.10908  21676619.580    88762130.83648
  22747567.340   119539352.10808  22747568.120    93147597.99246
  21236565.400   111598917.50608  21236564.680    86960203.10448
  24687941.220   129736003.11505  24687941.540   101092995.23144
  20685359.940   108702404.49309  20685358.820    84703208.53949
  20332913.960   106850195.72909  20332917.180    83259927.03749
  23678687.280   124432383.46206  23678690.540    96960337.78045
 15 01 29 04 36  0.0000000  0 10G04G11G14G16G18G19G21G22G27G32
  22331284.640   117351723.47408  22331286.720    91442925.88346
  23887428.460   125529289.06506  23887429.860    97815037.78344
  24581461.620   129176452.65105  24581463.940   100656988.28844
  21691381.960   113988977.68708  21691383.260    88822585.56648
  22761034.800   119610124.55308  22761035.660    93202745.34346
  21226562.400   111546351.63308  21226561.720    86919242.69048
  24701174.100   129805541.97005  24701174.260   101147181.33944
  20687869.000   108715589.48009  20687867.820    84713482.55649
  20330821.480   106839199.57009  20330824.680    83251358.59849
  23656647.540   124316565.62006  23656651.020    96870090.21145
 15 01 29 04 36 30.0000000  0 10G04G11G14G16G18G19G21G22G27G32
  22317921.500   117281500.17708  22317923.700    91388206.44346
  23870798.060   125441895.53206  23870799.320    97746938.99745
  24566915.200   129100008.60105  24566917.620   100597417.77444
  21706221.660   114066960.90208  21706222.980    88883351.70648
  22774558.960   119681194.49808  22774559.860    93258124.51346
  21216604.980   111494025.18208  21216604.340    86878468.83448
  24714405.660   129875073.78005  24714405.600   101201361.94341
  20690476.020   108729289.36509  20690474.820    84724157.79849
  20328798.020   106828565.94509  20328801.180    83243072.65649
  23634635.140   124200891.40906  23634638.880    96779954.57745
 15 01 29 04 37  0.0000000  0 10G04G11G14G16G18G19G21G22G27G32
  22304599.620   117211493.57208  22304601.900    91333655.85646
  23854182.800   125354581.72505  23854183.920    97678902.29544
  24552375.820   129023604.10105  24552377.600   100537881.82444
  21721136.880   114145340.90208  21721138.160    88944427.02248
  22788139.360   119752559.56408  22788140.220    93313733.65046
  21206693.340   111441939.14108  21206692.720    86837882.31348
  24727635.640   129944597.85405  24727635.400   101255536.44644
  20693180.740   108743502.89309  20693179.580    84735233.27449
  20326843.700   106818295.66209  20326846.800    83235069.83449
  23612650.640   124085362.99306  23612654.420    96689932.52544
 15 01 29 04 37 30.0000000  0 10G04G11G14G16G18G19G21G22G27G32
  22291319.040   117141703.93208  22291321.380    91279274.33946
  23837582.680   125267347.95205  23837583.660    97610927.98044
  24537844.520   128947242.48705  24537846.280   100478379.31544
  21736127.100   114224114.69508  21736128.320    89005809.19548
  22801775.460   119824217.11808  22801776.240    93369570.70046
  21196827.680   111390094.60408  21196827.040    86797483.97648
  24740863.960   130014113.69905  24740863.860   101309704.66644
  20695982.980   108758228.92709  20695981.880    84746708.11049
  20324958.700   106808389.65209  20324961.760    83227350.86349
  23590694.500   123969982.68306  23590698.060    96600025.91145
 15 01 29 04 38  0.0000000  0 10G04G11G14G16G18G19G21G22G27G32
  22278079.660   117072130.53808  22278081.980    91225061.32446
  23820997.700   125180194.11905  23820998.720    97543015.93544
  24523322.020   128870926.26604  24523324.000   100418912.15443
  21751191.680   114303279.31408  21751192.860    89067495.90448
  22815466.720   119896164.62808  22815467.400    93425633.68946
  21187008.140   111338492.54908  21187007.500    86757274.58748
  24754090.580   130083620.69804  24754090.640   101363865.94344
  20698882.400   108773465.70809  20698881.360    84758580.93049
  20323143.100   106798848.52809  20323146.160    83219916.21749
  23568767.060   123854752.45406  23568770.220    96510236.20645
 15 01 29 04 38 30.0000000  0 10G04G11G14G16G18G19G21G22G27G32
  22264882.060   117002776.71908  22264884.320    91171019.41346
  23804428.500   125093123.37605  23804429.640    97475168.63745
  24508809.140   128794661.33905  24508811.280   100359484.95543
  21766330.760   114382835.71308  21766331.960    89129487.89848
  22829213.280   119968402.98608  22829213.880    93481923.31146
  21177235.640   111287137.69108  21177235.000    86717257.81748
  24767315.920   130153122.03105  24767316.460   101418022.75544
  20701879.480   108789215.71409  20701878.500    84770853.66849
  20321397.740   106789676.74609  20321400.820    83212769.37449
  23546869.360   123739678.20206  23546872.160    96420568.05445
 15 01 29 04 39  0.0000000  0 10G04G11G14G16G18G19G21G22G27G32
  22251725.380   116933637.91508  22251727.540    91117145.04346
  23787874.340   125006131.37405  23787875.660    97407382.70345
  24494305.680   128718445.70705  24494307.680   100300096.14744
  21781542.920   114462776.04608  21781544.120    89191779.06648
  22843013.820   120040925.23708  22843014.380    93538434.15546
  21167509.480   111236026.36508  21167508.820    86677430.81348
  24780539.240   130222612.18504  24780540.180   101472170.88944
  20704973.080   108805473.06709  20704972.160    84783521.74049
  20319721.940   106780870.46809  20319725.020    83205907.33749
  23525000.920   123624757.64506  23525003.420    96331019.64945
 15 01 29 04 39 30.0000000  0 10G04G11G14G16G18G19G21G22G27G32
  22238610.160   116864716.82108  22238612.220    91063440.31546
  23771335.840   124919221.42205  23771337.260    97339660.70945
  24479812.500   128642284.73605  24479814.720   100240749.97042
  21796828.200   114543100.53508  21796829.360    89254369.57148
  22856868.500   120113731.93808  22856869.040    93595166.65046
  21157830.420   111185162.69508  21157829.760    86637796.78748
  24793761.120   130292093.56204  24793762.220   101526312.26945
  20708163.540   108822239.32309  20708162.660    84796586.35349
  20318116.400   106772433.50909  20318119.500    83199333.08149
  23503162.560   123509995.97006  23503164.920    96241595.05445
 15 01 29 04 40  0.0000000  0 10G04G11G14G16G18G19G21G22G27G32
  22225536.560   116796014.23008  22225538.480    91009905.84846
  23754813.140   124832394.06305  23754814.620    97272003.06844
  24465330.460   128566182.09205  24465332.980   100181449.19944
  21812186.020   114623806.26608  21812187.160    89317257.14648
  22870776.960   120186821.21808  22870777.480    93652119.33546
  21148198.880   111134548.64308  21148198.200    86598357.26948
  24806981.380   130361566.64205  24806982.700   101580447.07344
  20711450.760   108839513.91309  20711449.880    84810047.07849
  20316581.480   106764367.61809  20316584.600    83193047.97349
  23481354.960   123395396.28806  23481357.200    96152296.67245
 15 01 29 04 40 30.0000000  0 10G04G11G14G16G18G19G21G22G27G32
  22212504.320   116727529.07808  22212506.120    90956540.82246
  23738306.100   124745649.08006  23738307.600    97204409.62045
  24450859.960   128490139.72705  24450862.660   100122195.43044
  21827615.980   114704891.01408  21827617.060    89380440.05847
  22884738.660   120260190.13608  22884739.120    93709289.91946
  21138614.940   111084184.79008  21138614.260    86559112.71548
  24820199.960   130431030.19705  24820201.440   101634574.47645
  20714834.300   108857294.58009  20714833.380    84823902.14849
  20315117.160   106756672.79009  20315120.300    83187052.00049
  23459578.360   123280960.10006  23459580.680    96063125.67445
 15 01 29 04 41  0.0000000  0 10G04G11G14G16G18G19G21G22G27G32
  22199513.380   116659261.26208  22199515.160    90903345.14646
  23721814.860   124658986.64206  23721816.320    97136880.48945
  24436401.500   128414159.72305  24436403.980   100062990.22644
  21843117.500   114786351.71808  21843118.500    89443915.92948
  22898753.060   120333836.17208  22898753.520    93766676.43446
  21129078.820   111034072.22308  21129078.140    86520063.96748
  24833416.820   130500483.99305  24833418.140   101688694.29244
  20718313.960   108875580.14309  20718312.960    84838150.64149
  20313723.660   106749350.06709  20313726.820    83181345.97549
  23437833.360   123166689.81606  23437835.720    95974083.94145
 15 01 29 04 41 30.0000000  0 10G04G11G14G16G18G19G21G22G27G32
  22186563.880   116591211.42508  22186565.680    90850319.32146
  23705339.440   124572407.24006  23705340.800    97069416.05245
  24421955.760   128338245.48606  24421957.920   100003836.31644
  21858689.960   114868185.63108  21858690.980    89507682.61148
  22912819.860   120407757.66808  22912820.340    93824277.60446
  21119590.860   110984212.64108  21119590.160    86481212.34748
  24846631.860   130569928.31705  24846633.000   101742806.71244
  20721889.660   108894370.12709  20721888.560    84852792.19049
  20312401.280   106742400.93609  20312404.440    83175931.06849
  23416120.520   123052588.40807  23416122.860    95885173.82745
 15 01 29 04 42  0.0000000  0 10G04G11G14G16G18G19G21G22G27G32
  22173656.220   116523381.73908  22173658.120    90797465.05146
  23688880.360   124485913.56306  23688881.720    97002018.41645
  24407523.400   128262401.74006  24407525.360    99944737.30944
  21874333.320   114950392.13008  21874334.380    89571739.61648
  22926938.980   120481954.62807  22926939.580    93882093.40646
  21110151.780   110934609.87708  21110151.080    86442560.85148
  24859845.380   130639364.60105  24859846.240   101796912.85844
  20725561.540   108913665.62709  20725560.380    84867827.64549
  20311150.640   106735828.58209  20311153.800    83170809.74949
  23394440.720   122938660.55807  23394443.080    95796398.93845
 15 01 29 04 42 30.0000000  0 10G04G11G14G16G18G19G21G22G27G32
  22160790.280   116455771.11008  22160792.260    90744781.47646
  23672437.480   124399504.95106  23672438.780    96934687.04745
  24393104.860   128186630.51306  24393106.500    99885694.80144
  21890046.880   115032967.41608  21890047.980    89636083.99348
  22941109.840   120556423.39607  22941110.520    93940121.01446
  21100761.640   110885264.00608  21100760.900    86404109.52448
  24873057.080   130708791.71805  24873057.700   101851011.88545
  20729329.020   108933463.77009  20729327.840    84883254.77849
  20309971.680   106729632.79009  20309974.800    83165981.86149
  23372794.200   122824907.45107  23372796.620    95707760.21145
 15 01 29 04 43  0.0000000  0 10G04G11G14G16G18G19G21G22G27G32
  22147965.960   116388379.08208  22147968.020    90692268.22646
  23656010.660   124313181.26206  23656011.880    96867421.86946
  24378700.420   128110934.03206  24378701.880    99826710.56944
  21905830.040   115115908.31408  21905831.140    89700713.26047
  22955331.920   120631161.20207  22955332.660    93998358.25746
  21091420.500   110836175.74808  21091419.740    86365858.93548
  24886266.920   130778208.85005  24886267.360   101905103.09343
  20733191.820   108953762.87109  20733190.620    84899072.25949
  20308864.480   106723814.13909  20308867.560    83161447.84749
  23351181.280   122711331.24506  23351183.780    95619259.33245
 15 01 29 04 43 30.0000000  0 10G04G11G14G16G18G19G21G22G27G32
  22135183.600   116321207.30508  22135185.700    90639926.61746
  23639600.240   124226944.23506  23639601.500    96800224.20445
  24364310.940   128035316.91206  24364312.360    99767788.16644
  21921682.560   115199213.80008  21921683.680    89765626.62848
  22969605.120   120706167.63407  22969605.980    94056804.82246
  21082128.960   110787348.43108  21082128.200    86327811.67449
  24899475.100   130847617.44504  24899475.220   101959187.71544
  20737150.040   108974563.77609  20737148.920    84915280.76049
  20307829.580   106718375.48709  20307832.640    83157209.93749
  23329602.760   122597936.14206  23329605.380    95530899.56145
 15 01 29 04 44  0.0000000  0 10G04G11G14G16G18G19G21G22G27G32
  22122443.180   116254255.78908  22122445.280    90587756.63546
  23623206.280   124140794.10805  23623207.620    96733094.25845
  24349936.860   127959781.31805  24349938.320    99708929.27744
  21937603.920   115282880.92008  21937604.980    89830821.77447
  22983929.080   120781440.43407  22983929.940    94115458.95146
  21072887.240   110738782.99808  21072886.480    86289968.48748
  24912681.460   130917016.94105  24912681.280   102013265.16744
  20741203.380   108995864.72609  20741202.360    84931878.90149
  20306867.060   106713317.43109  20306870.140    83153268.59149
  23308059.060   122484724.34106  23308061.820    95442682.60645
 15 01 29 04 44 30.0000000  0 10G04G11G14G16G18G19G21G22G27G32
  22109744.520   116187523.83308  22109746.660    90535757.73747
  23606828.860   124054730.81306  23606830.180    96666031.99144
  24335578.680   127884329.63706  24335580.100    99650135.76544
  21953593.420   115366906.26508  21953594.440    89896296.06747
  22998303.060   120856976.32407  22998303.960    94174318.08246
  21063695.580   110690480.56508  21063694.840    86252330.23149
  24925885.940   130986406.69205  24925885.720   102067335.08844
  20745351.560   109017664.04809  20745350.660    84948865.38649
  20305977.100   106708640.55209  20305980.140    83149624.27149
  23286550.640   122371697.82406  23286553.580    95354610.03046
 15 01 29 04 45  0.0000000  0 10G04G11G14G16G18G19G21G22G27G32
  22097087.820   116121012.24208  22097089.940    90483930.53747
  23590468.180   123968755.43506  23590469.540    96599038.20444
  24321237.200   127808965.59205  24321238.740    99591410.58444
  21969650.640   115451287.83008  21969651.660    89962047.93047
  23012726.860   120932774.17007  23012727.780    94233381.32946
  21054554.300   110642443.05108  21054553.600    86214898.40648
  24939088.620   131055787.38505  24939088.660   102121397.97643
  20749594.440   109039960.91609  20749593.640    84966239.57349
  20305159.980   106704346.52609  20305163.020    83146278.27749
  23265078.200   122258859.77407  23265081.200    95266684.31645
 15 01 29 04 45 30.0000000  0 10G04G11G14G16G18G19G21G22G27G32
  22084472.800   116054720.07908  22084474.960    90432274.32146
  23574124.080   123882867.17506  23574125.440    96532112.33444
  24306912.620   127733690.64005  24306914.380    99532754.76544
  21985774.940   115536022.01108  21985776.020    90028074.55447
  23027199.860   121008830.58707  23027200.780    94292646.06746
  21045463.580   110594670.92108  21045462.860    86177673.38048
  24952289.180   131125157.61305  24952289.500   102175452.67343
  20753931.700   109062753.25309  20753930.880    84983999.83349
  20304415.680   106700435.39209  20304418.760    83143230.63449
  23243641.980   122146211.74307  23243645.040    95178906.66645
 15 01 29 04 46  0.0000000  0 10G04G11G14G16G18G19G21G22G27G32
  22071899.720   115988648.35608  22071901.960    90380789.87647
  23557796.920   123797067.96106  23557798.300    96465255.83545
  24292605.840   127658508.90005  24292607.540    99474171.58344
  22001965.980   115621106.83708  22001967.100    90094374.41647
  23041721.780   121085144.10207  23041722.720    94352111.13846
  21036423.780   110547166.42508  21036423.060    86140656.89448
  24965487.860   131194517.97005  24965488.600   102229499.65144
  20758363.180   109086040.57709  20758362.300    85002145.80949
  20303744.600   106696909.11409  20303747.720    83140482.88949
  23222242.640   122033757.14807  23222245.620    95091279.75845
 15 01 29 04 46 30.0000000  0 10G04G11G14G16G18G19G21G22G27G32
  22059368.440   115922796.21608  22059370.740    90329476.53447
  23541486.500   123711356.34905  23541487.920    96398467.59045
  24278317.180   127583422.24705  24278319.140    99415662.52744
  22018223.040   115706538.52708  22018224.240    90160944.56247
  23056292.020   121161711.71107  23056293.040    94411774.20746
  21027434.960   110499929.92308  21027434.240    86103849.23648
  24978684.620   131263867.27005  24978685.480   102283538.06644
  20762888.460   109109820.74509  20762887.500    85020675.81249
  20303146.800   106693767.69309  20303149.920    83138035.02449
  23200880.400   121921497.53507  23200883.300    95003804.78245
 15 01 29 04 47  0.0000000  0  9G04G11G14G16G18G19G22G27G32
  22046879.060   115857164.45408  22046881.420    90278334.91247
  23525193.080   123625733.84106  23525194.420    96331748.81444
  24264047.320   127508433.89906  24264049.300    99357230.05944
  22034545.800   115792315.04408  22034547.040    90227783.39647
  23070910.420   121238532.02607  23070911.500    94471634.19045
  21018497.600   110452963.75808  21018496.880    86067252.23249
  20767507.420   109134093.32309  20767506.360    85039589.50949
  20302622.560   106691012.91409  20302625.700    83135888.43549
  23179555.920   121809436.18207  23179558.580    94916484.28445
 15 01 29 04 47 30.0000000  0  9G04G11G14G16G18G19G22G27G32
  22034432.100   115791755.45908  22034434.480    90227366.87246
  23508917.320   123540203.89806  23508918.580    96265102.15745
  24249797.400   127433549.45006  24249799.300    99298878.54644
  22050934.140   115878435.98908  22050935.360    90294890.63247
  23085577.100   121315605.38807  23085578.140    94531691.34846
  21009612.440   110406271.96108  21009611.720    86030869.01249
  20772220.200   109158859.11009  20772219.060    85058887.52949
  20302172.600   106688648.29309  20302175.720    83134045.87149
  23158270.120   121697578.16707  23158272.500    94829322.23945
 15 01 29 04 48  0.0000000  0  9G04G11G14G16G18G19G22G27G32
  22022027.900   115726571.09708  22022030.280    90176573.87346
  23492659.540   123454768.07006  23492660.720    96198528.83144
  24235568.280   127358773.17206  24235570.100    99240611.31045
  22067387.860   115964900.34608  22067389.040    90362265.45647
  23100291.740   121392930.87307  23100292.740    94591944.97545
  21000780.020   110359857.36008  21000779.320    85994701.79649
  20777026.940   109184118.62309  20777025.740    85078570.27249
  20301797.360   106686676.38309  20301800.480    83132509.32049
  23137023.740   121585927.56807  23137025.880    94742321.79345
 15 01 29 04 48 30.0000000  0 10G01G04G11G14G16G18G19G22G27G32
  24545603.500   128988017.26804  24545608.340   100510163.70045
  22009663.320   115661594.63308  22009665.580    90125942.88746
  23476416.540   123369410.06606  23476417.720    96132016.14645
  24221357.120   127284091.29306  24221358.860    99182417.66344
  22083903.200   116051688.82308  22083904.360    90429892.83247
  23115050.760   121470489.73907  23115051.720    94652380.45145
  20991997.500   110313704.88508  20991996.800    85958738.83349
  20781924.120   109209853.52709  20781922.900    85098623.44949
  20301493.840   106685081.47909  20301497.000    83131266.52849
  23115814.000   121474470.09707  23115816.060    94655471.85345
 15 01 29 04 49  0.0000000  0 10G01G04G11G14G16G18G19G22G27G32
  24530359.920   128907912.12004  24530365.260   100447744.20044
  21997342.420   115596847.57808  21997344.540    90075490.65846
  23460192.460   123284151.67206  23460193.620    96065581.09545
  24207168.560   127209528.22306  24207170.180    99124316.58244
  22100483.740   116138819.82008  22100484.860    90497787.11447
  23129857.800   121548301.29907  23129858.760    94713012.82946
  20983269.180   110267837.27708  20983268.480    85922997.84649
  20786915.620   109236083.93709  20786914.400    85119062.73349
  20301266.360   106683886.05609  20301269.540    83130335.03349
  23094645.580   121363229.87507  23094647.660    94568791.18545
 15 01 29 04 49 30.0000000  0 10G01G04G11G14G16G18G19G22G27G32
  24515137.220   128827917.01104  24515142.960   100385410.38844
  21985063.760   115532322.52408  21985065.780    90025211.41846
  23443986.000   123198986.03706  23443987.140    95999218.30445
  24193001.560   127135079.25306  24193003.180    99066304.40545
  22117127.420   116226282.88808  22117128.500    90565940.14847
  23144711.080   121626355.88007  23144712.040    94773834.57246
  20974593.940   110222248.58308  20974593.240    85887474.19449
  20791999.740   109262801.16809  20791998.580    85139881.35849
  20301113.620   106683083.54409  20301116.820    83129709.69749
  23073517.540   121252201.79807  23073519.700    94482275.82945
 15 01 29 04 50  0.0000000  0 10G01G04G11G14G16G18G19G22G27G32
  24499935.320   128748031.02604  24499941.160   100323161.62844
  21972827.160   115468018.65708  21972829.140    89975104.52947
  23427797.080   123113912.67006  23427798.220    95932927.41745
  24178856.380   127060746.24806  24178858.080    99008382.61845
  22133833.640   116314074.76108  22133834.660    90634349.39447
  23159610.120   121704650.25707  23159610.880    94834843.17845
  20965971.880   110176939.46208  20965971.180    85852168.39449
  20797176.120   109290003.07309  20797174.980    85161077.65949
  20301035.700   106682674.14009  20301038.920    83129390.68549
  23052430.200   121141387.63307  23052432.520    94395927.14745
 15 01 29 04 50 30.0000000  0 10G01G04G11G14G16G18G19G22G27G32
  24484754.560   128668255.92704  24484760.360   100260999.25843
  21960633.000   115403937.91108  21960634.960    89925171.49147
  23411626.100   123028933.52806  23411627.280    95866709.94145
  24164734.140   126986533.94906  24164735.740    98950554.83644
  22150602.220   116402194.35408  22150603.180    90703014.00147
  23174554.640   121783183.78007  23174555.320    94896038.13346
  20957403.580   110131912.88108  20957402.900    85817082.75349
  20802444.700   109317689.49109  20802443.560    85182651.49449
  20301033.040   106682660.44009  20301036.320    83129380.00649
  23031384.420   121030791.53607  23031386.920    94309748.40945
 15 01 29 04 51  0.0000000  0 10G01G04G11G14G16G18G19G22G27G32
  24469594.660   128588590.53004  24469600.600   100198922.39145
  21948480.960   115340078.85908  21948482.980    89875411.19947
  23395472.920   122944048.30406  23395474.160    95800565.63145
  24150635.100   126912444.18606  24150636.740    98892822.56244
  22167432.320   116490637.22708  22167433.240    90771930.51747
  23189544.060   121861953.44807  23189544.720    94957417.07945
  20948889.160   110087169.29708  20948888.460    85782217.62649
  20807805.000   109345858.03109  20807803.880    85204601.00849
  20301105.700   106683042.25809  20301108.960    83129677.53049
  23010380.440   120920414.97007  23010383.020    94223740.70446
 15 01 29 04 51 30.0000000  0 10G01G04G11G14G16G18G19G22G27G32
  24454455.640   128509034.66904  24454461.440   100136930.85644
  21936371.100   115276441.60408  21936373.240    89825823.74047
  23379337.600   122859257.18006  23379338.920    95734494.64245
  24136559.740   126838479.29405  24136561.560    98835187.60844
  22184323.440   116579400.43008  22184324.280    90841096.63947
  23204577.960   121940956.73907  23204578.580    95018978.08545
  20940428.820   110042709.83908  20940428.080    85747573.89949
  20813256.720   109374507.10209  20813255.640    85226924.96649
  20301253.780   106683820.35509  20301256.980    83130283.83349
  22989418.660   120810260.01507  22989421.300    94137905.69746
 15 01 29 04 52  0.0000000  0 10G01G04G11G14G16G18G19G22G27G32
  24439337.840   128429590.00004  24439343.520   100075025.96344
  21924303.740   115213027.72008  21924305.980    89776410.32747
  23363220.480   122774561.99406  23363221.980    95668498.41145
  24122508.980   126764643.47105  24122511.120    98777653.21844
  22201275.300   116668482.95608  22201276.140    90910511.58847
  23219656.100   122020192.95507  23219656.760    95080720.58446
  20932023.140   109998537.68008  20932022.360    85713154.03449
  20818799.900   109403636.90409  20818798.840    85249623.51549
  20301477.760   106684997.26709  20301480.900    83131200.90049
  22968499.940   120700331.02907  22968502.500    94052246.77145
 15 01 29 04 52 30.0000000  0 10G01G04G11G14G16G18G19G22G27G32
  24424240.860   128350255.09704  24424246.180   100013206.61045
  21912278.660   115149835.86608  21912281.000    89727169.92347
  23347121.440   122689961.87406  23347123.060    95602576.25845
  24108483.220   126690938.85205  24108485.560    98720221.08344
  22218287.100   116757880.54508  22218288.020    90980172.04547
  23234777.860   122099658.43007  23234778.540    95142641.72146
  20923672.060   109954652.59708  20923671.320    85678957.87049
  20824434.000   109433244.58609  20824432.960    85272694.43649
  20301777.540   106686572.51209  20301780.660    83132428.35949
  22947624.440   120590629.02607  22947626.900    93966764.71646
 15 01 29 04 53  0.0000000  0 10G01G04G11G14G16G18G19G22G27G32
  24409164.880   128271030.50304  24409169.820    99951473.21544
  21900296.000   115086866.69108  21900298.380    89678103.05147
  23331040.720   122605457.95806  23331042.360    95536729.06845
  24094483.080   126617368.74506  24094485.540    98662893.74745
  22235358.360   116847590.92408  22235359.380    91050076.23847
  23249942.960   122179351.78607  23249943.600    95204740.43246
  20915376.060   109911057.01508  20915375.380    85644987.28949
  20830158.840   109463329.14909  20830157.820    85296136.95349
  20302153.400   106688547.61109  20302156.520    83133967.39649
  22926792.720   120481157.04207  22926795.060    93881461.88946
 15 01 29 04 53 30.0000000  0 10G01G04G11G14G16G18G19G22G27G32
  24394109.800   128191915.89904  24394114.620    99889825.53844
  21888355.720   115024119.86208  21888358.060    89629209.43047
  23314978.420   122521050.29406  23314979.940    95470956.87245
  24080509.020   126543935.36806  24080511.600    98605672.94445
  22252488.500   116937610.67408  22252489.620    91120221.49747
  23265150.780   122259270.07107  23265151.460    95267014.40846
  20907135.400   109867752.13008  20907134.760    85611243.22549
  20835974.140   109493888.71509  20835973.100    85319949.60549
  20302605.480   106690923.02109  20302608.560    83135818.36949
  22906005.100   120371917.16407  22906007.380    93796339.92146
 15 01 29 04 54  0.0000000  0 10G01G04G11G14G16G18G19G22G27G32
  24379075.660   128112911.24904  24379080.320    99828263.51644
  21876457.720   114961595.21408  21876459.980    89580488.94347
  23298934.580   122436739.48506  23298936.020    95405260.16045
  24066561.720   126470641.80906  24066564.400    98548561.10945
  22269677.080   117027936.99308  22269678.160    91190605.63747
  23280401.120   122339411.40407  23280401.740    95329462.18845
  20898950.280   109824738.88708  20898949.620    85577726.41849
  20841879.480   109524921.33109  20841878.400    85344130.86749
  20303133.880   106693699.69309  20303136.980    83137982.00749
  22885262.060   120262911.93707  22885264.380    93711400.80345
 15 01 29 04 54 30.0000000  0 10G01G04G11G14G16G18G19G22G27G32
  24364062.340   128034016.13504  24364067.020    99766786.85542
  21864602.020   114899292.59308  21864604.160    89531941.46347
  23282909.140   122352525.17406  23282910.500    95339638.63645
  24052641.560   126397490.55706  24052644.160    98491560.13545
  22286923.400   117118566.68608  22286924.380    91261226.16647
  23295693.460   122419773.26907  23295694.080    95392081.82945
  20890820.940   109782018.50508  20890820.240    85544437.81749
  20847874.580   109556425.48409  20847873.460    85368679.55549
  20303738.700   106696878.11209  20303741.840    83140458.68849
  22864564.020   120154143.38107  22864566.440    93626646.10546
 15 01 29 04 55  0.0000000  0 10G01G04G11G14G16G18G19G22G27G32
  24349070.240   127955232.07904  24349074.960    99705396.72844
  21852788.860   114837213.64308  21852790.860    89483568.26947
  23266902.560   122268409.71307  23266903.780    95274094.15745
  24038749.420   126324485.64606  24038751.860    98434673.21444
  22304227.140   117209498.09608  22304228.020    91332081.79847
  23311027.680   122500354.80807  23311028.240    95454872.62645
  20882747.920   109739594.14908  20882747.140    85511379.87949
  20853959.380   109588401.17709  20853958.240    85393595.68249
  20304420.400   106700460.67709  20304423.620    83143250.29249
  22843911.760   120045615.51707  22843914.200    93542078.95246
 15 01 29 04 55 30.0000000  0 10G01G04G11G14G16G18G19G22G27G32
  24334099.280   127876558.90804  24334104.280    99644093.02443
  21841018.160   114775357.93908  21841020.020    89435369.03047
  23250914.800   122184393.29907  23250915.860    95208626.83445
  24024885.640   126251629.93706  24024887.920    98377902.54444
  22321587.680   117300728.26308  22321588.540    91403170.23847
  23326403.240   122581153.68707  23326403.820    95517832.78446
  20874731.380   109697466.95708  20874730.600    85478553.50049
  20860133.560   109620846.60909  20860132.420    85418877.83949
  20305179.160   106704448.09809  20305182.400    83146357.36549
  22823305.780   119937330.76007  22823308.180    93457701.23846
 15 01 29 04 56  0.0000000  0 10G01G04G11G14G16G18G19G22G27G32
  24319149.440   127797996.72204  24319154.660    99582875.79044
  21829290.000   114713725.97408  21829291.740    89387344.15746
  23234946.020   122100476.64107  23234947.000    95143237.26745
  24011050.820   126178926.52906  24011052.900    98321250.55444
  22339004.600   117392255.12308  22339005.540    91474489.86647
  23341819.700   122662167.52407  23341820.300    95580960.43845
  20866771.660   109655638.62808  20866770.920    85445960.00149
  20866396.820   109653760.24109  20866395.680    85444524.82749
  20306015.160   106708841.38909  20306018.420    83149780.69849
  22802746.540   119829291.62707  22802748.880    93373514.92145
 15 01 29 04 56 30.0000000  0 10G01G04G11G14G16G18G19G22G27G32
  24304220.760   127719545.73504  24304226.080    99521745.22244
  21817604.420   114652317.83708  21817606.060    89339493.69747
  23218996.400   122016660.37307  23218997.220    95077925.91445
  23997245.560   126106378.42906  23997247.380    98264719.58745
  22356477.300   117484075.54908  22356478.400    91546038.25347
  23357276.680   122743394.74107  23357277.280    95644254.37045
  20858869.160   109614110.95708  20858868.440    85413600.78549
  20872748.900   109687140.70509  20872747.780    85470535.58249
  20306928.620   106713641.63809  20306931.880    83153521.15049
  22782234.520   119721500.78907  22782236.880    93289522.07246
