     2.11           OBSERVATION DATA    G                   RINEX VERSION / TYPE
SPIDER V4,0,0,3554                      2015 04 15 06:47    PGM / RUN BY / DATE 
CABS                                                        MARKER NAME         
CABS                                                        MARKER NUMBER       
                                                            OBSERVER / AGENCY   
462287              LEICA GRX1200PRO    8.10/2.127          REC # / TYPE / VERS 
103298              LEIAT504                                ANT # / TYPE        
  5116912.3402   671231.6412  3737143.4301                  APPROX POSITION XYZ 
        0.0600        0.0000        0.0000                  ANTENNA: DELTA H/E/N
     1     1                                                WAVELENGTH FACT L1/2
     4    C1    L1    P2    L2                              # / TYPES OF OBSERV 
    30.000                                                  INTERVAL            
  2015    01    31    00    00    0.0000000     GPS         TIME OF FIRST OBS   
  2015    01    31    23    59   30.0000000     GPS         TIME OF LAST OBS    
    16                                                      LEAP SECONDS        
    30                                                      # OF SATELLITES     
   G 1   795   795   795   795                              PRN / # OF OBS      
   G 2   940   940   940   940                              PRN / # OF OBS      
   G 3   847   847   847   847                              PRN / # OF OBS      
   G 4   831   831   831   831                              PRN / # OF OBS      
   G 5   646   646   646   646                              PRN / # OF OBS      
   G 6   826   826   826   826                              PRN / # OF OBS      
   G 7   672   672   672   672                              PRN / # OF OBS      
   G 9   808   808   808   808                              PRN / # OF OBS      
   G10   752   752   752   752                              PRN / # OF OBS      
   G11   768   768   768   768                              PRN / # OF OBS      
   G12   836   836   836   836                              PRN / # OF OBS      
   G13   792   792   792   792                              PRN / # OF OBS      
   G14   940   940   940   940                              PRN / # OF OBS      
   G15   698   698   698   698                              PRN / # OF OBS      
   G16   657   657   657   657                              PRN / # OF OBS      
   G17   943   943   943   943                              PRN / # OF OBS      
   G18   896   896   896   896                              PRN / # OF OBS      
   G19   750   750   750   750                              PRN / # OF OBS      
   G20   816   816   816   816                              PRN / # OF OBS      
   G21   742   742   742   742                              PRN / # OF OBS      
   G22   657   657   657   657                              PRN / # OF OBS      
   G23   755   755   755   755                              PRN / # OF OBS      
   G24   818   818   818   818                              PRN / # OF OBS      
   G25   856   856   856   856                              PRN / # OF OBS      
   G27   793   793   793   793                              PRN / # OF OBS      
   G28   867   867   867   867                              PRN / # OF OBS      
   G29   784   784   784   784                              PRN / # OF OBS      
   G30   702   702   702   702                              PRN / # OF OBS      
   G31   870   870   870   870                              PRN / # OF OBS      
   G32   770   770   770   770                              PRN / # OF OBS      
BIT 2 OF LLI FLAGS DATA COLLECTED UNDER A/S CONDITION       COMMENT             
SNR is mapped to RINEX snr flag value [2-9]                 COMMENT             
Lx:     = 25dBHz -> 1; 26-27dBHz -> 2; 28-31dBHz -> 3       COMMENT             
       32-35dBHz -> 4; 36-38dBHz -> 5; 39-41dBHz -> 6       COMMENT             
       42-44dBHz -> 7; 45-48dBHz -> 8; >=49dBHz -> 9        COMMENT             
                                                            END OF HEADER       
 15 01 31 00 00  0.0000000  0  5G12G21G25G29G31
  24486972.180   128680231.28106  24486973.380   100270451.79544
  21750294.360   114298715.57008  21750295.400    89064003.00248
  21478136.980   112868490.66108  21478140.840    87949555.98248
  20817284.360   109396007.90408  20817285.760    85243851.80549
  20966803.100   110181299.18409  20966803.860    85855564.35049
 15 01 31 00 00 30.0000000  0  5G12G21G25G29G31
  24502622.840   128762476.09606  24502624.040   100334538.61745
  21738527.660   114236881.00008  21738528.720    89015820.24248
  21487663.880   112918555.32008  21487667.840    87988567.38748
  20826532.980   109444609.50109  20826534.320    85281723.18249
  20965519.840   110174555.38409  20965520.580    85850309.43649
 15 01 31 00 01  0.0000000  0  5G12G21G25G29G31
  24518299.140   128844855.53506  24518300.440   100398730.34545
  21726833.300   114175426.49208  21726834.360    88967933.63148
  21497246.640   112968913.47108  21497250.680    88027807.49648
  20835822.980   109493428.81208  20835824.320    85319764.20649
  20964343.960   110168376.12709  20964344.720    85845494.42549
 15 01 31 00 01 30.0000000  0  5G12G21G25G29G31
  24534001.260   128927370.76406  24534002.580   100463027.90144
  21715211.940   114114355.81508  21715213.020    88920346.11148
  21506885.620   113019567.06608  21506889.700    88067277.81948
  20845154.460   109542466.23408  20845155.860    85357975.17749
  20963275.860   110162763.42609  20963276.660    85841120.87949
 15 01 31 00 02  0.0000000  0  5G12G21G25G29G31
  24549728.780   129010019.93406  24549730.180   100527429.82345
  21703663.560   114053668.67308  21703664.680    88873057.45448
  21516580.500   113070514.26108  21516584.600    88106976.92148
  20854526.860   109591718.68108  20854528.320    85396353.70549
  20962315.280   110157715.79909  20962316.180    85837187.65949
 15 01 31 00 02 30.0000000  0  5G12G21G25G29G31
  24565481.500   129092801.65406  24565483.020   100591935.01845
  21692188.200   113993365.22608  21692189.320    88826067.77148
  21526331.180   113121754.38908  21526335.340    88146904.27248
  20863939.620   109641183.14708  20863941.120    85434897.44349
  20961462.140   110153232.64709  20961463.080    85833694.28849
 15 01 31 00 03  0.0000000  0  5G12G21G25G29G31
  24581259.460   129175715.62705  24581261.140   100656543.28245
  21680786.180   113933447.39608  21680787.300    88779378.57748
  21536137.680   113173287.52108  21536141.880    88187059.94948
  20873392.520   109690858.66908  20873394.040    85473605.63849
  20960716.600   110149314.70509  20960717.540    85830641.33649
 15 01 31 00 03 30.0000000  0  5G12G21G25G29G31
  24597062.300   129258760.02805  24597063.900   100721253.15845
  21669457.520   113873915.19308  21669458.660    88732989.86848
  21545999.700   113225112.59708  21546003.960    88227443.10948
  20882885.200   109740742.85809  20882886.660    85512476.43249
  20960078.420   110145960.88909  20960079.340    85828027.96449
 15 01 31 00 04  0.0000000  0  5G12G21G25G29G31
  24612890.220   129341935.88306  24612891.760   100786065.47344
  21658202.800   113814771.42108  21658203.920    88686903.83748
  21555917.480   113277230.93508  21555921.860    88268054.79348
  20892417.440   109790835.14608  20892418.920    85551509.38249
  20959547.940   110143173.09509  20959548.840    85825855.64949
 15 01 31 00 04 30.0000000  0  5G12G21G25G29G31
  24628743.240   129425244.01806  24628744.900   100850980.84644
  21647022.420   113756018.47008  21647023.580    88641122.33448
  21565891.140   113329643.17408  21565895.660    88308895.48248
  20901989.080   109841134.44608  20901990.580    85590703.64049
  20959125.300   110140951.80009  20959126.120    85824124.75749
 15 01 31 00 05  0.0000000  0  5G12G21G25G29G31
  24644621.940   129508687.58106  24644623.820   100916001.76944
  21635917.420   113697661.48208  21635918.600    88595649.37648
  21575921.580   113382353.64208  21575926.140    88349968.56048
  20911600.720   109891643.86509  20911602.240    85630061.62348
  20958811.280   110139301.57209  20958812.100    85822838.85749
 15 01 31 00 05 30.0000000  0  5G12G21G25G29G31
  24660524.680   129592256.22906  24660526.400   100981120.17045
  21624886.080   113639691.59308  21624887.280    88550478.05248
  21586006.840   113435351.95108  21586011.360    88391265.92748
  20921250.020   109942351.23408  20921251.560    85669573.85548
  20958604.000   110138212.26609  20958604.820    85821990.03949
 15 01 31 00 06  0.0000000  0  5G12G21G25G29G31
  24676452.460   129675956.03206  24676453.920   101046340.75745
  21613929.700   113582115.78008  21613930.900    88505613.80148
  21596148.160   113488644.44308  21596152.560    88432792.52648
  20930937.920   109993261.65808  20930939.480    85709244.31048
  20958504.700   110137690.50909  20958505.540    85821583.46949
 15 01 31 00 06 30.0000000  0  5G12G21G25G29G31
  24692405.380   129759788.09206  24692406.640   101111664.41145
  21603049.060   113524937.84608  21603050.280    88461059.58748
  21606345.840   113542232.87808  21606350.100    88474549.72548
  20940664.520   110044375.36808  20940666.120    85749073.16948
  20958513.780   110137738.28309  20958514.640    85821620.68349
 15 01 31 00 07  0.0000000  0  5G12G21G25G29G31
  24708382.680   129843748.10906  24708383.820   101177087.75244
  21592243.740   113468155.56208  21592244.920    88416813.66748
  21616599.080   113596113.77808  21616603.300    88516534.82848
  20950428.880   110095687.48108  20950430.480    85789056.62848
  20958630.580   110138352.07609  20958631.460    85822098.96049
 15 01 31 00 07 30.0000000  0  5G12G21G25G29G31
  24724384.840   129927839.71706  24724386.060   101242613.63145
  21581514.560   113411773.23508  21581515.720    88372879.41148
  21626908.500   113650290.36708  21626912.780    88558750.33948
  20960231.300   110147199.60308  20960232.920    85829195.94048
  20958855.740   110139535.30009  20958856.640    85823020.94849
 15 01 31 00 08  0.0000000  0  5G12G21G25G29G31
  24740411.460   130012060.49406  24740412.960   101308240.15545
  21570861.540   113355791.15608  21570862.720    88329257.03248
  21637273.820   113704760.97708  21637278.200    88601194.96548
  20970071.060   110198908.09408  20970072.720    85869488.25948
  20959188.960   110141286.30109  20959189.860    85824385.35949
 15 01 31 00 08 30.0000000  0  4G21G25G29G31
  21560264.860   113300105.00808  21560266.040    88285865.25448
  21647675.060   113759420.09608  21647679.440    88643786.47648
  20979928.080   110250707.28308  20979929.780    85909851.25848
  20959610.160   110143499.59309  20959611.040    85826109.99849
 15 01 31 00 09  0.0000000  0  4G21G25G29G31
  21549773.400   113244971.91408  21549774.560    88242904.41548
  21658160.940   113814523.81508  21658165.300    88686724.42448
  20989850.680   110302850.77408  20989852.380    85950482.54648
  20960168.180   110146431.76709  20960169.040    85828394.80049
 15 01 31 00 09 30.0000000  0  4G21G25G29G31
  21539349.960   113190196.37808  21539351.100    88200222.19848
  21668694.040   113869875.37108  21668698.300    88729855.49148
  20999801.160   110355140.76308  20999802.840    85991227.97948
  20960825.460   110149885.59909  20960826.280    85831086.09649
 15 01 31 00 10  0.0000000  0  4G21G25G29G31
  21529002.180   113135818.65808  21529003.340    88157849.96748
  21679281.820   113925513.98908  21679285.940    88773210.24648
  21009786.720   110407615.07008  21009788.360    86032117.04748
  20961589.520   110153900.55109  20961590.300    85834214.62049
 15 01 31 00 10 30.0000000  0  4G21G25G29G31
  21518735.740   113081868.25208  21518736.860    88115810.71048
  21689929.460   113981467.75208  21689933.540    88816810.56248
  21019812.440   110460300.19008  21019814.020    86073170.38248
  20962465.700   110158504.68009  20962466.440    85837802.25149
 15 01 31 00 11  0.0000000  0  4G21G25G29G31
  21508547.600   113028329.38008  21508548.720    88074092.13148
  21700633.780   114037719.55908  21700637.920    88860643.12548
  21029874.760   110513177.80708  21029876.300    86114373.71448
  20963450.700   110163680.94809  20963451.440    85841835.70049
 15 01 31 00 11 30.0000000  0  4G21G25G29G31
  21498436.480   112975195.14108  21498437.560    88032688.85048
  21711393.160   114094260.85608  21711397.400    88904701.26148
  21039971.800   110566238.11308  21039973.320    86155719.40048
  20964542.920   110169420.91809  20964543.700    85846308.39849
 15 01 31 00 12  0.0000000  0  4G21G25G29G31
  21488401.760   112922462.43408  21488402.800    87991598.45048
  21722206.920   114151087.72408  21722211.200    88948981.92848
  21050102.540   110619475.60608  21050104.060    86197203.15348
  20965741.640   110175720.48309  20965742.460    85851217.14849
 15 01 31 00 12 30.0000000  0  4G21G25G29G31
  21478442.800   112870127.84108  21478443.820    87950818.26648
  21733074.300   114208196.11808  21733078.580    88993481.97148
  21060266.000   110672885.00308  21060267.540    86238820.85748
  20967046.060   110182575.44909  20967046.900    85856558.66749
 15 01 31 00 13  0.0000000  0  4G21G25G29G31
  21468563.340   112818211.27208  21468564.420    87910363.81148
  21743998.600   114265603.62608  21744002.880    89038215.08448
  21070465.260   110726482.65508  21070466.840    86280585.25148
  20968459.520   110190003.43109  20968460.400    85862346.69749
 15 01 31 00 13 30.0000000  0  4G21G25G29G31
  21458761.940   112766704.97208  21458763.120    87870229.05248
  21754978.180   114323301.40608  21754982.480    89083174.37248
  21080698.460   110780258.53108  21080700.020    86322488.52948
  20969980.340   110197995.33309  20969981.220    85868574.14149
 15 01 31 00 14  0.0000000  0  4G21G25G29G31
  21449039.580   112715613.74108  21449040.780    87830417.71848
  21766013.800   114381293.59408  21766018.140    89128363.06848
  21090966.060   110834215.09908  21090967.600    86364532.60448
  20971609.300   110206555.45509  20971610.180    85875244.35849
 15 01 31 00 14 30.0000000  0  4G21G25G29G31
  21439395.520   112664934.06108  21439396.740    87790927.07048
  21777104.540   114439575.28508  21777108.880    89173777.35848
  21101266.900   110888346.37908  21101268.440    86406712.81148
  20973345.440   110215678.73309  20973346.300    85882353.39549
 15 01 31 00 15  0.0000000  0  4G21G25G29G31
  21429831.900   112614676.89108  21429833.080    87751765.66148
  21788252.240   114498156.29508  21788256.600    89219424.88448
  21111602.600   110942660.97508  21111604.180    86449035.87148
  20975190.580   110225374.90409  20975191.440    85889908.84949
 15 01 31 00 15 30.0000000  0  4G21G25G29G31
  21420349.260   112564845.21808  21420350.380    87712935.80148
  21799457.100   114557037.92908  21799461.480    89265306.67148
  21121973.180   110997158.96708  21121974.820    86491501.83148
  20977144.920   110235644.90409  20977145.780    85897911.43449
 15 01 31 00 16  0.0000000  0  4G21G25G29G31
  21410946.360   112515432.57708  21410947.420    87674432.46248
  21810717.740   114616212.78708  21810722.120    89311416.93548
  21132377.040   111051831.75208  21132378.760    86534103.99248
  20979207.060   110246481.44409  20979207.900    85906355.48349
 15 01 31 00 16 30.0000000  0  4G21G25G29G31
  21401622.160   112466433.46508  21401623.200    87636251.35248
  21822033.040   114675674.70408  21822037.360    89357750.88448
  21142812.740   111106671.81208  21142814.540    86576836.49948
  20981375.820   110257878.35709  20981376.660    85915236.18449
 15 01 31 00 17  0.0000000  0  4G21G25G29G31
  21392377.260   112417851.19808  21392378.300    87598395.05748
  21833403.340   114735425.81808  21833407.600    89404310.17548
  21153280.460   111161679.84708  21153282.280    86619699.89748
  20983651.460   110269837.03109  20983652.300    85924554.62149
 15 01 31 00 17 30.0000000  0  4G21G25G29G31
  21383216.020   112369708.52808  21383217.080    87560881.29848
  21844832.460   114795486.40908  21844836.720    89451110.61448
  21163783.840   111216875.32608  21163785.660    86662709.35548
  20986037.880   110282377.72409  20986038.700    85934326.58049
 15 01 31 00 18  0.0000000  0  4G21G25G29G31
  21374133.120   112321977.77608  21374134.200    87523688.52348
  21856315.220   114855829.03008  21856319.480    89498130.81947
  21174317.440   111272229.49508  21174319.240    86705842.47148
  20988529.880   110295473.06509  20988530.660    85944530.73149
 15 01 31 00 18 30.0000000  0  4G21G25G29G31
  21365130.840   112274670.57808  21365131.920    87486825.78648
  21867853.580   114916463.75508  21867857.840    89545378.64948
  21184882.960   111327751.37708  21184884.720    86749106.27248
  20991129.240   110309132.66009  20991130.000    85955174.56149
 15 01 31 00 19  0.0000000  0  4G21G25G29G31
  21356209.860   112227790.43308  21356210.900    87450295.81948
  21879447.940   114977392.63908  21879452.220    89592855.68648
  21195480.520   111383441.67408  21195482.200    86792501.30848
  20993836.260   110323358.24009  20993837.060    85966259.41949
 15 01 31 00 19 30.0000000  0  4G21G25G29G31
  21347370.220   112181337.80308  21347371.220    87414098.98348
  21891098.160   115038614.95508  21891102.460    89640561.38248
  21206109.760   111439298.66708  21206111.420    86836026.23648
  20996650.780   110338148.86609  20996651.660    85977784.57849
 15 01 31 00 20  0.0000000  0  4G21G25G29G31
  21338611.260   112135309.05008  21338612.200    87378232.44148
  21902803.440   115100126.46208  21902807.740    89688492.41148
  21216769.660   111495316.78808  21216771.360    86879676.71448
  20999571.980   110353499.97009  20999572.920    85989746.46549
 15 01 31 00 20 30.0000000  0  4G21G25G29G31
  21329931.960   112089699.12308  21329932.880    87342692.25048
  21914562.640   115161921.35208  21914566.940    89736644.26347
  21227458.900   111551489.04008  21227460.620    86923447.29348
  21002598.700   110369405.43609  21002599.680    86002140.32649
 15 01 31 00 21  0.0000000  0  4G21G25G29G31
  21321335.720   112044525.81308  21321336.660    87307492.28748
  21926378.680   115224015.27608  21926383.040    89785029.12148
  21238180.380   111607830.61108  21238182.080    86967349.81048
  21005733.880   110385880.63409  21005734.840    86014978.13549
 15 01 31 00 21 30.0000000  0  4G21G25G29G31
  21312821.600   111999784.05008  21312822.580    87272628.58848
  21938250.480   115286402.23808  21938254.880    89833642.31547
  21248932.660   111664333.98508  21248934.280    87011378.40848
  21008976.260   110402919.16209  21008977.180    86028254.90149
 15 01 31 00 22  0.0000000  0  4G21G25G29G31
  21304389.320   111955472.39508  21304390.360    87238100.03848
  21950177.680   115349080.22508  21950182.060    89882482.28947
  21259715.160   111720996.18908  21259716.740    87055530.77248
  21012325.360   110420518.82809  21012326.260    86041968.91449
 15 01 31 00 22 30.0000000  0  4G21G25G29G31
  21296039.000   111911591.24108  21296040.060    87203906.94348
  21962160.120   115412048.22308  21962164.400    89931548.24747
  21270527.460   111777815.07508  21270529.000    87099805.22048
  21015780.960   110438678.13109  21015781.860    86056119.01249
 15 01 31 00 23  0.0000000  0  4G21G25G29G31
  21287771.200   111868143.64808  21287772.280    87170051.68848
  21974198.120   115475308.15808  21974202.320    89980841.69347
  21281369.720   111834791.63808  21281371.280    87144202.53648
  21019343.320   110457398.52209  21019344.200    86070706.32249
 15 01 31 00 23 30.0000000  0  4G21G25G29G31
  21279585.760   111825128.62408  21279586.780    87136533.50848
  21986291.400   115538858.30308  21986295.480    90030361.27047
  21292241.460   111891923.10708  21292243.000    87188720.55748
  21023012.080   110476678.12309  21023012.960    86085729.37549
 15 01 31 00 24  0.0000000  0  4G21G25G29G31
  21271483.300   111782549.66208  21271484.260    87103355.11248
  21998440.240   115602700.64708  21998444.340    90080108.53247
  21303142.880   111949210.55608  21303144.400    87233360.11548
  21026787.560   110496518.38509  21026788.420    86101189.31249
 15 01 31 00 24 30.0000000  0  4G21G25G29G31
  21263463.280   111740404.01808  21263464.180    87070514.36548
  22010644.000   115666831.98308  22010648.200    90130080.98647
  21314073.120   112006649.49608  21314074.640    87278117.72748
  21030669.020   110516915.61609  21030669.880    86117083.25049
 15 01 31 00 25  0.0000000  0  4G21G25G29G31
  21255524.840   111698687.39908  21255525.720    87038007.92148
  22022901.780   115731247.40608  22022906.100    90180274.81047
  21325031.140   112064234.29308  21325032.620    87322988.99048
  21034655.480   110537864.64209  21034656.400    86133407.15649
 15 01 31 00 25 30.0000000  0  4G21G25G29G31
  21247669.820   111657409.22208  21247670.680    87005843.11848
  22035214.960   115795953.70708  22035219.340    90230695.29347
  21336018.000   112121970.77708  21336019.500    87367978.45348
  21038748.140   110559371.53409  21038749.080    86150165.76949
 15 01 31 00 26  0.0000000  0  4G21G25G29G31
  21239898.800   111616572.57808  21239899.680    86974022.37348
  22047584.040   115860953.67408  22047588.440    90281344.60247
  21347033.960   112179860.60708  21347035.560    87413087.40648
  21042947.400   110581438.81509  21042948.380    86167361.04549
 15 01 31 00 26 30.0000000  0  5G16G21G25G29G31
  24554541.840   129034987.78206  24554543.700   100546742.07444
  21232204.460   111576138.73208  21232205.340    86942515.49248
  22060001.580   115926207.86108  22060005.960    90332192.00647
  21358071.560   112237863.88108  21358073.200    87458284.75648
  21047245.680   110604026.39209  21047246.700    86184961.74649
 15 01 31 00 27  0.0000000  0  5G16G21G25G29G31
  24537222.240   128943972.88006  24537223.820   100475821.38344
  21224600.600   111536180.09908  21224601.460    86911378.91448
  22072481.100   115991787.73208  22072485.400    90383293.19047
  21369144.100   112296050.55808  21369145.740    87503625.02248
  21051656.480   110627205.21109  21051657.500    86203023.15749
 15 01 31 00 27 30.0000000  0  5G16G21G25G29G31
  24519898.320   128852934.92606  24519899.840   100404882.75344
  21217079.300   111496655.46708  21217080.200    86880580.51548
  22085014.520   116057650.97008  22085018.800    90434615.17647
  21380243.460   112354377.79208  21380245.060    87549074.80648
  21056171.680   110650932.54509  21056172.620    86221511.97849
 15 01 31 00 28  0.0000000  0  5G16G21G25G29G31
  24502571.320   128761880.69805  24502572.820   100333931.41345
  21209641.940   111457571.62908  21209642.820    86850125.59348
  22097602.780   116123802.83108  22097607.180    90486162.05547
  21391370.380   112412849.93808  21391371.980    87594637.51348
  21060792.140   110675213.12609  21060793.040    86240431.90449
 15 01 31 00 28 30.0000000  0  5G16G21G25G29G31
  24485241.660   128670812.61505  24485243.160   100262969.28845
  21202288.700   111418929.92708  21202289.520    86820015.19048
  22110246.080   116190244.40408  22110250.680    90537934.69847
  21402524.940   112471467.31808  21402526.500    87640313.38448
  21065518.000   110700047.40709  21065518.840    86259783.28149
 15 01 31 00 29  0.0000000  0  5G16G21G25G29G31
  24467908.980   128579729.22905  24467910.540   100191995.22845
  21195019.320   111380728.94008  21195020.100    86790248.19848
  22122944.040   116256973.28608  22122948.740    90589931.21247
  21413706.520   112530226.61808  21413708.060    87686099.84148
  21070348.600   110725432.38909  21070349.420    86279563.77649
 15 01 31 00 29 30.0000000  0  5G16G21G25G29G31
  24450573.320   128488629.96806  24450574.780   100121008.78644
  21187833.700   111342968.33608  21187834.480    86760824.36548
  22135696.380   116323987.38208  22135701.020    90642149.97647
  21424914.500   112589124.50708  21424915.960    87731994.29748
  21075283.500   110751365.52409  21075284.340    86299771.40449
 15 01 31 00 30  0.0000000  0  5G16G21G25G29G31
  24433235.120   128397517.43305  24433236.600   100050012.04644
  21180732.180   111305649.61308  21180732.980    86731744.85248
  22148503.280   116391287.68608  22148507.740    90694591.75347
  21436148.840   112648161.32208  21436150.320    87777996.99948
  21080322.800   110777847.01409  21080323.600    86320406.32749
 15 01 31 00 30 30.0000000  0  5G16G21G25G29G31
  24415894.760   128306393.77505  24415896.380    99979006.63444
  21173715.000   111268774.21908  21173715.860    86703010.79048
  22161364.760   116458874.73108  22161369.060    90747256.96547
  21447409.700   112707337.52808  21447411.180    87824108.32348
  21085466.460   110804876.98309  21085467.280    86341468.63049
 15 01 31 00 31  0.0000000  0  5G16G21G25G29G31
  24398552.580   128215260.48005  24398554.260    99907993.70743
  21166782.400   111232343.26608  21166783.300    86674623.04848
  22174280.880   116526748.92108  22174285.080    90800145.92847
  21458696.920   112766652.45308  21458698.440    87870327.73848
  21090714.420   110832455.31209  21090715.320    86362958.23149
 15 01 31 00 31 30.0000000  0  5G16G21G25G29G31
  24381208.460   128124116.43505  24381210.140    99836972.38644
  21159933.980   111196354.75208  21159934.900    86646580.06448
  22187251.060   116594907.44608  22187255.240    90853256.45047
  21470009.700   112826101.94408  21470011.300    87916652.01048
  21096066.000   110860578.23609  21096066.980    86384872.19349
 15 01 31 00 32  0.0000000  0  5G16G21G25G29G31
  24363862.960   128032965.41706  24363864.740    99765945.63745
  21153170.700   111160813.51508  21153171.600    86618885.60648
  22200275.820   116663353.28208  22200280.100    90906590.85347
  21481348.520   112885688.25808  21481350.220    87963082.89648
  21101521.680   110889248.27409  21101522.720    86407212.47149
 15 01 31 00 32 30.0000000  0  5G16G21G25G29G31
  24346516.180   127941807.12906  24346517.820    99694913.20044
  21146492.080   111125717.37708  21146493.020    86591537.97648
  22213354.780   116732084.07208  22213359.220    90960147.29547
  21492712.960   112945409.02708  21492714.740    88009618.55248
  21107080.900   110918462.37509  21107081.980    86429976.69949
 15 01 31 00 33  0.0000000  0  5G16G21G25G29G31
  24329168.200   127850642.44806  24329169.760    99623875.79945
  21139898.200   111091066.48808  21139899.140    86564537.29448
  22226487.880   116801099.35908  22226492.480    91013925.42647
  21504102.720   113005262.57808  21504104.480    88056257.68048
  21112743.440   110948219.27109  21112744.520    86453163.88348
 15 01 31 00 33 30.0000000  0  5G16G21G25G29G31
  24311819.060   127759471.75506  24311820.540    99552833.69445
  21133389.200   111056861.76608  21133390.160    86537884.27948
  22239675.060   116870398.24308  22239679.640    91067924.55247
  21515517.480   113065247.32908  21515519.200    88102999.03848
  21118509.020   110978517.48309  21118510.080    86476772.86949
 15 01 31 00 34  0.0000000  0  5G16G21G25G29G31
  24294469.140   127668297.39106  24294470.680    99481788.74245
  21126965.240   111023103.81508  21126966.180    86511579.39248
  22252916.340   116939981.16308  22252920.820    91122145.00147
  21526957.180   113125363.15008  21526958.880    88149842.53048
  21124377.580   111009356.69009  21124378.580    86500803.40949
 15 01 31 00 34 30.0000000  0  5G16G21G25G29G31
  24277118.760   127577120.45806  24277120.320    99410741.82446
  21120626.400   110989793.15408  21120627.360    86485623.04548
  22266211.560   117009847.70308  22266215.920    91176586.43747
  21538421.560   113185608.93908  21538423.300    88196787.29048
  21130348.840   111040735.71009  21130349.820    86525254.58449
 15 01 31 00 35  0.0000000  0  5G16G21G25G29G31
  24259768.360   127485943.69006  24259769.960    99339694.98645
  21114373.200   110956932.46708  21114374.180    86460017.32448
  22279560.960   117079999.46008  22279565.280    91231250.12147
  21549910.800   113245985.38508  21549912.540    88243833.86548
  21136423.060   111072655.65209  21136424.020    86550127.25849
 15 01 31 00 35 30.0000000  0  5G16G21G25G29G31
  24242417.800   127394766.17106  24242419.500    99268647.60745
  21108205.240   110924519.52608  21108206.220    86434760.50048
  22292964.080   117150433.50208  22292968.360    91286133.76747
  21561424.320   113306489.33008  21561426.020    88290979.79048
  21142599.440   111105112.60609  21142600.400    86575418.38249
 15 01 31 00 36  0.0000000  0  5G16G21G25G29G31
  24225067.260   127303588.62305  24225069.000    99197600.19645
  21102122.580   110892554.73808  21102123.520    86409852.88348
  22306420.740   117221149.05908  22306425.120    91341236.77847
  21572961.860   113367119.34408  21572963.520    88338223.95348
  21148877.740   111138105.26609  21148878.740    86601126.93749
 15 01 31 00 36 30.0000000  0  5G16G21G25G29G31
  24207717.020   127212413.03005  24207718.880    99126554.30444
  21096125.360   110861039.12108  21096126.280    86385295.26748
  22319931.020   117292146.38508  22319935.520    91396559.35147
  21584523.240   113427874.74008  21584524.900    88385565.81648
  21155257.840   111171633.02909  21155258.900    86627252.46149
 15 01 31 00 37  0.0000000  0  5G16G21G25G29G31
  24190367.140   127121239.03206  24190369.000    99055509.65644
  21090213.340   110829971.21408  21090214.220    86361086.52248
  22333494.680   117363423.45008  22333499.180    91452099.91847
  21596108.080   113488753.19408  21596109.700    88433003.56348
  21161739.160   111205692.73409  21161740.280    86653792.48449
 15 01 31 00 37 30.0000000  0  5G16G21G25G29G31
  24173017.800   127030067.59506  24173019.520    98984466.98245
  21084386.560   110799351.47308  21084387.460    86337226.99349
  22347111.620   117434980.07308  22347116.040    91507858.32147
  21607716.140   113549753.79508  21607717.760    88480536.49148
  21168321.580   111240283.53509  21168322.720    86680746.34849
 15 01 31 00 38  0.0000000  0  5G16G21G25G29G31
  24155669.540   126938901.54506  24155671.140    98913428.51245
  21078645.520   110769182.15408  21078646.420    86313718.44548
  22360781.880   117506817.01708  22360786.200    91563835.15047
  21619347.380   113610876.63608  21619349.020    88528164.66948
  21175005.120   111275405.65109  21175006.240    86708114.21749
 15 01 31 00 38 30.0000000  0  5G16G21G25G29G31
  24138323.100   126847745.00106  24138324.480    98842397.44145
  21072990.860   110739466.74208  21072991.800    86290563.58548
  22374505.880   117578936.86408  22374510.060    91620032.41947
  21631002.400   113672124.22208  21631004.060    88575890.05748
  21181790.080   111311060.64909  21181791.140    86735897.32048
 15 01 31 00 39  0.0000000  0  5G16G21G25G29G31
  24120978.060   126756595.87006  24120979.320    98771372.14245
  21067421.820   110710201.23908  21067422.760    86267759.30349
  22388282.860   117651335.54208  22388286.920    91676446.96247
  21642680.240   113733491.77708  21642681.960    88623708.92148
  21188675.500   111347243.53609  21188676.480    86764091.76349
 15 01 31 00 39 30.0000000  0  5G16G21G25G29G31
  24103634.840   126665456.48906  24103636.100    98700354.45545
  21061938.740   110681387.54808  21061939.700    86245307.08548
  22402113.020   117724014.05207  22402117.060    91733079.54847
  21654380.960   113794979.45508  21654382.700    88671621.38948
  21195661.400   111383954.60209  21195662.320    86792697.77649
 15 01 31 00 40  0.0000000  0  5G16G21G25G29G31
  24086293.560   126574327.41906  24086294.860    98629344.80245
  21056541.500   110653025.00308  21056542.480    86223206.40848
  22415996.160   117796970.83108  22416000.240    91789928.97047
  21666104.260   113856585.68408  21666106.000    88719626.23848
  21202747.300   111421191.41509  21202748.240    86821713.46849
 15 01 31 00 40 30.0000000  0  5G16G21G25G29G31
  24068954.160   126483208.55406  24068955.620    98558343.09745
  21051230.100   110625113.35708  21051231.040    86201457.08649
  22429932.020   117870204.29308  22429936.180    91846993.98547
  21677849.680   113918308.24308  21677851.400    88767721.73048
  21209932.760   111458951.51009  21209933.760    86851136.91049
 15 01 31 00 41  0.0000000  0  5G16G21G25G29G31
  24051617.180   126392102.30906  24051618.840    98487351.23245
  21046004.580   110597653.18808  21046005.500    86180059.56848
  22443920.720   117943714.95108  22443924.960    91904274.99847
  21689617.180   113980146.90408  21689618.900    88815907.69448
  21217217.700   111497234.40909  21217218.780    86880967.73349
 15 01 31 00 41 30.0000000  0  5G16G21G25G29G31
  24034282.700   126301008.93806  24034284.380    98416369.41044
  21040864.880   110570643.94008  21040865.780    86159013.41148
  22457961.900   118017501.25608  22457966.260    91961770.80047
  21701406.380   114042099.72108  21701408.140    88864182.60448
  21224601.700   111536037.60909  21224602.820    86911203.98048
 15 01 31 00 42  0.0000000  0  5G16G21G25G29G31
  24016951.340   126209931.65106  24016953.000    98345400.10944
  21035811.480   110544088.12808  21035812.320    86138320.58149
  22472055.800   118091564.78508  22472060.320    92019482.62147
  21713217.620   114104168.38508  21713219.400    88912547.79248
  21232084.860   111575361.77509  21232086.000    86941846.17548
 15 01 31 00 42 30.0000000  0  6G16G18G21G25G29G31
  23999623.740   126118874.34106  23999625.400    98274446.39444
  24500046.360   128748617.12005  24500051.500   100323614.22142
  21030844.840   110517988.04308  21030845.600    86117982.86249
  22486202.720   118165907.22608  22486207.340    92077411.77847
  21725051.100   114166353.88108  21725052.920    88961004.01548
  21239667.400   111615207.98709  21239668.480    86972895.15549
 15 01 31 00 43  0.0000000  0  6G16G18G21G25G29G31
  23982301.840   126027847.39906  23982303.480    98203516.32244
  24484988.460   128669490.03605  24484993.460   100261957.35343
  21025966.700   110492353.09208  21025967.420    86098007.58849
  22500404.320   118240537.31108  22500409.000    92135565.07547
  21736908.440   114228664.32908  21736910.220    89009557.60548
  21247350.720   111655583.83809  21247351.760    87004356.84748
 15 01 31 00 43 30.0000000  0  6G16G18G21G25G29G31
  23964980.560   125936823.62706  23964982.120    98132588.73144
  24469916.100   128590272.56205  24469921.740   100200231.42744
  21021171.680   110467155.06008  21021172.400    86078372.77249
  22514655.100   118315425.99108  22514659.720    92193919.88547
  21748784.040   114291070.62908  21748785.760    89058185.88048
  21255129.080   111696459.18809  21255130.100    87036207.75748
 15 01 31 00 44  0.0000000  0  6G16G18G21G25G29G31
  23947662.800   125845818.64606  23947664.380    98061675.78645
  24454831.880   128511005.48605  24454836.800   100138465.45844
  21016462.480   110442407.98408  21016463.200    86059089.34749
  22528957.720   118390587.09507  22528962.280    92252486.95047
  21760680.380   114353586.00708  21760682.040    89106899.15248
  21263004.940   111737847.02509  21263005.960    87068458.01348
 15 01 31 00 44 30.0000000  0  6G16G18G21G25G29G31
  23930350.020   125754839.39406  23930351.540    97990782.89544
  24439737.140   128431684.92705  24439741.800   100076657.75844
  21011840.260   110418118.06208  21011841.000    86040162.14149
  22543313.200   118466025.70407  22543317.680    92311270.25947
  21772598.440   114416215.27008  21772599.980    89155701.16348
  21270979.040   111779751.24309  21270980.060    87101110.63648
 15 01 31 00 45  0.0000000  0  6G16G18G21G25G29G31
  23913041.120   125663880.48706  23913042.440    97919905.84544
  24424631.640   128352306.94105  24424636.840   100014805.27844
  21007303.840   110394279.13208  21007304.600    86021586.36649
  22557720.120   118541734.36107  22557724.500    92370263.98447
  21784536.720   114478950.83008  21784538.160    89204586.00048
  21279049.860   111822163.66509  21279050.880    87134159.26648
 15 01 31 00 45 30.0000000  0  6G16G18G21G25G29G31
  23895737.380   125572948.51206  23895738.500    97849049.79245
  24409516.460   128272878.72205  24409521.860    99952913.58744
  21002854.020   110370895.48608  21002854.820    86003365.35149
  22572179.320   118617717.58107  22572183.640    92429471.66947
  21796495.900   114541796.47408  21796497.300    89253556.62048
  21287218.020   111865087.81109  21287219.100    87167606.64148
 15 01 31 00 46  0.0000000  0  6G16G18G21G25G29G31
  23878438.400   125482041.83806  23878439.320    97778213.44844
  24394391.720   128193399.84806  24394397.000    99890982.45544
  20998490.440   110347964.85708  20998491.240    85985497.33949
  22586690.080   118693971.94307  22586694.460    92488890.63647
  21808475.340   114604748.60108  21808476.740    89302610.21348
  21295482.760   111908519.24509  21295483.820    87201449.30248
 15 01 31 00 46 30.0000000  0  6G16G18G21G25G29G31
  23861144.360   125391161.48306  23861145.260    97707397.63544
  24379258.060   128113872.90005  24379263.360    99829013.84541
  20994213.020   110325486.93208  20994213.800    85967982.08449
  22601252.140   118770496.45207  22601256.700    92548520.10947
  21820474.780   114667806.34408  21820476.280    89351746.10248
  21303843.620   111952455.81909  21303844.660    87235685.57948
 15 01 31 00 47  0.0000000  0  6G16G18G21G25G29G31
  23843856.100   125300311.48406  23843857.140    97636605.46845
  24364115.980   128034302.58705  24364121.100    99767011.45243
  20990022.200   110303464.25008  20990022.980    85950821.56349
  22615865.900   118847293.12007  22615870.720    92608361.66047
  21832494.560   114730971.01908  21832496.140    89400965.31948
  21312300.760   111996898.40209  21312301.800    87270316.15448
 15 01 31 00 47 30.0000000  0  6G16G18G21G25G29G31
  23826573.160   125209489.11006  23826574.280    97565834.83745
  24348965.540   127954687.57305  24348970.420    99704974.10444
  20985917.340   110281893.28008  20985918.100    85934013.02649
  22630530.640   118924357.39807  22630535.560    92668411.74547
  21844533.740   114794237.91508  21844535.420    89450264.18348
  21320853.140   112041841.57609  21320854.200    87305336.79248
 15 01 31 00 48  0.0000000  0  6G16G18G21G25G29G31
  23809296.280   125118698.66906  23809297.480    97495089.05145
  24333807.680   127875033.17206  24333812.120    99642906.20943
  20981898.880   110260776.20208  20981899.600    85917558.16749
  22645246.680   119001691.29107  22645251.680    92728671.90547
  21856592.840   114857609.27608  21856594.540    89499644.46048
  21329500.960   112087286.25009  21329502.040    87340748.21648
 15 01 31 00 48 30.0000000  0  6G16G18G21G25G29G31
  23792025.420   125027939.68706  23792026.620    97424367.77145
  24318642.560   127795339.99706  24318646.400    99580807.97944
  20977966.440   110240110.99508  20977967.120    85901455.41849
  22660013.620   119079292.35807  22660018.580    92789140.23847
  21868671.320   114921082.04108  21868672.960    89549103.75148
  21338243.540   112133228.84909  21338244.680    87376547.63448
 15 01 31 00 49  0.0000000  0  6G16G18G21G25G29G31
  23774761.420   124937216.77306  23774762.620    97353674.61345
  24303470.920   127715613.90706  24303474.660    99518684.09944
  20974120.700   110219901.41608  20974121.360    85885707.70049
  22674832.080   119157163.30707  22674836.780    92849818.87146
  21880769.520   114984658.23208  21880771.100    89598643.63448
  21347081.220   112179671.09009  21347082.360    87412736.38548
 15 01 31 00 49 30.0000000  0  6G16G18G21G25G29G31
  23757504.000   124846528.30107  23757505.220    97283008.30445
  24288292.980   127635854.45506  24288296.480    99456534.19644
  20970361.140   110200144.67408  20970361.760    85870312.84649
  22689701.280   119235300.37707  22689705.640    92910704.86746
  21892886.820   115048334.77108  21892888.320    89648261.70947
  21356013.080   112226608.17609  21356014.220    87449310.72548
 15 01 31 00 50  0.0000000  0  6G16G18G21G25G29G31
  23740253.960   124755878.62907  23740255.260    97212372.21945
  24273109.420   127556066.58905  24273112.960    99394362.19844
  20966688.160   110180843.09708  20966688.800    85855272.66049
  22704621.520   119313705.75607  22704625.580    92971799.94546
  21905023.500   115112113.35608  21905025.020    89697959.29248
  21365039.300   112274041.18209  21365040.460    87486271.50548
 15 01 31 00 50 30.0000000  0  6G16G18G21G25G29G31
  23723011.080   124665266.89107  23723012.500    97141765.69845
  24257920.580   127476250.77206  24257924.140    99332168.35343
  20963101.280   110161994.00208  20963101.940    85840585.06649
  22719592.140   119392376.37507  22719596.140    93033101.69946
  21917179.000   115175990.81008  21917180.500    89747733.92448
  21374159.100   112321965.85008  21374160.240    87523615.38848
 15 01 31 00 51  0.0000000  0  6G16G18G21G25G29G31
  23705775.960   124574695.69507  23705777.400    97071190.76145
  24242727.100   127396410.79005  24242730.540    99269955.68744
  20959600.880   110143599.25808  20959601.520    85826251.50349
  22734613.200   119471312.69407  22734617.360    93094610.50347
  21929353.280   115239967.23608  21929354.820    89797585.67048
  21383372.340   112370381.71308  21383373.480    87561342.03048
 15 01 31 00 51 30.0000000  0  6G16G18G21G25G29G31
  23688548.420   124484164.41606  23688549.860    97000646.93445
  24227529.160   127316547.02306  24227532.800    99207724.47143
  20956186.440   110125656.24408  20956187.080    85812269.93849
  22749684.260   119550511.96907  22749688.760    93156324.20946
  21941545.840   115304039.81008  21941547.460    89847512.33548
  21392678.200   112419284.58708  21392679.360    87599448.15448
 15 01 31 00 52  0.0000000  0  6G16G18G21G25G29G31
  23671329.080   124393676.45006  23671330.560    96930136.84045
  24212327.680   127236664.33006  24212331.400    99145478.52244
  20952858.360   110108167.10008  20952859.000    85798642.04249
  22764805.660   119629975.71707  22764810.440    93218244.00747
  21953757.100   115368210.45708  21953758.780    89897515.43448
  21402076.820   112468675.00308  21402078.000    87637934.18148
 15 01 31 00 52 30.0000000  0  6G16G18G21G25G29G31
  23654118.300   124303233.57706  23654119.740    96859661.89544
  24197123.040   127156764.96305  24197126.800    99083219.50744
  20949616.580   110091131.46508  20949617.240    85785367.52749
  22779977.320   119709703.09507  22779982.220    93280369.21647
  21965986.800   115432478.08808  21965988.520    89947594.10548
  21411567.860   112518550.83808  21411569.040    87676798.45748
 15 01 31 00 53  0.0000000  0  6G16G18G21G25G29G31
  23636916.080   124212835.97806  23636917.520    96789222.19945
  24181915.500   127076850.47006  24181919.540    99020948.80444
  20946460.820   110074547.90008  20946461.520    85772445.27749
  22795198.900   119789692.15507  22795203.700    93342698.33346
  21978234.520   115496840.46108  21978236.280    89997746.60647
  21421150.780   112568909.08108  21421151.900    87716038.63248
 15 01 31 00 53 30.0000000  0  6G16G18G21G25G29G31
  23619722.620   124122484.17506  23619724.020    96718818.20144
  24166705.460   126996922.51305  24166709.660    98958667.49844
  20943391.020   110058415.94208  20943391.740    85759874.93049
  22810470.060   119869941.40207  22810474.580    93405230.18946
  21990499.940   115561295.89408  21990501.760    90047971.61348
  21430825.040   112619747.23008  21430826.080    87755652.76348
 15 01 31 00 54  0.0000000  0  6G16G18G21G25G29G31
  23602538.720   124032182.21006  23602540.100    96648453.04045
  24151493.720   126916985.80905  24151497.720    98896379.37545
  20940407.480   110042737.13908  20940408.160    85747657.68749
  22825790.940   119950452.48707  22825795.240    93467966.06746
  22002783.380   115625845.98308  22002785.240    90098270.37948
  21440590.680   112671065.72308  21440591.680    87795641.18348
 15 01 31 00 54 30.0000000  0  6G16G18G21G25G29G31
  23585364.220   123941929.60106  23585365.560    96578126.35045
  24136280.540   126837040.88005  24136284.880    98834084.89645
  20937509.760   110027509.40508  20937510.400    85735791.92949
  22841160.880   120031222.39007  22841165.060    93530903.62946
  22015084.380   115690488.16908  22015086.220    90148640.89748
  21450446.880   112722860.26908  21450447.880    87836000.55748
 15 01 31 00 55  0.0000000  0  6G16G18G21G25G29G31
  23568200.080   123851731.68106  23568201.440    96507842.24444
  24121066.860   126757094.62505  24121071.240    98771789.32844
  20934698.680   110012737.20808  20934699.320    85724281.13849
  22856580.600   120112254.65307  22856584.900    93594045.63046
  22027403.540   115755225.59708  22027405.340    90199085.64147
  21460394.060   112775133.04808  21460395.080    87876732.58448
 15 01 31 00 55 30.0000000  0  6G16G18G21G25G29G31
  23551045.460   123761583.63606  23551046.840    96437597.03145
  24105852.420   126677143.01505  24105856.800    98709489.57244
  20931972.940   109998413.53708  20931973.580    85713119.84949
  22872048.780   120193542.04307  22872053.320    93657386.44546
  22039739.580   115820051.27308  22039741.260    90249599.14647
  21470430.680   112827875.82908  21470431.740    87917830.84348
 15 01 31 00 56  0.0000000  0  6G16G18G21G25G29G31
  23533901.220   123671489.71606  23533902.520    96367393.98245
  24090638.040   126597191.42906  24090642.240    98647189.86244
  20929332.900   109984540.38608  20929333.560    85702309.61349
  22887565.980   120275086.45707  22887570.760    93720927.52846
  22052092.800   115884967.27308  22052094.380    90300183.02647
  21480556.840   112881089.24008  21480557.940    87959295.82548
 15 01 31 00 56 30.0000000  0  6G16G18G21G25G29G31
  23516767.380   123581450.29606  23516768.660    96297233.40945
  24075424.200   126517241.31206  24075427.920    98584891.26044
  20926778.400   109971116.77808  20926779.100    85691849.66949
  22903131.880   120356885.85807  22903136.760    93784667.30746
  22064462.700   115949971.33908  22064464.240    90350835.53147
  21490771.940   112934770.11108  21490773.100    88001125.06048
 15 01 31 00 57  0.0000000  0  6G16G18G21G25G29G31
  23499645.420   123491473.26806  23499646.620    96227121.43645
  24060212.180   126437301.51506  24060215.800    98522600.71644
  20924310.560   109958148.38608  20924311.280    85681744.43949
  22918747.500   120438945.89907  22918752.400    93848610.18146
  22076850.400   116015068.85608  22076851.840    90401560.85647
  21501076.860   112988922.90708  21501078.060    88043322.03248
 15 01 31 00 57 30.0000000  0  6G16G18G21G25G29G31
  23482534.160   123401553.27406  23482535.400    96157053.93245
  24045001.360   126357367.39606  24045004.640    98460314.56844
  20921928.020   109945627.97808  20921928.720    85671988.28349
  22934411.200   120521258.54607  22934416.060    93912749.89246
  22089254.400   116080252.28908  22089255.820    90452353.13847
  21511469.800   113043538.20408  21511471.000    88085879.39248
 15 01 31 00 58  0.0000000  0  6G16G18G21G25G29G31
  23465434.640   123311695.08406  23465436.020    96087034.60445
  24029792.800   126277445.34306  24029795.900    98398037.84044
  20919631.440   109933559.12108  20919632.100    85662583.99349
  22950123.480   120603826.55407  22950128.260    93977088.58646
  22101675.380   116145524.86908  22101676.780    90503214.88047
  21521951.060   113098617.40808  21521952.220    88128798.24048
 15 01 31 00 58 30.0000000  0  7G16G18G21G25G27G29G31
  23448347.340   123221901.22106  23448348.860    96017065.39545
  24014587.200   126197538.69306  24014589.800    98335773.08843
  20917420.840   109921942.00908  20917421.460    85653531.70849
  22965884.380   120686650.07207  22965889.100    94041626.38046
  24619034.900   129373894.35205  24619039.680   100810848.26244
  22114113.240   116210886.29108  22114114.700    90554145.85647
  21532520.400   113154159.52508  21532521.540    88172077.79748
 15 01 31 00 59  0.0000000  0  7G16G18G21G25G27G29G31
  23431271.480   123132166.94506  23431273.000    95947142.59346
  23999383.720   126117643.68506  23999386.020    98273517.38144
  20915294.920   109910769.90608  20915295.480    85644826.18449
  22981692.480   120769721.79107  22981697.100    94106357.56146
  24604252.000   129296209.09505  24604256.420   100750314.42245
  22126566.640   116276329.43908  22126568.120    90605140.51147
  21543176.200   113210155.97708  21543177.360    88215711.38648
 15 01 31 00 59 30.0000000  0  7G16G18G21G25G27G29G31
  23414208.440   123042500.10407  23414209.900    95877272.36246
  23984183.820   126037768.34706  23984185.940    98211277.04444
  20913254.660   109900048.37208  20913255.280    85636471.75049
  22997548.760   120853046.78707  22997553.260    94171286.11346
  24589485.660   129218610.94405  24589489.880   100689848.43144
  22139036.660   116341859.83408  22139038.140    90656203.15047
  21553919.200   113266610.75508  21553920.380    88259702.10648
 15 01 31 01 00  0.0000000  0  7G16G18G21G25G27G29G31
  23397158.400   122952901.34407  23397159.840    95807455.17745
  23968988.020   125957915.35506  23968990.120    98149054.05844
  20911299.940   109889776.40208  20911300.580    85628467.63149
  23013452.900   120936623.49407  23013457.200    94236410.79546
  24574735.240   129141100.07005  24574739.740   100629445.63444
  22151522.960   116407475.78608  22151524.480    90707332.44747
  21564748.860   113323520.88708  21564750.020    88304047.65548
 15 01 31 01 00 30.0000000  0  7G16G18G21G25G27G29G31
  23380122.080   122863374.96807  23380123.500    95737694.38145
  23953797.380   125878090.02406  23953799.520    98086852.62444
  20909431.220   109879956.37008  20909431.880    85620815.66949
  23029405.360   121020453.93007  23029409.420    94301733.18146
  24560001.920   129063677.46705  24560006.640   100569116.43344
  22164025.960   116473179.41008  22164027.480    90758530.06447
  21575665.280   113380886.98508  21575666.440    88348748.49048
 15 01 31 01 01  0.0000000  0  7G16G18G21G25G27G29G31
  23363098.800   122773917.13507  23363100.160    95667987.00545
  23938611.240   125798288.92306  23938613.560    98024670.09244
  20907647.320   109870582.21708  20907647.980    85613511.14249
  23045404.920   121104531.72507  23045408.780    94367248.34046
  24545284.740   128986338.47905  24545289.360   100508852.37145
  22176544.520   116538964.63208  22176545.980    90809791.26847
  21586666.960   113438701.34808  21586668.160    88393798.63148
 15 01 31 01 01 30.0000000  0  7G16G18G21G25G27G29G31
  23346089.060   122684530.58707  23346090.320    95598335.17745
  23923430.520   125718515.73006  23923433.040    97962509.29944
  20905948.380   109861654.53408  20905949.060    85606554.51449
  23061451.460   121188856.74107  23061455.320    94432956.11846
  24530583.800   128909084.09505  24530588.380   100448654.22545
  22189078.600   116604831.65708  22189080.020    90861116.20547
  21597753.740   113496962.73308  21597754.960    88439197.10748
 15 01 31 01 02  0.0000000  0  7G16G18G21G25G27G29G31
  23329093.400   122595217.85207  23329094.600    95528740.85345
  23908256.020   125638774.34206  23908258.480    97900373.29245
  20904334.580   109853174.05808  20904335.240    85599946.36149
  23077545.120   121273429.33207  23077549.060    94498856.83746
  24515899.120   128831915.48905  24515903.860   100388522.91145
  22201628.360   116670781.00408  22201629.700    90912505.29347
  21608925.400   113555670.10008  21608926.640    88484943.09748
 15 01 31 01 02 30.0000000  0  7G16G18G21G25G27G29G31
  23312112.240   122505981.57907  23312113.460    95459206.11445
  23893088.320   125559068.52905  23893090.780    97838265.00745
  20902806.000   109845141.27608  20902806.620    85593687.05949
  23093685.900   121358249.59107  23093690.000    94564950.53246
  24501230.880   128754833.56205  24501235.720   100328459.12345
  22214193.820   116736812.98408  22214195.160    90963958.77147
  21620181.740   113614822.48208  21620182.980    88531035.85448
 15 01 31 01 03  0.0000000  0  7G16G18G21G25G27G29G31
  23295145.520   122416821.22107  23295146.760    95389730.53945
  23877927.680   125479398.46806  23877929.920    97776184.58044
  20901362.080   109837553.33908  20901362.680    85587774.38949
  23109873.140   121443314.30807  23109877.460    94631234.72246
  24486578.680   128677836.07005  24486583.640   100268461.12544
  22226774.440   116802924.76408  22226775.820    91015474.43647
  21631521.820   113674415.00208  21631523.060    88577471.57348
 15 01 31 01 03 30.0000000  0  7G16G18G21G25G27G29G31
  23278193.980   122327740.42707  23278195.240    95320316.96245
  23862774.640   125399768.77606  23862776.980    97714135.58244
  20900003.100   109830411.75908  20900003.680    85582209.52949
  23126107.140   121528624.57207  23126111.580    94697710.24046
  24471942.980   128600924.96005  24471948.000   100208530.43944
  22239370.440   116869117.60908  22239371.900    91067053.27647
  21642945.660   113734447.70508  21642946.880    88624250.29248
 15 01 31 01 04  0.0000000  0  7G16G18G21G25G27G29G31
  23261257.840   122238740.52107  23261259.180    95250966.42345
  23847629.560   125320181.50806  23847632.020    97652119.62544
  20898728.860   109823715.76608  20898729.480    85576991.88549
  23142387.560   121614179.03507  23142392.120    94764376.03746
  24457323.600   128524099.91805  24457328.560   100148666.81945
  22251981.620   116935390.25108  22251983.180    91118694.29647
  21654452.720   113794917.51108  21654453.860    88671369.60548
 15 01 31 01 04 30.0000000  0  7G16G18G21G25G27G29G31
  23244337.080   122149821.56107  23244338.480    95181678.96045
  23832492.960   125240637.94906  23832495.240    97590137.70943
  20897538.960   109817463.14408  20897539.640    85572119.71849
  23158713.960   121699975.34807  23158718.580    94831230.28246
  24442720.300   128447359.40005  24442725.220   100088869.10344
  22264607.760   117001741.18808  22264609.340    91170396.31947
  21666042.280   113855821.05508  21666043.360    88718826.89648
 15 01 31 01 05  0.0000000  0  7G16G18G21G25G27G29G31
  23227432.440   122060987.39107  23227433.920    95112457.54745
  23817365.480   125161142.65806  23817367.880    97528193.41244
  20896433.720   109811655.29408  20896434.440    85567594.12749
  23175086.580   121786014.51507  23175091.220    94898273.76846
  24428133.440   128370705.41705  24428138.280   100029138.78144
  22277249.000   117068171.37908  22277250.640    91222160.09247
  21677714.260   113917157.79508  21677715.360    88766621.74848
 15 01 31 01 05 30.0000000  0  7G16G18G21G25G27G29G31
  23210544.200   121972239.01407  23210545.680    95043303.00945
  23802247.580   125081697.40506  23802249.960    97466288.06945
  20895412.980   109806291.32208  20895413.700    85563414.41749
  23191505.120   121872294.95807  23191509.680    94965505.24646
  24413562.940   128294137.28305  24413567.660    99969475.34346
  22289905.060   117134679.25508  22289906.720    91273984.40247
  21689468.120   113978924.77708  21689469.240    88814751.84648
 15 01 31 01 06  0.0000000  0  7G16G18G21G25G27G29G31
  23193672.420   121883577.16707  23193673.820    94974215.88545
  23787139.560   125002304.47306  23787142.080    97404423.55444
  20894476.400   109801369.64008  20894477.120    85559579.34849
  23207969.300   121958814.75607  23207973.740    95032923.25545
  24399008.640   128217654.03305  24399013.280    99909878.05945
  22302575.720   117201263.84908  22302577.380    91325868.48747
  21701303.240   114041118.81608  21701304.420    88863214.72948
 15 01 31 01 06 30.0000000  0  7G16G18G21G25G27G29G31
  23176817.520   121795003.96507  23176818.740    94905197.82745
  23772042.200   124922966.60706  23772044.480    97342601.89145
  20893623.900   109796889.80308  20893624.640    85556088.57249
  23224478.880   122045573.35007  23224483.300    95100527.32845
  24384470.580   128141256.10105  24384475.120    99850347.27146
  22315260.920   117267924.89108  22315262.540    91377812.14247
  21713219.360   114103738.43608  21713220.560    88912009.22848
 15 01 31 01 07  0.0000000  0  7G16G18G21G25G27G29G31
  23159979.920   121706521.74607  23159981.040    94836250.68045
  23756955.880   124843686.81106  23756958.020    97280825.55344
  20892855.500   109792851.86308  20892856.240    85552942.13149
  23241033.900   122132570.25707  23241038.280    95168317.10745
  24369948.840   128064943.94805  24369953.160    99790883.29644
  22327960.600   117334661.87908  22327962.160    91429814.96747
  21725216.000   114166781.09708  21725217.240    88961133.36948
 15 01 31 01 07 30.0000000  0  7G16G18G21G25G27G29G31
  23143160.080   121618133.00807  23143161.200    94767376.36845
  23741881.240   124764468.79606  23741883.260    97219097.32245
  20892171.340   109789256.31808  20892172.040    85550140.41649
  23257634.300   122219805.43807  23257638.600    95236292.57146
  24355443.540   127988718.48605  24355447.780    99731486.89645
  22340674.800   117401475.27708  22340676.260    91481877.34347
  21737292.920   114230245.71408  21737294.180    89010586.30748
 15 01 31 01 08  0.0000000  0  7G16G18G21G25G27G29G31
  23126358.220   121529838.80607  23126359.320    94698575.71645
  23726818.560   124685314.27806  23726820.560    97157418.56945
  20891570.980   109786101.34908  20891571.660    85547682.00749
  23274279.740   122307277.10607  23274283.980    95304452.30646
  24340954.580   127912578.85805  24340958.780    99672157.35045
  22353403.300   117468363.65808  22353404.640    91533998.15747
  21749449.540   114294128.97008  21749450.740    89060365.45748
 15 01 31 01 08 30.0000000  0  7G16G18G21G25G27G29G31
  23109574.420   121441639.64407  23109575.520    94629849.12445
  23711768.260   124606224.91406  23711770.320    97095790.58346
  20891054.160   109783385.39708  20891054.820    85545565.68549
  23290969.780   122394983.08607  23290973.980    95372794.60346
  24326481.840   127836523.95105  24326486.060    99612893.84245
  22366145.760   117535325.70008  22366147.100    91586176.36447
  21761685.140   114358427.32208  21761686.280    89110468.05548
 15 01 31 01 09  0.0000000  0  7G16G18G21G25G27G29G31
  23092809.540   121353539.63107  23092810.560    94561199.78046
  23696731.120   124527205.43506  23696733.300    97034217.07145
  20890621.100   109781109.63908  20890621.760    85543792.37149
  23307704.600   122482924.76707  23307708.920    95441320.57046
  24312025.600   127760556.11805  24312030.020    99553698.16345
  22378902.500   117602363.07908  22378903.920    91638413.27847
  21773999.760   114423140.89208  21774000.820    89160894.20148
 15 01 31 01 09 30.0000000  0  7G16G18G21G25G27G29G31
  23076063.640   121265539.37207  23076064.600    94492628.17446
  23681707.640   124448257.91206  23681709.840    96972699.58345
  20890271.640   109779273.37908  20890272.340    85542361.52649
  23324483.740   122571100.05007  23324488.240    95510028.56946
  24297585.740   127684674.26305  24297590.380    99494569.45846
  22391673.240   117669474.03808  22391674.800    91690707.52647
  21786392.680   114488266.18208  21786393.760    89211641.16848
 15 01 31 01 10  0.0000000  0  7G16G18G21G25G27G29G31
  23059337.180   121177641.17407  23059338.040    94424136.09446
  23666698.180   124369384.84606  23666700.660    96911240.15745
  20890005.640   109777875.76108  20890006.360    85541272.48049
  23341307.160   122659508.14206  23341311.800    95578917.96246
  24283162.240   127608878.61305  24283167.080    99435507.96246
  22404457.880   117736658.23208  22404459.600    91743058.84047
  21798863.540   114553800.98008  21798864.680    89262707.23248
 15 01 31 01 10 30.0000000  0  7G16G18G21G25G27G29G31
  23042630.180   121089845.29407  23042631.140    94355723.73646
  23651703.200   124290587.54706  23651705.800    96849839.72344
  20889822.660   109776914.23408  20889823.360    85540523.23849
  23358174.360   122748146.59406  23358179.140    95647986.86146
  24268754.920   127533167.65905  24268759.820    99376512.44146
  22417256.120   117803913.74708  22417257.920    91795465.72547
  21811411.600   114619741.27308  21811412.760    89314089.27248
 15 01 31 01 11  0.0000000  0  7G16G18G21G25G27G29G31
  23025943.260   121002155.21307  23025944.380    94287393.82646
  23636723.560   124211870.35806  23636726.100    96788501.73044
  20889722.820   109776389.53408  20889723.480    85540114.39249
  23375085.500   122837016.02206  23375090.340    95717235.74246
  24254363.900   127457543.11105  24254368.840    99317584.27345
  22430068.220   117871241.68508  22430070.020    91847929.04447
  21824036.720   114686086.39808  21824037.880    89365786.76248
 15 01 31 01 11 30.0000000  0  7G16G18G21G25G27G29G31
  23009276.280   120914570.04907  23009277.640    94219145.66746
  23621759.340   124133233.47106  23621761.760    96727226.28944
  20889705.560   109776298.78508  20889706.180    85540043.68249
  23392040.000   122926112.86006  23392044.840    95786661.81145
  24239988.780   127382002.39905  24239993.780    99258721.40744
  22442893.500   117938638.95208  22442895.300    91900446.39147
  21836737.840   114752831.21508  21836739.020    89417795.70148
 15 01 31 01 12  0.0000000  0  7G16G18G21G25G27G29G31
  22992630.000   120827093.38407  22992631.440    94150982.04446
  23606811.320   124054681.04006  23606813.560    96666016.69145
  20889771.180   109776643.39708  20889771.740    85540312.22149
  23409038.100   123015437.80606  23409042.620    95856265.66746
  24225630.040   127306547.22905  24225634.960    99199925.18745
  22455732.220   118006106.84408  22455734.000    91953018.76947
  21849514.900   114819975.14308  21849516.080    89470115.63248
 15 01 31 01 12 30.0000000  0  7G16G18G21G25G27G29G31
  22976004.860   120739727.45207  22976006.300    94082904.71346
  23591879.940   123976215.94906  23591882.060    96604875.16744
  20889919.460   109777422.43208  20889919.980    85540919.27249
  23426079.500   123104989.97407  23426083.700    95926046.55045
  24211287.600   127231177.83705  24211292.460    99141195.84945
  22468584.340   118073645.25108  22468586.100    92005646.08447
  21862367.420   114887515.90908  21862368.640    89522744.78848
 15 01 31 01 13  0.0000000  0  7G16G18G21G25G27G29G31
  22959401.000   120652473.05107  22959402.360    94014914.28046
  23576965.560   123897840.32606  23576967.540    96543803.30144
  20890150.040   109778634.20208  20890150.580    85541863.51649
  23443163.760   123194767.53907  23443167.720    95996003.08445
  24196961.400   127155893.33705  24196966.200    99082532.65045
  22481449.580   118141252.45208  22481451.360    92058327.00547
  21875294.800   114955450.09408  21875296.100    89575680.50048
 15 01 31 01 13 30.0000000  0  7G16G18G21G25G27G29G31
  22942818.560   120565331.60607  22942819.900    93947011.86846
  23562068.600   123819555.96606  23562070.620    96482802.55644
  20890462.700   109780277.27508  20890463.260    85543143.83749
  23460290.580   123284768.81806  23460294.440    96066133.93645
  24182651.400   127080693.17005  24182655.980    99023935.16445
  22494327.780   118208927.35808  22494329.440    92111060.68647
  21888296.480   115023774.60408  21888297.840    89628920.36848
 15 01 31 01 14  0.0000000  0  7G16G18G21G25G27G29G31
  22926258.460   120478307.94607  22926259.840    93879201.23846
  23547190.140   123741369.01506  23547192.160    96421877.74344
  20890857.900   109782354.01308  20890858.440    85544762.08449
  23477460.240   123374995.87207  23477464.180    96136440.72245
  24168358.040   127005580.38605  24168362.360    98965405.78145
  22507219.480   118276672.95508  22507220.960    92163849.44547
  21901372.700   115092490.60408  21901374.060    89682465.29448
 15 01 31 01 14 30.0000000  0  7G16G18G21G25G27G29G31
  22909720.620   120391401.34607  22909722.000    93811481.82246
  23532330.260   123663279.17206  23532332.140    96361028.56245
  20891334.980   109784861.04508  20891335.500    85546715.62549
  23494672.100   123465444.95706  23494676.240    96206920.51146
  24154080.760   126930552.41606  24154084.940    98906942.50445
  22520124.020   118344486.10108  22520125.380    92216690.84747
  21914522.320   115161592.35008  21914523.700    89736310.79648
 15 01 31 01 15  0.0000000  0  7G16G18G21G25G27G29G31
  22893205.780   120304615.66507  22893207.160    93743856.63146
  23517489.740   123585291.36406  23517491.600    96300258.90144
  20891894.180   109787799.65908  20891894.680    85549005.46149
  23511926.240   123556116.98906  23511930.660    96277574.03146
  24139819.940   126855611.14306  24139824.120    98848546.75245
  22533041.700   118412368.25808  22533042.940    92269586.02047
  21927745.260   115231079.18708  21927746.600    89790456.37648
 15 01 31 01 15 30.0000000  0  7G16G18G21G25G27G29G31
  22876714.060   120217951.41507  22876715.380    93676326.06046
  23502668.760   123507406.65906  23502670.680    96239569.57845
  20892535.000   109791167.14808  20892535.500    85551629.49049
  23529222.180   123647009.39906  23529227.020    96348399.25646
  24125575.360   126780755.12805  24125579.560    98790217.45145
  22545972.060   118480317.18308  22545973.280    92322533.22447
  21941040.760   115300947.14108  21941042.040    89844898.92148
 15 01 31 01 16  0.0000000  0  7G16G18G21G25G27G29G31
  22860246.020   120131411.00207  22860247.200    93608891.98346
  23487868.020   123429628.59806  23487870.020    96178963.35346
  20893257.580   109794964.21608  20893258.060    85554588.25249
  23546560.060   123738121.77906  23546565.280    96419395.89646
  24111347.100   126705985.09105  24111351.320    98731955.15446
  22558915.160   118548333.34108  22558916.420    92375532.80747
  21954408.480   115371194.49208  21954409.640    89899637.09648
 15 01 31 01 16 30.0000000  0  7G16G18G21G25G27G29G31
  22843801.760   120044995.57707  22843802.860    93541555.30746
  23473087.720   123351958.82406  23473089.920    96118441.50545
  20894061.540   109799189.18908  20894062.060    85557880.44949
  23563939.660   123829452.14906  23563945.000    96490562.39546
  24097134.920   126631300.10405  24097139.260    98673759.09945
  22571870.780   118616415.61208  22571872.080    92428583.92147
  21967847.780   115441818.07808  21967848.840    89954668.44348
 15 01 31 01 17  0.0000000  0  7G16G18G21G25G27G29G31
  22827381.780   119958707.77407  22827382.840    93474318.07046
  23458328.680   123274400.57306  23458331.020    96058006.54345
  20894946.740   109803840.96408  20894947.280    85561505.21549
  23581360.840   123921000.10306  23581366.100    96561898.43546
  24082938.960   126556700.82105  24082943.520    98615629.83146
  22584839.020   118684564.21008  22584840.320    92481686.71347
  21981358.200   115512815.64808  21981359.220    90009991.20548
 15 01 31 01 17 30.0000000  0  7G16G18G21G25G27G29G31
  22810986.040   119872547.81807  22810987.140    93407180.45846
  23443591.200   123196955.14706  23443593.580    95997659.50345
  20895912.680   109808917.01108  20895913.220    85565460.58449
  23598823.000   124012762.84906  23598828.060    96633401.84745
  24068759.020   126482185.64305  24068763.680    98557566.10344
  22597819.460   118752777.03508  22597820.760    92534839.55547
  21994938.920   115584183.02108  21994940.020    90065602.12648
 15 01 31 01 18  0.0000000  0  7G16G18G21G25G27G29G31
  22794615.340   119786519.67107  22794616.540    93340145.55946
  23428875.980   123119627.35006  23428878.460    95937404.13645
  20896959.660   109814419.01208  20896960.240    85569747.86649
  23616326.220   124104741.39406  23616330.960    96705073.41746
  24054595.520   126407756.68605  24054600.220    98499569.55646
  22610812.380   118821055.55808  22610813.720    92588043.59747
  22008589.880   115655919.74208  22008591.160    90121500.85348
 15 01 31 01 18 30.0000000  0  7G16G18G21G25G27G29G31
  22778270.000   119700624.51107  22778271.200    93273214.28646
  23414183.640   123042419.02906  23414186.120    95877241.86345
  20898087.380   109820345.38608  20898088.000    85574365.82649
  23633870.020   124196933.79206  23633874.600    96776911.61945
  24040448.260   126333413.07705  24040453.040    98441639.51245
  22623817.600   118889398.64508  22623819.000    92641297.93447
  22022310.480   115728022.58608  22022311.980    90177684.87748
 15 01 31 01 19  0.0000000  0  7G16G18G21G25G27G29G31
  22761950.320   119614863.77507  22761951.440    93206387.74846
  23399514.420   122965332.10206  23399516.860    95817174.20245
  20899295.480   109826694.23408  20899296.140    85579312.98449
  23651454.020   124289338.28306  23651458.480    96848915.11845
  24026317.200   126259154.21205  24026322.000    98383775.50145
  22636834.960   118957805.29408  22636836.380    92694601.81747
  22036100.160   115800488.11608  22036101.780    90234151.51248
 15 01 31 01 19 30.0000000  0  7G16G18G21G25G27G29G31
  22745656.540   119529239.36507  22745657.600    93139667.44546
  23384869.020   122888369.42207  23384871.200    95757203.33344
  20900583.720   109833464.21208  20900584.420    85584588.30249
  23669078.000   124381953.72706  23669082.400    96921082.96645
  24012202.380   126184980.05905  24012207.040    98325977.49446
  22649864.340   119026275.27708  22649865.800    92747955.03647
  22049958.460   115873313.82208  22049960.080    90290898.79548
 15 01 31 01 20  0.0000000  0  7G16G18G21G25G27G29G31
  22729389.200   119443754.28907  22729390.300    93073055.71047
  23370248.100   122811534.77306  23370249.920    95697332.21145
  20901952.300   109840656.32408  20901953.020    85590192.55149
  23686742.000   124474780.13406  23686746.460    96993415.23045
  23998103.960   126110891.88405  23998108.520    98268246.47946
  22662905.920   119094808.96408  22662907.420    92801357.90547
  22063885.100   115946498.30708  22063886.600    90347925.64848
 15 01 31 01 20 30.0000000  0  7G16G18G21G25G27G29G31
  22713148.800   119358410.86807  22713150.020    93006554.35746
  23355652.080   122734831.11207  23355653.640    95637563.18244
  20903401.020   109848269.55908  20903401.760    85596124.94649
  23704445.980   124567816.62006  23704450.500    97065911.16145
  23984021.920   126036889.91506  23984026.440    98210582.65646
  22675959.640   119163406.61508  22675961.180    92854810.61047
  22077879.600   116020039.12308  22077880.900    90405230.16448
 15 01 31 01 21  0.0000000  0  7G16G18G21G25G27G29G31
  22696935.320   119273208.64207  22696936.620    92940163.03546
  23341080.960   122658258.98607  23341082.300    95577896.62945
  20904929.260   109856300.56508  20904929.980    85602382.88149
  23722189.340   124661059.64406  23722193.840    97138568.03545
  23969955.860   125962971.70106  23969960.360    98152984.09945
  22689024.960   119232065.48807  22689026.580    92908311.01847
  22091940.860   116093931.21208  22091942.000    90462808.39048
 15 01 31 01 21 30.0000000  0  7G16G18G21G25G27G29G31
  22680749.520   119188151.78407  22680750.860    92873884.96847
  23326535.580   122581822.85807  23326536.880    95518336.03745
  20906537.180   109864750.47008  20906537.940    85608967.22949
  23739972.300   124754510.03606  23739976.740    97211386.53345
  23955906.080   125889139.28805  23955910.420    98095452.38546
  22702102.140   119300786.49608  22702103.780    92961859.85147
  22106068.780   116168173.77308  22106069.800    90520659.71448
 15 01 31 01 22  0.0000000  0  7G16G18G21G25G27G29G31
  22664591.860   119103242.32607  22664593.120    92807721.76847
  23312016.480   122505525.62106  23312017.960    95458883.69544
  20908224.720   109873618.48208  20908225.440    85615877.38049
  23757794.620   124848166.86305  23757799.100    97284365.85644
  23941872.660   125815392.96306  23941876.840    98037987.78445
  22715191.260   119369570.49307  22715192.880    93015457.75947
  22120262.920   116242764.76308  22120263.960    90578782.55148
 15 01 31 01 22 30.0000000  0  7G16G18G21G25G27G29G31
  22648462.180   119018480.26207  22648463.420    92741673.41746
  23297523.880   122429367.76806  23297525.600    95399539.93945
  20909991.180   109882901.30508  20909991.900    85623110.75149
  23775655.620   124942026.67606  23775660.120    97357503.33345
  23927855.180   125741730.41705  23927859.200    97980588.43646
  22728291.820   119438414.69707  22728293.460    93069102.58747
  22134522.460   116317699.16708  22134523.560    90637172.97748
 15 01 31 01 23  0.0000000  0  7G16G18G21G25G27G29G31
  22632361.200   118933869.25707  22632362.460    92675742.77647
  23283058.720   122353353.92207  23283060.700    95340308.41945
  20911836.720   109892599.58808  20911837.440    85630667.86549
  23793555.460   125036090.20506  23793560.060    97430799.58245
  23913854.000   125668153.63005  23913857.880    97923255.91245
  22741404.080   119507320.38307  22741405.760    93122795.32147
  22148847.180   116392975.86108  22148848.360    90695830.12948
 15 01 31 01 23 30.0000000  0  7G16G18G21G25G27G29G31
  22616289.100   118849410.18507  22616290.460    92609930.52846
  23268621.400   122277485.56707  23268623.580    95281190.26745
  20913760.940   109902711.41208  20913761.660    85638547.21449
  23811493.600   125130355.10506  23811498.300    97504252.71045
  23899868.880   125594661.37805  23899872.660    97865989.27845
  22754527.780   119576286.26807  22754529.560    93176534.97547
  22163236.380   116468591.23608  22163237.620    90754751.19048
 15 01 31 01 24  0.0000000  0  7G16G18G21G25G27G29G31
  22600246.460   118765105.46107  22600247.800    92544238.54247
  23254212.520   122201765.88107  23254214.700    95222187.95645
  20915763.760   109913236.32308  20915764.500    85646748.44849
  23829470.020   125224820.46606  23829474.700    97577862.07846
  23885899.800   125521253.99805  23885903.660    97808788.74246
  22767662.880   119645312.08907  22767664.760    93230321.32347
  22177689.520   116544542.70308  22177690.840    90813934.13748
 15 01 31 01 24 30.0000000  0  7G16G18G21G25G27G29G31
  22584233.640   118680957.39307  22584234.940    92478668.62247
  23239832.500   122126197.60407  23239834.620    95163303.63745
  20917845.060   109924173.56808  20917845.780    85655270.98449
  23847484.420   125319485.19506  23847489.060    97651626.77746
  23871946.920   125447931.59105  23871950.940    97751654.46946
  22780809.360   119714397.74607  22780811.340    93284154.29746
  22192206.180   116620828.06908  22192207.560    90873377.26748
 15 01 31 01 25  0.0000000  0  7G16G18G21G25G27G29G31
  22568251.180   118596968.86507  22568252.400    92413223.02047
  23225482.040   122050784.32707  23225484.040    95104540.09245
  20920004.760   109935522.77808  20920005.460    85664114.53349
  23865536.700   125414349.02506  23865541.200    97725546.62845
  23858010.300   125374695.13705  23858014.640    97694587.13846
  22793967.440   119783543.84707  22793969.380    93338034.36946
  22206785.920   116697445.39608  22206787.400    90933079.07648
 15 01 31 01 25 30.0000000  0  7G16G18G21G25G27G29G31
  22552299.300   118513141.10108  22552300.480    92347902.69347
  23211161.440   121975527.96007  23211163.260    95045898.80445
  20922242.440   109947281.86308  20922243.120    85673277.46149
  23883626.300   125509409.94406  23883630.740    97799620.03346
  23844089.960   125301543.85305  23844094.480    97637586.16046
  22807136.800   119852749.18807  22807138.680    93391960.58747
  22221428.140   116774391.13608  22221429.680    90993036.78148
 15 01 31 01 26  0.0000000  0  7G16G18G21G25G27G29G31
  22536378.360   118429476.08608  22536379.560    92282709.18947
  23196871.140   121900431.30907  23196872.860    94987381.98245
  20924557.840   109959449.33108  20924558.500    85682758.61249
  23901753.040   125604666.56906  23901757.440    97873845.95845
  23830185.840   125228477.56105  23830190.460    97580651.42546
  22820317.380   119922013.20907  22820319.180    93445932.54147
  22236132.300   116851662.26008  22236133.840    91053248.03248
 15 01 31 01 26 30.0000000  0  7G16G18G21G25G27G29G31
  22520488.860   118345976.10308  22520490.040    92217644.27147
  23182611.500   121825496.94907  23182613.300    94928991.60145
  20926950.940   109972025.19508  20926951.600    85692557.99149
  23919916.780   125700118.14506  23919921.260    97948223.78944
  23816298.060   125155496.87406  23816302.680    97523783.38746
  22833509.300   119991336.66507  22833511.000    93499950.80647
  22250898.080   116929256.91808  22250899.580    91113711.38848
 15 01 31 01 27  0.0000000  0  7G16G18G21G25G27G29G31
  22504631.080   118262642.94608  22504632.280    92152709.36247
  23168383.100   121750727.26207  23168385.020    94870729.55645
  20929421.320   109985007.08808  20929421.980    85702673.76449
  23938117.000   125795762.73906  23938121.700    98022752.04644
  23802426.580   125082600.97706  23802431.060    97466981.42646
  22846712.240   120060718.13107  22846713.860    93554014.27647
  22265724.800   117007171.51108  22265726.220    91174424.04347
 15 01 31 01 27 30.0000000  0  7G16G18G21G25G27G29G31
  22488805.460   118179478.64608  22488806.620    92087906.03247
  23154186.600   121676125.06507  23154188.560    94812598.00245
  20931968.860   109998394.46708  20931969.500    85713105.49449
  23956353.760   125891599.35905  23956358.680    98097429.90944
  23788571.340   125009790.16606  23788575.540    97410245.79046
  22859926.100   120130157.67907  22859927.780    93608123.00446
  22280611.840   117085403.29708  22280613.260    91235383.86548
 15 01 31 01 28  0.0000000  0  7G16G18G21G25G27G29G31
  22473012.320   118096485.09308  22473013.440    92023235.74247
  23140022.480   121601693.12407  23140024.460    94754599.13845
  20934593.340   110012186.27808  20934593.960    85723852.36749
  23974626.940   125987626.59005  23974631.840    98172256.31144
  23774732.200   124937064.39006  23774736.180    97353576.40346
  22873150.880   120199655.01007  22873152.720    93662276.76046
  22295558.760   117163949.65008  22295560.140    91296588.80948
 15 01 31 01 28 30.0000000  0  7G16G18G21G25G27G29G31
  22457251.820   118013663.34308  22457252.940    91958699.33647
  23125891.080   121527432.79307  23125892.980    94696733.97045
  20937294.260   110026379.94508  20937294.900    85734912.37749
  23992936.180   126083841.98806  23992940.960    98247229.36344
  23760908.840   124864422.39306  23760912.740    97296972.28845
  22886386.360   120269208.50807  22886388.340    93716474.27547
  22310564.740   117242806.63908  22310566.140    91358035.80747
 15 01 31 01 29  0.0000000  0  7G16G18G21G25G27G29G31
  22441524.740   117931017.44308  22441525.860    91894299.95547
  23111793.260   121453348.67507  23111795.000    94639006.13946
  20940071.880   110040976.49208  20940072.520    85746286.31449
  24011281.600   126180246.25506  24011286.100    98322349.53845
  23747101.720   124791866.21505  23747105.700    97240435.04446
  22899632.900   120338819.71907  22899634.980    93770716.78347
  22325629.660   117321973.24608  22325631.020    91419724.06747
 15 01 31 01 29 30.0000000  0  7G16G18G21G25G27G29G31
  22425831.420   117848548.82308  22425832.500    91830038.71347
  23097729.440   121379442.95207  23097731.120    94581417.30745
  20942925.780   110055973.90108  20942926.420    85757972.61249
  24029662.660   126276837.49106  24029666.900    98397615.44045
  23733310.720   124719395.12005  23733314.780    97183964.11146
  22912890.240   120408487.83107  22912892.400    93825003.61146
  22340752.900   117401446.17208  22340754.200    91481651.01047
 15 01 31 01 30  0.0000000  0  7G16G18G21G25G27G29G31
  22410172.160   117766258.55908  22410173.140    91765916.44647
  23083699.880   121305716.79807  23083701.460    94523968.38345
  20945855.480   110071369.58908  20945856.120    85769969.26049
  24048078.760   126373613.28906  24048082.960    98473025.12044
  23719535.760   124647008.12505  23719539.780    97127558.72646
  22926158.200   120478211.70207  22926160.460    93879333.88647
  22355933.720   117481221.56808  22355934.880    91543813.64147
 15 01 31 01 30 30.0000000  0  7G16G18G21G25G27G29G31
  22394547.340   117684149.47908  22394548.300    91701935.35947
  23069705.280   121232174.29807  23069706.800    94466662.57145
  20948860.960   110087163.65808  20948861.620    85782276.33449
  24066529.760   126470573.03106  24066534.020    98548578.16145
  23705776.980   124574705.89505  23705781.000    97071219.34446
  22939436.900   120547991.56007  22939439.140    93933707.78746
  22371171.600   117561297.10708  22371172.680    91606210.14547
 15 01 31 01 31  0.0000000  0  7G16G18G21G25G27G29G31
  22378957.580   117602224.63508  22378958.540    91638097.83547
  23055746.260   121158818.78007  23055747.820    94409502.45645
  20951942.240   110103355.75708  20951942.860    85794893.56249
  24085015.600   126567716.38206  24085020.020    98624274.25845
  23692034.480   124502489.39805  23692038.500    97014946.80745
  22952726.440   120617828.11507  22952728.540    93988125.87246
  22386466.260   117641671.07008  22386467.320    91668839.19047
 15 01 31 01 31 30.0000000  0  7G16G18G21G25G27G29G31
  22363403.240   117520486.33108  22363404.260    91574405.67047
  23041823.280   121085652.77907  23041824.940    94352490.00845
  20955098.980   110119944.64608  20955099.620    85807819.96649
  24103535.860   126665042.20606  24103540.700    98700112.55945
  23678308.460   124430358.80406  23678312.340    96958741.16645
  22966026.720   120687721.41607  22966028.740    94042588.16846
  22401817.220   117722340.89608  22401818.340    91731698.78147
 15 01 31 01 32  0.0000000  0  7G16G18G21G25G27G29G31
  22347884.720   117438936.17408  22347885.800    91510860.11847
  23027936.840   121012678.78707  23027938.580    94295627.18445
  20958331.020   110136928.89708  20958331.600    85821054.45649
  24122090.320   126762548.70605  24122095.640    98776091.63145
  23664598.720   124358313.67906  23664602.700    96902602.12646
  22979337.580   120757670.44207  22979339.560    94097093.88447
  22417223.880   117803303.42508  22417225.120    91794786.45547
 15 01 31 01 32 30.0000000  0  7G16G18G21G25G27G29G31
  22332402.140   117357574.58508  22332403.200    91447461.49247
  23014087.080   120939897.68607  23014088.940    94238914.66646
  20961637.600   110154305.10508  20961638.160    85834594.36149
  24140678.660   126860232.87105  24140684.260    98852209.13245
  23650905.020   124286352.31906  23650908.980    96846528.38446
  22992658.760   120827673.50007  22992660.680    94151641.71146
  22432685.320   117884553.85608  22432686.680    91858098.46747
 15 01 31 01 33  0.0000000  0  7G16G18G21G25G27G29G31
  22316955.920   117276404.02808  22316956.940    91384211.72747
  23000274.500   120867312.04107  23000276.400    94182354.44845
  20965018.660   110172072.60608  20965019.180    85848439.17549
  24159300.740   126958093.63905  24159306.560    98928464.26745
  23637227.300   124214475.05806  23637231.260    96790520.15546
  23005990.280   120897730.78207  23005992.180    94206231.78047
  22448201.160   117966090.08808  22448202.600    91921633.18547
 15 01 31 01 33 30.0000000  0  7G16G18G21G25G27G29G31
  22301546.440   117195426.61608  22301547.420    91321112.45647
  22986499.720   120794925.14607  22986501.620    94125949.10046
  20968474.020   110190230.56708  20968474.520    85862588.24149
  24177956.300   127056129.82005  24177962.260    99004856.07445
  23623565.580   124142682.02706  23623569.620    96734577.56446
  23019332.160   120967842.14907  23019333.980    94260864.00246
  22463770.780   118047908.94608  22463772.280    91985388.12947
 15 01 31 01 34  0.0000000  0  7G16G18G21G25G27G29G31
  22286174.400   117114646.10308  22286175.400    91258166.62047
  22972763.520   120722741.19107  22972765.340    94069701.88745
  20972003.620   110208779.01808  20972004.180    85877041.58449
  24196645.440   127154341.77405  24196651.240    99081384.84545
  23609920.120   124070974.94006  23609924.320    96678701.94546
  23032684.620   121038008.99307  23032686.320    94315539.46347
  22479393.940   118130009.33508  22479395.480    92049362.45047
 15 01 31 01 34 30.0000000  0  7G16G18G21G25G27G29G31
  22270840.020   117034063.53508  22270841.040    91195375.02046
  22959065.980   120650760.82107  22959067.760    94013613.30746
  20975607.080   110227715.37808  20975607.660    85891797.18949
  24215367.560   127252726.49605  24215373.060    99158048.21844
  23596290.720   123999352.19306  23596294.980    96622892.04346
  23046047.260   121108229.52507  23046048.860    94370256.75346
  22495069.880   118212387.01308  22495071.380    92113552.83047
 15 01 31 01 35  0.0000000  0  7G16G18G21G25G27G29G31
  22255543.740   116953680.93808  22255544.760    91132739.24147
  22945407.780   120578987.45407  22945409.580    93957686.05146
  20979284.080   110247038.40908  20979284.740    85906854.10249
  24234122.460   127351282.83906  24234127.420    99234845.35244
  23582677.380   123927814.03206  23582681.760    96567148.03746
  23059419.920   121178503.19407  23059421.520    94425015.44146
  22510798.040   118295039.17008  22510799.460    92177957.09447
 15 01 31 01 35 30.0000000  0  7G16G18G21G25G27G29G31
  22240286.060   116873501.08108  22240286.980    91070261.43647
  22931789.540   120507424.04507  22931791.360    93901922.39546
  20983034.480   110266747.07008  20983035.160    85922211.50549
  24252909.900   127450009.86006  24252914.440    99311775.47844
  23569080.300   123856360.83906  23569084.580    96511470.25146
  23072802.800   121248830.95007  23072804.520    94479816.28046
  22526578.020   118377963.59808  22526579.360    92242573.51947
 15 01 31 01 36  0.0000000  0  7G16G18G21G25G27G29G31
  22225067.340   116793526.31508  22225068.220    91007943.44147
  22918211.860   120436073.54607  22918213.660    93846324.63246
  20986858.120   110286840.75408  20986858.880    85937868.92549
  24271729.600   127548906.55606  24271733.760    99388837.83844
  23555499.460   123784993.04805  23555503.660    96455858.99446
  23086195.920   121319212.76207  23086197.800    94534659.23847
  22542409.220   118461157.24708  22542410.560    92307399.71947
 15 01 31 01 36 30.0000000  0  7G16G18G21G25G27G29G31
  22209888.040   116713758.74108  22209888.880    90945786.89447
  22904675.240   120364938.52507  22904677.000    93790894.77845
  20990754.740   110307317.89908  20990755.560    85953825.15049
  24290581.120   127647971.39006  24290585.260    99466031.17645
  23541934.820   123713710.54406  23541938.900    96400314.22346
  23099599.220   121389648.08607  23099601.220    94589543.89246
  22558291.220   118544617.68408  22558292.560    92372433.80947
 15 01 31 01 37  0.0000000  0  8G16G18G21G22G25G27G29G31
  22194750.180   116634209.02308  22194751.000    90883800.11346
  22891181.780   120294029.80307  22891183.420    93735641.26845
  20994725.720   110328185.68908  20994726.560    85970085.77249
  24565241.960   129091213.65806  24565242.640   100590565.06144
  24309465.940   127747211.51505  24309470.100    99543361.10345
  23528388.020   123642521.79506  23528392.020    96344842.50346
  23113014.420   121460145.29607  23113016.360    94644476.76646
  22574225.020   118628350.25708  22574226.340    92437679.95847
 15 01 31 01 37 30.0000000  0  8G16G18G21G22G25G27G29G31
  22179649.020   116554852.05508  22179649.860    90821963.52147
  22877726.760   120223322.68407  22877728.300    93680544.84446
  20998765.640   110349415.60408  20998766.460    85986628.56749
  24547161.400   128996201.54206  24547162.720   100516530.14544
  24328378.400   127846598.20905  24328382.780    99620805.23345
  23514853.940   123571399.55706  23514857.740    96289422.60746
  23126436.080   121530676.69307  23126437.980    94699436.27546
  22590204.900   118712324.97008  22590206.200    92503114.79747
 15 01 31 01 38  0.0000000  0  8G16G18G21G22G25G27G29G31
  22164590.140   116475717.18008  22164591.020    90760299.99247
  22864315.860   120152847.14607  22864317.320    93625628.85846
  21002879.400   110371033.40908  21002880.180    86003473.62049
  24529068.120   128901123.11806  24529069.180   100442443.50245
  24347323.720   127946157.27105  24347328.360    99698383.68444
  23501337.660   123500371.01006  23501341.340    96234075.72346
  23139869.460   121601269.83107  23139871.380    94754443.90746
  22606235.420   118796565.93708  22606236.780    92568757.09747
 15 01 31 01 38 30.0000000  0  8G16G18G21G22G25G27G29G31
  22149572.300   116396797.99508  22149573.260    90698804.52147
  22850947.880   120082597.28707  22850949.360    93570888.73046
  21007065.020   110393029.03008  21007065.780    86020613.06949
  24510961.240   128805972.48706  24510962.160   100368300.59644
  24366299.980   128045878.63205  24366304.880    99776088.59945
  23487837.680   123429427.59806  23487841.200    96178795.16446
  23153312.960   121671915.66307  23153314.820    94809492.59846
  22622314.480   118881061.76808  22622315.860    92634597.98747
 15 01 31 01 39  0.0000000  0  8G16G18G21G22G25G27G29G31
  22134595.940   116318096.91608  22134596.940    90637479.01947
  22837623.380   120012576.09408  22837624.940    93516326.77746
  21011322.400   110415401.65008  21011323.140    86038046.28749
  24492841.120   128710752.62906  24492842.300   100294103.71744
  24385307.100   128145761.35305  24385312.040    99853919.26145
  23474353.880   123358569.71406  23474357.300    96123581.25346
  23166766.440   121742614.09107  23166768.220    94864582.26346
  22638441.540   118965809.78508  22638442.900    92700635.38747
 15 01 31 01 39 30.0000000  0  8G16G18G21G22G25G27G29G31
  22119661.560   116239616.49808  22119662.580    90576325.44947
  22824342.880   119942786.43607  22824344.500    93461945.23546
  21015651.200   110438149.71608  21015651.940    86055772.06149
  24474708.300   128615466.30305  24474709.720   100219854.99645
  24404344.700   128245804.17005  24404349.660    99931874.68644
  23460886.380   123287797.68906  23460889.820    96068434.25045
  23180229.980   121813365.46107  23180231.600    94919713.20146
  22654616.100   119050807.45408  22654617.340    92766867.32647
 15 01 31 01 40  0.0000000  0  8G16G18G21G22G25G27G29G31
  22104769.360   116161357.69508  22104770.420    90515344.57447
  22811106.600   119873229.31507  22811108.240    93407744.87946
  21020051.120   110461271.28908  21020051.800    86073788.88149
  24456563.120   128520114.20706  24456564.640   100145555.02045
  24423412.300   128346004.52505  24423417.340   100009952.86045
  23447434.940   123217110.22606  23447438.460    96013353.14446
  23193703.300   121884168.34607  23193704.840    94974884.26246
  22670837.380   119136050.70608  22670838.480    92833290.61947
 15 01 31 01 40 30.0000000  0  8G16G18G21G22G25G27G29G31
  22089920.080   116083324.32508  22089921.180    90454539.36347
  22797915.300   119803908.89107  22797916.940    93353728.98346
  21024522.040   110484766.12708  21024522.700    86092096.56249
  24438405.920   128424700.49106  24438407.620   100071207.01045
  24442509.740   128446362.17806  24442515.000   100088153.57645
  23433999.880   123146508.75107  23434003.440    95958339.03046
  23207186.660   121955023.55807  23207188.180    95030096.11946
  22687105.080   119221537.93908  22687106.120    92899904.03747
 15 01 31 01 41  0.0000000  0  8G16G18G21G22G25G27G29G31
  22075113.800   116005516.61208  22075114.900    90393909.98847
  22784769.160   119734825.94007  22784770.760    93299898.13345
  21029063.320   110508630.60108  21029063.920    86110692.26049
  24420237.180   128329225.75906  24420239.340    99996811.44244
  24461636.540   128546873.95705  24461641.820   100166474.45444
  23420580.800   123075991.38306  23420584.460    95903390.43046
  23220679.700   122025929.61707  23220681.260    95085347.57646
  22703418.160   119307264.24408  22703419.300    92966703.74547
 15 01 31 01 41 30.0000000  0  8G16G18G21G22G25G27G29G31
  22060350.960   115927937.34108  22060352.140    90333458.61447
  22771668.880   119665983.67507  22771670.280    93246254.83645
  21033674.840   110532864.18708  21033675.400    86129575.58249
  24402057.600   128233693.04506  24402059.800    99922370.62045
  24480792.520   128647538.96405  24480797.800   100244914.70245
  23407177.860   123005558.87006  23407181.640    95848507.97746
  23234182.500   122096886.95807  23234184.040    95140639.00246
  22719776.240   119393227.38108  22719777.640    93033687.99147
 15 01 31 01 42  0.0000000  0  8G16G18G21G22G25G27G29G31
  22045632.160   115850589.66408  22045633.380    90273187.70947
  22758615.060   119597385.46108  22758616.260    93192801.72346
  21038356.580   110557466.90408  21038357.140    86148746.53549
  24383867.720   128138105.88106  24383870.000    99847887.41345
  24499977.560   128748356.97505  24499982.960   100323474.18844
  23393791.260   122935212.33806  23393795.200    95793692.50346
  23247695.220   122167896.49707  23247696.760    95195971.10246
  22736179.100   119479425.71708  22736180.760    93100855.51847
 15 01 31 01 42 30.0000000  0  8G16G18G21G22G25G27G29G31
  22030957.620   115773474.56408  22030958.880    90213098.03247
  22745608.100   119529033.11207  22745609.080    93139540.19045
  21043108.060   110582436.01108  21043108.580    86168202.98849
  24365667.900   128042465.85106  24365670.000    99773362.97644
  24519191.220   128849325.34505  24519196.480   100402150.79545
  23380420.880   122864950.68206  23380424.900    95738943.17447
  23261217.620   122238956.70507  23261219.140    95251342.67446
  22752626.020   119565854.88608  22752627.800    93168202.91847
 15 01 31 01 43  0.0000000  0  8G16G18G21G22G25G27G29G31
  22016327.700   115696593.87908  22016328.920    90153191.01847
  22732648.160   119460927.89708  22732648.960    93086471.22045
  21047928.740   110607769.05208  21047929.280    86187943.02449
  24347458.260   127946774.19106  24347460.140    99698798.32545
  24538433.200   128950441.53905  24538438.280   100480942.61545
  23367066.480   122794772.92606  23367070.500    95684259.21846
  23274749.460   122310066.53207  23274750.980    95306752.91846
  22769116.320   119652511.36408  22769118.020    93235727.43647
 15 01 31 01 43 30.0000000  0  8G16G18G21G22G25G27G29G31
  22001743.300   115619952.17908  22001744.460    90093470.22247
  22719736.160   119393075.12107  22719736.960    93033598.95146
  21052818.920   110633467.21908  21052819.480    86207967.57149
  24329239.760   127851036.37806  24329241.580    99624197.69845
  24557703.580   129051706.89506  24557708.360   100559850.62943
  23353728.580   122724681.85706  23353732.600    95629642.79446
  23288291.060   122381228.35907  23288292.620    95362203.68146
  22785649.840   119739394.66008  22785651.380    93303428.68747
 15 01 31 01 44  0.0000000  0  8G16G18G21G22G25G27G29G31
  21987204.480   115543549.86508  21987205.560    90033935.96147
  22706872.280   119325475.76607  22706873.200    92980924.13746
  21057777.920   110659527.14208  21057778.540    86228274.01149
  24311012.540   127755252.72905  24311014.280    99549561.31745
  24577001.720   129153118.03606  24577006.240   100638872.26044
  23340406.820   122654675.55106  23340410.800    95575092.43746
  23301842.160   122452440.38507  23301843.720    95417693.56745
  22802225.660   119826500.16508  22802227.000    93371303.08747
 15 01 31 01 44 30.0000000  0  8G16G18G21G22G25G27G29G31
  21972711.520   115467388.84608  21972712.580    89974589.72547
  22694057.020   119258131.80908  22694058.100    92928448.34146
  21062805.420   110685947.02508  21062806.100    86248860.93949
  24292776.980   127659425.76206  24292778.680    99474891.20745
  24596327.240   129254673.08105  24596331.560   100718006.02545
  23327101.180   122584753.83307  23327105.080    95520608.02246
  23315402.760   122523702.37306  23315404.400    95473222.36546
  22818843.020   119913824.50308  22818844.240    93439348.01547
 15 01 31 01 45  0.0000000  0  8G16G18G21G22G25G27G29G31
  21958265.400   115391473.99708  21958266.420    89915435.29947
  22681291.360   119191048.62507  22681292.740    92876175.74246
  21067901.700   110712728.29608  21067902.440    86269729.46649
  24274534.080   127563560.52206  24274536.060    99400191.30145
  24615680.260   129356373.34705  24615684.400   100797252.95445
  23313812.180   122514919.38806  23313815.940    95466191.59646
  23328973.260   122595016.88106  23328975.080    95528792.10046
  22835501.840   120001367.23308  22835502.980    93507563.11946
 15 01 31 01 45 30.0000000  0  8G16G18G21G22G25G27G29G31
  21943866.180   115315805.77708  21943867.180    89856473.06247
  22668575.540   119124226.89208  22668577.140    92824106.88046
  21073066.180   110739867.94008  21073066.940    86290877.24949
  24256283.940   127467657.79906  24256286.020    99325462.13146
  24635060.160   129458215.44006  24635064.260   100876610.38044
  23300539.480   122445170.42707  23300543.120    95411841.78946
  23342553.200   122666381.40806  23342555.320    95584400.80646
  22852201.260   120089123.95507  22852202.500    93575944.96447
 15 01 31 01 46  0.0000000  0  8G16G18G21G22G25G27G29G31
  21929514.200   115240385.73408  21929515.180    89797704.20147
  22655909.820   119057668.24408  22655911.540    92772243.03146
  21078298.340   110767363.03708  21078299.100    86312302.00649
  24238027.160   127371719.33606  24238029.440    99250705.15145
  24654466.560   129560197.16506  24654470.800   100956076.61445
  23287282.820   122375506.34507  23287286.520    95357558.12646
  23356142.700   122737795.61906  23356145.060    95640048.22946
  22868940.620   120177090.89208  22868942.060    93644490.62746
 15 01 31 01 46 30.0000000  0  8G16G18G21G22G25G27G29G31
  21915210.040   115165217.06008  21915211.060    89739131.22347
  22643295.020   118991376.42908  22643296.560    92720587.09646
  21083598.140   110795213.71108  21083598.880    86334003.83649
  24219764.260   127275748.71206  24219766.680    99175923.08044
  24673899.400   129662318.31405  24673903.860   101035651.51744
  23274042.560   122305928.38607  23274046.340    95303341.55846
  23369742.000   122809260.50406  23369744.540    95695735.14546
  22885719.720   120265266.10408  22885721.260    93713198.57846
 15 01 31 01 47  0.0000000  0  8G16G18G21G22G25G27G29G31
  21900954.380   115090303.07408  21900955.400    89680756.69747
  22630731.580   118925354.45708  22630732.860    92669141.42646
  21088965.520   110823419.38808  21088966.220    86355982.29449
  24201495.700   127179748.99906  24201498.220    99101118.33245
  24693358.420   129764577.76505  24693363.120   101115334.17644
  23260818.740   122236437.09507  23260822.660    95249192.56046
  23383351.040   122880776.34806  23383353.760    95751461.75546
  22902538.100   120353647.35608  22902539.640    93782067.07246
 15 01 31 01 47 30.0000000  0  8G16G18G21G22G25G27G29G31
  21886747.120   115015643.44008  21886748.180    89622580.37147
  22618219.480   118859602.68908  22618220.580    92617906.30846
  21094399.640   110851975.77708  21094400.300    86378234.02749
  24183221.940   127083720.56106  24183224.520    99026291.21645
  24712842.940   129866971.71105  24712847.920   101195121.61945
  23247611.000   122167030.13407  23247614.980    95195109.24246
  23396969.380   122952340.70006  23396972.120    95807226.16846
  22919394.680   120442229.11308  22919396.160    93851091.79847
 15 01 31 01 48  0.0000000  0  8G16G18G21G22G25G27G29G31
  21872588.800   114941240.87408  21872589.860    89564604.35447
  22605759.260   118794124.12708  22605760.320    92566884.07946
  21099900.360   110880882.02708  21099900.960    86400758.38448
  24164943.520   126987666.62206  24164945.820    98951444.18945
  24732352.980   129969499.35505  24732358.220   101275013.26944
  23234419.480   122097708.37507  23234423.520    95141092.32447
  23410597.060   123023954.24006  23410599.740    95863028.93446
  22936289.100   120531009.37208  22936290.420    93920271.19746
 15 01 31 01 48 30.0000000  0  8G16G18G21G22G25G27G29G31
  21858479.660   114867096.75108  21858480.700    89506829.72147
  22593351.240   118728920.29908  22593352.400    92516075.93646
  21105467.260   110910136.24408  21105467.840    86423553.87649
  24146660.620   126891588.71906  24146662.660    98876578.51445
  24751888.300   130072158.12305  24751893.520   101355007.05945
  23221243.980   122028470.82407  23221248.100    95087141.02046
  23424233.880   123095615.82106  23424236.560    95918869.11746
  22953220.500   120619983.94408  22953221.680    93989602.01246
 15 01 31 01 49  0.0000000  0  8G16G18G21G22G25G27G29G31
  21844420.820   114793216.94608  21844421.800    89449261.05347
  22580996.580   118663997.14407  22580998.000    92465486.48146
  21111100.620   110939739.64308  21111101.200    86446621.46648
  24128374.260   126795492.77806  24128376.160    98801698.78345
  24771449.000   130174949.98005  24771453.920   101435104.59844
  23208085.180   121959321.02606  23208089.300    95033258.07946
  23437880.320   123167328.89906  23437883.260    95974749.42746
  22970189.000   120709153.65307  22970190.080    94059084.88846
 15 01 31 01 49 30.0000000  0  8G16G18G21G22G25G27G29G31
  21830412.080   114719600.69708  21830413.080    89391897.74847
  22568695.300   118599354.18808  22568696.960    92415115.35946
  21116799.680   110969688.34308  21116800.240    86469958.11949
  24110084.340   126699378.57906  24110086.020    98726804.79045
  24791034.340   130277870.51905  24791038.960   101515302.39845
  23194942.460   121890256.09207  23194946.640    94979441.26046
  23451536.040   123239090.43106  23451539.020    96030667.50046
  22987193.420   120798512.44107  22987194.520    94128715.10046
 15 01 31 01 50  0.0000000  0  8G16G18G21G22G25G27G29G31
  21816454.120   114646251.35008  21816455.180    89334742.42647
  22556448.100   118534995.03808  22556449.920    92364965.38946
  21122564.180   110999981.23608  21122564.780    86493562.96749
  24091791.440   126603249.34706  24091793.220    98651899.11746
  24810643.960   130380919.02205  24810648.440   101595599.86744
  23181816.060   121821277.07507  23181820.260    94925691.39946
  23465201.220   123310901.33706  23465204.040    96086624.03845
  23004233.420   120888058.31408  23004234.600    94198491.09746
 15 01 31 01 50 30.0000000  0  7G16G18G21G22G27G29G31
  21802547.880   114573173.59208  21802548.960    89277798.73047
  22544255.940   118470924.59208  22544257.800    92315040.37446
  21128394.340   111030619.12808  21128394.980    86517436.65349
  24073496.720   126507110.42305  24073498.300    98576985.85546
  23168706.520   121752386.59406  23168710.700    94872010.52646
  23478876.320   123382763.99707  23478878.800    96142620.91445
  23021308.920   120977790.86108  23021310.240    94268412.54247
 15 01 31 01 51  0.0000000  0  7G16G18G21G22G27G29G31
  21788692.780   114500364.51908  21788693.840    89221064.39847
  22532118.300   118407140.05408  22532120.060    92265338.14946
  21134289.080   111061596.29608  21134289.720    86541574.71048
  24055199.540   126410959.41706  24055201.020    98502063.17645
  23155612.960   121683579.65107  23155617.060    94818394.75046
  23492560.420   123454673.16107  23492562.500    96198654.02546
  23038418.500   121067702.20108  23038419.900    94338473.31747
 15 01 31 01 51 30.0000000  0  7G16G18G21G22G27G29G31
  21774889.520   114427827.89208  21774890.580    89164542.36147
  22520035.840   118343645.38708  22520037.420    92215861.80346
  21140248.320   111092912.39508  21140248.960    86565976.86549
  24036900.720   126314799.92206  24036902.360    98427133.90846
  23142535.640   121614857.67607  23142539.600    94764845.18446
  23506253.640   123526630.15207  23506255.380    96254724.37645
  23055561.860   121157790.57407  23055563.240    94408672.03446
 15 01 31 01 52  0.0000000  0  7G16G18G21G22G27G29G31
  21761138.980   114355568.25108  21761140.020    89108236.15647
  22508009.360   118280445.15608  22508010.740    92166614.89046
  21146272.040   111124567.19208  21146272.660    86590642.94048
  24018601.400   126218636.80106  24018602.780    98352201.73945
  23129474.920   121546222.85307  23129478.720    94711363.53246
  23519956.300   123598637.25207  23519957.780    96310833.79445
  23072738.720   121248055.00208  23072740.020    94479007.93346
 15 01 31 01 52 30.0000000  0  7G16G18G21G22G27G29G31
  21747441.480   114283587.32908  21747442.500    89052147.13647
  22496039.140   118217541.20208  22496040.360    92117598.85146
  21152360.040   111156559.71108  21152360.620    86615572.17849
  24000301.760   126122471.86206  24000302.960    98277268.20745
  23116430.740   121477674.78607  23116434.360    94657949.48546
  23533668.280   123670693.55406  23533669.700    96366981.55046
  23089948.440   121338492.20507  23089949.660    94549478.47747
 15 01 31 01 53  0.0000000  0  7G16G18G21G22G27G29G31
  21733797.560   114211888.04908  21733798.560    88996277.57548
  22484125.820   118154936.96908  22484127.000    92068816.35846
  21158512.080   111188888.62108  21158512.620    86640763.54148
  23982002.700   126026309.44006  23982003.480    98202336.57245
  23103403.240   121409214.42807  23103406.740    94604603.78446
  23547389.620   123742799.61506  23547391.260    96423168.07646
  23107190.620   121429100.10208  23107191.720    94620082.00646
 15 01 31 01 53 30.0000000  0  7G16G18G21G22G27G29G31
  21720207.680   114140472.92108  21720208.700    88940629.43148
  22472269.920   118092634.97608  22472271.200    92020269.37546
  21164727.900   111221552.66008  21164728.400    86666216.04148
  23963704.460   125930151.51106  23963705.000    98127408.46344
  23090392.460   121340842.01807  23090395.880    94551326.61246
  23561120.340   123814956.19606  23561122.400    96479393.97646
  23124464.720   121519875.90307  23124465.740    94690816.38446
 15 01 31 01 54  0.0000000  0  7G16G18G21G22G27G29G31
  21706671.720   114069341.02108  21706672.760    88885201.98748
  22460471.460   118030634.19708  22460472.740    91971957.10046
  21171006.580   111254547.33308  21171007.080    86691926.18048
  23945407.100   125833997.89307  23945407.300    98052483.69945
  23077397.820   121272554.56607  23077401.200    94498115.65046
  23574860.040   123887159.95006  23574862.460    96535656.64446
  23141769.500   121610813.43707  23141770.520    94761676.78246
 15 01 31 01 54 30.0000000  0  7G16G18G21G22G27G29G31
  21693190.520   113998496.87608  21693191.540    88829998.76748
  22448731.220   117968939.21108  22448732.560    91923883.11246
  21177348.200   111287872.83108  21177348.700    86717894.10548
  23927111.220   125737852.83406  23927111.180    97977565.57545
  23064419.660   121204354.03807  23064423.080    94444972.41646
  23588609.160   123959412.69906  23588611.760    96591957.48146
  23159104.780   121701911.75807  23159105.920    94832662.46246
 15 01 31 01 55  0.0000000  0  7G16G18G21G22G27G29G31
  21679764.600   113927943.01408  21679765.580    88775021.74248
  22437049.880   117907553.16008  22437051.300    91876049.84446
  21183752.580   111321528.05708  21183753.060    86744118.95848
  23908817.500   125641719.63206  23908817.260    97902656.70645
  23051458.140   121136241.09807  23051461.640    94391897.42046
  23602367.740   124031714.64606  23602370.440    96648296.66446
  23176470.120   121793168.05807  23176471.460    94903771.25546
 15 01 31 01 55 30.0000000  0  7G16G18G21G22G27G29G31
  21666394.000   113857679.85508  21666394.940    88720271.23348
  22425427.400   117846476.10608  22425428.920    91828457.35546
  21190219.060   111355509.61508  21190219.480    86770598.09648
  23890526.000   125545598.94306  23890525.820    97827757.57246
  23038512.960   121068213.97807  23038516.500    94338889.30546
  23616135.480   124104064.13306  23616138.140    96704672.85946
  23193864.720   121884577.88607  23193866.280    94974999.66846
 15 01 31 01 56  0.0000000  0  7G16G18G21G22G27G29G31
  21653079.260   113787710.44008  21653080.160    88665749.61948
  22413864.420   117785711.48408  22413866.000    91781108.31146
  21196747.380   111389816.14208  21196747.760    86797330.45748
  23872237.340   125449494.02906  23872237.340    97752870.73944
  23025584.240   121000273.46107  23025587.860    94285948.66346
  23629912.440   124176461.73907  23629914.920    96761086.56446
  23211288.140   121976138.78407  23211289.860    95046345.81646
 15 01 31 01 56 30.0000000  0  7G16G18G21G22G27G29G31
  21639820.940   113718037.66108  21639821.860    88611459.15048
  22402361.360   117725262.12308  22402362.900    91734004.93146
  21203337.540   111424447.32208  21203337.840    86824315.80048
  23853952.340   125353408.39406  23853952.720    97677998.89345
  23012672.100   120932420.29107  23012675.860    94233076.10046
  23643698.740   124248908.01606  23643700.900    96817538.20046
  23228739.980   122067848.48307  23228741.780    95117807.90746
 15 01 31 01 57  0.0000000  0  7G16G18G21G22G27G29G31
  21626619.480   113648663.76808  21626620.440    88557401.57948
  22390918.560   117665129.92608  22390920.020    91687148.68246
  21209989.040   111459401.03608  21209989.300    86851552.46448
  23835671.420   125257344.12505  23835672.100    97603143.71746
  22999776.540   120864654.24607  22999780.340    94180271.40646
  23657494.220   124321402.80907  23657496.220    96874027.63946
  23246219.560   122159703.85007  23246221.360    95189383.50146
 15 01 31 01 57 30.0000000  0  7G16G18G21G22G27G29G31
  21613475.500   113579591.80808  21613476.500    88503579.28748
  22379536.720   117605318.32108  22379538.020    91640542.24546
  21216701.840   111494676.97008  21216702.100    86879040.21548
  23817395.520   125161305.05906  23817396.360    97528308.17845
  22986897.820   120796976.54107  22986901.640    94127535.56546
  23671298.980   124393946.76607  23671300.900    96930555.36746
  23263726.500   122251702.78907  23263728.240    95261070.96546
 15 01 31 01 58  0.0000000  0  7G16G18G21G22G27G29G31
  21600388.960   113510821.74408  21600390.020    88449992.23048
  22368215.860   117545827.41508  22368217.080    91594185.70746
  21223475.220   111530271.28008  21223475.500    86906776.04348
  23799124.800   125065291.50706  23799125.420    97453492.50545
  22974035.580   120729385.00307  22974039.360    94074866.85947
  23685112.600   124466537.74506  23685114.460    96987119.74446
  23281259.780   122343840.22407  23281261.420    95332866.35346
 15 01 31 01 58 30.0000000  0  7G16G18G21G22G27G29G31
  21587361.020   113442359.45208  21587362.080    88396644.99848
  22356957.200   117486662.99208  22356958.280    91548083.57546
  21230309.500   111566185.75508  21230309.840    86934761.35748
  23780860.260   124969309.53206  23780860.640    97378701.44545
  22961190.460   120661883.27407  22961194.240    94022268.14447
  23698935.700   124539179.37506  23698937.640    97043723.60946
  23298819.460   122436116.44007  23298821.040    95404769.87346
 15 01 31 01 59  0.0000000  0  7G16G18G21G22G27G29G31
  21574391.600   113374204.89508  21574392.680    88343537.56148
  22345760.820   117427825.39408  22345761.740    91502236.10946
  21237203.820   111602415.94308  21237204.240    86962992.67448
  23762601.880   124873359.58706  23762601.960    97303935.33645
  22948362.020   120594469.11507  22948365.780    93969737.65247
  23712767.860   124611868.94606  23712769.980    97100364.83346
  23316404.460   122528526.15707  23316405.960    95476777.42146
 15 01 31 01 59 30.0000000  0  7G16G18G21G22G27G29G31
  21561481.380   113306361.28308  21561482.440    88290672.41648
  22334627.240   117369317.43508  22334628.080    91456645.51246
  21244158.120   111638961.42308  21244158.620    86991469.67348
  23744350.200   124777445.08707  23744350.060    97229196.85945
  22935550.380   120527143.60507  22935554.160    93917276.24347
  23726609.240   124684607.77806  23726611.760    97157044.39346
  23334014.520   122621067.94407  23334015.940    95548887.88146
 15 01 31 02 00  0.0000000  0  7G16G18G21G22G27G29G31
  21548630.920   113238831.62608  21548631.940    88238051.91648
  22323556.940   117311142.03508  22323557.780    91411314.04847
  21251172.220   111675821.26108  21251172.820    87020191.62748
  23726105.800   124681569.39507  23726105.560    97154488.60545
  22922755.800   120459907.57607  22922759.540    93864884.56247
  23740460.000   124757396.39606  23740462.920    97213762.82245
  23351649.100   122713738.83607  23351650.520    95621098.94046
 15 01 31 02 00 30.0000000  0  7G16G18G21G22G27G29G31
  21535839.400   113171611.52708  21535840.340    88185672.61648
  22312549.040   117253295.04908  22312550.020    91366238.49046
  21258244.720   111712987.65708  21258245.320    87049152.46348
  23707868.020   124585728.50206  23707867.760    97079807.47045
  22909977.020   120392754.48107  22909980.720    93812557.49447
  23754319.180   124830227.78506  23754322.060    97270514.53745
  23369306.500   122806529.32307  23369307.880    95693403.20346
 15 01 31 02 01  0.0000000  0  7G16G18G21G22G27G29G31
  21523108.300   113104709.17408  21523109.220    88133540.91848
  22301605.060   117195784.65008  22301606.300    91321425.20746
  21265376.320   111750464.60208  21265376.920    87078355.28248
  23689638.280   124489930.72507  23689638.180    97005159.92745
  22897215.140   120325690.34607  22897218.800    93760299.75547
  23768188.000   124903108.15106  23768190.620    97327304.41846
  23386987.300   122899442.49907  23386988.620    95765803.06446
 15 01 31 02 01 30.0000000  0  7G16G18G21G22G27G29G31
  21510438.120   113038126.80508  21510439.020    88081658.55948
  22290725.460   117138612.82508  22290726.940    91276875.74947
  21272566.640   111788250.11208  21272567.260    87107798.54048
  23671417.300   124394179.20907  23671417.440    96930548.45545
  22884470.200   120258715.22907  22884473.800    93708111.36747
  23782066.260   124976037.44106  23782068.620    97384132.43946
  23404690.860   122992475.31107  23404692.240    95838296.13646
 15 01 31 02 02  0.0000000  0  7G16G18G21G22G27G29G31
  21497829.120   112971866.22608  21497830.060    88030026.95148
  22279910.640   117081781.60808  22279912.340    91232591.69547
  21279815.340   111826342.26708  21279815.940    87137480.74548
  23653205.500   124298475.78806  23653205.780    96855974.43446
  22871742.160   120191828.97807  22871745.720    93655992.23247
  23795953.760   125049015.22206  23795955.800    97440998.20545
  23422416.500   123085624.07007  23422417.940    95910879.56046
 15 01 31 02 02 30.0000000  0  7G16G18G21G22G27G29G31
  21485281.920   112905930.23408  21485282.920    87978648.25848
  22269161.180   117025293.71308  22269162.980    91188575.16946
  21287122.240   111864740.04308  21287122.800    87167401.09548
  23635003.520   124202823.52806  23635003.820    96781440.27746
  22859031.100   120125031.99307  22859034.660    93603942.65047
  23809850.440   125122041.42906  23809852.180    97497901.73245
  23440163.920   123178886.83007  23440165.320    95983551.81346
 15 01 31 02 03  0.0000000  0  7G16G18G21G22G27G29G31
  21472797.140   112840322.25408  21472798.180    87927525.15948
  22258477.760   116969152.20908  22258479.480    91144828.56346
  21294487.180   111903442.79608  21294487.680    87197559.08648
  23616812.080   124107226.62606  23616812.300    96706949.25646
  22846337.260   120058325.76807  22846340.840    93551963.79247
  23823756.400   125195117.78906  23823758.160    97554844.32046
  23457932.600   123272261.49007  23457934.000    96056311.27646
 15 01 31 02 03 30.0000000  0  7G16G18G21G22G27G29G31
  21460375.300   112775044.85808  21460376.340    87876659.66248
  22247860.940   116913359.93408  22247862.400    91101354.08446
  21301909.960   111942449.74808  21301910.480    87227954.12548
  23598631.640   124011687.93707  23598631.900    96632503.59845
  22833660.780   119991710.94507  22833664.400    93500056.15247
  23837671.840   125268244.71906  23837673.860    97611826.33945
  23475722.180   123365745.84107  23475723.580    96129156.21746
 15 01 31 02 04  0.0000000  0  7G16G18G21G22G27G29G31
  21448016.180   112710097.19908  21448017.200    87826051.10748
  22237310.440   116857915.95708  22237311.620    91058151.00346
  21309389.580   111981755.51808  21309390.120    87258582.00148
  23580462.080   123916206.61207  23580462.360    96558102.64246
  22821001.100   119925184.32407  22821004.760    93448217.24547
  23851596.140   125341418.82306  23851598.620    97668845.13245
  23493531.360   123459333.41907  23493532.860    96202081.55546
 15 01 31 02 04 30.0000000  0  7G16G18G21G22G27G29G31
  21435720.460   112645482.80708  21435721.480    87775702.23648
  22226826.800   116802823.36608  22226827.800    91015221.73246
  21316925.960   112021359.57608  21316926.540    87289442.31148
  23562304.160   123820786.73707  23562304.480    96483749.57446
  22808358.440   119858747.18607  22808362.140    93396448.06747
  23865529.720   125414641.24406  23865532.380    97725901.57045
  23511359.720   123553022.16207  23511361.300    96275085.74846
 15 01 31 02 05  0.0000000  0  7G16G18G21G22G27G29G31
  21423488.040   112581201.18008  21423489.060    87725612.66248
  22216409.900   116748081.88508  22216410.860    90972566.05346
  21324518.360   112061257.92808  21324518.980    87320531.93648
  23544157.900   123725428.54806  23544158.280    96409444.56146
  22795732.340   119792397.08207  22795736.060    93344746.71047
  23879472.220   125487909.28206  23879474.800    97782993.54545
  23529206.300   123646806.77507  23529207.940    96348164.62646
 15 01 31 02 05 30.0000000  0  7G16G18G21G22G27G29G31
  21411319.540   112517255.39308  21411320.560    87675784.78348
  22206060.300   116693694.54308  22206061.380    90930186.32447
  21332166.520   112101449.22208  21332167.140    87351849.83448
  23526023.960   123630135.50107  23526024.520    96335190.29646
  22783123.060   119726135.08907  22783126.800    93293114.00847
  23893423.840   125561223.82406  23893426.160    97840121.74645
  23547070.620   123740684.87807  23547072.280    96421316.37246
 15 01 31 02 06  0.0000000  0  7G16G18G21G22G27G29G31
  21399215.760   112453649.51308  21399216.740    87626221.75848
  22195778.780   116639665.22408  22195780.020    90888085.57746
  21339870.540   112141934.04208  21339871.180    87383396.45548
  23507903.200   123534911.89306  23507903.780    96260990.13246
  22770530.980   119659963.14907  22770534.680    93241551.48247
  23907384.820   125634586.74706  23907386.800    97897287.62746
  23564952.580   123834655.64506  23564954.280    96494540.32946
 15 01 31 02 06 30.0000000  0  7G16G18G21G22G27G29G31
  21387177.360   112390387.19708  21387178.300    87576926.44848
  22185566.100   116585997.59108  22185567.460    90846266.66147
  21347630.440   112182712.43408  21347631.060    87415171.83148
  23489796.560   123439761.91906  23489797.100    96186847.33045
  22757956.380   119593882.90407  22757960.060    93190060.39247
  23921355.200   125707999.36107  23921356.840    97954492.24545
  23582851.880   123928717.65406  23582853.620    96567835.36346
 15 01 31 02 07  0.0000000  0  7G16G18G21G22G27G29G31
  21375204.540   112327469.47708  21375205.460    87527899.65848
  22175422.480   116532692.44308  22175423.820    90804730.20247
  21355445.600   112223781.26608  21355446.220    87447173.52348
  23471704.320   123344686.59307  23471704.580    96112762.70745
  22745398.980   119527892.95407  22745402.620    93138639.66847
  23935334.660   125781460.28507  23935335.960    98011734.50945
  23600767.780   124022866.13607  23600769.440    96641197.78246
 15 01 31 02 07 30.0000000  0  7G16G18G21G22G27G29G31
  21363297.900   112264899.76409  21363298.800    87479144.04148
  22165348.460   116479752.87408  22165349.700    90763478.60847
  21363315.700   112265138.89708  21363316.300    87479400.25548
  23453627.160   123249689.90607  23453627.160    96038739.37845
  22732859.040   119461994.75907  22732862.640    93087290.44447
  23949323.420   125854970.77406  23949324.560    98069015.40546
  23618699.940   124117099.50307  23618701.440    96714626.34746
 15 01 31 02 08  0.0000000  0  7G16G18G21G22G27G29G31
  21351458.120   112202681.32908  21351459.000    87430662.14848
  22155344.580   116427181.86408  22155345.720    90722514.19547
  21371240.840   112306785.90708  21371241.460    87511852.47348
  23435565.720   123154775.56807  23435565.440    95964780.19246
  22720336.780   119396189.49207  22720340.340    93036013.62147
  23963321.500   125928531.62206  23963322.840    98126335.49846
  23636647.940   124211415.82307  23636649.260    96788119.54546
 15 01 31 02 08 30.0000000  0  7G16G18G21G22G27G29G31
  21339685.340   112140815.00808  21339686.220    87382454.62948
  22145411.020   116374980.54108  22145412.080    90681837.85247
  21379220.440   112348719.39008  21379221.120    87544527.91848
  23417520.240   123059944.96907  23417519.640    95890886.26646
  22707832.020   119330476.27707  22707835.520    92984808.52047
  23977328.700   126002141.49006  23977330.480    98183693.82845
  23654610.960   124305811.16406  23654612.120    96861674.31946
 15 01 31 02 09  0.0000000  0  7G16G18G21G22G27G29G31
  21327979.620   112079301.20509  21327980.540    87334521.80048
  22135547.700   116323148.64408  22135548.780    90641449.37547
  21387253.800   112390935.24008  21387254.500    87577423.38948
  23399490.780   122965199.18907  23399490.080    95817058.44946
  22695344.420   119264853.23307  22695347.880    92933673.69147
  23991344.960   126075799.08806  23991347.100    98241089.37445
  23672588.020   124400280.42907  23672589.140    96935286.67646
 15 01 31 02 09 30.0000000  0  7G16G18G21G22G27G29G31
  21316341.500   112018142.36409  21316342.400    87286865.56048
  22125755.160   116271689.04608  22125756.360    90601351.00147
  21395340.560   112433431.87608  21395341.340    87610537.65148
  23381477.920   122870541.12807  23381477.260    95743298.98046
  22682874.100   119199321.03307  22682877.560    92882609.64647
  24005370.380   126149504.56306  24005372.620    98298522.20745
  23690578.620   124494821.05307  23690579.740    97008954.64946
 15 01 31 02 10  0.0000000  0  7G16G18G21G22G27G29G31
  21304771.760   111957343.11409  21304772.700    87239489.52948
  22116034.240   116220605.60808  22116035.460    90561545.74147
  21403480.920   112476209.91708  21403481.700    87643871.20048
  23363482.480   122775975.32506  23363482.020    95669611.38546
  22670421.380   119133881.72107  22670424.880    92831617.98847
  24019405.340   126223259.59806  24019407.800    98355993.70445
  23708582.520   124589432.28006  23708583.800    97082677.65346
 15 01 31 02 10 30.0000000  0  7G16G18G21G22G27G29G31
  21293270.200   111896902.13208  21293271.140    87192392.66248
  22106384.640   116169896.79608  22106385.880    90522032.40447
  21411673.940   112519264.80608  21411674.740    87677420.46248
  23345504.440   122681500.98606  23345504.160    95595995.06846
  22657985.720   119068532.27307  22657989.260    92780696.34747
  24033449.280   126297060.95105  24033451.780    98413501.24546
  23726598.480   124684107.33806  23726599.900    97156450.38146
 15 01 31 02 11  0.0000000  0  7G16G18G21G22G27G29G31
  21281837.540   111836823.40608  21281838.520    87145578.08248
  22096807.260   116119567.32008  22096808.460    90482814.64847
  21419919.660   112562596.23408  21419920.420    87711185.21548
  23327544.860   122587123.28706  23327544.660    95522454.04646
  22645567.580   119003274.89607  22645571.140    92729846.44647
  24047502.560   126370911.00506  24047504.920    98471046.65044
  23744626.520   124778845.80406  23744628.020    97230272.50646
 15 01 31 02 11 30.0000000  0  7G16G18G21G22G27G29G31
  21270474.900   111777112.46108  21270475.880    87099050.07548
  22087302.940   116069621.61508  22087304.040    90443895.93047
  21428218.340   112606205.78608  21428219.020    87745166.68948
  23309604.700   122492847.51207  23309604.600    95448992.43046
  22633167.520   118938112.59007  22633171.100    92679070.63847
  24061565.660   126444812.15407  24061567.640    98528631.96044
  23762666.540   124873647.33206  23762668.180    97304143.79246
 15 01 31 02 12  0.0000000  0  7G16G18G21G22G27G29G31
  21259181.660   111717766.21309  21259182.640    87052806.25648
  22077871.020   116020056.40508  22077872.080    90405273.70647
  21436568.620   112650086.50208  21436569.220    87779359.45248
  23291683.500   122398671.03607  23291683.360    95375608.19446
  22620784.700   118873040.42907  22620788.240    92628365.07447
  24075637.500   126518759.16306  24075639.140    98586253.01945
  23780717.040   124968503.93806  23780718.820    97378057.97946
 15 01 31 02 12 30.0000000  0  7G16G18G21G22G27G29G31
  21247958.980   111658790.67908  21247960.000    87006851.30748
  22068512.580   115970877.57608  22068513.680    90366952.56547
  21444970.880   112694240.51908  21444971.420    87813765.18548
  23273782.480   122304600.48307  23273782.320    95302306.48546
  22608419.820   118808062.62807  22608423.360    92577733.03847
  24089718.840   126592756.52106  24089720.200    98643913.31445
  23798778.220   125063416.60506  23798780.180    97452015.85546
 15 01 31 02 13  0.0000000  0  7G16G18G21G22G27G29G31
  21236806.980   111600186.62308  21236808.020    86961185.81948
  22059227.720   115922085.68508  22059228.900    90328932.92547
  21453424.540   112738664.72608  21453425.080    87848381.44848
  23255901.800   122210637.09307  23255901.700    95229088.30046
  22596072.660   118743177.86107  22596076.180    92527173.50447
  24103809.400   126666802.46706  24103810.900    98701611.39544
  23816849.240   125158380.88406  23816851.380    97526013.96245
 15 01 31 02 13 30.0000000  0  7G16G18G21G22G27G29G31
  21225726.160   111541956.61008  21225727.240    86915811.78748
  22050016.960   115873683.13508  22050018.220    90291216.66447
  21461929.240   112783357.20708  21461929.800    87883206.76148
  23238042.020   122116784.14606  23238042.160    95155956.15846
  22583743.340   118678386.79807  22583746.840    92476686.97947
  24117909.260   126740897.53907  24117910.920    98759347.82145
  23834929.760   125253394.58006  23834931.940    97600050.55046
 15 01 31 02 14  0.0000000  0  7G16G18G21G22G27G29G31
  21214717.420   111484105.21808  21214718.500    86870732.78848
  22040881.140   115825674.40008  22040882.480    90253807.27347
  21470485.380   112828319.97408  21470485.940    87918242.68348
  23220204.140   122023046.68406  23220204.620    95082914.01947
  22571432.380   118613692.05607  22571435.840    92426275.51747
  24132018.640   126815044.09006  24132020.520    98817124.40545
  23853019.580   125348456.68406  23853021.740    97674124.85146
 15 01 31 02 14 30.0000000  0  7G16G18G21G22G27G29G31
  21203780.460   111426630.98108  21203781.540    86825947.67948
  22031819.900   115778057.18908  22031821.280    90216702.96747
  21479091.700   112873546.44308  21479092.240    87953484.09648
  23202388.120   121929423.31606  23202388.740    95009960.78846
  22559139.000   118549089.90508  22559142.500    92375936.19747
  24146137.040   126889238.18606  24146139.500    98874937.97045
  23871117.380   125443560.43706  23871119.380    97748231.62346
 15 01 31 02 15  0.0000000  0  7G16G18G21G22G27G29G31
  21192915.460   111369534.90808  21192916.520    86781457.24148
  22022833.400   115730832.65808  22022834.760    90179904.64547
  21487747.760   112919034.31408  21487748.300    87988929.19048
  23184594.300   121835916.01407  23184594.900    94937098.00846
  22546863.160   118484579.79408  22546866.620    92325668.60147
  24160264.440   126963478.75706  24160267.180    98932787.80345
  23889222.560   125538702.38406  23889224.240    97822368.15045
 15 01 31 02 15 30.0000000  0  7G16G18G21G22G27G29G31
  21182123.680   111312823.66108  21182124.700    86737266.66248
  22013922.800   115684006.93908  22013924.120    90143417.08447
  21496453.920   112964785.52008  21496454.460    88024579.48448
  23166824.080   121742531.76607  23166824.480    94864331.08446
  22534605.680   118420166.30707  22534609.080    92275476.29147
  24174401.500   127037770.30006  24174404.600    98990677.27146
  23907335.300   125633883.95106  23907336.640    97896535.53146
 15 01 31 02 16  0.0000000  0  7G16G18G21G22G27G29G31
  21171405.120   111256497.27708  21171406.140    86693375.98648
  22005088.020   115637579.81008  22005089.260    90107240.10947
  21505209.640   113010797.05508  21505210.160    88060432.63348
  23149077.360   121649270.89807  23149077.400    94791660.31146
  22522366.140   118355847.28008  22522369.540    92225357.58747
  24188547.880   127112110.72005  24188551.000    99048604.89646
  23925454.420   125729099.74406  23925455.660    97970729.59846
 15 01 31 02 16 30.0000000  0  7G16G18G21G22G27G29G31
  21160759.860   111200556.28908  21160760.900    86649785.61448
  21996329.160   115591551.80308  21996330.300    90071374.13947
  21514014.260   113057065.71908  21514014.800    88096486.14348
  23131354.340   121556134.58607  23131354.080    94719086.60646
  22510144.360   118291621.60508  22510147.760    92175311.61947
  24202703.500   127186498.50306  24202706.520    99106569.28145
  23943579.120   125824345.43906  23943580.340    98044946.94246
 15 01 31 02 17  0.0000000  0  7G16G18G21G22G27G29G31
  21150189.100   111145006.55508  21150190.120    86606500.11348
  21987647.260   115545928.26508  21987648.380    90035823.34747
  21522868.180   113103593.52208  21522868.720    88132741.57448
  23113656.220   121463129.52307  23113655.720    94646615.17846
  22497941.100   118227493.35908  22497944.520    92125341.57047
  24216868.880   127260937.57006  24216871.340    99164573.77445
  23961709.540   125919621.95406  23961711.000    98119188.32146
 15 01 31 02 17 30.0000000  0  7G16G18G21G22G27G29G31
  21139692.660   111089847.31408  21139693.660    86563518.89248
  21979042.100   115500707.92308  21979043.220    90000586.74247
  21531770.360   113150375.09808  21531770.940    88169194.75148
  23095982.880   121370255.23707  23095982.260    94574245.62946
  22485755.820   118163459.60608  22485759.300    92075445.15547
  24231043.440   127335424.45006  24231045.840    99222615.40346
  23979844.620   126014923.02606  23979846.380    98193448.83346
 15 01 31 02 18  0.0000000  0  7G16G18G21G22G27G29G31
  21129271.140   111035081.75709  21129272.120    86520844.44348
  21970514.140   115455893.35908  21970515.300    89965666.32047
  21540720.820   113197410.30708  21540721.420    88205845.56648
  23078335.040   121277515.54007  23078334.460    94501980.97746
  22473588.840   118099521.76608  22473592.340    92025623.47147
  24245227.460   127409960.42606  24245229.440    99280695.41844
  23997984.140   126110247.22306  23997986.180    98267727.37546
 15 01 31 02 18 30.0000000  0  7G16G18G21G22G27G29G31
  21118925.140   110980713.07109  21118926.100    86478479.23548
  21962064.200   115411488.71908  21962065.360    89931065.32547
  21549719.360   113244697.93508  21549719.940    88242693.07348
  23060713.460   121184914.47107  23060712.980    94429824.32346
  22461440.480   118035681.63508  22461443.960    91975877.92947
  24259420.920   127484547.10906  24259422.460    99338814.90845
  24016127.840   126205593.22206  24016130.000    98342022.89245
 15 01 31 02 19  0.0000000  0  7G16G18G21G22G27G29G31
  21108654.840   110926742.27508  21108655.780    86436424.07548
  21953692.160   115367493.58608  21953693.340    89896783.41747
  21558765.640   113292236.56808  21558766.240    88279736.16748
  23043118.400   121092452.96007  23043118.000    94357776.41946
  22449310.460   117971937.87308  22449313.940    91926207.47847
  24273623.620   127559182.82304  24273625.080    99396972.63346
  24034274.780   126300956.35406  24034277.120    98416331.75846
 15 01 31 02 19 30.0000000  0  7G16G18G21G22G27G29G31
  21098456.420   110873149.39408  21098457.400    86394663.39548
  21945394.160   115323887.39408  21945395.360    89862804.57847
  21567854.980   113340001.34508  21567855.560    88316955.47948
  23025546.320   121000111.71607  23025545.900    94285822.23346
  22437194.520   117908268.25208  22437198.000    91876594.79947
  24287836.060   127633397.13506  24287834.800    99454619.06344
  24052420.080   126396310.81706  24052422.580    98490633.86746
 15 01 31 02 20  0.0000000  0  7G16G18G21G22G27G29G31
  21088349.000   110820034.69108  21088350.020    86353275.31748
  21937189.280   115280770.63708  21937190.540    89829207.11847
  21577005.680   113388088.26508  21577006.220    88354425.81248
  23008016.380   120907991.77707  23008015.920    94214040.48746
  22425111.520   117844771.72408  22425115.020    91827116.99547
  24302059.660   127708190.00507  24302063.080    99512881.31144
  24070582.180   126491753.13406  24070584.720    98565004.43645
 15 01 31 02 20 30.0000000  0  7G16G18G21G22G27G29G31
  21078305.620   110767256.57308  21078306.680    86312149.51248
  21929050.440   115238001.09608  21929051.840    89795880.21147
  21586190.000   113436351.96108  21586190.500    88392033.88748
  22990501.720   120815951.86207  22990501.200    94142321.11846
  22413034.100   117781304.64008  22413037.600    91777662.13147
  24316288.080   127782959.14906  24316292.260    99571142.89045
  24088733.060   126587136.23106  24088735.540    98639328.84245
 15 01 31 02 21  0.0000000  0  7G16G18G21G22G27G29G31
  21068341.640   110714895.49909  21068342.660    86271348.68048
  21920993.020   115195659.38908  21920994.520    89762886.68747
  21595422.600   113484869.58808  21595423.120    88429839.83248
  22973017.860   120724073.63907  22973017.280    94070727.72446
  22400977.320   117717945.97808  22400980.780    91728291.76747
  24330528.480   127857788.27605  24330532.400    99629451.35445
  24106887.260   126682535.89606  24106889.520    98713666.17546
 15 01 31 02 21 30.0000000  0  7G16G18G21G22G27G29G31
  21058456.580   110662949.21308  21058457.620    86230871.06148
  21913016.400   115153742.13808  21913017.980    89730223.90347
  21604702.420   113533635.35808  21604702.940    88467839.13848
  22955564.340   120632354.87007  22955563.840    93999258.57246
  22388940.320   117654691.38708  22388943.800    91679002.47947
  24344779.120   127932673.04706  24344782.620    99687803.13345
  24125043.240   126777944.74606  24125045.280    98788010.64145
 15 01 31 02 22  0.0000000  0  7G16G18G21G22G27G29G31
  21048649.500   110611412.60008  21048650.540    86190712.66448
  21905119.620   115112244.29808  21905121.200    89697887.93447
  21614027.800   113582640.42208  21614028.300    88506024.90548
  22938140.340   120540791.27407  22938140.020    93927910.34346
  22376921.880   117591534.18708  22376925.360    91629789.08947
  24359038.840   128007606.25805  24359041.920    99746192.71645
  24143199.040   126873352.78706  24143200.920    98862354.50045
 15 01 31 02 22 30.0000000  0  7G16G18G21G22G27G29G31
  21038921.120   110560289.68109  21038922.200    86150876.62448
  21897303.240   115071168.94408  21897304.820    89665881.17847
  21623398.580   113631884.02208  21623399.040    88544396.54048
  22920746.640   120449386.99207  22920746.540    93856686.24446
  22364922.360   117528476.22108  22364925.860    91580653.02647
  24373308.120   128082589.61307  24373310.820    99804621.21644
  24161354.360   126968758.68306  24161356.120    98936696.65646
 15 01 31 02 23  0.0000000  0  7G16G18G21G22G27G29G31
  21029271.720   110509581.48909  21029272.720    86111363.74748
  21889567.420   115030516.87208  21889568.960    89634204.26047
  21632814.300   113681363.74108  21632814.700    88582952.17348
  22903383.600   120358143.83207  22903383.700    93785587.69447
  22352941.620   117465516.96008  22352945.140    91531593.87048
  24387586.700   128157622.12406  24387589.020    99863088.08744
  24179508.440   127064158.55506  24179510.120    99011034.12146
 15 01 31 02 23 30.0000000  0  7G16G18G21G22G27G29G31
  21019702.220   110459293.36409  21019703.160    86072178.19948
  21881913.160   114990293.33308  21881914.620    89602861.26347
  21642275.340   113731081.75808  21642275.700    88621693.49148
  22886052.440   120267068.21107  22886052.760    93714619.70246
  22340980.380   117402660.32207  22340983.940    91482614.67947
  24401875.180   128232707.22105  24401877.100    99921595.98845
  24197661.480   127159553.51106  24197663.240    99085367.75846
 15 01 31 02 24  0.0000000  0  8G16G18G19G21G22G27G29G31
  21010213.440   110409429.46009  21010214.340    86033323.20948
  21874341.100   114950501.90208  21874342.480    89571854.97047
  24542823.740   128973405.97105  24542824.680   100498764.62745
  21651781.680   113781037.89608  21651782.020    88660620.35848
  22868754.080   120176164.58107  22868754.380    93643785.74646
  22329039.000   117339908.30908  22329042.620    91433717.02347
  24416173.780   128307846.81406  24416175.600    99980146.30644
  24215813.280   127254942.33106  24215815.120    99159696.62145
 15 01 31 02 24 30.0000000  0  8G16G18G19G21G22G27G29G31
  21000802.520   110359974.72609  21000803.400    85994787.05048
  21866848.300   114911127.14108  21866849.640    89541173.34847
  24527506.040   128892910.79106  24527506.800   100436041.13144
  21661329.820   113831213.86008  21661330.200    88699718.51448
  22851485.800   120085418.76307  22851485.940    93573074.74847
  22317114.420   117277244.42908  22317118.040    91384888.03648
  24430479.460   128383024.37105  24430481.400   100038726.23745
  24233960.100   127350305.23206  24233962.020    99234005.27446
 15 01 31 02 25  0.0000000  0  8G16G18G19G21G22G27G29G31
  20991474.000   110310953.08509  20991474.920    85956588.37248
  21859439.200   114872192.12608  21859440.540    89510834.38947
  24512199.300   128812473.51805  24512199.800   100373362.80445
  21670923.540   113881629.36708  21670923.960    88739003.32548
  22834252.080   119994854.85107  22834251.960    93502505.49446
  22305210.760   117214690.44108  22305214.400    91336144.68347
  24444796.500   128458261.15005  24444798.640   100097352.32545
  24252105.620   127445660.91106  24252107.540    99308308.31545
 15 01 31 02 25 30.0000000  0  8G16G18G19G21G22G27G29G31
  20982226.500   110262357.14009  20982227.420    85918721.39748
  21852112.340   114833689.10408  21852113.660    89480832.04547
  24496901.900   128732085.16505  24496902.200   100310722.52945
  21680560.760   113932273.38408  21680561.200    88778466.19748
  22817051.640   119904466.22607  22817051.260    93432072.82246
  22293326.360   117152237.53208  22293330.000    91287480.09348
  24459123.120   128533548.28006  24459125.700   100156017.58445
  24270247.600   127540997.55706  24270249.560    99382596.49645
 15 01 31 02 26  0.0000000  0  8G16G18G19G21G22G27G29G31
  20973060.340   110214188.59109  20973061.260    85881187.46748
  21844867.960   114795619.30908  21844869.240    89451167.28047
  24481613.720   128651745.29405  24481613.700   100248120.07545
  21690240.900   113983142.94708  21690241.400    88818104.82048
  22799884.880   119814255.17807  22799884.340    93361778.52246
  22281461.200   117089885.71408  22281464.860    91238894.27548
  24473459.120   128608885.03905  24473461.940   100214721.50144
  24288385.380   127636311.91606  24288387.420    99456867.32146
 15 01 31 02 26 30.0000000  0  8G16G18G19G21G22G27G29G31
  20963975.940   110166449.56809  20963976.800    85843988.22948
  21837706.420   114757984.71808  21837707.620    89421841.63347
  24466334.800   128571454.44005  24466334.760   100185555.79445
  21699963.980   114034238.29308  21699964.540    88857919.37948
  22782752.440   119724224.78407  22782751.840    93291624.99446
  22269615.440   117027635.64908  22269619.060    91190387.75348
  24487804.760   128684271.73605  24487807.560   100273464.44745
  24306518.480   127731601.16706  24306520.560    99531118.56445
 15 01 31 02 27  0.0000000  0  8G16G18G19G21G22G27G29G31
  20954973.620   110119142.00209  20954974.440    85807125.18848
  21830627.900   114720786.57408  21830629.060    89392856.07647
  24451065.180   128491212.38205  24451065.200   100123029.56644
  21709729.480   114085556.62808  21709730.100    88897907.69248
  22765654.920   119634377.64807  22765654.360    93221614.26146
  22257789.040   116965487.35508  22257792.640    91141960.53448
  24502159.920   128759708.07705  24502162.560   100332245.95145
  24324646.300   127826862.45806  24324648.380    99605348.03146
 15 01 31 02 27 30.0000000  0  8G16G18G19G21G22G27G29G31
  20946053.960   110072268.80909  20946054.780    85770600.62448
  21823632.880   114684027.51408  21823634.060    89364212.66547
  24435805.040   128411020.13106  24435805.040   100060542.13844
  21719537.320   114137097.48808  21719538.000    88938069.40148
  22748593.020   119544717.18907  22748592.560    93151749.00146
  22245982.260   116903442.26308  22245985.820    91093613.72348
  24516524.960   128835195.35106  24516527.280   100391067.23345
  24342768.360   127922093.74106  24342770.580    99679554.12346
 15 01 31 02 28  0.0000000  0  8G16G18G19G21G22G27G29G31
  20937217.620   110025833.45609  20937218.440    85734417.23448
  21816721.880   114647710.15908  21816723.120    89335913.44347
  24420554.760   128330879.67306  24420554.760    99998095.08445
  21729387.460   114188860.42008  21729388.160    88978404.15348
  22731567.600   119455247.50907  22731567.160    93082032.39647
  22234195.420   116841502.11108  22234198.960    91045348.68448
  24530899.680   128910734.85905  24530902.080   100449929.13745
  24360884.600   128017294.05006  24360886.860    99753736.05545
 15 01 31 02 28 30.0000000  0  8G16G18G19G21G22G27G29G31
  20928464.580   109979836.07009  20928465.460    85698575.11748
  21809894.900   114611834.41208  21809896.200    89307958.32747
  24405313.940   128250788.65006  24405313.900    99935686.52745
  21739279.200   114240842.00108  21739279.920    89018909.28648
  22714578.740   119365969.29608  22714578.240    93012464.98947
  22222428.300   116779665.49408  22222431.820    90997164.32648
  24545283.920   128986324.96105  24545286.480   100508830.54345
  24378994.060   128112458.72506  24378996.320    99827890.21245
 15 01 31 02 29  0.0000000  0  8G16G18G19G21G22G27G29G31
  20919795.340   109934279.09509  20919796.260    85663076.18248
  21803152.240   114576402.03608  21803153.660    89280348.69747
  24390082.700   128170748.00706  24390082.660    99873317.25844
  21749212.460   114293041.41908  21749213.140    89059584.16148
  22697627.020   119276886.30008  22697626.480    92943049.67947
  22210681.080   116717933.44708  22210684.600    90949061.44848
  24559677.980   129061966.36106  24559680.540   100567771.90945
  24397096.300   128207585.41106  24397098.480    99902014.79045
 15 01 31 02 29 30.0000000  0  7G16G18G19G21G22G27G31
  20911207.500   109889150.05908  20911208.500    85627910.70148
  21796491.400   114541399.48008  21796492.880    89253073.99947
  24374858.280   128090742.97706  24374858.080    99810975.69344
  21759183.860   114345441.29108  21759184.540    89100415.23248
  22680709.980   119187986.02708  22680709.480    92873776.76247
  22198951.000   116656291.15508  22198954.460    90901028.50448
  24415187.920   128302656.26506  24415190.020    99976095.84846
 15 01 31 02 30  0.0000000  0  7G16G18G19G21G22G27G31
  20902707.340   109844481.58009  20902708.340    85593104.10048
  21789918.660   114506859.85308  21789920.140    89226160.02847
  24359646.540   128010804.54106  24359646.280    99748686.06045
  21769199.100   114398071.59608  21769199.780    89141425.86348
  22663833.980   119099302.29008  22663833.680    92804672.58047
  22187244.020   116594770.40308  22187247.480    90853090.26148
  24433274.260   128397699.83306  24433276.360   100050155.64046
 15 01 31 02 30 30.0000000  0  7G16G18G19G21G22G27G31
  20894291.940   109800258.38909  20894292.920    85558644.47548
  21783431.000   114472766.90408  21783432.360    89199594.10647
  24344444.200   127930915.54506  24344443.860    99686434.93545
  21779254.440   114450912.69808  21779255.140    89182600.75248
  22646996.260   119010820.01808  22646996.140    92735725.37547
  22175556.900   116533354.00708  22175560.340    90805233.34247
  24451351.500   128492695.87106  24451353.660   100124178.38145
 15 01 31 02 31  0.0000000  0  7G16G18G19G21G22G27G31
  20885961.740   109756482.70809  20885962.660    85524533.55548
  21777028.740   114439122.43008  21777029.960    89173377.64747
  24329251.460   127851076.99406  24329251.100    99624223.13145
  21789349.860   114503964.46008  21789350.560    89223939.79148
  22630197.500   118922542.66108  22630197.520    92666937.84347
  22163889.840   116472043.19008  22163893.300    90757458.69048
  24469419.220   128587642.29306  24469421.600   100198162.47846
 15 01 31 02 31 30.0000000  0  7G16G18G19G21G22G27G31
  20877717.460   109713158.69808  20877718.360    85490774.59048
  21770712.460   114405929.68908  21770713.560    89147513.18847
  24314068.540   127771290.21106  24314068.200    99562051.61145
  21799485.220   114557226.34108  21799485.960    89265442.55648
  22613438.540   118834474.39908  22613438.600    92598313.24647
  22152243.220   116410839.79408  22152246.720    90709767.74848
  24487477.180   128682537.81606  24487479.680   100272106.88745
 15 01 31 02 32  0.0000000  0  7G16G18G19G21G22G27G31
  20869559.260   109670287.03908  20869560.140    85457368.10948
  21764482.140   114373188.89808  21764483.180    89122000.89747
  24298895.360   127691554.63106  24298895.120    99499920.03345
  21809660.140   114610695.88308  21809660.900    89307107.13648
  22596719.760   118746617.26408  22596719.760    92529853.15947
  22140616.980   116349743.43308  22140620.460    90662160.20448
  24505524.720   128777379.19006  24505527.480   100346009.11245
 15 01 31 02 32 30.0000000  0  7G16G18G19G21G22G27G31
  20861487.480   109627869.68008  20861488.400    85424315.62148
  21758338.100   114340901.86008  21758339.160    89096842.17747
  24283731.940   127611870.59706  24283731.840    99437828.61146
  21819874.360   114664371.61608  21819875.040    89348932.38348
  22580041.760   118658974.12408  22580041.580    92461559.82747
  22129011.200   116288754.84408  22129014.660    90614636.63748
  24523561.440   128872163.70306  24523564.400   100419867.00845
 15 01 31 02 33  0.0000000  0  7G16G18G19G21G22G27G31
  20853502.480   109585908.44808  20853503.460    85391618.56948
  21752280.580   114309069.72408  21752281.680    89072037.92247
  24268578.260   127532237.94106  24268578.280    99375777.20745
  21830127.360   114718251.42908  21830128.040    89390916.65348
  22563405.000   118571547.52508  22563404.660    92393435.23446
  22117425.900   116227874.07608  22117429.380    90567197.09248
  24541586.820   128966888.31806  24541589.980   100493678.24946
 15 01 31 02 33 30.0000000  0  7G16G18G19G21G22G27G31
  20845605.140   109544407.79608  20845606.140    85359280.40148
  21746310.280   114277695.76208  21746311.420    89047590.68447
  24253434.820   127452659.41006  24253435.020    99313767.97245
  21840419.320   114772336.10508  21840420.020    89433060.55848
  22546810.380   118484342.16708  22546809.900    92325483.02347
  22105861.720   116167104.16308  22105865.200    90519843.92348
  24559600.900   129061552.65106  24559604.120   100567442.51245
 15 01 31 02 34  0.0000000  0  7G16G18G19G21G22G27G31
  20837794.940   109503365.05408  20837795.940    85327299.05048
  21740426.720   114246777.50308  21740427.920    89023498.54747
  24238300.860   127373130.59606  24238301.200    99251797.48746
  21850749.200   114826619.93308  21850749.880    89475359.64448
  22530257.620   118397356.47608  22530257.040    92257701.99247
  22094317.860   116106441.10808  22094321.360    90472574.02248
  24577602.320   129156149.94006  24577605.320   100641154.51345
 15 01 31 02 34 30.0000000  0  7G16G18G19G21G22G27G31
  20830072.740   109462784.62208  20830073.720    85295677.93448
  21734630.480   114216317.88308  21734631.700    88999763.78647
  24223176.840   127293653.71606  24223177.220    99189867.46445
  21861117.040   114881103.19408  21861117.680    89517814.13648
  22513747.540   118310595.11808  22513746.940    92190095.76147
  22082794.840   116045887.37908  22082798.380    90425389.31548
  24595590.980   129250679.23106  24595593.640   100714813.52345
 15 01 31 02 35  0.0000000  0  7G16G18G19G21G22G27G31
  20822438.780   109422667.76309  20822439.740    85264418.04648
  21728921.700   114186317.90508  21728922.900    88976387.18847
  24208062.820   127214228.88406  24208063.120    99127978.00545
  21871522.500   114935784.10308  21871523.100    89560422.63548
  22497280.660   118224060.55408  22497280.080    92122666.24947
  22071292.700   115985443.22308  22071296.260    90378289.98648
  24613566.300   129345137.75506  24613568.440   100788417.39045
 15 01 31 02 35 30.0000000  0  7G16G18G19G21G22G27G31
  20814893.460   109383016.58109  20814894.380    85233521.02749
  21723300.760   114156779.46108  21723301.920    88953370.23547
  24192958.780   127134856.55207  24192958.940    99066129.46645
  21881965.300   114990661.35408  21881965.880    89603184.13248
  22480857.460   118137755.96408  22480857.000    92055415.94847
  22059811.600   115925109.62708  22059815.140    90331276.81548
  24631527.700   129439523.23906  24631529.500   100861964.32245
 15 01 31 02 36  0.0000000  0  7G16G18G19G21G22G27G31
  20807437.140   109343833.14008  20807437.980    85202988.48248
  21717767.840   114127703.94908  21717769.040    88930714.01547
  24177864.840   127055537.12306  24177864.840    99004322.15545
  21892445.180   115045733.44708  21892445.740    89646097.45248
  22464478.480   118051683.99808  22464478.160    91988346.89847
  22048351.680   115864887.13108  22048355.140    90284350.21148
  24649474.600   129533832.98806  24649476.160   100935452.23145
 15 01 31 02 36 30.0000000  0  7G16G18G19G21G22G27G31
  20800070.100   109305119.11208  20800070.920    85172821.70748
  21712323.240   114099092.58008  21712324.500    88908419.45647
  24162780.880   126976270.38306  24162780.780    98942555.89345
  21902961.760   115100998.39608  21902962.280    89689161.04848
  22448144.180   117965847.30008  22448144.020    91921461.16547
  22036912.940   115804776.16508  22036916.360    90237510.51248
  24667406.480   129628064.54206  24667407.920   101008879.21645
 15 01 31 02 37  0.0000000  0  7G16G18G19G21G22G27G31
  20792792.940   109266877.22809  20792793.720    85143022.83649
  21706967.240   114070946.95708  21706968.580    88886487.81647
  24147707.120   126897057.34006  24147707.000    98880831.49946
  21913514.920   115156455.68908  21913515.400    89732374.52448
  22431855.260   117880249.03108  22431855.200    91854761.22847
  22025495.620   115744777.83008  22025499.040    90190758.57748
  24685322.960   129722215.52306  24685324.380   101082243.42645
 15 01 31 02 37 30.0000000  0  6G16G18G19G21G22G27
  20785604.420   109229101.25108  20785605.200    85113587.01249
  21701698.600   114043260.49808  21701700.000    88864913.95948
  24132642.120   126817890.34906  24132642.020    98819142.98045
  21924102.840   115212095.73408  21924103.320    89775730.40348
  22415610.820   117794884.24608  22415610.740    91788243.22247
  22014098.360   115684884.91408  22014101.820    90144088.79148
 15 01 31 02 38  0.0000000  0  6G16G18G19G21G22G27
  20778508.540   109191812.23408  20778509.380    85084530.63749
  21696521.140   114016053.09508  21696522.580    88843713.40147
  24117589.500   126738788.34706  24117589.400    98757505.08545
  21934728.820   115267935.63808  21934729.300    89819242.01248
  22399414.980   117709774.26708  22399414.700    91721923.77047
  22002724.860   115625116.66508  22002728.300    90097516.14448
 15 01 31 02 38 30.0000000  0  6G16G18G19G21G22G27
  20771502.600   109154995.87608  20771503.480    85055842.57049
  21691432.140   113989310.44608  21691433.560    88822874.98547
  24102546.240   126659735.82606  24102546.120    98695905.75145
  21945389.580   115323958.22908  21945390.040    89862895.98148
  22383265.220   117624906.13008  22383264.720    91655792.78247
  21991372.180   115565457.98708  21991375.620    90051028.87448
 15 01 31 02 39  0.0000000  0  6G16G18G19G21G22G27
  20764587.740   109118658.19108  20764588.640    85027527.49349
  21686432.520   113963037.50508  21686433.920    88802402.57348
  24087513.240   126580737.21706  24087513.220    98634348.41745
  21956085.500   115380165.88308  21956086.020    89906694.15348
  22367162.760   117540286.36408  22367161.960    91589855.32947
  21980041.280   115505913.64008  21980044.700    90004630.69648
 15 01 31 02 39 30.0000000  0  6G16G18G19G21G22G27
  20757764.540   109082801.98308  20757765.420    84999587.59349
  21681522.700   113937236.32408  21681524.080    88782297.76547
  24072490.740   126501793.91706  24072490.800    98572834.17246
  21966816.580   115436558.16008  21966817.140    89950636.18748
  22351108.260   117455918.58308  22351107.160    91524114.23047
  21968732.300   115446484.85108  21968735.740    89958322.55548
 15 01 31 02 40  0.0000000  0  6G16G18G19G21G22G27
  20751033.060   109047427.79608  20751033.940    84972023.29149
  21676702.700   113911907.04508  21676704.020    88762560.67147
  24057478.600   126422904.98506  24057478.680    98511362.29046
  21977582.240   115493132.43708  21977582.880    89994720.03648
  22335101.940   117371804.50108  22335100.720    91458570.80847
  21957445.220   115387171.12708  21957448.660    89912104.08748
 15 01 31 02 40 30.0000000  0  6G16G18G19G21G22G27
  20744393.800   109012538.08608  20744394.660    84944836.49849
  21671972.900   113887051.68308  21671974.160    88743192.87347
  24042476.920   126344070.87206  24042477.080    98449933.10845
  21988382.400   115549887.89208  21988383.100    90038945.06448
  22319144.380   117287947.55908  22319143.300    91393227.75347
  21946180.380   115327973.95908  21946183.780    89865976.43248
 15 01 31 02 41  0.0000000  0  6G16G18G19G21G22G27
  20737846.420   108978131.47209  20737847.320    84918026.15349
  21667332.840   113862667.99308  21667334.040    88724192.60947
  24027485.180   126265288.55706  24027485.300    98388544.30646
  21999216.120   115606819.41808  21999216.800    90083307.28748
  22303235.460   117204346.79508  22303234.700    91328084.30847
  21934937.160   115268890.41508  21934940.540    89819937.30948
 15 01 31 02 41 30.0000000  0  6G16G18G19G21G22G27
  20731392.180   108944214.33808  20731393.120    84891597.21849
  21662783.620   113838761.66708  21662784.800    88705564.32048
  24012504.320   126186563.43606  24012504.420    98327200.10146
  22010084.000   115663930.32308  22010084.620    90127809.29548
  22287376.760   117121009.90108  22287376.400    91263146.47547
  21923716.560   115209926.11108  21923719.980    89773991.10848
 15 01 31 02 42  0.0000000  0  6G16G18G19G21G22G27
  20725030.840   108910785.30709  20725031.780    84865548.62049
  21658324.900   113815330.81508  21658326.060    88687306.53148
  23997533.740   126107892.53806  23997533.880    98265898.11146
  22020985.100   115721215.78008  22020985.660    90172447.31448
  22271568.180   117037936.11508  22271568.160    91198413.66747
  21912518.140   115151078.42108  21912521.580    89728135.77048
 15 01 31 02 42 30.0000000  0  6G16G18G19G21G22G27
  20718763.000   108877847.62509  20718763.940    84839882.89049
  21653957.100   113792377.72908  21653958.220    88669421.01647
  23982573.880   126029277.63106  23982573.920    98204639.76046
  22031919.360   115778675.49908  22031919.860    90217221.12348
  22255810.680   116955130.04308  22255810.760    91133889.46147
  21901342.340   115092349.46108  21901345.760    89682372.94848
 15 01 31 02 43  0.0000000  0  6G16G18G19G21G22G27
  20712589.260   108845404.13509  20712590.160    84814602.24449
  21649680.600   113769904.57508  21649681.740    88651909.48248
  23967624.860   125950719.99506  23967624.920    98143426.03646
  22042886.880   115836310.07208  22042887.300    90262131.17748
  22240104.900   116872595.10208  22240104.900    91069576.54147
  21890189.500   115033741.01008  21890192.900    89636704.03948
 15 01 31 02 43 30.0000000  0  6G16G18G19G21G22G27
  20706509.420   108813454.16508  20706510.280    84789706.16449
  21645495.140   113747909.78708  21645496.300    88634770.70048
  23952686.340   125872217.41906  23952686.380    98082255.23346
  22053886.780   115894114.86008  22053887.160    90307173.87848
  22224450.780   116790331.43708  22224450.540    91005475.00847
  21879059.280   114975251.14108  21879062.640    89591127.51548
 15 01 31 02 44  0.0000000  0  6G16G18G19G21G22G27
  20700523.940   108782000.22108  20700524.780    84765196.59549
  21641401.140   113726395.30108  21641402.280    88618006.17048
  23937758.500   125793770.96706  23937758.460    98021128.17046
  22064918.920   115952089.09708  22064919.260    90352348.60648
  22208848.880   116708342.34208  22208848.320    90941587.42047
  21867951.880   114916881.18408  21867955.240    89545644.44448
 15 01 31 02 44 30.0000000  0  6G16G18G19G21G22G27
  20694633.260   108751044.64208  20694634.100    84741075.36249
  21637398.900   113705363.16008  21637400.000    88601617.50048
  23922841.560   125715382.06606  23922841.560    97960045.95846
  22075983.220   116010232.51308  22075983.580    90397655.16748
  22193299.860   116626631.71908  22193299.080    90877916.82147
  21856867.580   114858632.91008  21856871.020    89500256.18148
 15 01 31 02 45  0.0000000  0  6G16G18G19G21G22G27
  20688837.460   108720587.70108  20688838.320    84717342.68449
  21633488.320   113684812.91008  21633489.420    88585604.32348
  23907935.280   125637049.12206  23907935.320    97899007.34246
  22087079.100   116068542.04208  22087079.560    90443091.16648
  22177803.940   116545200.38108  22177803.040    90814463.85147
  21845806.260   114800505.45408  21845809.780    89454962.06648
 15 01 31 02 45 30.0000000  0  6G16G18G19G21G22G27
  20683137.160   108690632.62808  20683138.080    84694001.07049
  21629669.820   113664746.63608  21629670.900    88569968.27948
  23893040.100   125558774.73806  23893040.180    97838014.35646
  22098206.600   116127017.74108  22098207.120    90488656.64847
  22162362.000   116464053.01108  22162361.180    90751232.15047
  21834768.440   114742501.33708  21834772.040    89409764.06148
 15 01 31 02 46  0.0000000  0  6G16G18G19G21G22G27
  20677532.520   108661180.09008  20677533.440    84671051.04349
  21625943.340   113645163.96708  21625944.380    88554709.06947
  23878155.760   125480557.25106  23878155.880    97777065.71846
  22109365.160   116185656.65608  22109365.740    90534349.30748
  22146974.220   116383190.35908  22146973.640    90688222.30647
  21823753.920   114684619.44708  21823757.480    89364661.28948
 15 01 31 02 46 30.0000000  0  6G16G18G19G21G22G27
  20672024.100   108632233.19308  20672025.040    84648495.02049
  21622309.500   113626068.06908  21622310.500    88539829.15947
  23863282.680   125402398.97906  23863282.720    97716163.21245
  22120554.920   116244459.45208  22120555.580    90580169.67447
  22131641.600   116302617.16308  22131641.240    90625438.00747
  21812763.200   114626862.57408  21812766.660    89319655.93748
 15 01 31 02 47  0.0000000  0  6G16G18G19G21G22G27
  20666611.680   108603790.64908  20666612.620    84626332.00049
  21618767.860   113607456.71208  21618768.840    88525326.81947
  23848420.340   125324297.37006  23848420.380    97655304.85846
  22131775.020   116303421.45108  22131775.720    90626114.08948
  22116364.060   116222333.06708  22116363.800    90562878.98447
  21801795.780   114569228.30608  21801799.180    89274746.12348
 15 01 31 02 47 30.0000000  0  6G16G18G19G21G22G27
  20661295.680   108575855.00208  20661296.680    84604563.96149
  21615318.740   113589331.77108  21615319.720    88511203.49948
  23833569.060   125246253.83006  23833569.100    97594491.74946
  22143025.180   116362541.55708  22143025.920    90672181.70247
  22101142.320   116142341.91308  22101142.100    90500548.21947
  21790852.060   114511718.70908  21790855.460    89229933.45748
 15 01 31 02 48  0.0000000  0  6G16G18G19G21G22G27
  20656076.580   108548428.69808  20656077.620    84583192.81949
  21611962.380   113571694.23808  21611963.340    88497459.97948
  23818728.940   125168269.06706  23818728.920    97533724.45046
  22154305.560   116421820.28008  22154306.280    90718372.91547
  22085976.860   116062646.63808  22085976.660    90438448.01747
  21779932.300   114454334.78008  21779935.660    89185218.71248
 15 01 31 02 48 30.0000000  0  6G16G18G19G21G22G27
  20650954.740   108521513.33708  20650955.800    84562219.80849
  21608699.060   113554545.61208  21608700.000    88484097.41748
  23803900.160   125090343.51206  23803900.120    97473003.27746
  22165615.700   116481255.74008  22165616.460    90764686.25847
  22070868.180   115983249.87908  22070867.960    90376580.43047
  21769036.600   114397077.35608  21769039.940    89140602.54048
 15 01 31 02 49  0.0000000  0  6G16G18G19G21G22G27
  20645930.340   108495109.88708  20645931.380    84541645.68949
  21605528.760   113537886.04108  21605529.780    88471115.94248
  23789082.680   125012477.16806  23789082.600    97412328.24146
  22176955.380   116540846.14008  22176956.100    90811120.33447
  22055816.660   115904153.66508  22055816.360    90314947.02947
  21758165.040   114339946.87508  21758168.400    89096085.29048
 15 01 31 02 49 30.0000000  0  6G16G18G19G21G22G27
  20641003.620   108469219.51208  20641004.600    84521471.37149
  21602451.640   113521715.86908  21602452.700    88458515.81148
  23774276.520   124934670.11506  23774276.360    97351699.40146
  22188324.140   116600589.24308  22188324.820    90857673.39747
  22040822.800   115825360.54108  22040822.360    90253549.81047
  21747317.660   114282943.54008  21747321.060    89051667.11348
 15 01 31 02 50  0.0000000  0  6G16G18G19G21G22G27
  20636174.780   108443843.51308  20636175.720    84501697.86449
  21599467.860   113506036.14308  21599468.980    88446297.85248
  23759481.660   124856922.39306  23759481.460    97291116.80446
  22199721.680   116660483.54108  22199722.340    90904344.28347
  22025887.000   115746872.73708  22025886.480    90192390.50347
  21736494.600   114226068.10008  21736498.060    89007348.59648
 15 01 31 02 50 30.0000000  0  6G16G18G19G21G22G27
  20631444.260   108418984.33408  20631445.180    84482327.07749
  21596577.660   113490847.92708  21596578.820    88434462.88848
  23744698.280   124779235.12006  23744698.040    97230581.30546
  22211147.860   116720528.33608  22211148.480    90951132.43647
  22011009.980   115668693.60008  22011009.360    90131471.71647
  21725696.120   114169321.87808  21725699.600    88963130.77148
 15 01 31 02 51  0.0000000  0  6G16G18G19G21G22G27
  20626812.120   108394642.30308  20626813.040    84463359.26649
  21593781.000   113476151.04308  21593782.160    88423010.77948
  23729926.280   124701607.63606  23729925.980    97170092.36946
  22222602.300   116780721.63308  22222602.900    90998036.30047
  21996192.040   115590824.81808  21996191.400    90070794.75547
  21714922.260   114112704.70608  21714925.700    88919013.49548
 15 01 31 02 51 30.0000000  0  6G16G18G19G21G22G27
  20622278.700   108370819.26708  20622279.680    84444795.86849
  21591078.000   113461946.43808  21591079.140    88411942.27048
  23715165.720   124624040.58606  23715165.480    97109650.53846
  22234084.820   116841062.30108  22234085.340    91045055.00747
  21981433.720   115513269.03708  21981433.100    90010361.68947
  21704173.160   114056217.73408  21704176.560    88874997.68248
 15 01 31 02 52  0.0000000  0  6G16G18G19G21G22G27
  20617844.560   108347517.77508  20617845.540    84426638.86549
  21588469.040   113448236.37108  21588470.180    88401259.11548
  23700417.040   124546535.63306  23700416.800    97049257.06146
  22245594.980   116901548.31408  22245595.440    91092186.96147
  21966735.660   115436029.89008  21966735.120    89950175.35948
  21693449.200   113999862.79608  21693452.500    88831084.75048
 15 01 31 02 52 30.0000000  0  6G16G18G19G21G22G27
  20613509.800   108324738.34208  20613510.740    84408888.65649
  21585954.020   113435020.16408  21585955.180    88390960.78048
  23685680.060   124469092.21506  23685679.800    96988911.54846
  22257132.880   116962179.92508  22257133.280    91139432.37447
  21952098.260   115359109.42608  21952097.760    89890237.34447
  21682750.300   113943639.83408  21682753.560    88787274.65848
 15 01 31 02 53  0.0000000  0  6G16G18G19G21G22G27
  20609274.940   108302483.73708  20609275.800    84391547.40749
  21583533.320   113422299.50008  21583534.520    88381048.58048
  23670954.960   124391711.70206  23670954.780    96928615.05346
  22268698.220   117022955.99008  22268698.600    91186790.35147
  21937522.140   115282511.14408  21937521.640    89830550.38747
  21672076.860   113887550.57308  21672080.080    88743568.75048
 15 01 31 02 53 30.0000000  0  6G16G18G19G21G22G27
  20605139.940   108280753.88408  20605140.740    84374615.05049
  21581206.860   113410074.00908  21581208.120    88371522.23448
  23656241.700   124314393.17506  23656241.560    96868366.85246
  22280290.360   117083873.12508  22280290.780    91234258.24647
  21923007.440   115206235.83608  21923006.900    89771115.09047
  21661428.720   113831594.49008  21661431.980    88699966.62048
 15 01 31 02 54  0.0000000  0  6G16G18G19G21G22G27
  20601105.060   108259550.13908  20601105.780    84358092.64949
  21578974.720   113398344.11608  21578976.020    88362382.06648
  23641540.300   124237137.13006  23641540.140    96808167.34946
  22291909.100   117144930.28208  22291909.580    91281835.24547
  21908554.760   115130286.69508  21908554.160    89711933.95147
  21650806.140   113775772.64508  21650809.420    88656469.08248
 15 01 31 02 54 30.0000000  0  6G16G18G19G21G22G27
  20597170.140   108238872.20008  20597170.880    84341979.97249
  21576836.780   113387108.95708  21576838.060    88353627.41248
  23626850.600   124159942.19406  23626850.400    96748015.44446
  22303553.960   117206124.74108  22303554.520    91329519.23447
  21894164.120   115054663.92608  21894163.500    89653007.13347
  21640208.940   113720084.10108  21640212.260    88613075.42048
 15 01 31 02 55  0.0000000  0  6G16G18G19G21G22G27
  20593335.980   108218723.80008  20593336.760    84326279.92249
  21574793.460   113376370.96208  21574794.680    88345260.15948
  23612173.040   124082811.10106  23612172.860    96687913.30446
  22315225.160   117267457.33508  22315225.760    91377310.87547
  21879836.580   114979372.56508  21879835.900    89594338.56147
  21629637.680   113664531.78908  21629641.020    88569787.91048
 15 01 31 02 55 30.0000000  0  6G16G18G19G21G22G27
  20589602.700   108199105.44708  20589603.540    84310992.89349
  21572844.740   113366130.15408  21572845.860    88337280.31748
  23597507.540   124005743.44406  23597507.340    96627860.58046
  22326922.120   117328925.29308  22326922.720    91425207.97747
  21865572.440   114904414.19308  21865571.680    89535929.46247
  21619092.300   113609115.74508  21619095.680    88526606.58648
 15 01 31 02 56  0.0000000  0  6G16G18G19G21G22G27
  20585970.540   108180018.40108  20585971.440    84296119.87549
  21570990.720   113356387.09308  21570991.800    88329688.33148
  23582854.200   123928739.57806  23582853.920    96567857.55546
  22338644.660   117390527.82208  22338645.260    91473209.94247
  21851372.240   114829791.55908  21851371.440    89477781.97148
  21608573.080   113553836.98908  21608576.480    88483532.23648
 15 01 31 02 56 30.0000000  0  6G16G18G19G21G22G27
  20582439.820   108161464.39508  20582440.760    84281662.20849
  21569231.620   113347142.86808  21569232.660    88322485.05148
  23568213.200   123851800.46406  23568212.940    96507905.01346
  22350392.600   117452264.01608  22350393.240    91521316.05847
  21837236.420   114755507.39008  21837235.660    89419898.21548
  21598080.220   113498696.59008  21598083.640    88440565.70648
 15 01 31 02 57  0.0000000  0  6G16G18G19G21G22G27
  20579010.860   108143445.04908  20579011.800    84267621.16149
  21567567.540   113338398.27608  21567568.620    88315671.08748
  23553584.620   123774926.70706  23553584.360    96448003.37145
  22362165.780   117514132.81208  22362166.420    91569525.50847
  21823165.520   114681564.44208  21823164.860    89362280.34448
  21587613.940   113443695.72308  21587617.380    88397707.90048
 15 01 31 02 57 30.0000000  0  6G16G18G19G21G22G27
  20575683.840   108125961.37008  20575684.740    84253997.51149
  21565998.560   113330153.21708  21565999.680    88309246.37748
  23538968.500   123698118.61206  23538968.340    96388152.93146
  22373963.920   117576132.61108  22373964.540    91617837.03447
  21809159.920   114607964.80708  21809159.360    89304929.97748
  21577174.320   113388835.06608  21577177.780    88354959.35048
 15 01 31 02 58  0.0000000  0  6G16G18G19G21G22G27
  20572458.520   108109012.15708  20572459.400    84240790.32849
  21564524.360   113322406.26808  21564525.500    88303209.80748
  23524364.540   123621374.48206  23524364.480    96328352.31045
  22385786.320   117638259.69808  22385786.960    91666247.75347
  21795219.740   114534709.16608  21795219.300    89247847.66548
  21566761.160   113334113.37308  21566764.600    88312319.07248
 15 01 31 02 58 30.0000000  0  6G16G18G19G21G22G27
  20569335.840   108092602.24208  20569336.680    84228003.37949
  21563145.560   113315160.78208  21563146.720    88297563.98648
  23509773.380   123544697.70506  23509773.360    96268604.18546
  22397633.300   117700515.84308  22397633.920    91714759.02847
  21781346.080   114461802.95008  21781345.720    89191037.62948
  21556375.140   113279534.46408  21556378.540    88269790.06048
 15 01 31 02 59  0.0000000  0  6G16G18G19G21G22G27
  20566315.420   108076729.56308  20566316.200    84215635.05749
  21561861.640   113308414.10508  21561862.840    88292306.84148
  23495194.620   123468085.74907  23495194.540    96208906.57346
  22409504.020   117762896.72908  22409504.600    91763367.50747
  21767538.800   114389245.39808  21767538.440    89134499.28848
  21546015.860   113225096.23508  21546019.260    88227370.67148
 15 01 31 02 59 30.0000000  0  6G16G18G19G21G22G27
  20563397.400   108061395.33208  20563398.180    84203686.30249
  21560672.700   113302166.53808  21560673.940    88287438.61648
  23480628.340   123391539.20707  23480628.200    96149259.94446
  22421398.200   117825401.02808  22421398.820    91812072.14747
  21753798.400   114317038.90908  21753797.880    89078234.50348
  21535683.520   113170799.62108  21535686.960    88185061.63248
 15 01 31 03 00  0.0000000  0  6G16G18G19G21G22G27
  20560582.200   108046601.44308  20560583.020    84192158.59849
  21559579.120   113296420.07508  21559580.380    88282960.86148
  23466074.800   123315059.45007  23466074.580    96089665.34246
  22433315.920   117888028.92408  22433316.540    91860873.11047
  21740125.560   114245187.21708  21740124.820    89022246.18848
  21525378.500   113116646.58108  21525381.960    88142864.46848
 15 01 31 03 00 30.0000000  0  6G16G18G19G21G22G27
  20557870.280   108032350.42808  20557871.160    84181053.90549
  21558581.080   113291175.58908  21558582.320    88278874.25648
  23451534.180   123238647.78407  23451533.880    96030123.80346
  22445256.920   117950779.32908  22445257.520    91909769.53147
  21726520.800   114173693.03208  21726519.840    88966536.45248
  21515101.100   113062638.67408  21515104.580    88100780.39248
 15 01 31 03 01  0.0000000  0  6G16G18G19G21G22G27
  20555261.900   108018643.41408  20555262.800    84170373.11349
  21557678.560   113286433.01908  21557679.780    88275178.76048
  23437006.560   123162304.55207  23437006.200    95970635.59046
  22457220.980   118013651.08108  22457221.580    91958760.50247
  21712984.560   114102559.06908  21712983.460    88911107.40648
  21504851.500   113008776.75408  21504854.980    88058810.07648
 15 01 31 03 01 30.0000000  0  6G16G18G19G21G22G27
  20552757.200   108005481.45008  20552758.160    84160117.03549
  21556871.740   113282193.13108  21556872.960    88271874.95848
  23422492.120   123086030.53407  23422491.720    95911201.31546
  22469207.880   118076642.98608  22469208.500    92007845.10447
  21699517.300   114031787.94908  21699516.220    88855961.09148
  21494629.940   112955062.01208  21494633.360    88016954.44148
 15 01 31 03 02  0.0000000  0  6G16G18G19G21G22G27
  20550356.180   107992864.22008  20550357.180    84150285.42149
  21556160.520   113278455.41608  21556161.740    88268962.46248
  23407990.700   123009825.16507  23407990.320    95851820.52946
  22481217.280   118139753.07408  22481217.900    92057021.80047
  21686119.220   113961381.04908  21686118.320    88801098.58448
  21484436.380   112901494.52708  21484439.760    87975213.54748
 15 01 31 03 02 30.0000000  0  6G16G18G19G21G22G27
  20548059.380   107980794.41808  20548060.400    84140880.37949
  21555545.160   113275221.17308  21555546.340    88266442.28248
  23393502.620   122933690.16207  23393502.280    95792494.56846
  22493249.140   118202980.91508  22493249.740    92106290.24747
  21672791.040   113891341.63908  21672790.380    88746522.42748
  21474271.200   112848076.13808  21474274.580    87933588.83748
 15 01 31 03 03  0.0000000  0  6G16G18G19G21G22G27
  20545866.560   107969270.71408  20545867.500    84131900.86749
  21555025.220   113272488.39708  21555026.300    88264312.85548
  23379027.560   122857623.62307  23379027.220    95733221.95546
  22505302.760   118266322.95808  22505303.320    92155647.68147
  21659532.880   113821670.04808  21659532.380    88692232.87748
  21464134.120   112794805.49608  21464137.520    87892079.25448
 15 01 31 03 03 30.0000000  0  6G16G18G19G21G22G27
  20543778.020   107958295.06008  20543778.880    84123348.40749
  21554600.900   113270258.20208  21554601.900    88262575.04448
  23364565.840   122781627.00507  23364565.460    95674003.82646
  22517378.100   118329779.11408  22517378.660    92205094.03547
  21646345.440   113752369.55208  21646344.960    88638232.50048
  21454025.540   112741684.55008  21454028.900    87850686.31748
 15 01 31 03 04  0.0000000  0  6G16G18G19G21G22G27
  20541794.120   107947869.27408  20541794.920    84115224.41249
  21554272.380   113268531.77308  21554273.400    88261229.77948
  23350117.660   122705701.89007  23350117.280    95614841.40546
  22529475.040   118393349.13308  22529475.680    92254629.10947
  21633229.240   113683443.19808  21633228.700    88584523.66648
  21443945.820   112688715.21108  21443949.160    87809411.51848
 15 01 31 03 04 30.0000000  0  6G16G18G19G21G22G27
  20539914.640   107937992.52208  20539915.440    84107528.23849
  21554039.260   113267306.88408  21554040.320    88260275.32548
  23335682.740   122629846.36806  23335682.400    95555733.21345
  22541592.980   118457029.29308  22541593.660    92304250.01047
  21620184.300   113614891.53908  21620183.700    88531106.80548
  21433894.700   112635896.26408  21433898.040    87768253.90148
 15 01 31 03 05  0.0000000  0  6G16G18G19G21G22G27
  20538140.260   107928668.10308  20538141.100    84100262.45249
  21553902.120   113266586.62408  21553903.220    88259714.08948
  23321261.620   122554063.49907  23321261.400    95496681.64646
  22553732.200   118520821.01808  22553732.840    92353957.84147
  21607211.480   113546718.80208  21607210.780    88477985.21048
  21423872.840   112583231.01608  21423876.180    87727216.05348
 15 01 31 03 05 30.0000000  0  6G16G18G19G21G22G27
  20536470.520   107919893.86708  20536471.420    84093425.38649
  21553860.440   113266367.74408  21553861.560    88259543.54848
  23306853.960   122478351.02306  23306853.780    95437684.92846
  22565891.820   118584719.86608  22565892.400    92403749.15347
  21594310.640   113478924.71108  21594309.920    88425158.65648
  21413879.860   112530717.56208  21413883.200    87686296.49348
 15 01 31 03 06  0.0000000  0  6G16G18G19G21G22G27
  20534906.080   107911672.88208  20534907.040    84087019.41949
  21553914.620   113266652.59308  21553915.740    88259765.51848
  23292460.220   122402711.58007  23292460.040    95378745.10646
  22578072.020   118648726.88108  22578072.500    92453624.74847
  21581482.660   113411513.47908  21581481.980    88372630.43348
  21403916.360   112478358.96908  21403919.680    87645497.59848
 15 01 31 03 06 30.0000000  0  6G16G18G19G21G22G27
  20533446.820   107904004.70508  20533447.820    84081044.21849
  21554064.400   113267439.67108  21554065.520    88260378.84248
  23278080.180   122327143.58907  23278080.020    95319860.97046
  22590272.180   118712838.89908  22590272.600    92503582.16347
  21568727.660   113344485.74008  21568727.040    88320401.03148
  21393982.200   112426154.32708  21393985.440    87604818.66648
 15 01 31 03 07  0.0000000  0  6G16G18G19G21G22G27
  20532093.180   107896891.41008  20532094.200    84075501.39149
  21554310.140   113268731.08808  21554311.260    88261385.15248
  23263714.260   122251649.53907  23263714.040    95261034.45246
  22602492.420   118777056.72808  22602492.860    92553622.03147
  21556046.460   113277845.47408  21556045.840    88268473.55948
  21384077.860   112374106.50408  21384081.040    87564261.93148
 15 01 31 03 07 30.0000000  0  6G16G18G19G21G22G27
  20530844.920   107890331.60708  20530845.960    84070389.85249
  21554651.400   113270524.51908  21554652.560    88262782.64048
  23249362.120   122176227.84907  23249361.840    95202264.31646
  22614732.160   118841376.94908  22614732.640    92603741.67847
  21543439.040   113211592.77808  21543438.380    88216848.08748
  21374203.100   112322214.35308  21374206.280    87523826.49748
 15 01 31 03 08  0.0000000  0  6G16G18G19G21G22G27
  20529703.140   107884331.30808  20529704.160    84065714.29249
  21555088.960   113272824.05408  21555090.160    88264574.49448
  23235024.580   122100883.30207  23235024.240    95143554.31046
  22626991.860   118905802.17508  22626992.380    92653943.15347
  21530906.640   113145734.19508  21530905.920    88165529.71348
  21364358.920   112270483.00308  21364362.140    87483516.35848
 15 01 31 03 08 30.0000000  0  6G16G18G19G21G22G27
  20528667.500   107878888.55708  20528668.420    84061473.18449
  21555622.440   113275627.62608  21555623.680    88266759.10648
  23220701.340   122025614.17307  23220701.020    95084903.05546
  22639270.880   118970329.35507  22639271.500    92704224.08047
  21518449.200   113080269.62008  21518448.440    88114518.36048
  21354545.120   112218911.36208  21354548.360    87443330.67248
 15 01 31 03 09  0.0000000  0  6G16G18G19G21G22G27
  20527737.740   107874002.38608  20527738.600    84057665.77849
  21556251.520   113278933.60608  21556252.800    88269335.20248
  23206392.280   121950419.48707  23206391.960    95026309.81646
  22651568.760   119034955.66607  22651569.460    92754582.23647
  21506066.860   113015199.79008  21506066.040    88063814.60048
  21344761.560   112167498.61508  21344764.820    87403268.80348
 15 01 31 03 09 30.0000000  0  6G16G18G19G21G22G27
  20526914.080   107869674.11008  20526914.940    84054293.09749
  21556976.360   113282742.82808  21556977.640    88272303.43648
  23192097.540   121875300.41007  23192097.260    94967775.49347
  22663885.420   119099680.76607  22663886.240    92805017.37147
  21493760.120   112950527.41908  21493759.280    88013420.56348
  21335008.640   112116246.71908  21335011.900    87363332.27449
 15 01 31 03 10  0.0000000  0  6G16G18G19G21G22G27
  20526196.920   107865905.59008  20526197.840    84051356.58649
  21557797.060   113287055.65208  21557798.280    88275664.09048
  23177817.420   121800258.11007  23177817.140    94909300.99746
  22676220.840   119164503.98808  22676221.680    92855528.96447
  21481529.480   112886255.15808  21481528.620    87963338.29148
  21325286.580   112065156.99309  21325289.840    87323522.10648
 15 01 31 03 10 30.0000000  0  6G16G18G19G21G22G27
  20525586.360   107862697.35408  20525587.340    84048856.65849
  21558713.620   113291872.16508  21558714.760    88279417.22348
  23163552.040   121725293.33107  23163551.800    94850886.91147
  22688574.720   119229423.99208  22688575.520    92906115.97847
  21469375.400   112822385.59108  21469374.640    87913569.80548
  21315595.680   112014230.74208  21315598.880    87283839.32148
 15 01 31 03 11  0.0000000  0  6G16G18G19G21G22G27
  20525082.400   107860049.12708  20525083.380    84046793.10649
  21559725.840   113297191.37808  21559726.900    88283562.07448
  23149301.340   121650405.74707  23149301.100    94792532.95746
  22700946.700   119294438.77508  22700947.420    92956776.84747
  21457298.200   112758920.07308  21457297.560    87864116.16348
  21305935.960   111963468.30809  21305939.120    87244284.18548
 15 01 31 03 11 30.0000000  0  6G16G18G19G21G22G27
  20524685.440   107857962.87208  20524686.360    84045167.44949
  21560833.920   113303014.20108  21560834.900    88288099.35248
  23135065.620   121575596.84107  23135065.420    94734240.31946
  22713336.720   119359548.13208  22713337.320    93007511.40647
  21445298.480   112695861.47908  21445297.940    87814979.60848
  21296307.700   111912871.20509  21296310.800    87204857.88248
 15 01 31 03 12  0.0000000  0  6G16G18G19G21G22G27
  20524395.100   107856436.93308  20524395.980    84043978.40449
  21562037.400   113309338.53408  21562038.340    88293027.40948
  23120844.620   121500865.26007  23120844.420    94676007.93147
  22725744.200   119424749.11708  22725744.660    93058317.36447
  21433376.240   112633209.92108  21433375.780    87766160.22748
  21286710.720   111862438.65108  21286713.780    87165559.79649
 15 01 31 03 12 30.0000000  0  6G16G18G19G21G22G27
  20524211.640   107855472.80308  20524212.520    84043227.12949
  21563336.420   113316164.95108  21563337.380    88298346.70448
  23106638.560   121426212.29207  23106638.360    94617836.78546
  22738168.900   119490040.72808  22738169.320    93109193.93847
  21421532.040   112570968.09608  21421531.540    87717660.11848
  21277145.340   111812172.33909  21277148.420    87126391.25048
 15 01 31 03 13  0.0000000  0  6G16G18G19G21G22G27
  20524135.140   107855070.71608  20524136.020    84042913.81549
  21564730.900   113323492.89108  21564731.840    88304056.79648
  23092447.580   121351638.40707  23092447.420    94559727.27646
  22750610.560   119555421.61708  22750610.980    93160140.07547
  21409766.160   112509137.66908  21409765.560    87669480.57548
  21267611.720   111762073.14308  21267614.900    87087352.92548
 15 01 31 03 13 30.0000000  0  6G16G18G19G21G22G27
  20524166.060   107855233.22308  20524166.940    84043040.44549
  21566221.100   113331324.11308  21566222.060    88310159.04748
  23078272.040   121277145.44107  23078271.880    94501680.82246
  22763069.360   119620892.97708  22763069.800    93211156.71947
  21398079.380   112447722.97408  21398078.660    87621624.97648
  21258110.420   111712143.82408  21258113.660    87048446.97349
 15 01 31 03 14  0.0000000  0  6G16G18G19G21G22G27
  20524304.300   107855959.59508  20524305.180    84043606.44549
  21567806.820   113339657.26208  21567807.780    88316652.41648
  23064111.880   121202733.25107  23064111.720    94443697.29746
  22775544.880   119686452.35808  22775545.320    93262241.94646
  21386471.900   112386725.12108  21386471.100    87574094.19048
  21248641.480   111662384.51408  21248644.760    87009673.49449
 15 01 31 03 14 30.0000000  0  6G16G18G19G21G22G27
  20524550.040   107857250.99608  20524550.920    84044612.72849
  21569488.000   113348492.20108  21569489.020    88323536.79548
  23049967.300   121128402.88407  23049967.080    94385777.54746
  22788036.920   119752098.72708  22788037.360    93313394.95847
  21374944.100   112326146.03308  21374943.200    87526889.71648
  21239205.160   111612796.40908  21239208.420    86971033.41149
 15 01 31 03 15  0.0000000  0  6G16G18G19G21G22G27
  20524903.260   107859107.24008  20524904.160    84046059.15449
  21571264.620   113357828.29108  21571265.620    88330811.68348
  23035838.240   121054154.15207  23035838.020    94327921.40846
  22800545.180   119817830.46507  22800545.660    93364614.48846
  21363496.260   112265987.16008  21363495.300    87480012.68048
  21229801.480   111563379.92608  21229804.740    86932527.06948
 15 01 31 03 15 30.0000000  0  6G16G18G19G21G22G27
  20525364.300   107861529.88008  20525365.160    84047946.92549
  21573136.740   113367666.38508  21573137.760    88338477.73848
  23021725.060   120979988.76407  23021724.840    94270130.21347
  22813069.720   119883647.67007  22813070.240    93415900.62146
  21352128.980   112206251.84808  21352128.020    87433465.69248
  21220430.940   111514137.45408  21220434.180    86894156.31549
 15 01 31 03 16  0.0000000  0  6G16G18G19G21G22G27
  20525932.740   107864517.06008  20525933.600    84050274.59449
  21575103.960   113378004.19908  21575105.020    88346533.18548
  23007627.520   120905905.40007  23007627.280    94212402.93347
  22825609.860   119949546.77107  22825610.380    93467250.57747
  21340842.200   112146939.68408  21340841.300    87387248.42948
  21211093.260   111465067.76608  21211096.520    86855920.20349
 15 01 31 03 16 30.0000000  0  6G16G18G19G21G22G27
  20526609.300   107868072.38908  20526610.160    84053044.98049
  21577166.740   113388844.17508  21577167.860    88354979.92348
  22993546.220   120831907.67107  22993546.060    94154742.38447
  22838165.940   120015529.82407  22838166.500    93518665.93846
  21329636.960   112088056.00208  21329636.140    87341365.04348
  21201789.260   111416174.98509  21201792.520    86817821.93649
 15 01 31 03 17  0.0000000  0  6G16G18G19G21G22G27
  20527393.640   107872194.14708  20527394.520    84056256.73949
  21579324.600   113400183.85108  21579325.780    88363816.04148
  22979480.860   120757993.82607  22979480.760    94097147.20147
  22850737.440   120081593.53907  22850737.960    93570144.15646
  21318513.200   112029600.47208  21318512.480    87295815.29048
  21192518.740   111367457.94509  21192521.940    86779860.61048
 15 01 31 03 17 30.0000000  0  6G16G18G19G21G22G27
  20528285.520   107876880.98908  20528286.400    84059908.82049
  21581577.180   113412021.22808  21581578.340    88373039.97048
  22965431.400   120684163.15807  22965431.300    94039616.82047
  22863323.780   120147735.42007  22863324.380    93621683.28246
  21307470.980   111971573.48508  21307470.340    87250599.46848
  21183281.580   111318916.28608  21183284.740    86742035.94749
 15 01 31 03 18  0.0000000  0  6G16G18G19G21G22G27
  20529285.700   107882136.86808  20529286.580    84064004.31149
  21583925.060   113424359.35008  21583926.120    88382654.10148
  22951398.420   120610419.21907  22951398.280    93982154.01947
  22875925.320   120213957.14407  22875925.980    93673284.61746
  21296511.280   111913980.07808  21296510.680    87205721.49448
  21174078.560   111270554.10809  21174081.740    86704351.13949
 15 01 31 03 18 30.0000000  0  7G04G16G18G19G21G22G27
  24555417.940   129039600.17406  24555421.120   100550333.24045
  20530394.000   107887960.99308  20530394.880    84068542.58949
  21586368.040   113437197.33308  21586369.020    88392657.72648
  22937382.000   120536762.30607  22937381.800    93924759.03847
  22888541.820   120280257.38007  22888542.480    93724947.13346
  21285634.380   111856821.61908  21285633.760    87161182.44248
  21164909.860   111222372.18509  21164913.040    86666806.79249
 15 01 31 03 19  0.0000000  0  7G04G16G18G19G21G22G27
  24537128.540   128943489.36405  24537132.020   100475441.73744
  20531615.120   107894378.08708  20531616.020    84073542.91949
  21588910.480   113450558.04308  21588911.400    88403068.67748
  22923386.700   120463216.63507  22923386.500    93867450.73947
  22901177.600   120346658.70007  22901178.240    93776688.40946
  21274845.180   111800123.99108  21274844.500    87117002.48448
  21155780.120   111174395.07509  21155783.300    86629422.03749
 15 01 31 03 19 30.0000000  0  7G04G16G18G19G21G22G27
  24518861.420   128847495.66806  24518864.940   100400641.50744
  20532939.600   107901338.32108  20532940.500    84078966.47849
  21591542.920   113464391.52208  21591543.760    88413848.02348
  22909403.280   120389733.34807  22909403.040    93810191.04747
  22913823.020   120413110.40707  22913823.560    93828468.96046
  21264134.500   111743838.90908  21264133.740    87073143.98248
  21146680.140   111126574.37109  21146683.340    86592159.15449
 15 01 31 03 20  0.0000000  0  7G04G16G18G19G21G22G27
  24500621.300   128751643.57906  24500624.900   100325951.60744
  20534372.000   107908865.58908  20534372.880    84084831.87949
  21594269.820   113478721.24408  21594270.600    88425014.05348
  22895436.340   120316337.00307  22895436.140    93752999.10047
  22926482.300   120479635.05207  22926482.740    93880306.34646
  21253507.260   111687992.38808  21253506.440    87029627.22148
  21137614.640   111078935.03109  21137617.900    86555037.59549
 15 01 31 03 20 30.0000000  0  7G04G16G18G19G21G22G27
  24482408.800   128655935.98006  24482412.280   100251374.30444
  20535912.860   107916962.67108  20535913.660    84091141.29049
  21597091.380   113493548.63108  21597092.180    88436567.86448
  22881486.460   120243030.17807  22881486.300    93695876.91147
  22939155.660   120546233.84307  22939156.060    93932201.50146
  21242964.260   111632588.48608  21242963.400    86986455.35848
  21128584.240   111031480.08409  21128587.540    86518059.72349
 15 01 31 03 21  0.0000000  0  7G04G16G18G19G21G22G27
  24464223.720   128560372.14106  24464227.100   100176909.02645
  20537561.820   107925627.94108  20537562.580    84097893.44649
  21600007.240   113508871.64208  21600008.080    88448507.88248
  22867553.400   120169811.75107  22867553.280    93638823.61247
  22951842.580   120612903.69507  22951842.900    93984152.03146
  21232505.460   111577627.15808  21232504.600    86943628.36348
  21119588.800   110984208.93809  21119592.160    86481225.07449
 15 01 31 03 21 30.0000000  0  7G04G16G18G19G21G22G27
  24446066.540   128464954.91406  24446069.780   100102557.98145
  20539319.360   107934863.75008  20539320.080    84105090.17249
  21603017.700   113524691.91908  21603018.660    88460835.37648
  22853637.720   120096684.56407  22853637.620    93581841.38246
  22964543.300   120679645.97207  22964543.540    94036159.00046
  21222131.600   111523112.29008  21222130.780    86901149.25548
  21110628.980   110937124.90009  21110632.340    86444536.21749
 15 01 31 03 22  0.0000000  0  7G04G16G18G19G21G22G27
  24427937.140   128369683.72506  24427940.340   100028320.73045
  20541185.160   107944668.54508  20541185.860    84112730.27249
  21606122.340   113541007.07508  21606123.400    88473548.49348
  22839739.260   120023647.75507  22839739.180    93524929.60647
  22977257.200   120746457.60707  22977257.460    94088220.01046
  21211842.740   111469043.99708  21211841.960    86859018.12848
  21101704.680   110890227.45309  21101708.000    86407992.76249
 15 01 31 03 22 30.0000000  0  7G04G16G18G19G21G22G27
  24409835.820   128274559.91606  24409838.940    99954198.34945
  20543159.300   107955042.85008  20543160.000    84120814.13849
  21609321.160   113557817.24008  21609322.300    88486647.32948
  22825858.200   119950702.42107  22825858.080    93468089.09847
  22989984.220   120813338.40407  22989984.500    94140334.91346
  21201639.320   111415424.71308  21201638.600    86817236.87648
  21092816.240   110843518.28609  21092819.500    86371596.01449
 15 01 31 03 23  0.0000000  0  7G04G16G18G19G21G22G27
  24391762.900   128179586.13306  24391766.000    99880192.87344
  20545242.280   107965989.04908  20545243.000    84129343.64049
  21612614.480   113575123.78508  21612615.600    88500132.95348
  22811995.040   119877851.16307  22811994.900    93411321.90047
  23002724.520   120880289.16207  23002724.840    94192504.32846
  21191521.980   111362257.90008  21191521.340    86775808.20248
  21083964.180   110797000.36809  21083967.420    86335348.28849
 15 01 31 03 23 30.0000000  0  7G04G16G18G19G21G22G27
  24373717.980   128084760.18706  24373721.160    99806302.59245
  20547433.380   107977503.62308  20547434.180    84138316.03149
  21616001.520   113592922.83408  21616002.620    88514002.35448
  22798149.340   119805091.57407  22798149.120    93354626.12646
  23015477.360   120947305.61007  23015477.680    94244724.93946
  21181490.500   111309542.35108  21181489.940    86734731.15848
  21075148.140   110750671.70209  21075151.320    86299248.04149
 15 01 31 03 24  0.0000000  0  7G04G16G18G19G21G22G27
  24355701.680   127990084.74006  24355704.900    99732529.56545
  20549733.180   107989589.20108  20549734.040    84147733.35649
  21619482.540   113611215.66508  21619483.580    88528256.51248
  22784321.600   119732426.27807  22784321.340    93298003.83247
  23028242.760   121014388.54107  23028243.160    94296997.35146
  21171545.640   111257281.79608  21171545.060    86694008.65648
  21066368.700   110704535.33909  21066371.860    86263297.63449
 15 01 31 03 24 30.0000000  0  7G04G16G18G19G21G22G27
  24337714.180   127895560.69406  24337717.340    99658874.52545
  20552141.600   108002245.59108  20552142.520    84157595.47449
  21623057.400   113630001.63408  21623058.360    88542894.93648
  22770512.040   119659856.15607  22770511.660    93241455.69447
  23041020.600   121081537.23007  23041021.100    94349321.00146
  21161687.760   111205477.96608  21161687.080    86653642.04048
  21057626.120   110658592.53709  21057629.260    86227498.05749
 15 01 31 03 25  0.0000000  0  7G04G16G18G19G21G22G27
  24319755.740   127801189.41106  24319758.840    99585338.50444
  20554658.720   108015473.00908  20554659.640    84167902.55149
  21626726.060   113649280.65408  21626726.960    88557917.55748
  22756720.760   119587382.16808  22756720.280    93184982.47447
  23053810.700   121148750.76207  23053811.360    94401695.17646
  21151917.260   111154133.08309  21151916.440    86613633.05048
  21048920.640   110612844.81509  21048923.780    86191850.49049
 15 01 31 03 25 30.0000000  0  7G04G16G18G19G21G22G27
  24301825.860   127706967.72106  24301828.840    99511919.06645
  20557283.720   108029267.42508  20557284.640    84178651.43849
  21630487.660   113669047.94808  21630488.460    88573320.65548
  22742947.160   119515001.23808  22742946.660    93128581.76247
  23066612.260   121216024.22307  23066613.040    94454116.04846
  21142233.620   111103244.66409  21142232.700    86573979.74548
  21040251.760   110567289.40409  21040254.880    86156352.77349
 15 01 31 03 26  0.0000000  0  7G04G16G18G19G21G22G27
  24283925.200   127612899.22806  24283928.120    99438619.00645
  20560017.340   108043632.47208  20560018.200    84189844.97949
  21634342.560   113689305.54708  21634343.280    88589105.80448
  22729191.880   119442716.57208  22729191.400    93072256.07147
  23079425.720   121283359.81507  23079426.560    94506585.32646
  21132637.660   111052817.20508  21132636.680    86534685.62948
  21031620.180   110521930.25809  21031623.300    86121007.99449
 15 01 31 03 26 30.0000000  0  7G04G16G18G19G21G22G27
  24266053.740   127518983.84806  24266056.600    99365438.24445
  20562859.200   108058566.61808  20562860.040    84201481.97049
  21638290.540   113710052.30408  21638291.220    88605272.11448
  22715454.900   119370528.30008  22715454.460    93016005.49047
  23092250.640   121350755.45007  23092251.500    94559101.40646
  21123129.580   111002851.67608  21123128.600    86495751.45448
  21023026.000   110476767.70809  21023029.140    86085816.40149
 15 01 31 03 27  0.0000000  0  7G04G16G18G19G21G22G27
  24248211.500   127425221.64306  24248214.260    99292376.83245
  20565809.140   108074068.86508  20565810.000    84213561.63749
  21642331.300   113731286.61508  21642331.980    88621818.33848
  22701736.180   119298436.28908  22701735.800    92959829.91947
  23105086.740   121418209.34607  23105087.520    94611662.86846
  21113709.440   110953348.79508  21113708.520    86457177.78748
  21014469.340   110431802.15109  21014472.480    86050778.31049
 15 01 31 03 27 30.0000000  0  7G04G16G18G19G21G22G27
  24230399.220   127331616.87506  24230401.940    99219438.09745
  20568868.000   108090143.29808  20568868.860    84226087.16349
  21646465.300   113753010.92108  21646466.020    88638746.36948
  22688036.640   119226445.02008  22688036.320    92903732.84347
  23117934.440   121485724.07307  23117935.180    94664271.74546
  21104378.220   110904313.66508  21104377.420    86418968.60148
  21005951.020   110387038.28509  21005954.180    86015897.38249
 15 01 31 03 28  0.0000000  0  7G04G16G18G19G21G22G27
  24212616.540   127238167.69306  24212619.200    99146620.57745
  20572035.120   108106786.61608  20572035.980    84239055.98049
  21650691.900   113775221.85608  21650692.680    88656053.59848
  22674355.900   119154552.50608  22674355.640    92847712.72747
  23130793.020   121553296.03607  23130793.720    94716925.20846
  21095135.840   110855745.31608  21095135.140    86381123.14148
  20997470.800   110342474.64609  20997473.980    85981172.47749
 15 01 31 03 28 30.0000000  0  7G04G16G18G19G21G22G27
  24194863.840   127144876.41506  24194866.580    99073926.11845
  20575310.780   108124000.15708  20575311.600    84252469.12349
  21655011.280   113797920.07808  21655012.080    88673740.52648
  22660694.380   119082760.82308  22660694.160    92791771.17447
  23143662.600   121620925.49507  23143663.180    94769623.47946
  21085982.860   110807646.52808  21085982.180    86343643.57648
  20989029.160   110298113.74109  20989032.360    85946605.54249
 15 01 31 03 29  0.0000000  0  7G04G16G18G19G21G22G27
  24177140.980   127051742.44306  24177143.920    99001354.21245
  20578694.660   108141782.46408  20578695.440    84266325.46049
  21659423.080   113821103.98108  21659423.900    88691805.90948
  22647052.000   119011069.78208  22647051.780    92735908.03847
  23156542.800   121688610.57207  23156543.240    94822365.08646
  21076919.460   110760018.07708  21076918.720    86306530.50548
  20980626.180   110253955.84309  20980629.400    85912196.79749
 15 01 31 03 29 30.0000000  0  7G04G16G18G19G21G22G27
  24159448.560   126958768.81906  24159451.720    98928907.26745
  20582187.220   108160135.99008  20582188.020    84280626.90549
  21663927.480   113844774.72608  21663928.340    88710250.64948
  22633429.240   118939482.03908  22633429.040    92680125.39547
  23169433.680   121756352.00507  23169433.980    94875150.61646
  21067946.180   110712863.18208  21067945.440    86269786.44048
  20972262.380   110210004.04309  20972265.680    85877948.64749
 15 01 31 03 30  0.0000000  0  7G04G16G18G19G21G22G27
  24141786.400   126865954.51906  24141789.660    98856584.47745
  20585788.020   108179058.27808  20585788.860    84295371.53849
  21668523.980   113868929.55708  21668524.860    88729072.59848
  22619825.960   118867996.50207  22619825.740    92624422.39347
  23182334.780   121824147.38507  23182335.080    94927978.18746
  21059063.100   110666182.13008  21059062.340    86233411.59548
  20963937.680   110166257.76509  20963941.020    85843860.64449
 15 01 31 03 30 30.0000000  0  7G04G16G18G19G21G22G27
  24124154.860   126773301.38106  24124158.220    98784387.25944
  20589497.260   108198550.52608  20589498.120    84310560.30149
  21673212.620   113893568.56808  21673213.460    88748271.83548
  22606242.540   118796615.44507  22606242.280    92568800.80347
  23195246.080   121891996.91107  23195246.420    94980847.93746
  21050270.700   110619977.43008  21050269.920    86197407.93948
  20955652.580   110122719.45209  20955655.940    85809934.69249
 15 01 31 03 31  0.0000000  0  7G04G16G18G19G21G22G27
  24106553.940   126680808.46806  24106557.260    98712314.88845
  20593314.540   108218610.50208  20593315.440    84326191.44749
  21677992.860   113918688.94408  21677993.660    88767846.16448
  22592678.700   118725337.28907  22592678.400    92513259.40147
  23208167.040   121959897.51607  23208167.500    95033757.49746
  21041568.840   110574248.47109  21041568.020    86161774.98948
  20947406.920   110079388.31009  20947410.320    85776170.17249
 15 01 31 03 31 30.0000000  0  7G04G16G18G19G21G22G27
  24088983.700   126588476.27906  24088986.880    98640367.76445
  20597239.840   108239238.18408  20597240.780    84342264.96249
  21682864.640   113944290.23908  21682865.340    88787795.23247
  22579134.720   118654163.22307  22579134.360    92457799.09647
  23221097.580   122027848.45707  23221098.140    95086706.28045
  21032957.780   110528996.87709  21032956.940    86126514.01248
  20939201.000   110036265.69209  20939204.360    85742568.13649
 15 01 31 03 32  0.0000000  0  7G04G16G18G19G21G22G27
  24071444.400   126496306.23006  24071447.380    98568547.00345
  20601273.140   108260433.41608  20601274.100    84358780.71849
  21687827.780   113970371.73708  21687828.400    88808118.48147
  22565610.840   118583094.63307  22565610.440    92402420.98247
  23234037.620   122095849.19907  23234038.180    95139693.86946
  21024437.860   110484224.29309  21024437.000    86091626.28948
  20931035.100   109993353.36109  20931038.400    85709129.96449
 15 01 31 03 32 30.0000000  0  7G04G16G18G19G21G22G27
  24053936.060   126404298.64406  24053938.800    98496852.80245
  20605414.360   108282195.62208  20605415.300    84375738.28149
  21692882.080   113996932.36808  21692882.660    88828815.08647
  22552107.080   118512131.61908  22552106.620    92347125.13647
  23246986.980   122163898.69207  23246987.560    95192719.44046
  21016009.400   110439932.24809  21016008.500    86057113.01348
  20922909.320   109950652.07009  20922912.620    85675856.23549
 15 01 31 03 33  0.0000000  0  7G04G16G18G19G21G22G27
  24036459.100   126312456.16906  24036461.700    98425287.26445
  20609663.700   108304525.89108  20609664.580    84393138.48749
  21698027.720   114023972.90908  21698028.300    88849885.64247
  22538623.900   118441277.00408  22538623.500    92291913.76547
  23259945.780   122231997.74307  23259946.360    95245783.63446
  21007672.960   110396123.91809  21007672.080    86022976.65248
  20914824.320   109908164.96609  20914827.600    85642749.40749
 15 01 31 03 33 30.0000000  0  7G04G16G18G19G21G22G27
  24019013.420   126220777.90007  24019015.840    98353849.68445
  20614020.860   108327422.70108  20614021.680    84410980.15149
  21703264.200   114051490.75808  21703264.780    88871328.13247
  22525161.240   118370530.21108  22525160.880    92236786.41147
  23272913.520   122300143.78407  23272914.120    95298884.44746
  20999428.460   110352798.75409  20999427.600    85989216.79648
  20906779.960   109865891.59309  20906783.240    85609809.12249
 15 01 31 03 34  0.0000000  0  7G04G16G18G19G21G22G27
  24001599.260   126129266.01306  24001601.740    98282541.75745
  20618486.100   108350887.50108  20618486.900    84429264.40449
  21708591.600   114079486.51808  21708592.240    88893143.01247
  22511719.480   118299893.34108  22511719.180    92181744.70647
  23285890.380   122368337.50707  23285890.940    95352022.38346
  20991276.440   110309959.91508  20991275.580    85955835.89548
  20898776.760   109823834.66409  20898780.040    85577037.49349
 15 01 31 03 34 30.0000000  0  7G04G16G18G19G21G22G27
  23984216.640   126037920.01506  23984219.260    98211363.08846
  20623058.960   108374917.87208  20623059.720    84447989.36549
  21714009.440   114107957.82708  21714010.200    88915328.45648
  22498298.540   118229366.02008  22498298.340    92126788.37847
  23298876.000   122436576.91807  23298876.460    95405195.94346
  20983216.980   110267607.60808  20983216.160    85922834.11048
  20890814.780   109781994.28709  20890818.040    85544434.61049
 15 01 31 03 35  0.0000000  0  7G04G16G18G19G21G22G27
  23966865.780   125946741.15306  23966868.640    98140314.64945
  20627739.480   108399514.17308  20627740.280    84467155.30749
  21719517.660   114136904.15808  21719518.540    88937884.04047
  22484898.760   118158949.87908  22484898.620    92071918.68147
  23311870.220   122504861.51607  23311870.560    95458404.70246
  20975250.480   110225743.59708  20975249.660    85890212.81448
  20882894.360   109740372.23009  20882897.620    85512001.83949
 15 01 31 03 35 30.0000000  0  7G04G16G18G19G21G22G27
  23949546.840   125855730.11906  23949549.900    98069396.98245
  20632527.620   108424676.16808  20632528.480    84486762.05149
  21725116.060   114166324.48408  21725117.080    88960808.97648
  22471520.240   118088645.24808  22471520.060    92017135.87047
  23324872.800   122573189.78607  23324872.960    95511647.50046
  20967377.120   110184368.87708  20967376.300    85857972.78348
  20875015.700   109698969.58209  20875018.960    85479740.04149
 15 01 31 03 36  0.0000000  0  7G04G16G18G19G21G22G27
  23932259.980   125764887.88706  23932263.280    97998610.85045
  20637423.360   108450403.37908  20637424.240    84506809.22449
  21730804.500   114196218.00108  21730805.640    88984102.62747
  22458163.140   118018453.27708  22458162.940    91962440.85447
  23337883.660   122641562.07807  23337883.820    95564924.60045
  20959597.240   110143485.22609  20959596.420    85826115.40548
  20867179.100   109657787.83509  20867182.300    85447650.37449
 15 01 31 03 36 30.0000000  0  7G04G16G18G19G21G22G27
  23915005.220   125674214.42506  23915008.600    97927956.21745
  20642426.380   108476694.61608  20642427.320    84527295.90249
  21736582.760   114226583.08808  21736583.920    89007763.73848
  22444827.580   117948374.46508  22444827.300    91907834.01047
  23350902.620   122709977.06407  23350902.800    95618234.96346
  20951910.960   110103093.31009  20951910.100    85794641.19148
  20859384.620   109616827.71009  20859387.840    85415733.39649
 15 01 31 03 37  0.0000000  0  7G04G16G18G19G21G22G27
  23897782.720   125583709.91006  23897786.160    97857433.23145
  20647536.500   108503548.49108  20647537.460    84548220.99149
  21742450.460   114257417.88608  21742451.540    89031790.85847
  22431513.580   117878408.79908  22431513.180    91853315.32447
  23363929.200   122778432.65107  23363929.560    95671576.97245
  20944318.340   110063193.67308  20944317.440    85763550.56748
  20851632.400   109576089.64809  20851635.640    85383989.46049
 15 01 31 03 37 30.0000000  0  7G04G16G18G19G21G22G27
  23880592.720   125493375.75406  23880596.020    97787042.99345
  20652753.820   108530965.73708  20652754.800    84569585.07149
  21748407.580   114288722.44008  21748408.500    89056184.02147
  22418221.540   117808558.51808  22418221.060    91798886.55847
  23376963.440   122846928.76107  23376963.960    95724950.55945
  20936819.860   110023788.86608  20936818.920    85732845.52848
  20843922.960   109535576.27009  20843926.200    85352420.60049
 15 01 31 03 38  0.0000000  0  7G04G16G18G19G21G22G27
  23863435.100   125403210.94506  23863438.200    97716784.71745
  20658077.860   108558943.67708  20658078.800    84591386.06049
  21754453.520   114320493.63308  21754454.280    89080940.80547
  22404951.180   117738822.32908  22404950.680    91744546.68947
  23390005.040   122915463.25507  23390005.620    95778354.06446
  20929415.280   109984877.83808  20929414.380    85702525.25348
  20836256.120   109495286.60709  20836259.320    85321026.05949
 15 01 31 03 38 30.0000000  0  7G04G16G18G19G21G22G27
  23846310.320   125313218.55206  23846313.140    97646660.80845
  20663508.980   108587484.42708  20663509.900    84613625.59849
  21760588.480   114352732.77608  21760589.120    89106062.22347
  22391703.060   117669203.09408  22391702.560    91690297.94747
  23403054.120   122984036.90907  23403054.780    95831788.07446
  20922105.380   109946464.41409  20922104.540    85672592.72548
  20828632.560   109455224.50209  20828635.740    85289808.83749
 15 01 31 03 39  0.0000000  0  7G04G16G18G19G21G22G27
  23829218.340   125223398.35107  23829220.940    97576671.07544
  20669046.900   108616586.44308  20669047.800    84636302.48849
  21766812.060   114385437.96508  21766812.680    89131546.79247
  22378477.300   117599701.43208  22378476.860    91636140.83247
  23416110.540   123052648.92007  23416111.220    95885251.97946
  20914890.260   109908548.85709  20914889.440    85643048.14648
  20821052.420   109415390.40309  20821055.560    85258769.28549
 15 01 31 03 39 30.0000000  0  7G04G16G18G19G21G22G27
  23812159.360   125133752.16006  23812161.840    97506816.93345
  20674691.660   108646249.72308  20674692.500    84659416.72649
  21773124.180   114418608.87908  21773124.940    89157394.25547
  22365274.340   117530319.50908  22365273.920    91582077.00247
  23429174.220   123121298.85306  23429174.880    95938745.41946
  20907770.300   109871133.27009  20907769.480    85613893.15348
  20813516.060   109375786.59809  20813519.200    85227909.18049
 15 01 31 03 40  0.0000000  0  7G04G16G18G19G21G22G27
  23795133.520   125044280.63807  23795135.940    97437098.89544
  20680443.200   108676474.05108  20680444.000    84682968.14249
  21779524.780   114452244.45308  21779525.640    89183603.79847
  22352094.280   117461058.03408  22352093.900    91528107.03147
  23442245.000   123189986.19507  23442245.620    95992268.03145
  20900745.640   109834218.38809  20900744.800    85585128.31648
  20806023.780   109336414.37209  20806026.920    85197229.52749
 15 01 31 03 40 30.0000000  0  7G04G16G18G19G21G22G27
  23778140.740   124954983.31806  23778143.220    97367516.57345
  20686301.120   108707257.35508  20686301.900    84706955.13149
  21786013.420   114486342.61508  21786014.320    89210173.80347
  22338937.100   117391916.68108  22338936.680    91474230.66547
  23455322.640   123258709.34906  23455323.200    96045818.54146
  20893816.520   109797805.38509  20893815.620    85556754.55448
  20798575.620   109297274.03309  20798578.760    85166730.56749
 15 01 31 03 41  0.0000000  0  7G04G16G18G19G21G22G27
  23761181.160   124865861.07506  23761183.740    97298070.67845
  20692265.380   108738599.57708  20692266.160    84731377.63349
  21792589.860   114520902.03008  21792590.760    89237103.22147
  22325802.980   117322896.51408  22325802.540    91420448.72747
  23468406.980   123327467.67906  23468407.540    96099396.45245
  20886983.060   109761895.19009  20886982.140    85528772.58948
  20791171.840   109258367.09009  20791175.040    85136413.47549
 15 01 31 03 41 30.0000000  0  7G04G16G18G19G21G22G27
  23744255.340   124776916.50906  23744258.160    97228763.23745
  20698336.060   108770501.24708  20698336.840    84756236.07149
  21799254.260   114555923.67308  21799255.180    89264392.81347
  22312692.540   117254000.65808  22312692.060    91366763.64247
  23481498.100   123396261.92906  23481498.720    96153002.33946
  20880245.780   109726490.65809  20880244.880    85501184.64248
  20783813.080   109219696.61609  20783816.320    85106280.64349
 15 01 31 03 42  0.0000000  0  7G04G16G18G19G21G22G27
  23727362.840   124688146.52906  23727365.800    97159591.82645
  20704512.400   108802958.27808  20704513.200    84781527.25549
  21806005.560   114591401.85208  21806006.480    89292038.15147
  22299605.140   117185225.98608  22299604.680    91313173.00348
  23494595.140   123465087.35206  23494595.780    96206632.54645
  20873604.160   109691588.85309  20873603.260    85473988.44348
  20776498.860   109181260.09409  20776502.120    85076330.11449
 15 01 31 03 42 30.0000000  0  7G04G16G18G19G21G22G27
  23710504.060   124599553.16106  23710506.980    97090558.03645
  20710794.480   108835970.92008  20710795.320    84807251.38849
  21812843.980   114627337.90208  21812844.900    89320040.27048
  22286541.320   117116575.15108  22286540.880    91259678.85247
  23507698.360   123533945.51106  23507699.060    96260288.23045
  20867058.740   109657192.52609  20867057.840    85447186.11649
  20769229.760   109143060.53709  20769232.980    85046564.22949
 15 01 31 03 43  0.0000000  0  7G04G16G18G19G21G22G27
  23693679.140   124511137.21306  23693681.940    97021662.52545
  20717182.260   108869538.96208  20717183.140    84833408.30049
  21819769.180   114663729.92708  21819770.080    89348397.69647
  22273501.200   117048048.96308  22273500.820    91206281.84148
  23520807.520   123602834.76907  23520808.280    96313968.15545
  20860609.680   109623302.63409  20860608.800    85420778.41748
  20762005.920   109105099.11409  20762009.160    85016983.90649
 15 01 31 03 43 30.0000000  0  7G04G16G18G19G21G22G27
  23676887.960   124422898.43807  23676890.700    96952905.04045
  20723675.420   108903660.73508  20723676.320    84859996.68649
  21826780.700   114700575.99708  21826781.680    89377108.91747
  22260484.920   116979648.10708  22260484.580    91152982.48347
  23533922.520   123671754.26207  23533923.200    96367671.64045
  20854257.120   109589919.62209  20854256.240    85394765.68449
  20754827.560   109067376.60909  20754830.800    84987589.75349
 15 01 31 03 44  0.0000000  0  7G04G16G18G19G21G22G27
  23660131.140   124334840.46807  23660133.880    96884288.45545
  20730274.220   108938337.59808  20730275.140    84887017.61649
  21833879.000   114737877.82508  21833880.000    89406175.28047
  22247493.100   116911375.95608  22247492.780    91099783.41247
  23547043.560   123740705.69806  23547044.220    96421400.02245
  20848001.700   109557047.38809  20848000.900    85369150.96349
  20747695.400   109029897.04509  20747698.660    84958384.90449
 15 01 31 03 44 30.0000000  0  7G04G16G18G19G21G22G27
  23643408.440   124246961.67406  23643411.200    96815811.50145
  20736978.200   108973567.47408  20736979.180    84914469.45749
  21841063.400   114775631.79008  21841064.340    89435593.95347
  22234525.620   116843231.56708  22234525.280    91046683.90148
  23560170.180   123809686.61006  23560170.860    96475151.35745
  20841843.240   109524684.68908  20841842.540    85343933.28549
  20740609.380   108992659.74809  20740612.640    84929368.83649
 15 01 31 03 45  0.0000000  0  7G04G16G18G19G21G22G27
  23626720.080   124159263.93206  23626722.880    96747475.61846
  20743787.400   109009350.30008  20743788.440    84942352.17549
  21848333.800   114813837.85808  21848334.680    89465364.91947
  22221582.920   116775217.09608  22221582.560    90993685.62448
  23573302.520   123878697.39406  23573303.180    96528925.97945
  20835782.180   109492833.75809  20835781.520    85319114.38849
  20733569.960   108955667.20709  20733573.200    84900543.48649
 15 01 31 03 45 30.0000000  0  7G04G16G18G19G21G22G27
  23610066.180   124071747.78206  23610069.100    96679281.21845
  20750701.580   109045684.94808  20750702.680    84970664.87549
  21855690.000   114852494.75508  21855690.860    89495487.17747
  22208665.140   116707333.53008  22208664.740    90940789.35348
  23586440.380   123947737.31406  23586441.000    96582723.30745
  20829818.680   109461495.42309  20829818.060    85294694.91649
  20726577.380   108918920.68009  20726580.560    84871909.83149
 15 01 31 03 46  0.0000000  0  7G04G16G18G19G21G22G27
  23593446.760   123984413.03906  23593449.760    96611228.19445
  20757720.440   109082569.62408  20757721.600    84999406.17949
  21863131.500   114891600.09908  21863132.360    89525958.88447
  22195772.260   116639581.05708  22195771.880    90887995.23148
  23599583.380   124016804.43706  23599584.040    96636541.84945
  20823952.760   109430669.77109  20823952.160    85270674.93849
  20719631.660   108882420.57809  20719634.820    84843468.19949
 15 01 31 03 46 30.0000000  0  7G04G16G18G19G21G22G27
  23576861.900   123897259.75506  23576864.960    96543316.56545
  20764843.820   109120003.24408  20764844.960    85028575.22849
  21870658.000   114931152.22808  21870658.860    89556778.72347
  22182904.460   116571960.20408  22182904.100    90835303.67548
  23612731.460   124085898.14206  23612732.180    96690381.07346
  20818184.540   109400357.44909  20818183.920    85247054.95149
  20712733.000   108846168.00709  20712736.160    84815219.44649
 15 01 31 03 47  0.0000000  0  7G04G16G18G19G21G22G27
  23560311.820   123810289.19206  23560314.780    96475547.32544
  20772071.400   109157984.27308  20772072.480    85058170.82649
  21878269.360   114971150.24308  21878270.220    89587946.01747
  22170061.980   116504472.29008  22170061.600    90782715.70547
  23625884.460   124155017.78906  23625885.240    96744240.52846
  20812514.160   109370559.34109  20812513.500    85223835.65249
  20705881.740   108810164.58709  20705884.940    84787164.83549
 15 01 31 03 47 30.0000000  0  7G04G16G18G19G21G22G27
  23543796.400   123723500.15806  23543799.200    96407919.52545
  20779402.960   109196511.39409  20779403.960    85088191.95849
  21885964.980   115011591.21408  21885965.880    89619458.46647
  22157244.700   116437116.95508  22157244.280    90730231.03747
  23639042.100   124224161.47806  23639042.880    96798118.72545
  20806941.560   109341275.23009  20806940.860    85201016.86749
  20699077.900   108774410.32109  20699081.120    84759304.37949
 15 01 31 03 48  0.0000000  0  7G04G16G18G19G21G22G27
  23527315.840   123636893.70507  23527318.400    96340434.00045
  20786838.260   109235583.52908  20786839.140    85118637.76549
  21893744.640   115052474.06608  21893745.580    89651315.23447
  22144452.820   116369895.40108  22144452.380    90677850.62947
  23652204.240   124293328.55206  23652205.000    96852015.13645
  20801466.860   109312505.65809  20801466.140    85178599.02949
  20692321.720   108738906.57409  20692324.960    84731639.12749
 15 01 31 03 48 30.0000000  0  7G04G16G18G19G21G22G27
  23510870.560   123550472.61607  23510873.000    96273092.91845
  20794377.400   109275201.75108  20794378.240    85149509.10149
  21901608.540   115093799.32608  21901609.520    89683516.73947
  22131687.020   116302810.87408  22131686.560    90625576.98847
  23665371.180   124362520.43006  23665371.860    96905930.87545
  20796090.760   109284254.12809  20796090.040    85156584.85949
  20685613.940   108703657.05709  20685617.140    84704171.97149
 15 01 31 03 49  0.0000000  0  7G04G16G18G19G21G22G27
  23494460.520   123464236.83506  23494462.840    96205896.20145
  20802020.060   109315364.32408  20802020.920    85180804.60649
  21909556.360   115135565.46508  21909557.360    89716061.78447
  22118947.500   116235864.29208  22118947.000    90573410.83048
  23678542.600   124431736.29106  23678543.260    96959865.31245
  20790813.380   109256521.23009  20790812.640    85134974.81749
  20678954.740   108668662.82209  20678957.920    84676903.74049
 15 01 31 03 49 30.0000000  0  7G04G16G18G19G21G22G27
  23478085.960   123378187.76507  23478088.300    96138844.97845
  20809766.260   109356071.04308  20809767.140    85212524.12349
  21917587.860   115177771.23008  21917588.880    89748949.40047
  22106234.480   116169057.00508  22106233.960    90521353.21547
  23691718.540   124500975.87406  23691719.080    97013818.21745
  20785634.820   109229307.80009  20785634.100    85113769.55349
  20672344.440   108633925.51109  20672347.600    84649835.70849
 15 01 31 03 50  0.0000000  0  7G04G16G18G19G21G22G27
  23461746.660   123292323.94606  23461749.120    96071938.11645
  20817615.420   109397318.75108  20817616.340    85244665.19149
  21925702.400   115220413.45408  21925703.400    89782177.10147
  22093547.880   116102388.17208  22093547.260    90469403.48348
  23704898.520   124570236.92906  23704899.040    97067787.85445
  20780554.880   109202612.64009  20780554.180    85092968.14049
  20665782.960   108599444.75309  20665786.120    84622967.59149
 15 01 31 03 50 30.0000000  0  7G04G16G18G19G21G22G27
  23445443.040   123206647.66306  23445445.580    96005177.39546
  20825567.640   109439107.88708  20825568.580    85277228.14549
  21933900.020   115263492.31908  21933901.020    89815745.05047
  22080888.060   116035860.33508  22080887.420    90417563.62247
  23718082.700   124639520.28006  23718083.240    97121774.88045
  20775574.120   109176438.45209  20775573.400    85072572.68549
  20659270.880   108565223.56309  20659274.040    84596301.73249
 15 01 31 03 51  0.0000000  0  7G04G16G18G19G21G22G27
  23429174.960   123121158.27106  23429177.600    95938562.27046
  20833622.460   109481436.27008  20833623.400    85310211.29249
  21942180.240   115307005.38708  21942181.260    89849651.33447
  22068255.060   115969473.75608  22068254.440    90365833.83448
  23731270.780   124708824.06406  23731271.360    97175777.82445
  20770692.380   109150784.63009  20770691.640    85052582.69849
  20652808.280   108531262.10009  20652811.400    84569838.25549
 15 01 31 03 51 30.0000000  0  7G04G16G18G19G21G22G27
  23412942.580   123035856.63006  23412945.300    95872093.48146
  20841779.680   109524302.74008  20841780.620    85343613.73049
  21950542.860   115350951.14108  21950543.820    89883894.77947
  22055649.140   115903229.48808  22055648.600    90314214.93948
  23744462.720   124778147.77706  23744463.240    97229796.29145
  20765909.800   109125651.96809  20765909.020    85032998.81449
  20646395.400   108497561.94709  20646398.480    84543578.40349
 15 01 31 03 52  0.0000000  0  7G04G16G18G19G21G22G27
  23396746.120   122950744.28106  23396748.960    95805772.17445
  20850039.340   109567707.37208  20850040.260    85377435.52049
  21958987.760   115395329.13608  21958988.620    89918475.03947
  22043070.700   115837129.88108  22043070.280    90262708.77247
  23757658.540   124847491.80906  23757658.900    97283830.58145
  20761226.760   109101042.57409  20761225.960    85013822.66749
  20640032.740   108464125.63009  20640035.740    84517524.13049
 15 01 31 03 52 30.0000000  0  7G04G16G18G19G21G22G27
  23380585.740   122865821.48406  23380588.600    95739598.57045
  20858400.960   109611648.02408  20858401.880    85411674.98148
  21967514.580   115440137.55908  21967515.320    89953390.69347
  22030520.000   115771175.62808  22030519.600    90211315.86448
  23770858.040   124916855.69206  23770858.340    97337880.35044
  20756643.320   109076956.70709  20756642.520    84995054.46749
  20633720.440   108430954.14609  20633723.400    84491676.22349
 15 01 31 03 53  0.0000000  0  7G04G16G18G19G21G22G27
  23364460.980   122781085.68106  23364463.700    95673570.69745
  20866863.920   109656121.33408  20866864.860    85446329.49849
  21976122.440   115485371.84808  21976123.080    89988638.19847
  22017996.640   115705364.91908  22017996.220    90160034.79848
  23784060.620   124986235.67806  23784060.800    97391942.67545
  20752159.020   109053391.72509  20752158.200    84976692.15249
  20627458.200   108398045.89509  20627461.180    84466033.43249
 15 01 31 03 53 30.0000000  0  7G04G16G18G19G21G22G27
  23348372.520   122696540.54006  23348375.120    95607691.37245
  20875428.500   109701128.60308  20875429.460    85481400.09348
  21984811.600   115531033.58708  21984812.180    90024218.77347
  22005501.380   115639701.68008  22005500.900    90108868.65448
  23797266.620   125055633.65106  23797266.720    97446018.99045
  20747774.580   109030351.37909  20747773.720    84958738.64849
  20621246.840   108365405.12009  20621249.860    84440599.06649
 15 01 31 03 54  0.0000000  0  7G04G16G18G19G21G22G27
  23332320.560   122612187.00807  23332323.040    95541961.37145
  20884094.540   109746669.03209  20884095.520    85516886.12949
  21993581.900   115577121.69908  21993582.440    90060131.58747
  21993034.540   115574187.72808  21993033.980    90057818.83848
  23810476.080   125125050.11006  23810476.140    97500109.72445
  20743490.240   109007836.91009  20743489.360    84941194.91849
  20615086.760   108333033.85709  20615089.820    84415374.70949
 15 01 31 03 54 30.0000000  0  7G04G16G18G19G21G22G27
  23316304.760   122528023.05007  23316307.100    95476379.10245
  20892861.320   109792738.72208  20892862.300    85552784.58549
  22002432.520   115623631.97108  22002433.040    90096373.36047
  21980595.800   115508821.34608  21980595.140    90006884.00548
  23823688.300   125194481.20706  23823688.420    97554211.85144
  20739305.520   108985845.88209  20739304.580    84924059.06249
  20608977.700   108300930.81409  20608980.840    84390359.35349
 15 01 31 03 55  0.0000000  0  7G04G16G18G19G21G22G27
  23300325.580   122444051.54107  23300327.820    95410946.76945
  20901729.000   109839338.83408  20901730.040    85589096.35648
  22011363.600   115670565.34408  22011364.200    90132944.82247
  21968185.800   115443606.00108  21968185.040    89956066.86348
  23836903.700   125263929.06006  23836903.940    97608327.04645
  20735220.980   108964381.24609  20735219.980    84907333.37649
  20602920.440   108269099.85809  20602923.620    84365556.01549
 15 01 31 03 55 30.0000000  0  7G04G16G18G19G21G22G27
  23284382.880   122360271.79007  23284385.100    95345663.87345
  20910697.080   109886466.33108  20910698.160    85625819.07548
  22020374.620   115717918.81308  22020375.280    90169843.62247
  21955804.480   115378541.53108  21955803.700    89905367.29248
  23850122.000   125333392.10006  23850122.460    97662454.08645
  20731236.500   108943442.57609  20731235.480    84891017.53949
  20596914.940   108237540.86009  20596918.180    84340964.59249
 15 01 31 03 56  0.0000000  0  7G04G16G18G19G21G22G27
  23268476.660   122276683.90607  23268478.940    95280530.47345
  20919765.320   109934120.23808  20919766.440    85662951.98648
  22029465.280   115765690.53308  22029465.960    90207068.34747
  21943452.100   115313629.39408  21943451.320    89854786.41948
  23863343.160   125402869.71006  23863343.660    97716592.46145
  20727352.140   108923030.07309  20727351.120    84875111.69949
  20590961.480   108206255.14309  20590964.700    84316586.11349
 15 01 31 03 56 30.0000000  0  7G04G16G18G19G21G22G27
  23252607.080   122193288.67607  23252609.460    95215547.18846
  20928933.400   109982298.85008  20928934.520    85700493.75748
  22038635.220   115813879.01908  22038635.920    90244617.81947
  21931128.900   115248870.56108  21931128.140    89804325.00348
  23876566.980   125472360.91706  23876567.400    97770741.44745
  20723568.000   108903144.40709  20723567.020    84859616.37749
  20585060.280   108175244.20409  20585063.480    84292421.75449
 15 01 31 03 57  0.0000000  0  7G04G16G18G19G21G22G27
  23236774.420   122110087.53607  23236776.880    95150715.13745
  20938201.240   110031001.66508  20938202.360    85738443.99248
  22047884.320   115862483.68508  22047885.080    90282491.58347
  21918835.200   115184266.92108  21918834.480    89753984.51948
  23889793.640   125541866.83206  23889794.000    97824901.88545
  20719884.380   108883786.97409  20719883.460    84844532.66949
  20579211.820   108144510.38709  20579215.020    84268473.32449
 15 01 31 03 57 30.0000000  0  7G04G16G18G19G21G22G27
  23220978.660   122027080.44907  23220981.220    95086034.28546
  20947568.560   110080227.00609  20947569.620    85776801.39748
  22057212.220   115911502.29608  22057213.020    90320687.91147
  21906571.160   115119819.31308  21906570.480    89703765.61048
  23903022.720   125611385.57806  23903023.000    97879072.31244
  20716301.280   108864957.64909  20716300.380    84829860.47349
  20573416.320   108114054.74209  20573419.520    84244741.65949
 15 01 31 03 58  0.0000000  0  7G04G16G18G19G21G22G27
  23205219.960   121944268.22907  23205222.620    95021505.28745
  20957035.040   110129973.48408  20957036.040    85815564.87848
  22066618.640   115960933.63208  22066619.480    90359205.82747
  21894337.180   115055529.51908  21894336.520    89653669.67748
  23916254.260   125680917.26506  23916254.500    97933252.83245
  20712818.860   108846657.31909  20712817.940    84815600.47849
  20567674.020   108083878.80409  20567677.220    84221227.94249
 15 01 31 03 58 30.0000000  0  7G04G16G18G19G21G22G27
  23189498.420   121861651.14907  23189501.120    94957128.34245
  20966600.460   110180240.06408  20966601.420    85854733.63548
  22076103.280   116010775.91208  22076104.160    90398043.97447
  21882133.320   114991398.11008  21882132.680    89603697.16048
  23929488.020   125750461.08806  23929488.240    97987442.80245
  20709437.100   108828885.90509  20709436.120    84801752.63249
  20561985.180   108053983.78509  20561988.400    84197933.12849
 15 01 31 03 59  0.0000000  0  7G04G16G18G19G21G22G27
  23173814.360   121779230.85307  23173817.000    94892904.74245
  20976264.660   110231025.71709  20976265.600    85894306.86548
  22085665.960   116061028.23508  22085666.860    90437201.62647
  21869960.000   114927427.05208  21869959.400    89553849.59348
  23942724.020   125820017.30506  23942724.400    98041642.44344
  20706156.240   108811644.74609  20706155.160    84788317.97349
  20556350.220   108024371.97009  20556353.460    84174858.98449
 15 01 31 03 59 30.0000000  0  7G04G16G18G19G21G22G27
  23158167.500   121697005.99107  23158169.960    94828833.44145
  20986026.960   110282326.67109  20986027.840    85934281.63148
  22095306.080   116111687.18608  22095306.960    90476676.13647
  21857817.120   114863616.04408  21857816.520    89504126.74648
  23955961.920   125889583.95606  23955962.480    98095850.22144
  20702976.000   108794932.54609  20702974.880    84775295.49149
  20550769.140   107995043.09509  20550772.380    84152005.31749
 15 01 31 04 00  0.0000000  0  7G04G16G18G19G21G22G27
  23142557.980   121614977.21507  23142560.240    94764914.94545
  20995887.200   110334142.46108  20995888.060    85974657.56748
  22105023.320   116162751.35708  22105024.200    90516466.40047
  21845705.060   114799966.69008  21845704.420    89454529.85648
  23969201.840   125959161.13806  23969202.560    98150066.19545
  20699896.540   108778750.09009  20699895.400    84762685.79549
  20545242.200   107965998.94709  20545245.460    84129373.51849
 15 01 31 04 00 30.0000000  0  7G04G16G18G19G21G22G27
  23126985.840   121533144.60407  23126987.900    94701149.27945
  21005845.000   110386471.15308  21005845.840    86015433.16148
  22114817.380   116214219.01408  22114818.220    90556571.06447
  21833623.880   114736479.76808  21833623.240    89405059.54248
  23982443.560   126028747.42906  23982444.380    98204289.26745
  20696917.740   108763096.82409  20696916.660    84750488.44949
  20539769.640   107937240.45609  20539772.920    84106964.30349
 15 01 31 04 01  0.0000000  0  7G04G16G18G19G21G22G27
  23111451.300   121451509.85907  23111453.260    94637537.81645
  21015900.220   110439311.88008  21015901.100    86056607.74348
  22124688.000   116266089.13308  22124688.800    90596989.34147
  21821574.100   114673157.56508  21821573.460    89355717.57848
  23995687.200   126098343.58706  23995688.180    98258520.03345
  20694039.980   108747974.56609  20694039.000    84738704.87849
  20534351.920   107908770.06609  20534355.180    84084779.58449
 15 01 31 04 01 30.0000000  0  7G04G16G18G19G21G22G27
  23095954.240   121370072.48007  23095956.300    94574080.12245
  21026052.360   110492661.93608  21026053.300    86098179.21148
  22134634.700   116318359.45508  22134635.540    90637719.46147
  21809555.660   114610000.11108  21809555.020    89306503.99048
  24008932.560   126167948.26606  24008933.540    98312757.42545
  20691263.160   108733382.72509  20691262.260    84727334.62249
  20528989.120   107880588.32809  20528992.360    84062819.79449
 15 01 31 04 02  0.0000000  0  7G04G16G18G19G21G22G27
  23080495.000   121288834.09007  23080497.260    94510777.48546
  21036301.480   110546521.50908  21036302.480    86140147.70348
  22144657.300   116371028.91708  22144658.180    90678760.59947
  21797569.000   114547009.85808  21797568.360    89257420.68648
  24022179.660   126237561.77606  24022180.580    98367001.70245
  20688587.520   108719322.31309  20688586.660    84716378.46549
  20523681.680   107852697.57109  20523684.900    84041086.73749
 15 01 31 04 02 30.0000000  0  7G04G16G18G19G21G22G27
  23065073.780   121207796.10207  23065076.300    94447630.99646
  21046647.420   110600889.76408  21046648.480    86182512.57148
  22154755.780   116424097.27108  22154756.720    90720112.56147
  21785614.680   114484189.53508  21785614.020    89208469.79748
  24035428.620   126307185.45706  24035429.420    98421253.88644
  20686013.360   108705794.97909  20686012.540    84705837.69649
  20518430.120   107825100.57609  20518433.340    84019582.58149
 15 01 31 04 03  0.0000000  0  7G04G16G18G19G21G22G27
  23049690.020   121126954.52007  23049692.780    94384637.57046
  21057088.980   110655760.40609  21057090.040    86225268.91248
  22164928.900   116477557.53308  22164929.840    90761769.90647
  21773691.980   114421535.42908  21773691.320    89159648.43448
  24048678.500   126376813.77106  24048679.260    98475509.71544
  20683539.860   108692796.32309  20683539.020    84695708.87749
  20513233.820   107797793.97509  20513237.040    83998304.71249
 15 01 31 04 03 30.0000000  0  7G04G16G18G19G21G22G27
  23034344.380   121046312.91607  23034347.260    94321799.95945
  21067626.460   110711135.04008  21067627.500    86268417.96948
  22175177.120   116531412.18508  22175178.000    90803734.57047
  21761801.780   114359052.08208  21761801.140    89110960.12348
  24061929.840   126446449.59106  24061930.540    98529771.36445
  20681167.600   108680329.60809  20681166.720    84685994.57049
  20508093.720   107770782.54309  20508096.920    83977256.84549
 15 01 31 04 04  0.0000000  0  7G04G16G18G19G21G22G27
  23019036.740   120965870.36507  23019039.560    94259117.46045
  21078259.220   110767010.55008  21078260.240    86311957.32148
  22185499.700   116585657.65608  22185500.520    90846003.77046
  21749944.020   114296739.35908  21749943.420    89062404.76848
  24075182.260   126516090.96106  24075183.020    98584037.35444
  20678896.300   108668393.70409  20678895.380    84676693.87449
  20503009.800   107744066.18509  20503012.960    83956438.90449
 15 01 31 04 04 30.0000000  0  7G04G16G18G19G21G22G27
  23003767.320   120885628.54807  23003770.000    94196591.38545
  21088987.120   110823386.15608  21088988.160    86355886.35848
  22195896.420   116640293.04608  22195897.260    90888576.79747
  21738119.220   114234599.75008  21738118.640    89013984.31048
  24088435.860   126585738.69906  24088436.660    98638308.30944
  20676726.260   108656989.84609  20676725.280    84667807.75949
  20497982.540   107717647.51309  20497985.640    83935852.92449
 15 01 31 04 05  0.0000000  0  7G04G16G18G19G21G22G27
  22988536.300   120805588.12307  22988538.780    94134222.23746
  21099809.980   110880260.84508  21099811.060    86400204.29048
  22206367.100   116695317.14608  22206367.940    90931452.71747
  21726327.680   114172634.68108  21726327.060    88965699.84948
  24101690.640   126655392.71006  24101691.460    98692584.14944
  20674657.500   108646118.36809  20674656.480    84659336.48849
  20493012.240   107691528.17909  20493015.260    83915500.19449
 15 01 31 04 05 30.0000000  0  7G04G16G18G19G21G22G27
  22973343.460   120725748.66607  22973345.740    94072009.69745
  21110727.360   110937632.06708  21110728.440    86444909.13048
  22216911.240   116750727.31208  22216912.120    90974629.47646
  21714569.420   114110844.49208  21714568.740    88917551.66048
  24114946.360   126725051.54506  24114947.160    98746863.75945
  20672689.840   108635778.53909  20672688.840    84651279.48049
  20488098.960   107665708.73409  20488101.960    83895381.14849
 15 01 31 04 06  0.0000000  0  8G04G11G16G18G19G21G22G27
  22958189.480   120646113.83207  22958191.680    94009956.59546
  24630638.800   129434873.18705  24630641.180   100858355.33344
  21121739.380   110995500.65909  21121740.480    86490001.53548
  22227529.080   116806524.68708  22227529.940    91018107.95046
  21702845.280   114049233.79108  21702844.560    88869543.33648
  24128203.460   126794717.94906  24128204.460    98801149.25845
  20670824.000   108625973.85909  20670823.060    84643639.47849
  20483243.600   107640193.72909  20483246.660    83875499.33049
 15 01 31 04 06 30.0000000  0  8G04G11G16G18G19G21G22G27
  22943072.060   120566671.56707  22943074.220    93948053.56745
  24613428.200   129344430.85805  24613430.140   100787880.83245
  21132843.480   111053853.02708  21132844.580    86535470.90948
  22238218.020   116862695.35408  22238218.800    91061877.30346
  21691153.180   113987791.53008  21691152.460    88821666.26048
  24141459.660   126864379.27506  24141460.600    98855430.78644
  20669057.640   108616691.85609  20669056.720    84636406.75749
  20478444.080   107614972.21809  20478447.200    83855846.20749
 15 01 31 04 07  0.0000000  0  8G04G11G16G18G19G21G22G27
  22927994.560   120487439.60207  22927996.800    93886314.38546
  24596230.480   129254056.67105  24596232.440   100717459.39144
  21144042.580   111112704.54509  21144043.660    86581329.22948
  22248980.980   116919254.94108  22248981.740    91105949.70247
  21679496.680   113926536.35408  21679496.040    88773934.96848
  24154718.080   126934052.57106  24154719.020    98909721.64445
  20667394.100   108607949.83109  20667393.160    84629594.79749
  20473704.000   107590063.01909  20473707.120    83836436.44349
 15 01 31 04 07 30.0000000  0  8G04G11G16G18G19G21G22G27
  22912955.720   120408410.74207  22912958.100    93824733.46746
  24579044.360   129163743.14805  24579046.380   100647085.23843
  21155334.840   111172045.78808  21155335.940    86627569.15448
  22259816.140   116976193.70708  22259816.900    91150317.57847
  21667874.500   113865461.62208  21667873.940    88726344.28048
  24167977.140   127003729.64906  24167978.100    98964015.46145
  20665831.880   108599740.23409  20665830.940    84623197.72149
  20469022.140   107565459.73409  20469025.280    83817265.05449
 15 01 31 04 08  0.0000000  0  8G04G11G16G18G19G21G22G27
  22897955.660   120329585.40207  22897958.120    93763311.15146
  24561869.880   129073494.66905  24561872.240   100576759.66844
  21166719.880   111231874.66608  21166720.980    86674189.05148
  22270723.140   117033509.93208  22270723.880    91194979.57247
  21656286.920   113804568.72008  21656286.420    88678895.27648
  24181236.740   127073409.89805  24181237.720    99018311.76545
  20664370.960   108592062.95809  20664370.000    84617215.43649
  20464398.780   107541163.78209  20464401.920    83798333.14149
 15 01 31 04 08 30.0000000  0  8G04G11G16G18G19G21G22G27
  22882994.820   120250965.85207  22882997.380    93702049.19445
  24544707.320   128983305.80605  24544709.740   100506482.65644
  21178197.680   111292191.07808  21178198.800    86721188.84448
  22281701.940   117091203.50608  22281702.720    91239935.59747
  21644734.560   113743860.89208  21644734.060    88631590.48548
  24194497.300   127143095.20205  24194498.400    99072611.97744
  20663011.720   108584919.94609  20663010.740    84611649.46149
  20459834.540   107517178.49109  20459837.700    83779643.30049
 15 01 31 04 09  0.0000000  0  9G04G11G16G18G19G21G22G27G32
  22868072.580   120172548.78807  22868075.120    93640944.99946
  24527556.280   128893177.05305  24527558.660   100436252.48143
  21189767.260   111352989.79908  21189768.420    86768564.46348
  22292751.460   117149268.83108  22292752.220    91285181.30547
  21633216.960   113683335.76108  21633216.480    88584428.05348
  24207757.980   127212781.07906  24207759.080    99126912.64444
  20661753.360   108578307.41609  20661752.420    84606496.84449
  20455328.960   107493501.48709  20455332.100    83761193.68949
  24490754.880   128699784.06205  24490758.560   100285556.15744
 15 01 31 04 09 30.0000000  0  9G04G11G16G18G19G21G22G27G32
  22853187.580   120094327.36007  22853190.100    93579993.26546
  24510415.520   128803101.83205  24510417.840   100366064.03544
  21201426.920   111414261.76808  21201428.080    86816308.84848
  22303869.940   117207696.64608  22303870.660    91330709.47347
  21621733.040   113622987.35708  21621732.540    88537403.33548
  24221017.360   127282459.94905  24221018.400    99181207.85144
  20660594.520   108572217.89209  20660593.600    84601751.76249
  20450880.860   107470126.86909  20450884.040    83742979.70349
  24468070.340   128580576.06305  24468073.780   100192666.84243
 15 01 31 04 10  0.0000000  0  9G04G11G16G18G19G21G22G27G32
  22838343.060   120016318.50507  22838345.440    93519207.16746
  24493288.080   128713097.03205  24493290.480   100295930.44143
  21213179.420   111476021.55908  21213180.580    86864433.35248
  22315060.300   117266502.09608  22315060.960    91376531.90146
  21610286.120   113562833.43108  21610285.600    88490530.15248
  24234278.540   127352147.96006  24234279.520    99235510.17744
  20659538.360   108566668.12509  20659537.500    84597427.27949
  20446493.740   107447072.73109  20446497.000    83725015.44249
  24445396.260   128461422.48206  24445399.540   100099819.95944
 15 01 31 04 10 30.0000000  0  9G04G11G16G18G19G21G22G27G32
  22823537.580   119938514.67007  22823539.840    93458580.81646
  24476172.720   128623155.15605  24476174.900   100225845.87644
  21225022.900   111538259.32208  21225024.060    86912930.30448
  22326320.640   117325675.40008  22326321.240    91422640.97046
  21598874.980   113502867.66408  21598874.480    88443803.59148
  24247539.960   127421837.21605  24247540.900    99289813.48345
  20658583.400   108561650.08109  20658582.600    84593517.11949
  20442166.400   107424332.57709  20442169.660    83707295.84149
  24422731.660   128342318.19106  24422734.780   100007011.46045
 15 01 31 04 11  0.0000000  0  9G04G11G16G18G19G21G22G27G32
  22808771.180   119860916.67707  22808773.440    93398114.85846
  24459069.460   128533276.85705  24459071.520   100155810.83844
  21236957.000   111600973.39708  21236958.160    86961798.40648
  22337650.660   117385214.87608  22337651.220    91469035.36447
  21587500.000   113443091.72008  21587499.500    88397224.94548
  24260801.680   127491527.58305  24260802.580    99344117.62445
  20657729.660   108557163.80209  20657728.860    84590021.31949
  20437899.160   107401908.06909  20437902.400    83689822.20049
  24400076.880   128223265.99306  24400079.960    99914243.57045
 15 01 31 04 11 30.0000000  0  9G04G11G16G18G19G21G22G27G32
  22794043.940   119783524.74807  22794046.200    93337809.48946
  24441978.400   128443462.17405  24441980.100   100085825.38144
  21248981.340   111664161.58808  21248982.520    87011035.95648
  22349049.960   117445118.56308  22349050.540    91515713.56346
  21576161.340   113383506.65208  21576160.860    88350795.03248
  24274063.520   127561218.43205  24274064.320    99398422.20245
  20656977.120   108553208.93609  20656976.240    84586939.61649
  20433692.220   107379800.47109  20433695.460    83672595.49949
  24377432.540   128104268.43906  24377435.380    99821518.23545
 15 01 31 04 12  0.0000000  0  9G04G11G16G18G19G21G22G27G32
  22779355.920   119706339.14707  22779358.240    93277664.88045
  24424899.660   128353712.22405  24424901.220   100015890.38044
  21261095.600   111727822.34908  21261096.780    87060641.73348
  22360518.120   117505384.36608  22360518.780    91562673.92346
  21564859.260   113324113.70208  21564858.780    88304514.82248
  24287325.260   127630909.49605  24287326.120    99452726.87444
  20656325.700   108549785.58009  20656324.800    84584272.06849
  20429545.860   107358011.17109  20429549.100    83655616.82549
  24354799.080   127985328.04506  24354801.660    99728837.45144
 15 01 31 04 12 30.0000000  0  8G04G16G18G19G21G22G27G32
  22764707.240   119629360.27107  22764709.600    93217681.35445
  21273299.360   111791953.39108  21273300.520    87110613.96748
  22372054.900   117566010.40608  22372055.520    91609914.99246
  21553594.080   113264914.61108  21553593.560    88258385.66648
  24300586.980   127700600.32605  24300587.980    99507031.40044
  20655775.380   108546893.52909  20655774.460    84582018.53049
  20425460.360   107336541.60209  20425463.580    83638887.29349
  24332176.980   127866447.58206  24332179.360    99636203.35944
 15 01 31 04 13  0.0000000  0  9G04G11G16G18G19G21G22G27G32
  22750097.900   119552588.19907  22750100.320    93157858.98146
  24390778.700   128174416.68405  24390779.640    99876175.81044
  21285592.120   111856552.04109  21285593.240    87160950.56848
  22383659.760   117626994.37308  22383660.380    91657434.96647
  21542365.920   113205910.02208  21542365.360    88212408.07048
  24313848.600   127770290.45905  24313849.660    99561335.36444
  20655325.960   108544531.65309  20655325.040    84580178.10749
  20421435.860   107315392.58909  20421439.060    83622407.53849
  24309566.680   127747629.16706  24309568.840    99543617.64445
 15 01 31 04 13 30.0000000  0  9G04G11G16G18G19G21G22G27G32
  22735528.360   119476024.81007  22735530.740    93098199.22645
  24373737.140   128084862.95205  24373738.540    99806393.70845
  21297973.940   111921618.52208  21297974.980    87211651.71348
  22395332.720   117688336.31308  22395333.380    91705233.87846
  21531175.320   113147103.05308  21531174.760    88166584.47148
  24327110.260   127839980.84305  24327111.240    99615639.55644
  20654977.800   108542701.90009  20654976.860    84578752.32349
  20417472.940   107294567.30609  20417476.160    83606180.04749
  24286968.980   127628877.21806  24286970.960    99451083.67945
 15 01 31 04 14  0.0000000  0  9G04G11G16G18G19G21G22G27G32
  22720998.180   119399667.89907  22721000.500    93038700.35346
  24356708.020   127995374.08105  24356709.340    99736662.14444
  21310443.820   111987148.02008  21310444.840    87262713.65248
  22407072.940   117750031.58308  22407073.600    91753308.11446
  21520022.060   113088492.35808  21520021.500    88120913.81148
  24340371.440   127909668.66105  24340372.540    99669941.73044
  20654730.180   108541400.66609  20654729.240    84577738.38549
  20413571.420   107274064.55409  20413574.640    83590203.87549
  24264383.800   127510191.76906  24264385.820    99358601.55045
 15 01 31 04 14 30.0000000  0  9G04G11G16G18G19G21G22G27G32
  22706507.680   119323519.55608  22706509.880    92979364.00246
  24339691.500   127905951.95305  24339692.960    99666982.56943
  21323001.640   112053139.78608  21323002.660    87314135.79948
  22418880.340   117812079.74908  22418880.980    91801657.33346
  21508906.660   113030080.77008  21508906.100    88075398.29948
  24353632.500   127979355.44506  24353633.420    99724243.09644
  20654583.640   108540630.49909  20654582.720    84577138.25949
  20409731.820   107253887.24609  20409735.020    83574481.30049
  24241812.000   127391576.97406  24241814.080    99266174.46945
 15 01 31 04 15  0.0000000  0  9G04G11G16G18G19G21G22G27G32
  22692056.780   119247579.09608  22692058.940    92920189.62646
  24322687.700   127816596.08405  24322689.140    99597354.63544
  21335646.840   112119590.92108  21335647.880    87365915.89648
  22430754.360   117874478.14008  22430755.000    91850279.45247
  21497829.360   112971869.30508  21497828.760    88030038.72648
  24366893.100   128049039.82705  24366893.900    99778542.60044
  20654537.800   108540389.53509  20654536.880    84576950.49649
  20405954.240   107234035.91609  20405957.460    83559012.73349
  24219254.000   127273034.69906  24219256.160    99173803.90044
 15 01 31 04 15 30.0000000  0  9G04G11G16G18G19G21G22G27G32
  22677645.740   119171848.18608  22677647.900    92861178.54246
  24305696.800   127727308.20205  24305698.200    99527779.67543
  21348379.400   112186501.15108  21348380.480    87418053.73448
  22442694.820   117937226.10708  22442695.540    91899173.97346
  21486790.640   112913860.34008  21486790.000    87984836.94948
  24380153.540   128118722.91106  24380154.060    99832841.09744
  20654592.840   108540678.60409  20654591.900    84577175.74949
  20402239.180   107214513.18409  20402242.400    83543800.21649
  24196710.540   127154568.65806  24196712.720    99081492.73644
 15 01 31 04 16  0.0000000  0  9G04G11G16G18G19G21G22G27G32
  22663274.600   119096327.18107  22663276.780    92802331.02146
  24288718.840   127638088.69605  24288720.520    99458258.01644
  21361198.820   112253868.00008  21361199.940    87470547.37248
  22454701.420   118000321.48608  22454702.180    91948339.20046
  21475790.720   112856055.31308  21475790.020    87939794.07148
  24393413.540   128188404.44005  24393413.960    99887138.36745
  20654748.780   108541497.90609  20654747.800    84577814.17049
  20398586.920   107195320.47009  20398590.160    83528844.85649
  24174182.120   127036181.82606  24174184.440    98989243.27745
 15 01 31 04 16 30.0000000  0  9G04G11G16G18G19G21G22G27G32
  22648943.360   119021016.00108  22648945.600    92743646.98946
  24271753.880   127548937.43505  24271755.580    99388789.48945
  21374104.560   112321688.28208  21374105.720    87523394.34048
  22466773.700   118063761.96708  22466774.520    91997773.33646
  21464829.700   112798454.74508  21464828.960    87894910.52448
  24406672.860   128258083.30105  24406673.320    99941433.57843
  20655005.300   108542845.91909  20655004.320    84578864.57749
  20394997.640   107176458.54709  20395000.860    83514147.25749
  24151669.140   126917876.16106  24151671.420    98897057.06344
 15 01 31 04 17  0.0000000  0  9G04G11G16G18G19G21G22G27G32
  22634651.860   118945913.82208  22634654.140    92685125.81746
  24254801.880   127459854.23605  24254803.660    99319374.01544
  21387096.200   112389959.89508  21387097.360    87576592.98848
  22478911.120   118127544.57308  22478911.960    92047474.06746
  21453907.740   112741059.47108  21453906.960    87850186.94048
  24419931.560   128327758.45805  24419931.800    99995725.89444
  20655362.240   108544721.58309  20655361.240    84580326.14549
  20391471.380   107157927.94409  20391474.600    83499707.82449
  24129171.920   126799653.41806  24129174.380    98804935.47245
 15 01 31 04 17 30.0000000  0  9G04G11G16G18G19G21G22G27G32
  22620400.220   118871021.17708  22620402.540    92626767.92646
  24237862.880   127370839.58505  24237864.820    99250011.93745
  21400173.240   112458680.05608  21400174.400    87630141.16248
  22491113.260   118191667.26508  22491114.120    92097439.79647
  21443025.040   112683870.72308  21443024.340    87805624.28948
  24433189.740   128397430.04205  24433189.820   100050015.45143
  20655819.500   108547124.67709  20655818.500    84582198.69249
  20388008.440   107139730.05109  20388011.660    83485527.64749
  24106691.060   126681516.25106  24106693.620    98712880.56344
 15 01 31 04 18  0.0000000  0  9G04G11G16G18G19G21G22G27G32
  22606188.540   118796338.56008  22606190.900    92568573.69346
  24220937.100   127281894.01805  24220938.980    99180703.72044
  21413335.420   112527847.58208  21413336.580    87684037.92348
  22503379.880   118256128.90608  22503380.820    92147669.64746
  21432182.020   112626890.53908  21432181.420    87761224.15448
  24446447.140   128467097.61605  24446447.260   100104301.86843
  20656377.080   108550054.95309  20656376.060    84584482.03249
  20384609.140   107121866.51709  20384612.360    83471608.01049
  24084227.120   126563467.70906  24084229.540    98620894.71745
 15 01 31 04 18 30.0000000  0  9G04G11G16G18G19G21G22G27G32
  22592017.000   118721866.93508  22592019.300    92510543.87646
  24204024.640   127193018.33605  24204026.420    99111449.94144
  21426582.340   112597460.29308  21426583.500    87738281.59048
  22515710.580   118320927.50308  22515711.600    92198162.05246
  21421379.060   112570120.54608  21421378.440    87716987.80848
  24459703.840   128536761.43705  24459703.800   100158585.35644
  20657034.980   108553512.63209  20657034.000    84587176.33649
  20381273.780   107104339.15809  20381277.020    83457950.32249
  24061780.600   126445510.83906  24061783.080    98528980.28144
 15 01 31 04 19  0.0000000  0  9G04G11G16G18G19G21G22G27G32
  22577885.640   118647606.31508  22577887.840    92452678.48346
  24187125.540   127104212.70106  24187127.140    99042250.78844
  21439913.480   112667515.67608  21439914.620    87792870.19148
  22528105.000   118386060.68608  22528106.040    92248915.18346
  21410616.360   112513561.98408  21410615.680    87672916.21148
  24472959.780   128606421.28605  24472959.520   100212865.71043
  20657793.060   108557496.81109  20657792.140    84590280.89349
  20378002.580   107087148.98809  20378005.820    83444555.38049
  24039351.940   126327647.93006  24039354.220    98437139.07945
 15 01 31 04 19 30.0000000  0  9G04G11G16G18G19G21G22G27G32
  22563794.320   118573556.04707  22563796.360    92394977.00846
  24170239.820   127015476.94705  24170241.140    98973106.04744
  21453328.260   112738010.80208  21453329.420    87847801.45248
  22540562.720   118451526.09408  22540563.700    92299927.18146
  21399894.040   112457215.51208  21399893.300    87629009.87648
  24486214.720   128676075.67806  24486214.200   100267141.83944
  20658651.060   108562005.91509  20658650.200    84593794.48349
  20374795.700   107070296.65509  20374798.900    83431423.69149
  24016941.560   126209880.98206  24016943.880    98345372.64145
 15 01 31 04 20  0.0000000  0  9G04G11G16G18G19G21G22G27G32
  22549743.560   118499719.04408  22549745.560    92337441.69346
  24153367.940   126926814.04405  24153369.020    98904018.08543
  21466826.800   112808946.05908  21466827.940    87903075.67248
  22553083.640   118517324.02308  22553084.640    92351198.29246
  21389212.780   112401084.99108  21389212.060    87585271.81648
  24499469.040   128745727.02405  24499468.520   100321415.58744
  20659609.440   108567042.42009  20659608.620    84597719.03449
  20371653.840   107053786.00609  20371657.000    83418558.24549
  23994550.440   126092215.10206  23994552.720    98253684.98144
 15 01 31 04 20 30.0000000  0  9G04G11G16G18G19G21G22G27G32
  22535733.000   118426093.22007  22535734.980    92280070.94246
  24136509.520   126838221.99206  24136510.480    98834985.35145
  21480408.200   112880316.85008  21480409.280    87958689.26548
  22565667.020   118583450.21008  22565668.040    92402725.19546
  21378572.380   112345169.32808  21378571.700    87541701.17748
  24512722.220   128815372.68705  24512721.780   100375684.93544
  20660667.640   108572603.13809  20660666.820    84602052.05949
  20368576.780   107037615.89109  20368579.920    83405958.15349
  23972178.700   125974650.55706  23972180.960    98162076.23945
 15 01 31 04 21  0.0000000  0  9G04G11G16G18G19G21G22G27G32
  22521762.820   118352679.49708  22521764.800    92222865.46846
  24119664.780   126749701.92505  24119665.680    98766008.69344
  21494072.180   112952121.41508  21494073.180    88014640.86248
  22578312.600   118649903.09408  22578313.620    92454506.65246
  21367973.260   112289470.73408  21367972.600    87498299.68148
  24525974.340   128885013.20005  24525974.040   100429950.24344
  20661825.680   108578688.28609  20661824.780    84606793.73249
  20365564.900   107021788.42809  20365568.040    83393625.06149
  23949826.980   125857190.74306  23949829.140    98070549.11345
 15 01 31 04 21 30.0000000  0  9G04G11G16G18G19G21G22G27G32
  22507833.320   118279479.26808  22507835.280    92165826.34446
  24102833.920   126661255.24105  24102834.800    98697089.19244
  21507818.500   113024358.49908  21507819.440    88070929.49548
  22591020.200   118716682.05708  22591021.200    92506542.20346
  21357415.940   112233991.72408  21357415.220    87455069.29148
  24539225.540   128954649.26705  24539225.500   100484212.08544
  20663083.620   108585298.39509  20663082.640    84611944.47149
  20362618.680   107006305.92209  20362621.820    83381560.76349
  23927495.920   125739839.29006  23927497.920    97979106.43944
 15 01 31 04 22  0.0000000  0  9G04G11G16G18G19G21G22G27G32
  22493944.240   118206491.43408  22493946.220    92108952.72846
  24086016.800   126572881.01005  24086017.760    98628226.17344
  21521646.420   113097024.80108  21521647.400    88127552.57748
  22603789.140   118783783.51308  22603790.160    92558829.04546
  21346900.360   112178732.16508  21346899.640    87412009.90048
  24552475.580   129024279.33605  24552475.800   100538469.28743
  20664440.980   108592431.22009  20664440.000    84617502.52749
  20359738.100   106991168.28809  20359741.260    83369765.20349
  23905185.720   125622597.45706  23905187.600    97887749.18745
 15 01 31 04 22 30.0000000  0  9G04G11G16G18G19G21G22G27G32
  22480095.780   118133717.14608  22480097.800    92052245.50146
  24069213.660   126484580.80605  24069214.680    98559420.81644
  21535555.700   113170118.79008  21535556.800    88184508.92848
  22616619.240   118851206.26908  22616620.280    92611366.26046
  21336427.060   112123694.68908  21336426.360    87369123.55748
  24565724.600   129093904.16805  24565725.020   100592722.34245
  20665897.920   108600087.45209  20665896.960    84623468.42849
  20356923.600   106976377.94109  20356926.780    83358240.25349
  23882897.020   125505468.96706  23882898.820    97796480.25044
 15 01 31 04 23  0.0000000  0  9G04G11G16G18G19G21G22G27G32
  22466287.880   118061156.20208  22466289.980    91995704.53246
  24052424.600   126396354.38105  24052425.940    98490672.95844
  21549545.800   113243637.53208  21549547.000    88241796.25348
  22629510.040   118918947.83608  22629511.000    92664151.89546
  21325996.220   112068880.29908  21325995.560    87326411.05848
  24578972.380   129163523.03505  24578973.020   100646970.83644
  20667454.180   108608265.64609  20667453.240    84629841.05049
  20354175.300   106961935.53509  20354178.500    83346986.43149
  23860630.240   125388455.89906  23860631.920    97705301.24845
 15 01 31 04 23 30.0000000  0  9G04G11G16G18G19G21G22G27G32
  22452520.720   117988809.16208  22452522.820    91939330.24046
  24035649.720   126308202.50905  24035651.260    98421983.18644
  21563616.280   113317578.54008  21563617.520    88299412.61748
  22642461.100   118987006.39408  22642462.120    92717184.53146
  21315608.080   112014290.33108  21315607.400    87283873.42448
  24592218.740   129232988.59805  24592221.340   100701039.40244
  20669109.720   108616965.56209  20669108.780    84636620.20849
  20351493.480   106947842.53609  20351496.720    83336004.86949
  23838385.820   125271560.95606  23838387.500    97614214.29445
 15 01 31 04 24  0.0000000  0  8G04G11G16G18G19G22G27G32
  22438793.500   117916672.07108  22438795.560    91883119.54246
  24018888.420   126220121.65305  24018890.200    98353348.75945
  21577766.060   113391935.93908  21577767.240    88357353.43948
  22655471.340   119055375.97908  22655472.440    92770459.52946
  21305262.200   111959922.58308  21305261.520    87241508.95148
  20670863.580   108626182.31109  20670862.660    84643802.09449
  20348877.680   106934096.40909  20348880.920    83325293.59949
  23816163.640   125154783.09806  23816165.480    97523218.55445
 15 01 31 04 24 30.0000000  0 10G04G11G14G16G18G19G21G22G27G32
  22425108.920   117844759.05208  22425110.960    91827083.44846
  24002143.340   126132125.67205  24002145.200    98284780.50345
  24680872.460   129698855.72405  24680873.840   101064052.90744
  21591997.280   113466721.17108  21591998.320    88415627.63648
  22668543.040   119124067.90108  22668544.060    92823985.69946
  21294961.440   111905791.77908  21294960.760    87199329.10248
  24618709.280   129372186.28404  24618710.200   100809499.85245
  20672718.260   108635928.88009  20672717.340    84651396.82449
  20346330.700   106920711.93309  20346333.940    83314864.13249
  23793966.800   125038138.38906  23793968.860    97432326.60445
 15 01 31 04 25  0.0000000  0 10G04G11G14G16G18G19G21G22G27G32
  22411464.060   117773054.79408  22411466.040    91771210.02146
  23985411.600   126044199.63305  23985413.380    98216266.69844
  24666281.680   129622182.43905  24666283.440   101004307.46243
  21606306.460   113541916.12208  21606307.380    88474221.09448
  22681672.800   119193064.82708  22681673.760    92877749.53446
  21284703.080   111851883.94908  21284702.460    87157323.00548
  24631952.620   129441779.29405  24631953.460   100863728.18643
  20674670.680   108646189.22409  20674669.800    84659391.90149
  20343849.880   106907674.96009  20343853.080    83304705.45349
  23771792.920   124921614.05506  23771794.980    97341528.42845
 15 01 31 04 25 30.0000000  0 10G04G11G14G16G18G19G21G22G27G32
  22397859.520   117701562.80908  22397861.520    91715502.00346
  23968693.940   125956347.47606  23968695.660    98147810.53145
  24651694.680   129545526.95005  24651696.480   100944575.86343
  21620693.800   113617521.83408  21620694.640    88533134.62348
  22694860.900   119262368.31908  22694861.780    92931752.25046
  21274488.080   111798203.82708  21274487.460    87115494.34748
  24645193.980   129511362.78804  24645194.780   100917949.08141
  20676721.360   108656965.82009  20676720.480    84667789.25249
  20341436.040   106894990.16409  20341439.240    83294821.19249
  23749643.120   124805216.06306  23749645.260    97250828.69645
 15 01 31 04 26  0.0000000  0 10G04G11G14G16G18G19G21G22G27G32
  22384296.240   117630287.80408  22384298.260    91659963.05846
  23951991.160   125868573.75606  23951992.840    98079415.42945
  24637112.240   129468896.37105  24637114.460   100884863.76645
  21635159.660   113693540.28608  21635160.520    88592369.77548
  22708107.740   119331980.27108  22708108.500    92985995.32246
  21264317.600   111744757.54408  21264316.960    87073847.89648
  24658434.360   129580941.03105  24658435.000   100972165.88244
  20678870.960   108668262.13409  20678870.060    84676591.58349
  20339090.240   106882663.04309  20339093.460    83285215.64049
  23727518.660   124688951.33806  23727520.860    97160232.82545
 15 01 31 04 26 30.0000000  0 10G04G11G14G16G18G19G21G22G27G32
  22370773.400   117559225.23108  22370775.460    91604589.65246
  23935302.560   125780874.37206  23935304.200    98011078.28145
  24622534.520   129392289.30205  24622536.700   100825169.94444
  21649702.580   113769964.05708  21649703.520    88651920.75348
  22721412.060   119401894.25308  22721412.780    93040473.75446
  21254191.040   111691541.83308  21254190.320    87032381.10548
  24671672.820   129650509.22205  24671673.400   101026374.83344
  20681118.500   108680073.01809  20681117.560    84685794.87349
  20336811.920   106870690.44409  20336815.160    83275886.34349
  23705419.180   124572818.19406  23705421.560    97069739.47045
 15 01 31 04 27  0.0000000  0 10G04G11G14G16G18G19G21G22G27G32
  22357292.100   117488380.70808  22357294.200    91549386.15246
  23918629.160   125693254.95006  23918630.800    97942803.42445
  24607962.680   129315713.18505  24607964.660   100765500.23044
  21664323.180   113846796.27208  21664324.280    88711790.01048
  22734774.280   119472112.92008  22734774.900    93095189.59046
  21244109.480   111638562.83108  21244108.740    86991098.76748
  24684910.200   129720072.18105  24684910.860   101080579.67344
  20683464.760   108692402.46309  20683463.740    84695402.23849
  20334602.200   106859078.46509  20334605.460    83266838.04649
  23683346.060   124456823.99906  23683348.640    96979354.38945
 15 01 31 04 27 30.0000000  0 10G04G11G14G16G18G19G21G22G27G32
  22343851.780   117417751.47608  22343853.900    91494350.40547
  23901970.580   125605713.33806  23901972.220    97874589.20544
  24593396.640   129239168.42005  24593398.740   100705854.98143
  21679020.540   113924031.77508  21679021.760    88771973.50648
  22748193.520   119542631.77808  22748194.180    93150139.34546
  21234072.780   111585819.84508  21234072.080    86950000.34948
  24698146.180   129789626.98405  24698146.620   101134778.23543
  20685909.100   108705247.39909  20685908.020    84705411.28049
  20332460.900   106847825.86009  20332464.180    83258069.77749
  23661299.360   124340969.01406  23661302.200    96889077.75945
 15 01 31 04 28  0.0000000  0 10G04G11G14G16G18G19G21G22G27G32
  22330452.500   117347338.02008  22330454.700    91439482.79446
  23885326.860   125518250.07006  23885328.580    97806436.02745
  24578837.400   129162658.04105  24578839.220   100646236.52845
  21693794.120   114001667.64308  21693795.400    88832468.97948
  22761669.520   119613449.02708  22761670.220    93205321.60346
  21224081.300   111533314.35208  21224080.640    86909086.98048
  24711380.640   129859173.73505  24711380.800   101188970.46344
  20688451.380   108718606.87109  20688450.220    84715821.26149
  20330388.280   106836934.05809  20330391.540    83249582.65649
  23639279.660   124225255.91306  23639282.840    96798911.69645
 15 01 31 04 28 30.0000000  0 10G04G11G14G16G18G19G21G22G27G32
  22317094.260   117277140.32408  22317096.600    91384783.30246
  23868698.100   125430865.42505  23868699.760    97738344.10445
  24564285.140   129086184.71005  24564286.780   100586646.90043
  21708643.560   114079701.99008  21708644.860    88893274.95648
  22775201.860   119684562.08808  22775202.620    93260734.37646
  21214135.220   111481047.46008  21214134.580    86868359.53348
  24724613.400   129928712.28705  24724613.200   101243156.35644
  20691091.300   108732479.69209  20691090.120    84726631.25749
  20328384.500   106826403.88409  20328387.700    83241377.32049
  23617287.480   124109687.02306  23617290.800    96708858.02045
 15 01 31 04 29  0.0000000  0 10G04G11G14G16G18G19G21G22G27G32
  22303777.360   117207159.76008  22303779.760    91330253.01347
  23852084.480   125343560.65905  23852086.040    97670314.45845
  24549740.640   129009752.56304  24549742.440   100527089.37245
  21723568.580   114158133.33708  21723569.820    88954390.28148
  22788790.400   119755970.05108  22788791.140    93316376.93646
  21204235.100   111429021.96508  21204234.480    86827820.19148
  24737844.660   129998243.24805  24737844.380   101297336.27144
  20693828.980   108746866.28109  20693827.820    84737841.58749
  20326450.020   106816237.82409  20326453.180    83233455.71449
  23595323.580   123994266.18406  23595326.880    96618919.71345
 15 01 31 04 29 30.0000000  0 10G04G11G14G16G18G19G21G22G27G32
  22290501.620   117137395.40708  22290504.040    91275891.19246
  23835485.900   125256335.19206  23835487.500    97602346.60644
  24535204.280   128933363.33405  24535206.120   100467565.31643
  21738568.420   114236957.80208  21738569.580    89015811.93448
  22802434.500   119827669.83108  22802435.180    93372246.89246
  21194381.000   111377238.21508  21194380.400    86787469.22148
  24751074.240   130067765.27304  24751073.980   101351509.26141
  20696664.000   108761764.55709  20696662.920    84749450.64049
  20324584.840   106806436.00009  20324587.980    83225817.92549
  23573388.360   123878994.99106  23573391.340    96529098.01145
 15 01 31 04 30  0.0000000  0 10G04G11G14G16G18G19G21G22G27G32
  22277267.280   117067848.65208  22277269.680    91221698.92746
  23818902.760   125169190.91805  23818904.380    97534442.00845
  24520676.740   128857020.86905  24520678.620   100408077.66541
  21753642.820   114316174.08608  21753643.940    89077538.90248
  22816134.000   119899660.61708  22816134.600    93428343.60446
  21184573.380   111325698.66908  21184572.760    86747308.53848
  24764302.140   130137279.54405  24764302.460   101405676.21544
  20699596.380   108777174.63509  20699595.380    84761458.49849
  20322789.380   106797000.91309  20322792.540    83218465.90349
  23551482.440   123763877.27506  23551485.040    96439395.89545
 15 01 31 04 30 30.0000000  0 10G04G11G14G16G18G19G21G22G27G32
  22264074.240   116998518.73708  22264076.540    91167675.63846
  23802334.980   125082127.19805  23802336.640    97466600.14244
  24506158.400   128780726.97405  24506160.340   100348627.90341
  21768791.140   114395778.72408  21768792.260    89139568.48448
  22829888.100   119971938.83208  22829888.660    93484664.28146
  21174812.280   111274403.76308  21174811.660    86707338.48548
  24777528.320   130206784.53005  24777529.040   101459835.93043
  20702625.780   108793094.55009  20702624.840    84773863.62849
  20321063.700   106787932.52409  20321066.880    83211399.62649
  23529606.000   123648914.53606  23529608.300    96349814.54745
 15 01 31 04 31  0.0000000  0 10G04G11G14G16G18G19G21G22G27G32
  22250922.380   116929405.25708  22250924.540    91113820.99246
  23785782.520   124995143.85705  23785784.200    97398820.98544
  24491649.820   128704484.34205  24491651.600   100289218.03545
  21784012.700   114475768.41708  21784013.840    89201898.10948
  22843696.440   120044501.98208  22843696.980    93541206.98846
  21165097.900   111223354.43008  21165097.320    86667559.79348
  24790752.940   130276280.17004  24790753.700   101513988.35043
  20705751.940   108809523.09909  20705751.100    84786665.10249
  20319407.980   106779231.63509  20319411.160    83204619.71149
  23507759.400   123534108.85806  23507761.500    96260355.58245
 15 01 31 04 31 30.0000000  0 10G04G11G14G16G18G19G21G22G27G32
  22237812.040   116860509.72908  22237814.060    91060136.19446
  23769245.740   124908242.74105  23769247.560    97331105.86245
  24477151.640   128628297.06305  24477153.720   100229851.33544
  21799307.340   114556142.30308  21799308.520    89264527.10148
  22857558.860   120117349.46008  22857559.400    93597971.25646
  21155430.760   111172553.59808  21155430.200    86627974.73348
  24803975.980   130345767.61705  24803976.920   101568134.38444
  20708974.920   108826460.43609  20708974.140    84799863.03049
  20317822.620   106770900.73809  20317825.840    83198128.09349
  23485943.400   123419464.29806  23485945.320    96171022.15845
 15 01 31 04 32  0.0000000  0 10G04G11G14G16G18G19G21G22G27G32
  22224743.240   116791832.33008  22224745.100    91006621.36346
  23752724.800   124821424.54706  23752726.680    97263455.35244
  24462664.500   128552167.75105  24462666.980   100170529.74544
  21814674.540   114636897.40808  21814675.700    89327453.14848
  22871475.060   120190479.37708  22871475.560    93654955.59746
  21145811.260   111122002.93108  21145810.680    86588584.60748
  24817197.360   130415246.19105  24817198.440   101622273.53844
  20712294.640   108843905.71109  20712293.840    84813456.75349
  20316307.940   106762941.05709  20316311.140    83191925.74349
  23464158.440   123304983.42606  23464160.360    96081816.27445
 15 01 31 04 32 30.0000000  0 10G04G11G14G16G18G19G21G22G27G32
  22211715.640   116723371.49708  22211717.380    90953275.28146
  23736219.400   124734687.59606  23736221.180    97195868.14445
  24448188.860   128476097.69905  24448191.360   100111254.38544
  21830113.520   114718029.71708  21830114.640    89390673.11747
  22885444.180   120263887.46408  22885444.660    93712156.69946
  21136239.320   111071701.99708  21136238.720    86549389.07848
  24830416.760   130484713.96505  24830417.920   101676404.23344
  20715710.540   108861856.17909  20715709.640    84827444.13749
  20314863.740   106755351.91909  20314866.940    83186012.12549
  23442404.780   123190667.09806  23442406.640    95992738.61545
 15 01 31 04 33  0.0000000  0 10G04G11G14G16G18G19G21G22G27G32
  22198729.700   116655130.03708  22198731.440    90900100.13246
  23719730.080   124648035.05606  23719731.840    97128346.74645
  24433725.560   128400092.53205  24433728.100   100052029.57744
  21845624.340   114799539.47608  21845625.440    89454187.20548
  22899466.380   120337574.48308  22899466.780    93769575.15046
  21126715.660   111021654.71008  21126715.000    86510391.19448
  24843634.700   130554173.99405  24843635.700   101730528.90845
  20719222.820   108880313.02809  20719221.800    84841826.09749
  20313490.820   106748137.31709  20313494.040    83180390.35249
  23420683.440   123076520.70406  23420685.340    95903793.38045
 15 01 31 04 33 30.0000000  0 10G04G11G14G16G18G19G21G22G27G32
  22185785.060   116587105.96008  22185786.880    90847094.37846
  23703256.540   124561465.45706  23703258.240    97060889.95144
  24419274.920   128324153.08605  24419277.320    99992855.96644
  21861206.000   114881421.71508  21861207.100    89517991.53748
  22913540.720   120411535.77308  22913541.120    93827207.32146
  21117240.160   110971860.59808  21117239.460    86471590.59648
  24856850.600   130623623.41805  24856851.380   101784645.29042
  20722830.940   108899273.28509  20722829.820    84856600.33249
  20312189.000   106741296.11009  20312192.200    83175059.53449
  23398994.540   122962544.53106  23398996.440    95814980.77845
 15 01 31 04 34  0.0000000  0 10G04G11G14G16G18G19G21G22G27G32
  22172882.000   116519300.68108  22172884.000    90794259.10846
  23686799.040   124474980.09106  23686800.560    96993498.80745
  24404837.540   128248282.97305  24404839.680    99933736.41244
  21876858.140   114963674.52908  21876859.320    89582084.63247
  22927667.080   120485770.56107  22927667.580    93885052.59946
  21107813.360   110922322.28308  21107812.640    86432989.31548
  24870064.840   130693063.70105  24870065.340   101838754.57845
  20726534.800   108918736.92509  20726533.620    84871766.80649
  20310958.660   106734830.53009  20310961.860    83170021.41449
  23377338.700   122848742.32706  23377340.640    95726303.72945
 15 01 31 04 34 30.0000000  0 10G04G11G14G16G18G19G21G22G27G32
  22160020.540   116451713.91708  22160022.700    90741594.11247
  23670357.580   124388579.28906  23670359.000    96926173.52945
  24390413.960   128172485.31305  24390415.820    99874673.31344
  21892580.440   115046295.78408  21892581.700    89646464.82448
  22941845.060   120560276.78207  22941845.700    93943109.39246
  21098435.500   110873040.97008  21098434.760    86394588.29648
  24883277.240   130762494.28605  24883277.360   101892856.35144
  20730334.120   108938702.59409  20730332.940    84887324.47349
  20309800.040   106728741.73009  20309803.220    83165276.89349
  23355716.420   122735116.65207  23355718.420    95637764.23845
 15 01 31 04 35  0.0000000  0 10G04G11G14G16G18G19G21G22G27G32
  22147201.220   116384348.28608  22147203.500    90689101.43046
  23653932.660   124302266.00606  23653934.120    96858916.46546
  24376005.040   128096765.09205  24376006.760    99815670.56444
  21908372.800   115129284.96708  21908374.060    89711131.71848
  22956074.740   120635054.27407  22956075.440    94001377.56846
  21089107.260   110824020.58608  21089106.500    86356390.59848
  24896488.120   130831917.10205  24896487.960   101946951.98244
  20734229.240   108959171.79809  20734228.100    84903274.50249
  20308713.780   106723033.00109  20308716.920    83160828.53349
  23334128.540   122621672.32806  23334130.700    95549366.06246
 15 01 31 04 35 30.0000000  0 10G04G11G14G16G18G19G21G22G27G32
  22134423.360   116317200.02008  22134425.700    90636778.12747
  23637523.780   124216036.89106  23637525.180    96791724.95944
  24361610.660   128021121.53405  24361612.300    99756727.53845
  21924233.940   115212635.58108  21924235.160    89776080.23948
  22970354.900   120710097.15307  22970355.680    94059852.52046
  21079828.220   110775258.99308  21079827.480    86318394.55448
  24909696.760   130901328.34505  24909696.400   102001038.65743
  20738219.160   108980139.48908  20738218.140    84919612.96949
  20307699.300   106717701.75509  20307702.440    83156674.31449
  23312574.920   122508408.19206  23312577.220    95461108.29745
 15 01 31 04 36  0.0000000  0 10G04G11G14G16G18G19G21G22G27G32
  22121687.640   116250272.87708  22121689.980    90584627.13947
  23621131.520   124129895.60906  23621133.020    96724601.91345
  24347231.880   127945560.79505  24347233.480    99697849.04444
  21940163.960   115296348.19608  21940165.120    89841310.83847
  22984685.820   120785406.60607  22984686.620    94118535.21145
  21070599.280   110726760.56208  21070598.520    86280603.56948
  24922903.660   130970731.27505  24922903.260   102055118.85243
  20742304.360   109001607.77308  20742303.440    84936341.50549
  20306757.460   106712752.40209  20306760.620    83152817.67449
  23291056.620   122395330.14406  23291059.260    95372995.52545
 15 01 31 04 36 30.0000000  0 10G04G11G14G16G18G19G21G22G27G32
  22108993.840   116183566.09208  22108996.160    90532647.83846
  23604755.920   124043841.97006  23604757.420    96657547.14345
  24332869.100   127870085.06205  24332870.760    99639036.80345
  21956162.220   115380419.69408  21956163.320    89906821.08747
  22999066.940   120860979.96507  22999067.740    94177423.53445
  21061420.580   110678526.28408  21061419.860    86243018.42148
  24936108.680   131040125.17004  24936108.420   102109192.07644
  20746484.400   109023574.64608  20746483.640    84953458.54949
  20305888.360   106708185.34809  20305891.540    83149258.93049
  23269574.220   122282440.01406  23269577.140    95285029.16945
 15 01 31 04 37  0.0000000  0 10G04G11G14G16G18G19G21G22G27G32
  22096341.660   116117078.03608  22096343.920    90480838.98847
  23588396.800   123957874.71605  23588398.340    96590559.70145
  24318522.620   127794695.27005  24318524.420    99580291.47345
  21972227.860   115464845.43508  21972228.960    89972607.36747
  23013497.500   120936813.03307  23013498.240    94236514.22046
  21052292.020   110630555.51108  21052291.340    86205638.60748
  24949311.660   131109508.02804  24949311.580   102163256.54941
  20750758.820   109046037.08508  20750758.100    84970961.75149
  20305091.900   106703999.88309  20305095.100    83145997.52949
  23248127.920   122169738.69506  23248130.880    95197209.95945
 15 01 31 04 37 30.0000000  0 10G04G11G14G16G18G19G21G22G27G32
  22083731.160   116050809.42708  22083733.400    90429201.13746
  23572054.300   123871994.81405  23572055.760    96523640.31644
  24304193.180   127719395.00205  24304195.180    99521615.96845
  21988360.480   115549623.13108  21988361.560    90038667.89747
  23027977.180   121012904.39307  23027977.900    94295806.18346
  21043214.120   110582850.99308  21043213.460    86168466.25948
  24962512.740   131178880.34505  24962512.840   102217312.89043
  20755127.560   109068994.76109  20755126.800    84988850.85149
  20304368.340   106700197.76509  20304371.580    83143034.83449
  23226718.240   122057229.44707  23226721.100    95109540.41945
 15 01 31 04 38  0.0000000  0 10G04G11G14G16G18G19G21G22G27G32
  22071162.580   115984761.16108  22071164.800    90377734.96947
  23555728.720   123786203.74006  23555730.160    96456790.17544
  24289881.560   127644188.19805  24289883.460    99463013.23744
  22004559.740   115634750.97708  22004560.840    90105001.27347
  23042505.700   121089252.51507  23042506.460    94355298.21446
  21034187.280   110535414.76308  21034186.640    86131502.96248
  24975712.060   131248242.88505  24975712.140   102271361.62444
  20759590.420   109092446.99609  20759589.620    85007125.32249
  20303718.100   106696780.80409  20303721.320    83140372.26349
  23205345.720   121944915.52607  23205348.520    95022023.07445
 15 01 31 04 38 30.0000000  0 10G04G11G14G16G18G19G21G22G27G32
  22058635.740   115918932.55108  22058638.040    90326439.96847
  23539420.020   123700500.85406  23539421.240    96390008.74045
  24275588.140   127569076.60705  24275590.020    99404484.74544
  22020825.020   115720225.74208  22020826.200    90171604.97847
  23057082.500   121165854.49707  23057083.320    94414988.07045
  21025211.520   110488246.91008  21025210.920    86094748.79949
  24988909.320   131317594.46105  24988909.580   102325401.71541
  20764147.000   109116391.57609  20764146.100    85025783.43849
  20303141.200   106693749.20809  20303144.420    83138009.97249
  23184010.760   121832798.62407  23184013.360    94934659.26745
 15 01 31 04 39  0.0000000  0  9G04G11G14G16G18G19G22G27G32
  22046151.780   115853329.22208  22046154.160    90275320.49747
  23523129.220   123614892.11206  23523130.340    96323300.67545
  24261314.620   127494068.67905  24261316.500    99346037.00844
  22037156.880   115806050.06708  22037158.100    90238481.06748
  23071708.320   121242713.73407  23071709.140    94474878.38246
  21016288.320   110441355.30108  21016287.740    86058209.88549
  20768798.120   109140833.18508  20768797.140    85044828.85049
  20302638.860   106691109.57309  20302642.140    83135953.10549
  23162714.780   121720886.87607  23162717.100    94847455.30045
 15 01 31 04 39 30.0000000  0 10G01G04G11G14G16G18G19G22G27G32
  24569746.680   129114890.44904  24569753.320   100609032.65243
  22033709.680   115787945.96008  22033712.140    90224372.52347
  23506855.480   123529372.73106  23506856.540    96256662.24345
  24247060.540   127419161.93006  24247062.200    99287668.09144
  22053553.660   115892215.33108  22053554.880    90305622.82347
  23086381.720   121319822.65907  23086382.520    94534963.23446
  21007416.860   110394735.44808  21007416.260    86021882.72749
  20773542.480   109165764.89708  20773541.440    85064256.16449
  20302210.320   106688857.58209  20302213.560    83134198.30549
  23141457.220   121609177.49806  23141459.340    94760409.02045
 15 01 31 04 40  0.0000000  0 10G01G04G11G14G16G18G19G22G27G32
  24554469.560   129034605.58804  24554475.660   100546465.54044
  22021308.040   115722775.15408  22021310.500    90173590.10246
  23490597.360   123443935.49206  23490598.400    96190087.80445
  24232825.080   127344351.88906  24232826.720    99229374.57145
  22070013.500   115978711.93708  22070014.720    90373022.77247
  23101100.820   121397171.50007  23101101.580    94595235.06246
  20998596.000   110348381.44008  20998595.400    85985762.72349
  20778378.400   109191177.89609  20778377.320    85084058.50349
  20301854.300   106686986.70609  20301857.540    83132740.47349
  23120237.140   121497665.48707  23120239.280    94673516.53845
 15 01 31 04 40 30.0000000  0 10G01G04G11G14G16G18G19G22G27G32
  24539212.880   128954430.43204  24539218.580   100483991.37144
  22008948.940   115657827.66608  22008951.340    90122981.69847
  23474357.080   123358591.78006  23474358.140    96123586.25944
  24218610.500   127269651.80606  24218612.040    99171166.72345
  22086537.820   116065547.51508  22086539.040    90440686.84847
  23115867.160   121474768.97707  23115867.960    94655700.62146
  20989828.020   110302305.35408  20989827.400    85949859.28649
  20783307.700   109217081.49008  20783306.600    85104243.13049
  20301573.040   106685508.67709  20301576.300    83131588.75849
  23099057.120   121386364.11507  23099059.240    94586788.20245
 15 01 31 04 41  0.0000000  0 10G01G04G11G14G16G18G19G22G27G32
  24523977.260   128874367.92204  24523983.180   100421605.06645
  21996632.600   115593104.71808  21996634.900    90072548.26547
  23458134.820   123273343.10706  23458135.900    96057158.76745
  24204417.560   127195065.80806  24204418.940    99113047.77844
  22103126.240   116152720.32908  22103127.480    90508613.71047
  23130680.480   121552613.73307  23130681.320    94716358.85446
  20981113.440   110256509.86208  20981112.800    85914174.48849
  20788330.240   109243475.08909  20788329.140    85124809.56749
  20301366.920   106684425.45909  20301370.180    83130744.68849
  23077917.860   121275276.87407  23077920.020    94500226.71445
 15 01 31 04 41 30.0000000  0 10G01G04G11G14G16G18G19G22G27G32
  24508762.600   128794414.87004  24508768.500   100359303.99644
  21984358.340   115528602.85008  21984360.520    90022287.09947
  23441930.000   123188186.20106  23441931.220    95990802.78745
  24190246.100   127120593.29306  24190247.460    99055017.23845
  22119777.660   116240224.16108  22119778.840    90576798.50847
  23145539.840   121630700.23607  23145540.640    94777205.47846
  20972451.880   110210992.98808  20972451.200    85878706.79949
  20793445.080   109270353.79408  20793444.020    85145754.01049
  20301235.460   106683734.77109  20301238.760    83130206.48849
  23056819.160   121164402.97507  23056821.400    94413831.44945
 15 01 31 04 42  0.0000000  0 10G01G04G11G14G16G18G19G22G27G32
  24493568.700   128714570.17404  24493574.480   100297087.35844
  21972125.960   115464321.13008  21972128.060    89972197.47847
  23425742.560   123103120.77606  23425743.920    95924518.06645
  24176096.420   127046236.28606  24176097.960    98997076.72944
  22136491.280   116328054.94308  22136492.380    90645238.06047
  23160444.640   121709025.21007  23160445.380    94838237.91945
  20963843.340   110165755.06308  20963842.700    85843456.47149
  20798651.920   109297715.91309  20798650.900    85167075.14149
  20301178.680   106683436.51409  20301182.000    83129974.07649
  23035761.300   121053743.88007  23035763.660    94327603.59846
 15 01 31 04 42 30.0000000  0  9G04G11G14G16G18G19G22G27G32
  21959935.340   115400259.32308  21959937.460    89922279.21447
  23409572.480   123018146.80306  23409573.980    95858304.62345
  24161969.160   126971997.04406  24161970.580    98939227.97044
  22153266.620   116416210.13108  22153267.660    90713930.40047
  23175394.320   121787585.99407  23175394.980    94899454.10145
  20955288.140   110120797.28308  20955287.540    85808424.43749
  20803950.380   109325559.37708  20803949.340    85188771.35149
  20301196.700   106683531.20409  20301200.040    83130047.85449
  23014744.820   120943301.74807  23014747.320    94241544.77746
 15 01 31 04 43  0.0000000  0 10G01G04G11G14G16G18G19G22G27G32
  24463244.040   128555214.80404  24463248.500   100172920.84345
  21947788.060   115336425.44608  21947790.260    89872538.54947
  23393421.380   122933272.58106  23393423.000    95792168.88645
  24147866.340   126897886.62405  24147867.680    98881479.58243
  22170104.700   116504694.66708  22170105.660    90782879.37747
  23190390.040   121866388.53807  23190390.640    94960858.66745
  20946788.060   110076129.07708  20946787.460    85773618.05349
  20809341.660   109353890.78908  20809340.620    85210847.78249
  20301291.220   106684027.88209  20301294.520    83130434.87149
  22993771.720   120833087.12507  22993774.300    94155663.24645
 15 01 31 04 43 30.0000000  0 10G01G04G11G14G16G18G19G22G27G32
  24448113.280   128475702.53904  24448117.900   100110963.24643
  21935682.700   115272811.92508  21935685.020    89822969.58647
  23377287.940   122848491.16506  23377289.680    95726105.46945
  24133786.960   126823900.24405  24133788.420    98823827.87044
  22187003.440   116593497.91408  22187004.340    90852076.69647
  23205429.880   121945423.12807  23205430.440    95022444.06445
  20938341.980   110031744.51408  20938341.340    85739032.67649
  20814824.000   109382700.65608  20814822.960    85233297.03449
  20301460.960   106684919.82109  20301464.220    83131129.88349
  22972840.980   120723094.69707  22972843.460    94069954.84146
 15 01 31 04 44  0.0000000  0 10G01G04G11G14G16G18G19G22G27G32
  24433003.340   128396299.40804  24433007.860   100049090.69343
  21923619.420   115209419.35508  21923621.840    89773572.79047
  23361172.340   122763803.63606  23361174.040    95660115.21345
  24119731.780   126750041.15605  24119733.520    98766275.35344
  22203962.420   116682617.87208  22203963.380    90921520.81747
  23220513.440   122024687.70007  23220513.980    95084208.64545
  20929950.140   109987645.18108  20929949.500    85704669.56149
  20820397.260   109411988.54008  20820396.260    85256118.76449
  20301706.220   106686208.64009  20301709.460    83132134.14949
  22951953.160   120613327.79507  22951955.600    93984422.19046
 15 01 31 04 44 30.0000000  0 10G01G04G11G14G16G18G19G22G27G32
  24417914.480   128317006.79504  24417918.800    99987304.32542
  21911598.520   115146249.38008  21911600.980    89724349.44647
  23345074.920   122679211.82906  23345076.560    95594199.53344
  24105701.700   126676313.68105  24105703.600    98708825.40145
  22220981.320   116772052.96508  22220982.400    90991210.49047
  23235640.680   122104181.91907  23235641.260    95146152.18745
  20921613.160   109943834.31308  20921612.580    85670531.23149
  20826061.460   109441754.34308  20826060.480    85279312.89849
  20302027.460   106687896.73809  20302030.700    83133449.54549
  22931109.060   120503790.42707  22931111.380    93899068.39546
 15 01 31 04 45  0.0000000  0 10G01G04G11G14G16G18G19G22G27G32
  24402846.640   128237825.06304  24402850.800    99925604.30943
  21899620.100   115083302.37708  21899622.580    89675299.85147
  23328995.820   122594716.46606  23328997.400    95528359.01644
  24091697.260   126602721.08205  24091699.360    98651480.51044
  22238059.660   116861800.57408  22238060.880    91061143.68947
  23250811.280   122183903.96607  23250811.800    95208273.24746
  20913331.460   109900313.77508  20913330.900    85636619.12549
  20831816.400   109471996.77608  20831815.400    85302878.43449
  20302424.940   106689985.29709  20302428.140    83135076.99149
  22910309.140   120394485.31407  22910311.320    93813895.58345
 15 01 31 04 45 30.0000000  0 10G01G04G11G14G16G18G19G22G27G32
  24387799.860   128158753.97405  24387804.060    99863990.51744
  21887684.100   115020578.16008  21887686.540    89626423.85347
  23312935.220   122510317.95106  23312936.720    95462593.95445
  24077719.080   126529266.28105  24077721.380    98594243.01745
  22255196.880   116951857.52508  22255198.180    91131317.92747
  23266024.680   122263851.57907  23266025.280    95270570.08145
  20905105.260   109857084.71108  20905104.680    85602934.14249
  20837661.760   109502714.21009  20837660.740    85326814.09949
  20302898.740   106692475.03609  20302901.940    83137017.04149
  22889553.760   120285414.72207  22889555.920    93728905.50146
 15 01 31 04 46  0.0000000  0 10G01G04G11G14G16G18G19G22G27G32
  24372774.120   128079793.78204  24372778.460    99802463.10643
  21875790.600   114958077.02008  21875792.940    89577721.68847
  23296893.200   122426017.03406  23296894.720    95396904.95345
  24063767.720   126455952.22205  24063770.260    98537115.17444
  22272392.640   117042221.63808  22272393.920    91201731.50947
  23281280.620   122344022.30107  23281281.240    95333040.76045
  20896934.860   109814148.61408  20896934.220    85569477.44549
  20843597.260   109533905.26109  20843596.240    85351118.81449
  20303449.080   106695367.11309  20303452.320    83139270.59949
  22868843.480   120176581.49707  22868845.640    93644100.38745
 15 01 31 04 46 30.0000000  0 10G01G04G11G14G16G18G19G22G27G32
  24357769.060   128000942.21105  24357773.800    99741020.34444
  21863939.140   114895796.75408  21863941.360    89529191.62947
  23280869.480   122341811.96206  23280870.900    95331290.64744
  24049843.460   126382779.51006  24049845.920    98480097.49243
  22289645.900   117132887.60308  22289647.060    91272380.29547
  23296578.300   122424412.01007  23296578.900    95395682.07845
  20888820.140   109771505.16308  20888819.460    85536248.78249
  20849622.160   109565566.13509  20849621.120    85375789.62749
  20304075.720   106698660.13909  20304079.000    83141836.58549
  22848178.280   120067985.73807  22848180.520    93559480.31245
 15 01 31 04 47  0.0000000  0 10G01G04G11G14G16G18G19G22G27G32
  24342785.140   127922200.48605  24342789.940    99679663.21043
  21852129.920   114833738.46908  21852132.000    89480834.54647
  23264864.380   122257704.23606  23264865.620    95265752.17045
  24035946.980   126309752.11706  24035949.280    98423193.03945
  22306956.300   117223853.71808  22306957.320    91343262.96947
  23311917.480   122505019.54307  23311918.020    95458493.14245
  20880761.500   109729156.55308  20880760.780    85503249.86349
  20855736.380   109597696.48309  20855735.320    85400826.27049
  20304779.040   106702356.20509  20304782.360    83144716.63149
  22827558.960   119959631.15007  22827561.260    93475048.17245
 15 01 31 04 47 30.0000000  0 10G01G04G11G14G16G18G19G22G27G32
  24327822.580   127843570.78605  24327827.380    99618393.32344
  21840363.340   114771904.46708  21840365.260    89432652.22747
  23248878.420   122173696.75807  23248879.340    95200291.84145
  24022079.120   126236875.12706  24022081.280    98366405.78944
  22324323.620   117315119.46108  22324324.620    91414379.12047
  23327298.100   122585845.00207  23327298.620    95521474.00145
  20872759.680   109687106.68408  20872758.960    85470483.72749
  20861940.040   109630297.01509  20861939.000    85426229.28249
  20305559.660   106706458.46409  20305563.000    83147913.19249
  22806986.480   119851522.52907  22806988.700    93390807.67045
 15 01 31 04 48  0.0000000  0 10G01G04G11G14G16G18G19G22G27G32
  24312881.080   127765052.48905  24312885.920    99557210.27044
  21828639.320   114710294.25208  21828641.100    89384644.28447
  23232911.460   122089789.09707  23232912.160    95134909.26845
  24008240.360   126164150.78306  24008242.360    98309737.48544
  22341747.140   117406680.92608  22341748.240    91485725.71047
  23342719.560   122666885.41607  23342720.100    95584622.36445
  20864814.780   109645356.47808  20864814.160    85437951.10349
  20868232.780   109663365.60309  20868231.760    85451997.01949
  20306417.580   106710967.05109  20306420.980    83151426.37549
  22786461.100   119743661.55207  22786463.380    93306760.15946
 15 01 31 04 48 30.0000000  0 10G01G04G11G14G16G18G19G22G27G32
  24297960.720   127686645.55304  24297965.580    99496113.98645
  21816957.860   114648907.85208  21816959.580    89336810.74647
  23216963.580   122005982.13107  23216964.240    95069605.19145
  23994431.140   126091582.02806  23994432.960    98253190.39344
  22359226.360   117498535.57508  22359227.660    91557300.75747
  23358181.540   122748139.02607  23358182.100    95647936.85145
  20856927.200   109603907.25408  20856926.620    85405653.00949
  20874614.240   109696900.49108  20874613.280    85478128.09449
  20307353.040   106715882.85009  20307356.420    83155256.87249
  22765983.360   119636050.84307  22765985.720    93222907.66545
 15 01 31 04 49  0.0000000  0 10G01G04G11G14G16G18G19G22G27G32
  24283061.700   127608351.15505  24283066.740    99435105.37744
  21805319.200   114587746.52008  21805320.920    89289152.57647
  23201035.160   121922277.42407  23201035.800    95004380.79445
  23980652.160   126019172.77606  23980653.840    98196767.59544
  22376761.120   117590681.73108  22376762.540    91629102.95147
  23373683.860   122829604.40207  23373684.500    95711416.34845
  20849097.420   109562761.51708  20849096.820    85373591.39749
  20881084.380   109730901.39309  20881083.440    85504622.30349
  20308366.360   106721207.95109  20308369.720    83159406.29149
  22745554.000   119528694.03707  22745556.440    93139253.00945
 15 01 31 04 49 30.0000000  0 10G01G04G11G14G16G18G19G22G27G32
  24268183.800   127530167.84104  24268189.180    99374183.34945
  21793723.080   114526808.71908  21793724.820    89241668.58347
  23185125.920   121838673.93307  23185126.620    94939235.25545
  23966903.700   125946924.58806  23966905.420    98140470.32244
  22394350.560   117683114.87808  22394352.020    91701128.77147
  23389225.800   122911277.69007  23389226.480    95775057.86345
  20841325.480   109521919.63108  20841324.840    85341766.54549
  20887642.600   109765365.10809  20887641.680    85531477.15148
  20309457.440   106726941.61509  20309460.800    83163874.07349
  22725173.240   119421592.01307  22725175.600    93055796.87646
 15 01 31 04 50  0.0000000  0 10G01G04G11G14G16G18G19G22G27G32
  24253327.400   127452097.54705  24253333.120    99313349.37844
  21782169.880   114466096.38008  21782171.620    89194360.27947
  23169236.300   121755173.89107  23169237.100    94874170.32345
  23953186.640   125874842.29606  23953188.620    98084302.28544
  22411994.600   117775834.28508  22411995.900    91773377.65047
  23404807.360   122993159.27207  23404808.080    95838861.67945
  20833612.000   109481384.84108  20833611.320    85310181.00349
  20894288.960   109800291.93208  20894288.040    85558692.85949
  20310626.840   106733086.69609  20310630.160    83168662.43949
  22704841.820   119314749.31107  22704844.180    92972542.82746
 15 01 31 04 50 30.0000000  0 10G01G04G11G14G16G18G19G22G27G32
  24238492.000   127374137.21905  24238497.780    99252601.08744
  21770659.020   114405606.58108  21770660.820    89147225.38947
  23153365.920   121671775.12307  23153366.960    94809184.31446
  23939501.140   125802925.81705  23939503.400    98028263.48645
  22429691.940   117868833.76208  22429693.060    91845844.75247
  23420427.460   123075243.81207  23420428.340    95902823.64845
  20825956.640   109441155.62708  20825955.940    85278833.56549
  20901022.520   109835677.19908  20901021.620    85586265.79748
  20311874.120   106739640.95809  20311877.400    83173769.64649
  22684559.640   119208165.27607  22684562.020    92889490.33546
 15 01 31 04 51  0.0000000  0 10G01G04G11G14G16G18G19G22G27G32
  24223677.800   127296288.36205  24223683.460    99191939.68944
  21759190.860   114345341.07708  21759192.700    89100265.26747
  23137515.180   121588479.65506  23137516.460    94744278.78045
  23925848.140   125731179.48306  23925850.580    97972357.26145
  22447442.220   117962111.88708  22447443.180    91918528.98747
  23436086.040   123157530.46507  23436087.020    95966943.09745
  20818359.940   109401234.95408  20818359.260    85247726.54749
  20907843.240   109871520.85808  20907842.380    85614195.92949
  20313199.720   106746606.83309  20313202.980    83179197.59849
  22664327.460   119101843.96407  22664329.860    92806642.55946
 15 01 31 04 51 30.0000000  0 10G01G04G11G14G16G18G19G22G27G32
  24208884.680   127218550.51204  24208890.160    99131364.77445
  21747765.300   114285299.19908  21747767.160    89053479.40447
  23121684.080   121505287.33807  23121685.560    94679453.62845
  23912228.140   125659605.52906  23912230.460    97916585.33545
  22465244.780   118055665.47608  22465245.720    91991427.88147
  23451782.580   123240016.49207  23451783.640    96031217.91345
  20810822.180   109361623.96008  20810821.540    85216860.84049
  20914750.840   109907820.79108  20914749.980    85642481.59549
  20314603.700   106753984.55609  20314606.940    83184946.46549
  22644145.580   118995787.34807  22644147.980    92724001.04846
 15 01 31 04 52  0.0000000  0 10G01G04G11G14G16G18G19G22G27G32
  24194112.740   127140924.13204  24194118.100    99070876.72244
  21736382.440   114225481.70308  21736384.280    89006868.38947
  23105872.860   121422199.46006  23105874.440    94614709.85245
  23898641.780   125588207.46106  23898643.820    97860950.50844
  22483099.260   118149491.89808  22483100.260    92064539.36847
  23467516.780   123322700.37607  23467517.920    96095646.88945
  20803343.720   109322324.31108  20803343.100    85186237.74149
  20921745.060   109944575.77008  20921744.200    85671121.83449
  20316086.220   106761775.46909  20316089.560    83191017.30149
  22624014.560   118889998.33707  22624017.040    92641568.04846
 15 01 31 04 52 30.0000000  0 10G01G04G11G14G16G18G19G22G27G32
  24179361.980   127063408.68005  24179367.120    99010475.12342
  21725042.140   114165888.03008  21725044.000    88960431.77947
  23090081.520   121339215.89407  23090083.140    94550047.35645
  23885089.400   125516987.57606  23885091.040    97805454.49644
  22501005.040   118243587.66408  22501006.140    92137860.73547
  23483288.160   123405579.36907  23483289.300    96160227.91545
  20795924.800   109283337.34708  20795924.180    85155858.28749
  20928825.480   109981783.51208  20928824.600    85700114.88349
  20317647.420   106769979.82509  20317650.820    83197410.30149
  22603934.840   118784478.91707  22603937.320    92559345.11346
