     2.11           OBSERVATION DATA    G                   RINEX VERSION / TYPE
SPIDER V4,0,0,3554                      2015 03 16 00:11    PGM / RUN BY / DATE 
AKET                                                        MARKER NAME         
AKET                                                        MARKER NUMBER       
                                                            OBSERVER / AGENCY   
496661              LEICA GRX1200+GNSS  8.20/4.007          REC # / TYPE / VERS 
10271023            LEIAR25         NONE                    ANT # / TYPE        
  5151584.4739   350346.6892  3733756.9574                  APPROX POSITION XYZ 
        0.0480        0.0000        0.0000                  ANTENNA: DELTA H/E/N
     1     1                                                WAVELENGTH FACT L1/2
     4    C1    L1    P2    L2                              # / TYPES OF OBSERV 
    30.000                                                  INTERVAL            
  2015    02    15    00    00    0.0000000     GPS         TIME OF FIRST OBS   
  2015    02    15    15    40   30.0000000     GPS         TIME OF LAST OBS    
    16                                                      LEAP SECONDS        
    27                                                      # OF SATELLITES     
   G 1   140   140   140   140                              PRN / # OF OBS      
   G 2   479   479   477   477                              PRN / # OF OBS      
   G 3   337   337   337   337                              PRN / # OF OBS      
   G 4    23    23    20    20                              PRN / # OF OBS      
   G 5   512   512   512   512                              PRN / # OF OBS      
   G 6   514   514   513   513                              PRN / # OF OBS      
   G 7   572   572   572   572                              PRN / # OF OBS      
   G 9   637   637   637   637                              PRN / # OF OBS      
   G10   686   686   685   685                              PRN / # OF OBS      
   G11    27    26    26    26                              PRN / # OF OBS      
   G13   440   440   439   439                              PRN / # OF OBS      
   G15   200   200   200   200                              PRN / # OF OBS      
   G16   147   147   147   147                              PRN / # OF OBS      
   G17   212   212   212   212                              PRN / # OF OBS      
   G18   102   102   102   102                              PRN / # OF OBS      
   G19     1     1     1     1                              PRN / # OF OBS      
   G20   613   612   612   611                              PRN / # OF OBS      
   G21   147   147   147   147                              PRN / # OF OBS      
   G23   452   452   452   452                              PRN / # OF OBS      
   G24    81    81    81    81                              PRN / # OF OBS      
   G25    49    49    49    49                              PRN / # OF OBS      
   G27   147   147   147   147                              PRN / # OF OBS      
   G28   326   326   326   326                              PRN / # OF OBS      
   G29   147   147   147   147                              PRN / # OF OBS      
   G30   592   592   592   592                              PRN / # OF OBS      
   G31   165   165   165   165                              PRN / # OF OBS      
   G32    92    92    92    92                              PRN / # OF OBS      
BIT 2 OF LLI FLAGS DATA COLLECTED UNDER A/S CONDITION       COMMENT             
SNR is mapped to RINEX snr flag value [2-9]                 COMMENT             
Lx:     = 25dBHz -> 1; 26-27dBHz -> 2; 28-31dBHz -> 3       COMMENT             
       32-35dBHz -> 4; 36-38dBHz -> 5; 39-41dBHz -> 6       COMMENT             
       42-44dBHz -> 7; 45-48dBHz -> 8; >=49dBHz -> 9        COMMENT             
                                                            END OF HEADER       
 15 02 15 00 00  0.0000000  0  6G16G21G25G27G29G31
  23191854.720   121874020.36008  23191850.700    94966757.29246
  20948586.280   110085566.83408  20948582.160    85780946.71148
  23261467.780   122239833.72608  23261467.920    95251815.63445
  24225517.840   127305965.17608  24225518.600    99199458.82845
  22476723.180   118115976.00709  22476720.660    92038410.26148
  21430624.740   112618686.27209  21430621.120    87754804.81748
 15 02 15 00 00 30.0000000  0  6G16G21G25G27G29G31
  23175430.340   121787709.09608  23175426.220    94899501.78246
  20947537.780   110080056.72508  20947533.700    85776653.13148
  23277362.540   122323360.75708  23277362.700    95316901.62645
  24211020.880   127229781.81808  24211020.760    99140095.06246
  22490235.720   118186984.10609  22490233.100    92093741.22948
  21441652.880   112676639.01609  21441649.240    87799962.79248
 15 02 15 00 01  0.0000000  0  6G16G21G25G27G29G31
  23159020.880   121701477.26108  23159016.780    94832308.16547
  20946577.360   110075009.53908  20946573.220    85772720.25948
  23293302.160   122407123.37908  23293302.280    95382171.18945
  24196545.760   127153715.12208  24196545.580    99080822.44746
  22503761.240   118258059.82409  22503758.520    92149124.87948
  21452768.640   112735052.50309  21452764.940    87845479.77849
 15 02 15 00 01 30.0000000  0  6G16G21G25G27G29G31
  23142624.960   121615316.84508  23142620.940    94765170.18746
  20945702.940   110070414.40708  20945698.820    85769139.64548
  23309284.540   122491111.02708  23309284.600    95447616.10345
  24182091.260   127077755.41307  24182091.100    99021633.02045
  22517297.540   118329192.06609  22517294.660    92204552.57747
  21463969.720   112793914.80709  21463966.040    87891346.49448
 15 02 15 00 02  0.0000000  0  6G16G21G25G27G29G31
  23126244.280   121529236.49508  23126240.400    94698094.61246
  20944916.120   110066279.83708  20944911.920    85765917.90948
  23325310.840   122575329.95207  23325310.960    95513241.22945
  24167658.200   127001909.65208  24167658.460    98962532.62346
  22530845.840   118400387.78609  22530842.760    92260029.73448
  21475257.100   112853230.49209  21475253.400    87937566.50648
 15 02 15 00 02 30.0000000  0  6G16G21G25G27G29G31
  23109878.260   121443232.78208  23109874.660    94631078.75846
  20944215.860   110062599.83608  20944211.760    85763050.37748
  23341380.120   122659774.93207  23341380.260    95579042.47045
  24153246.340   126926173.60707  24153245.760    98903517.36246
  22544405.080   118471641.29209  22544401.740    92315551.92747
  21486629.580   112912993.17809  21486625.840    87984134.82148
 15 02 15 00 03  0.0000000  0  6G16G21G25G27G29G31
  23093527.680   121357310.26108  23093524.260    94564126.17746
  20943602.380   110059375.90808  20943598.240    85760538.23648
  23357492.740   122744447.72107  23357492.920    95645021.25645
  24138855.600   126850549.63008  24138855.300    98844589.78246
  22557975.660   118542954.80409  22557972.120    92371120.89347
  21498087.140   112973203.37509  21498083.480    88031051.84348
 15 02 15 00 03 30.0000000  0  6G16G21G25G27G29G31
  23077193.020   121271470.95708  23077189.600    94497238.40946
  20943075.740   110056608.08608  20943071.560    85758381.49848
  23373648.660   122829347.94607  23373648.940    95711177.26746
  24124486.280   126775038.27008  24124485.960    98785749.78046
  22571557.480   118614327.68109  22571553.840    92426736.11847
  21509629.500   113033859.22209  21509625.840    88078316.12348
 15 02 15 00 04  0.0000000  0  6G16G21G25G27G29G31
  23060873.920   121185713.34708  23060870.400    94430414.29846
  20942635.180   110054292.63909  20942630.900    85756577.25948
  23389847.140   122914471.96307  23389847.540    95777507.63245
  24110137.720   126699636.61108  24110137.540    98726995.26147
  22585149.840   118685756.95108  22585146.340    92482395.26247
  21521255.740   113094955.67009  21521251.940    88125923.74348
 15 02 15 00 04 30.0000000  0  6G16G21G25G27G29G31
  23044571.500   121100042.78408  23044567.680    94363658.04046
  20942281.440   110052433.29208  20942277.140    85755128.41548
  23406088.720   122999822.44407  23406089.200    95844014.45545
  24095810.640   126624348.17308  24095811.060    98668329.08947
  22598753.160   118757244.86408  22598750.240    92538100.08647
  21532966.060   113156493.99609  21532962.280    88173875.66548
 15 02 15 00 05  0.0000000  0  6G16G21G25G27G29G31
  23028284.720   121014454.38708  23028280.480    94296965.80546
  20942013.060   110051022.91708  20942008.840    85754029.44248
  23422372.180   123085392.08407  23422372.540    95910692.07444
  24081504.020   126549166.59807  24081504.240    98609746.01346
  22612366.280   118828784.13108  22612363.880    92593844.93147
  21544758.820   113218465.30009  21544755.020    88222164.98448
 15 02 15 00 05 30.0000000  0  6G16G21G25G27G29G31
  23012015.460   120928958.61208  23012011.060    94230345.74146
  20941831.780   110050069.87609  20941827.500    85753286.81148
  23438698.960   123171189.13507  23438699.080    95977546.92344
  24067219.160   126474100.73108  24067219.680    98551253.22846
  22625991.040   118900383.51109  22625988.860    92649636.64247
  21556635.340   113280876.72309  21556631.600    88270797.25248
 15 02 15 00 06  0.0000000  0  6G16G21G25G27G29G31
  22995762.620   120843549.61908  22995758.200    94163793.29346
  20941735.800   110049565.41708  20941731.500    85752893.73848
  23455067.480   123257205.25307  23455067.480    96044572.45945
  24052954.880   126399143.27607  24052955.440    98492844.88646
  22639625.900   118972034.93509  22639623.620    92705468.90347
  21568593.720   113343718.37709  21568590.080    88319764.75348
 15 02 15 00 06 30.0000000  0  6G16G21G25G27G29G31
  22979526.660   120758230.16908  22979522.420    94097310.61546
  20941725.360   110049510.60408  20941721.000    85752851.03348
  23471477.720   123343440.78507  23471477.680    96111768.96145
  24038711.840   126324295.34008  24038712.020    98434521.76146
  22653270.800   119043738.91609  22653268.280    92761342.10547
  21580633.820   113406989.26109  21580630.160    88369066.73348
 15 02 15 00 07  0.0000000  0  6G16G21G25G27G29G31
  22963309.080   120673007.92708  22963305.180    94030903.69646
  20941801.340   110049910.13908  20941796.980    85753162.37148
  23487930.580   123429900.59007  23487930.420    96179140.21345
  24024490.320   126249562.53807  24024490.580    98376288.49246
  22666926.740   119115500.66109  22666924.020    92817260.33147
  21592756.260   113470692.91109  21592752.600    88418705.93348
 15 02 15 00 07 30.0000000  0  6G16G21G25G27G29G31
  22947108.520   120587874.97808  22947104.900    93964566.34346
  20941962.100   110050754.89909  20941957.800    85753820.63848
  23504424.100   123516574.79107  23504423.860    96246678.52145
  24010289.600   126174936.05008  24010289.980    98318138.03546
  22680591.800   119187309.81409  22680588.740    92873215.50547
  21604958.820   113534817.78909  21604955.260    88468673.35748
 15 02 15 00 08  0.0000000  0  6G16G21G25G27G29G31
  22930926.900   120502840.78208  22930923.500    93898305.93546
  20942208.840   110052051.53708  20942204.480    85754831.01848
  23520959.620   123603469.94307  23520959.580    96314388.98345
  23996110.340   126100423.05708  23996110.240    98260075.99846
  22694267.200   119259173.24109  22694263.880    92929212.96747
  21617242.440   113599369.00009  21617238.920    88518972.98448
 15 02 15 00 08 30.0000000  0  6G16G21G25G27G29G31
  22914763.300   120417900.49608  22914759.900    93832118.72346
  20942540.100   110053792.32508  20942535.700    85756187.48048
  23537535.820   123690578.56907  23537535.980    96382265.80744
  23981951.880   126026017.18607  23981951.340    98202097.37245
  22707951.640   119331084.24209  22707948.180    92985247.49147
  21629605.520   113664337.77309  21629602.060    88569597.98648
 15 02 15 00 09  0.0000000  0  6G16G21G25G27G29G31
  22898619.460   120333063.45509  22898615.900    93766011.96146
  20942957.260   110055984.75008  20942952.940    85757895.86948
  23554154.080   123777907.66807  23554154.140    96450314.42344
  23967814.720   125951726.13508  23967813.540    98144208.21346
  22721646.520   119403049.93009  22721643.000    93041324.63748
  21642049.120   113729729.60009  21642045.660    88620552.64648
 15 02 15 00 09 30.0000000  0  6G16G21G25G27G29G31
  22882494.880   120248327.56408  22882491.100    93699983.99646
  20943459.460   110058624.04908  20943455.140    85759952.46848
  23570813.440   123865452.73407  23570813.480    96518531.32844
  23953698.780   125877546.32008  23953698.300    98086405.88847
  22735350.940   119475065.86409  22735347.420    93097440.93947
  21654572.160   113795538.45709  21654568.680    88671832.26448
 15 02 15 00 10  0.0000000  0  6G16G21G25G27G29G31
  22866389.560   120163693.25009  22866385.780    93634035.20446
  20944046.340   110061708.59208  20944042.160    85762356.02448
  23587513.460   123953211.57107  23587513.400    96586914.86044
  23939603.760   125803476.39208  23939602.400    98028688.96645
  22749064.460   119547130.45109  22749061.040    93153595.13847
  21667173.840   113861760.64309  21667170.360    88723433.95148
 15 02 15 00 10 30.0000000  0  6G16G21G25G27G29G31
  22850304.260   120079164.83208  22850300.620    93568168.90746
  20944718.300   110065239.96809  20944714.180    85765107.75048
  23604254.400   124041185.58907  23604254.100    96655466.06144
  23925529.920   125729518.68907  23925529.720    97971059.76946
  22762787.380   119619245.14009  22762784.040    93209788.38247
  21679854.180   113928396.22709  21679850.600    88775357.77348
 15 02 15 00 11  0.0000000  0  6G16G21G25G27G29G31
  22834239.820   119994746.80209  22834236.520    93502388.64246
  20945475.760   110069220.34209  20945471.540    85768209.34648
  23621036.720   124129376.95507  23621036.180    96724186.64144
  23911477.760   125655676.22908  23911477.520    97913520.18346
  22776520.120   119691412.05008  22776516.900    93266022.32647
  21692613.280   113995445.92109  21692609.580    88827604.28348
 15 02 15 00 11 30.0000000  0  6G16G21G25G27G29G31
  22818195.080   119910432.10208  22818191.940    93436688.88246
  20946316.780   110073639.67508  20946312.460    85771652.98848
  23637858.580   124217775.97407  23637857.980    96793068.98444
  23897445.960   125581940.27206  23897446.260    97856063.65546
  22790260.920   119763622.46208  22790257.980    93322290.13647
  21705449.100   114062898.48409  21705445.460    88880164.70048
 15 02 15 00 12  0.0000000  0  6G16G21G25G27G29G31
  22802171.320   119826226.95309  22802168.060    93371074.49546
  20947242.160   110078502.21208  20947237.660    85775441.98448
  23654720.560   124306385.89907  23654719.820    96862115.63344
  23883435.620   125508315.10508  23883435.640    97798693.35846
  22804010.820   119835880.13508  22804008.120    93378594.79247
  21718362.000   114130755.98409  21718358.380    88933040.65448
 15 02 15 00 12 30.0000000  0  6G16G21G25G27G29G31
  22786168.900   119742132.97208  22786165.340    93305546.71746
  20948251.680   110083807.04608  20948247.160    85779575.62848
  23671622.540   124395206.06407  23671621.720    96931326.12944
  23869446.260   125434800.66108  23869446.980    97741409.49847
  22817769.700   119908184.26309  22817767.160    93434935.64247
  21731351.560   114199015.84209  21731347.820    88986230.13748
 15 02 15 00 13  0.0000000  0  6G16G21G25G27G29G31
  22770189.020   119658156.73809  22770185.160    93240110.69546
  20949346.000   110089557.70808  20949341.380    85784056.66948
  23688565.120   124484240.12607  23688564.560    97000703.29545
  23855478.840   125361401.71008  23855479.240    97684215.52547
  22831538.340   119980539.01008  22831535.780    93491315.94047
  21744418.140   114267680.32709  21744414.280    89039734.92648
 15 02 15 00 13 30.0000000  0  6G16G21G25G27G29G31
  22754229.940   119574289.92509  22754225.840    93174759.94546
  20950523.200   110095743.67308  20950518.520    85788876.89948
  23705546.220   124573477.13107  23705545.860    97070238.57545
  23841531.900   125288108.23508  23841532.200    97627103.76146
  22845314.680   120052933.67109  22845311.960    93547727.35247
  21757559.280   114336736.86609  21757555.340    89093545.19848
 15 02 15 00 14  0.0000000  0  6G16G21G25G27G29G31
  22738293.640   119490543.40409  22738289.440    93109502.92246
  20951784.720   110102372.97408  20951779.980    85794042.60048
  23722567.420   124662925.18907  23722567.460    97139938.33446
  23827606.600   125214929.19408  23827606.260    97570081.10746
  22859100.320   120125376.72109  22859097.440    93604176.48247
  21770776.240   114406192.23909  21770772.360    89147666.25548
 15 02 15 00 14 30.0000000  0  6G16G21G25G27G29G31
  22722379.580   119406914.18409  22722375.360    93044337.30446
  20953129.520   110109440.23508  20953124.860    85799549.56148
  23739627.820   124752579.10307  23739628.120    97209798.48946
  23813702.020   125141860.37207  23813701.660    97513144.41446
  22872894.320   120197864.00509  22872891.500    93660660.05747
  21784067.780   114476039.81609  21784063.940    89202092.91848
 15 02 15 00 15  0.0000000  0  6G16G21G25G27G29G31
  22706488.120   119323403.77709  22706483.740    92979264.25446
  20954557.440   110116944.44108  20954552.920    85805397.00548
  23756727.180   124842437.38707  23756727.680    97279817.89545
  23799818.340   125068901.24408  23799818.140    97456293.19446
  22886696.400   120270393.98909  22886693.700    93717176.91347
  21797433.380   114546276.61309  21797429.520    89256822.87948
 15 02 15 00 15 30.0000000  0  6G16G21G25G27G29G31
  22690620.160   119240017.34209  22690615.900    92914287.83346
  20956068.820   110124887.29808  20956064.400    85811586.25448
  23773865.860   124932502.08907  23773866.520    97349998.15445
  23785956.080   124996054.72008  23785955.740    97399529.64745
  22900507.040   120342969.18909  22900504.340    93773728.99547
  21810873.060   114616902.91809  21810869.240    89311856.35248
 15 02 15 00 16  0.0000000  0  6G16G21G25G27G29G31
  22674775.660   119156754.79408  22674771.740    92849407.93047
  20957663.340   110133266.63608  20957658.960    85818115.61748
  23791043.320   125022770.50307  23791044.100    97420337.16346
  23772114.760   124923319.14108  23772114.540    97342852.60546
  22914325.900   120415587.43709  22914323.120    93830314.62247
  21824386.020   114687914.49109  21824382.320    89367190.02048
 15 02 15 00 16 30.0000000  0  6G16G21G25G27G29G31
  22658955.280   119073619.42908  22658951.840    92784627.10847
  20959340.960   110142082.67808  20959336.620    85824985.25648
  23808259.640   125113243.10907  23808260.400    97490835.23645
  23758294.700   124850695.87508  23758294.820    97286263.10446
  22928153.160   120488249.75009  22928150.240    93886934.58847
  21837972.120   114759310.59309  21837968.560    89422823.31648
 15 02 15 00 17  0.0000000  0  6G16G21G25G27G29G31
  22643158.920   118990609.95808  22643155.920    92719944.41846
  20961101.040   110151331.82708  20961096.720    85832192.39548
  23825514.120   125203916.03507  23825515.020    97561489.44845
  23744495.700   124778182.09308  23744495.500    97229758.86046
  22941988.140   120560952.52209  22941984.980    93943586.09747
  21851630.400   114831085.49409  21851626.880    89478751.79048
 15 02 15 00 17 30.0000000  0  6G16G21G25G27G29G31
  22627386.580   118907725.90509  22627383.660    92655359.44346
  20962942.840   110161010.58609  20962938.520    85839734.28948
  23842806.040   125294785.90106  23842806.860    97632297.11345
  23730717.140   124705775.34708  23730717.160    97173338.10046
  22955830.340   120633693.06709  22955826.960    94000267.03347
  21865359.960   114903234.54209  21865356.320    89534971.82248
 15 02 15 00 18  0.0000000  0  6G16G21G25G27G29G31
  22611639.860   118824976.02809  22611636.660    92590879.03646
  20964867.540   110171124.77608  20964863.120    85847615.48348
  23860136.440   125385858.33506  23860137.380    97703262.61146
  23716960.200   124633482.30008  23716960.140    97117005.86347
  22969680.900   120706477.53109  22969677.200    94056982.20447
  21879161.600   114975761.65409  21879157.700    89591486.45448
 15 02 15 00 18 30.0000000  0  6G16G21G25G27G29G31
  22595918.720   118742360.29109  22595915.060    92526503.15346
  20966874.660   110181672.10508  20966870.140    85855834.18548
  23877505.060   125477131.04606  23877506.000    97774384.17644
  23703224.660   124561301.57408  23703224.820    97060761.21146
  22983539.340   120779304.28809  22983535.660    94113730.31147
  21893034.340   115048662.88309  21893030.300    89648292.58648
 15 02 15 00 19  0.0000000  0  6G16G21G25G27G29G31
  22580222.180   118659874.21408  22580218.160    92462228.28847
  20968962.700   110192644.83808  20968958.120    85864384.37048
  23894910.400   125568596.34706  23894911.300    97845655.80844
  23689509.380   124489226.50308  23689509.200    97004598.78746
  22997404.320   120852165.94609  22997400.780    94170505.61747
  21906976.560   115121929.52509  21906972.540    89705383.46448
 15 02 15 00 19 30.0000000  0  6G16G21G25G27G29G31
  22564551.460   118577524.49009  22564547.340    92398059.70347
  20971132.400   110204046.88208  20971127.780    85873269.07848
  23912353.200   125660258.10506  23912353.920    97917080.54444
  23675815.340   124417261.99708  23675814.720    96948522.56446
  23011276.780   120925067.00409  23011273.500    94227311.62447
  21920988.620   115195563.37109  21920984.740    89762760.47448
 15 02 15 00 20  0.0000000  0  6G16G21G25G27G29G31
  22548907.860   118495317.92008  22548904.080    92334002.64447
  20973384.520   110215882.06808  20973379.940    85882491.31148
  23929834.020   125752120.22306  23929834.780    97988661.35844
  23662143.020   124345412.82408  23662142.660    96892536.23847
  23025157.560   120998011.91408  23025154.620    94284151.80447
  21935071.020   115269566.86209  21935067.240    89820425.53248
 15 02 15 00 20 30.0000000  0  6G16G21G25G27G29G31
  22533290.640   118413250.01608  22533287.300    92270053.62947
  20975717.700   110228143.07208  20975713.100    85892045.33448
  23947351.640   125844175.37305  23947352.340    98060392.60544
  23648491.220   124273672.75708  23648490.520    96836634.94645
  23039045.400   121070994.16208  23039042.900    94341021.04947
  21949222.000   115343931.08909  21949218.380    89878371.67348
 15 02 15 00 21  0.0000000  0  6G16G21G25G27G29G31
  22517700.520   118331323.88109  22517697.460    92206215.10647
  20978131.860   110240829.74508  20978127.280    85901931.05948
  23964905.920   125936423.56405  23964906.600    98132274.31643
  23634860.480   124202042.99207  23634860.240    96780819.54947
  23052940.360   121144014.13308  23052938.200    94397919.68947
  21963441.360   115418654.91109  21963437.960    89936598.01148
 15 02 15 00 21 30.0000000  0  6G16G21G25G27G29G31
  22502137.320   118249538.73709  22502134.340    92142486.42647
  20980626.380   110253938.80408  20980621.800    85912145.91048
  23982496.300   126028861.23805  23982496.840    98204303.62144
  23621250.480   124130520.80008  23621249.240    96725087.88346
  23066842.120   121217068.80908  23066840.040    94454845.38547
  21977728.140   115493733.08509  21977724.940    89995100.46848
 15 02 15 00 22  0.0000000  0  6G16G21G25G27G29G31
  22486603.100   118167905.65009  22486600.000    92078876.22647
  20983202.900   110267478.80808  20983198.380    85922696.56848
  24000124.220   126121496.55605  24000124.560    98276486.96044
  23607662.320   124059115.29709  23607661.600    96669447.34846
  23080752.220   121290167.13808  23080750.120    94511805.07947
  21992083.620   115569171.98609  21992080.520    90053884.01548
 15 02 15 00 22 30.0000000  0  7G16G18G21G25G27G29G31
  22471096.760   118086418.69209  22471093.440    92015379.90947
  23430952.400   123130485.02105  23430947.700    95945816.79243
  20985859.660   110281440.09108  20985855.180    85933575.48748
  24017787.860   126214320.21804  24017788.140    98348817.05943
  23594094.700   123987818.37309  23594094.720    96613891.37146
  23094669.200   121363300.86008  23094666.960    94568792.35647
  22006505.740   115644960.64109  22006502.620    90112940.09948
 15 02 15 00 23  0.0000000  0  7G16G18G21G25G27G29G31
  22455618.720   118005079.74509  22455615.080    91951998.92447
  23416937.340   123056837.15906  23416934.040    95888428.88143
  20988596.440   110295821.88308  20988592.080    85944782.09048
  24035487.320   126307331.56604  24035486.340    98421293.37043
  23580547.920   123916630.45508  23580547.460    96558420.24346
  23108593.000   121436469.60309  23108590.540    94625806.94547
  22020994.100   115721096.99009  22020990.840    90172267.11748
 15 02 15 00 23 30.0000000  0  7G16G18G21G25G27G29G31
  22440169.960   117923894.13709  22440165.960    91888737.42347
  23402949.020   122983328.32306  23402946.220    95831149.27043
  20991413.660   110310626.34808  20991409.320    85956318.03348
  24053223.060   126400533.09904  24053225.060    98493918.96543
  23567022.780   123845555.00408  23567022.900    96503036.83347
  23122524.000   121509676.60108  23122521.500    94682851.34547
  22035548.740   115797581.90309  22035545.420    90231865.73248
 15 02 15 00 24  0.0000000  0  6G16G18G21G27G29G31
  22424749.100   117842855.79409  22424744.880    91825590.67347
  23388986.140   122909952.47806  23388983.220    95773973.32844
  20994309.580   110325844.65008  20994305.260    85968176.45448
  23553517.320   123774583.68208  23553517.160    96447734.48147
  23136460.420   121582912.78008  23136457.860    94739918.46047
  22050167.560   115874404.57008  22050164.240    90291727.53248
 15 02 15 00 24 30.0000000  0  6G16G18G21G27G29G31
  22409358.000   117761975.05909  22409353.880    91762566.73847
  23375050.660   122836721.17806  23375047.140    95716910.02143
  20997285.520   110341483.71708  20997281.320    85980362.73648
  23540033.220   123703724.87108  23540033.120    96392519.87246
  23150404.080   121656187.02408  23150401.440    94797015.26347
  22064851.660   115951570.65708  22064848.420    90351856.91748
 15 02 15 00 25  0.0000000  0  6G16G18G21G27G29G31
  22393996.740   117681252.33309  22393992.920    91699665.91147
  23361142.780   122763635.73706  23361139.520    95659960.36743
  21000341.080   110357541.13708  21000336.920    85992875.01148
  23526570.320   123632977.18708  23526570.340    96337391.84046
  23164354.460   121729496.97108  23164351.820    94854139.88547
  22079600.340   116029076.12108  22079597.180    90412250.75948
 15 02 15 00 25 30.0000000  0  7G16G18G21G25G27G29G31
  22378666.420   117600692.90209  22378662.940    91636892.34947
  23347263.760   122690701.82807  23347260.700    95603128.76844
  21003476.700   110374019.10208  21003472.580    86005714.99248
  24124518.200   126775198.83203  24124517.400    98785865.13153
  23513129.260   123562343.90108  23513129.020    96282352.93646
  23178312.080   121802845.49708  23178309.640    94911294.55247
  22094413.740   116106921.65508  22094410.600    90472909.59048
 15 02 15 00 26  0.0000000  0  6G16G18G21G27G29G31
  22363366.020   117520290.11109  22363362.600    91574240.82147
  23333412.480   122617913.61107  23333409.420    95546410.69644
  21006690.580   110390907.87208  21006686.320    86018875.06448
  23499708.480   123491816.33808  23499707.940    96227396.37747
  23192275.420   121876223.67308  23192273.060    94968472.31447
  22109289.680   116185095.78608  22109286.680    90533824.45448
 15 02 15 00 26 30.0000000  0  6G16G18G21G27G29G31
  22348096.900   117440050.94309  22348093.360    91511716.81447
  23319590.480   122545278.74507  23319587.520    95489812.11944
  21009983.400   110408211.36408  21009979.140    86032358.31348
  23486308.780   123421399.37208  23486307.940    96172526.06146
  23206245.480   121949636.14008  23206243.060    95025676.83447
  22124228.700   116263600.76109  22124225.780    90594997.14748
 15 02 15 00 27  0.0000000  0  6G16G18G21G27G29G31
  22332858.920   117359974.19509  22332855.080    91449319.36247
  23305797.600   122472796.61407  23305794.600    95433332.53644
  21013354.180   110425924.47808  21013349.860    86046160.74548
  23472929.440   123351089.58608  23472928.520    96117739.25846
  23220221.440   122023079.33608  23220218.960    95082905.28447
  22139229.560   116342430.41809  22139226.540    90656422.83448
 15 02 15 00 27 30.0000000  0  6G16G18G21G27G29G31
  22317653.400   117280067.44709  22317649.320    91387054.37247
  23292035.480   122400476.11108  23292032.440    95376978.92944
  21016803.860   110444052.49008  21016799.560    86060286.47348
  23459571.680   123280893.38708  23459570.680    96063040.91347
  23234204.320   122096559.04408  23234201.720    95140162.17747
  22154292.960   116421588.74609  22154289.860    90718104.62348
 15 02 15 00 28  0.0000000  0  6G16G18G21G27G29G31
  22302480.260   117200330.59409  22302476.080    91324921.78547
  23278304.120   122328317.48308  23278301.020    95320751.43245
  21020331.800   110462591.72708  21020327.420    86074732.63448
  23446234.860   123210808.09808  23446233.560    96008429.01846
  23248193.500   122170071.99008  23248190.920    95197444.97047
  22169417.900   116501070.02809  22169414.700    90780038.07148
 15 02 15 00 28 30.0000000  0  6G16G18G21G27G29G31
  22287339.440   117120764.48309  22287335.300    91262922.23047
  23264603.800   122256322.07508  23264600.680    95264651.14145
  21023937.480   110481539.82408  21023933.080    86089497.39348
  23432918.840   123140832.59308  23432917.940    95953902.71947
  23262188.700   122243617.10508  23262186.080    95254752.82146
  22184603.620   116580870.53709  22184600.300    90842220.27448
 15 02 15 00 29  0.0000000  0  6G16G18G21G27G29G31
  22272231.020   117041369.94909  22272227.020    91201056.36347
  23250934.860   122184491.51308  23250931.680    95208679.28745
  21027620.540   110500894.57708  21027616.160    86104579.02548
  23419623.560   123070965.81108  23419622.580    95899461.08147
  23276189.740   122317193.52908  23276187.200    95312085.05847
  22199849.360   116660986.61409  22199845.960    90904648.36548
 15 02 15 00 29 30.0000000  0  6G16G18G21G27G29G31
  22257156.340   116962153.49309  22257152.560    91139329.26447
  23237298.700   122112832.96908  23237295.500    95152841.47745
  21031381.500   110520658.76008  21031377.200    86119979.69348
  23406349.620   123001211.87108  23406348.680    95845107.39246
  23290197.320   122390804.53708  23290195.020    95369444.27347
  22215155.440   116741419.78709  22215151.880    90967323.54948
 15 02 15 00 30  0.0000000  0  6G16G18G21G27G29G31
  22242114.940   116883112.22609  22242111.460    91077738.67547
  23223694.920   122041344.43108  23223691.600    95097136.14945
  21035219.320   110540826.71108  21035215.020    86135694.98648
  23393096.340   122931566.33108  23393095.700    95790838.18447
  23304210.620   122464445.26108  23304208.480    95426826.63347
  22230520.360   116822162.66909  22230516.780    91030240.06648
 15 02 15 00 30 30.0000000  0  6G16G18G21G27G29G31
  22227107.300   116804247.95609  22227104.160    91016285.99347
  23210123.880   121970027.94508  23210120.520    95041564.88046
  21039133.660   110561397.13008  21039129.400    86151723.89048
  23379863.460   122862028.77708  23379862.820    95736653.11046
  23318229.500   122538115.25708  23318227.480    95484231.78547
  22245943.560   116903212.07909  22245939.980    91093395.43648
 15 02 15 00 31  0.0000000  0  6G16G18G21G27G29G31
  22212134.560   116725566.34109  22212131.700    90954975.65247
  23196586.760   121898890.04108  23196583.420    94986132.76346
  21043125.060   110582372.20408  21043120.820    86168068.10648
  23366652.080   122792602.90408  23366651.600    95682555.03746
  23332254.640   122611817.79908  23332252.600    95541662.31347
  22261425.260   116984568.83609  22261421.600    91156790.29548
 15 02 15 00 31 30.0000000  0  6G16G18G21G27G29G31
  22197197.500   116647070.85709  22197194.600    90893810.32747
  23183084.340   121827934.70308  23183081.080    94930842.90546
  21047193.560   110603752.07208  21047189.220    86184727.73748
  23353462.060   122723289.98408  23353461.620    95628545.00646
  23346286.200   122685553.96608  23346284.180    95599119.02246
  22276965.180   117066231.64609  22276961.520    91220423.63548
 15 02 15 00 32  0.0000000  0  6G16G18G21G27G29G31
  22182295.180   116568757.14909  22182292.000    90832786.68447
  23169616.020   121757158.47408  23169612.800    94875692.61246
  21051337.660   110625528.79208  21051333.140    86201696.60948
  23340292.420   122654083.51108  23340292.100    95574617.91546
  23360322.880   122759316.94908  23360320.800    95656596.62646
  22292561.600   117148191.36509  22292558.020    91284288.33048
 15 02 15 00 32 30.0000000  0  6G16G18G21G27G29G31
  22167428.060   116490628.45109  22167424.600    90771907.18047
  23156182.540   121686565.36509  23156179.340    94820685.01146
  21055557.280   110647702.71308  21055552.660    86218974.98648
  23327143.360   122584985.06508  23327143.300    95520775.00346
  23374365.020   122833108.36208  23374362.860    95714096.39147
  22308214.260   117230446.81609  22308210.800    91348383.46348
 15 02 15 00 33  0.0000000  0  6G16G18G21G27G29G31
  22152597.000   116412690.05809  22152593.400    90711175.97847
  23142784.960   121616161.00108  23142781.800    94765824.49046
  21059852.840   110670275.65208  21059848.160    86236564.28748
  23314015.400   122515997.64508  23314015.140    95467018.57447
  23388413.020   122906930.49608  23388410.780    95771620.09347
  22323923.160   117312998.29509  22323919.860    91412709.26648
 15 02 15 00 33 30.0000000  0  6G16G18G21G27G29G31
  22137801.840   116334941.01009  22137798.140    90650592.30347
  23129423.260   121545945.00108  23129420.100    94711110.74646
  21064223.420   110693243.25808  21064218.720    86254461.12448
  23300908.040   122447118.24008  23300907.580    95413346.33546
  23402466.300   122980780.41408  23402463.820    95829165.45146
  22339687.220   117395839.78309  22339684.080    91477261.04648
 15 02 15 00 34  0.0000000  0  6G16G18G21G27G29G31
  22123043.120   116257383.52309  22123039.320    90590157.90647
  23116097.980   121475920.40009  23116094.820    94656546.14747
  21068668.800   110716604.43708  21068664.240    86272664.65048
  23287821.380   122378347.07008  23287821.100    95359758.43746
  23416524.920   123054658.10108  23416522.040    95886732.47047
  22355505.980   117478968.81609  22355503.020    91542036.89547
 15 02 15 00 34 30.0000000  0  6G16G18G21G27G29G31
  22108321.360   116180020.03409  22108317.420    90529874.67647
  23102809.740   121406090.12009  23102806.560    94602132.95646
  21073188.860   110740358.27908  21073184.440    86291174.14948
  23274755.440   122309684.46408  23274755.260    95306255.13047
  23430588.720   123128563.24108  23430585.540    95944320.87447
  22371379.080   117562382.92108  22371376.240    91607034.87147
 15 02 15 00 35  0.0000000  0  6G16G18G21G27G29G31
  22093638.240   116102859.36509  22093634.140    90469749.49247
  23089560.200   121336463.34109  23089557.040    94547878.34547
  21077784.580   110764509.40808  21077780.260    86309993.20648
  23261711.440   122241136.89108  23261710.980    95252841.45147
  23444658.900   123202502.55208  23444655.700    96001935.89347
  22387307.240   117646085.76708  22387304.360    91672257.83947
 15 02 15 00 35 30.0000000  0  6G16G18G21G27G29G31
  22078992.160   116025893.18809  22078987.960    90409775.85847
  23076347.920   121267032.22509  23076344.740    94493776.19647
  21082453.720   110789046.09908  21082449.440    86329112.69948
  23248687.320   122172694.03708  23248686.600    95199509.36146
  23458733.520   123276465.26008  23458730.380    96059569.12747
  22403287.860   117730064.26608  22403284.960    91737695.59647
 15 02 15 00 36  0.0000000  0  6G16G18G21G27G29G31
  22064384.860   115949130.98009  22064380.600    90349961.17347
  23063174.900   121197807.30909  23063171.660    94439834.72547
  21087197.680   110813975.65608  21087193.440    86348538.34048
  23235684.380   122104363.59408  23235683.700    95146264.90347
  23472814.140   123350459.10008  23472810.940    96117226.65446
  22419321.800   117814323.20508  22419318.860    91803351.88547
 15 02 15 00 36 30.0000000  0  6G16G18G21G27G29G31
  22049816.280   115872572.85109  22049812.060    90290305.50347
  23050041.280   121128789.38109  23050037.960    94386054.54847
  21092015.680   110839294.26208  21092011.480    86368267.12448
  23222702.480   122036143.50108  23222701.740    95093106.39946
  23486900.040   123424481.10408  23486896.740    96174906.11746
  22435408.300   117898857.67108  22435405.160    91869222.87347
 15 02 15 00 37  0.0000000  0  6G16G18G21G27G29G31
  22035286.260   115796217.79009  22035282.200    90230808.06347
  23036946.840   121059977.52409  23036943.500    94332434.93647
  21096906.720   110864997.09008  21096902.600    86388295.31248
  23209740.960   121968030.41708  23209740.380    95040031.30147
  23500990.660   123498528.57608  23500987.460    96232605.41246
  22451546.180   117983661.93308  22451542.820    91935304.09047
 15 02 15 00 37 30.0000000  0  6G16G18G21G27G29G31
  22020795.900   115720071.42309  22020792.020    90171473.23347
  23023892.760   120991377.82909  23023889.440    94278980.64247
  21101871.320   110891086.32608  21101867.240    86408624.58048
  23196800.720   121900028.04008  23196800.080    94987042.43546
  23515086.700   123572604.34208  23515083.780    96290326.77146
  22467735.400   118068736.45908  22467732.000    92001595.90447
 15 02 15 00 38  0.0000000  0  6G16G18G21G27G29G31
  22006345.300   115644133.59309  22006341.460    90112300.90447
  23010879.080   120922990.40809  23010875.660    94225691.75747
  21106908.820   110917558.49808  21106904.680    86429252.25448
  23183881.040   121832133.95708  23183880.500    94934137.98347
  23529187.800   123646706.27208  23529185.180    96348068.48446
  22483974.960   118154076.25908  22483971.740    92068094.40847
 15 02 15 00 38 30.0000000  0  6G16G18G21G27G29G31
  21991935.060   115568407.62009  21991931.220    90053293.66747
  22997906.720   120854819.93908  22997903.220    94172571.92147
  21112019.100   110944413.29008  21112014.920    86450178.06848
  23170982.180   121764349.47208  23170981.840    94881318.94547
  23543294.140   123720835.29008  23543291.720    96405831.30847
  22500264.700   118239679.72608  22500261.640    92134798.37347
 15 02 15 00 39  0.0000000  0  6G16G18G21G27G29G31
  21977565.160   115492893.59109  21977561.320    89994451.56447
  22984975.640   120786866.61508  22984972.100    94119621.30646
  21117201.440   110971646.95208  21117197.220    86471399.10748
  23158103.880   121696672.49808  23158103.480    94828583.64647
  23557405.220   123794989.00108  23557403.060    96463613.37746
  22516603.740   118325541.61909  22516600.680    92201703.72248
 15 02 15 00 39 30.0000000  0  6G16G18G21G27G29G31
  21963236.600   115417596.96009  21963232.920    89935778.87147
  22972087.020   120719136.37608  22972083.480    94066844.52047
  21122456.340   110999261.84308  21122452.180    86492917.20648
  23145246.600   121629106.44208  23145246.040    94775934.77947
  23571521.580   123869170.41108  23571519.580    96521417.04747
  22532992.160   118411662.94309  22532989.020    92268811.22448
 15 02 15 00 40  0.0000000  0  6G16G18G21G27G29G31
  21948949.440   115342517.13509  21948945.800    89877275.12447
  22959240.900   120651629.17308  22959237.360    94014241.54846
  21127782.980   111027253.76908  21127778.840    86514729.10048
  23132409.780   121561648.74708  23132409.240    94723370.34247
  23585642.900   123943377.42608  23585640.800    96579240.65646
  22549428.840   118498037.95309  22549425.660    92336116.39948
 15 02 15 00 40 30.0000000  0  6G16G18G21G27G29G31
  21934704.780   115267660.16409  21934701.100    89818945.02747
  22946438.340   120584351.27208  22946434.820    93961817.25346
  21133181.820   111055624.82608  21133177.760    86536836.41748
  23119594.160   121494302.89008  23119593.780    94670893.08847
  23599769.620   124017612.87108  23599767.440    96637086.44746
  22565913.900   118584667.32109  22565910.800    92403619.76748
 15 02 15 00 41  0.0000000  0  6G16G18G21G27G29G31
  21920502.360   115193025.47009  21920498.680    89760788.12847
  22933679.440   120517303.04408  22933675.980    93909571.91546
  21138652.080   111084370.89409  21138647.960    86559235.95148
  23106799.460   121427066.40308  23106799.140    94618501.03447
  23613901.220   124091874.30009  23613898.920    96694952.47346
  22582446.460   118671546.12909  22582443.440    92471317.49748
 15 02 15 00 41 30.0000000  0  6G16G18G21G27G29G31
  21906342.240   115118613.78209  21906338.580    89702804.99247
  22920964.340   120450485.10308  22920960.980    93857506.00346
  21144193.140   111113489.00108  21144188.960    86581925.38948
  23094025.000   121359937.54008  23094024.740    94566192.86047
  23628037.340   124166159.78108  23628035.080    96752837.25546
  22599025.560   118758669.44809  22599022.560    92539205.75548
 15 02 15 00 42  0.0000000  0  6G16G18G21G27G29G31
  21892225.660   115044431.24709  21892222.000    89645000.42047
  22908294.380   120383904.44709  22908291.140    93805624.98346
  21149805.600   111142982.41508  21149801.320    86604907.27048
  23081271.840   121292920.83708  23081271.680    94513972.07347
  23642178.800   124240473.61808  23642176.680    96810744.12746
  22615651.520   118846038.80609  22615648.420    92607285.72948
 15 02 15 00 42 30.0000000  0  6G16G18G21G27G29G31
  21878152.340   114970475.65609  21878148.620    89587372.68747
  22895669.200   120317559.21709  22895666.020    93753927.41546
  21155488.300   111172844.96908  21155483.980    86628176.80248
  23068539.340   121226011.88308  23068539.340    94461835.23247
  23656324.680   124314811.27608  23656322.780    96868669.53246
  22632322.880   118933646.91409  22632319.640    92675551.75448
 15 02 15 00 43  0.0000000  0  6G16G18G21G27G29G31
  21864123.040   114896750.76409  21864119.160    89529924.73547
  22883089.700   120251453.71409  22883086.480    93702416.64046
  21161241.280   111203076.71708  21161236.940    86651734.01148
  23055827.680   121159212.14508  23055827.860    94409783.51547
  23670475.240   124389173.78608  23670473.420    96926614.30346
  22649039.440   119021492.58009  22649036.080    92744002.88148
 15 02 15 00 43 30.0000000  0  6G16G18G21G27G29G31
  21850138.440   114823260.13909  21850134.340    89472659.32547
  22870556.560   120185591.69209  22870553.260    93651095.58846
  21167064.500   111233677.51708  21167060.120    86675578.79648
  23043137.100   121092523.00208  23043137.520    94357817.97947
  23684630.780   124463562.41008  23684628.960    96984579.43046
  22665800.920   119109574.34709  22665797.460    92812637.99048
 15 02 15 00 44  0.0000000  0  6G16G18G21G27G29G31
  21836198.060   114750002.08609  21836193.860    89415575.13047
  22858069.500   120119971.89109  22858066.180    93599963.29446
  21172956.860   111264642.09308  21172952.420    86699707.03448
  23030467.000   121025940.61208  23030467.380    94305935.58147
  23698790.640   124537973.29408  23698788.860    97042561.89947
  22682605.940   119197885.21609  22682602.480    92881451.61348
 15 02 15 00 44 30.0000000  0  6G16G18G21G27G29G31
  21822302.080   114676978.19209  21822298.040    89358673.39448
  22845629.000   120054596.67209  22845625.620    93549021.58546
  21178918.000   111295968.48908  21178913.520    86724117.21448
  23017817.040   120959464.52708  23017817.420    94254136.07347
  23712954.820   124612406.03208  23712952.900    97100561.41646
  22699453.900   119286421.99309  22699450.520    92950441.26848
 15 02 15 00 45  0.0000000  0  6G16G18G21G27G29G31
  21808451.700   114604194.57909  21808447.980    89301958.89348
  22833236.280   119989472.41509  22833232.800    93498275.42846
  21184948.400   111327658.97008  21184943.960    86748811.10448
  23005188.180   120893098.64408  23005188.260    94202422.41147
  23727123.880   124686864.50008  23727121.680    97158580.98346
  22716344.980   119375185.49609  22716341.720    93019607.58548
 15 02 15 00 45 30.0000000  0  6G16G18G21G27G29G31
  21794647.360   114531652.71909  21794643.680    89245432.76848
  22820891.480   119924600.05609  22820888.000    93447725.55446
  21191047.580   111359710.97708  21191043.220    86773786.69948
  22992580.100   120826842.09608  22992579.800    94150793.92747
  23741297.560   124761347.24208  23741295.000    97216619.45946
  22733278.560   119464172.25109  22733275.380    93088947.86548
 15 02 15 00 46  0.0000000  0  6G16G18G21G27G29G31
  21780889.500   114459354.45309  21780885.660    89189096.47248
  22808595.360   119859983.24409  22808591.780    93397374.81146
  21197215.300   111392123.12908  21197211.060    86799042.92048
  22979992.720   120760694.93608  22979992.460    94099250.73747
  23755475.800   124835854.33608  23755473.100    97274676.91646
  22750254.040   119553379.21409  22750250.920    93158459.73648
 15 02 15 00 46 30.0000000  0  6G16G18G21G27G29G31
  21767178.660   114387303.33409  21767174.700    89132952.75348
  22796348.500   119795625.47609  22796344.900    93347225.91646
  21203451.580   111424895.18508  21203447.480    86824579.58948
  22967426.440   120694658.31508  22967425.940    94047793.62647
  23769658.760   124910386.77208  23769656.080    97332754.13746
  22767271.120   119642804.81409  22767268.080    93228141.97548
 15 02 15 00 47  0.0000000  0  6G16G18G21G27G29G31
  21753514.620   114315498.64309  21753510.680    89077001.06048
  22784150.780   119731525.95409  22784147.160    93297278.25946
  21209755.560   111458022.55308  21209751.480    86850393.12948
  22954880.680   120628729.41008  22954879.880    93996420.43347
  23783845.960   124984941.60208  23783843.460    97390848.79846
  22784328.680   119732442.96309  22784325.680    93297989.83248
 15 02 15 00 47 30.0000000  0  6G16G18G21G27G29G31
  21739898.360   114243945.70909  21739894.700    89021245.51948
  22772003.340   119667690.73409  22771999.740    93247536.53946
  21216127.560   111491507.07709  21216123.340    86876484.95948
  22942355.860   120562911.34208  22942354.920    93945133.66147
  23798037.940   125059521.40208  23798035.560    97448962.90546
  22801426.860   119822294.22109  22801423.920    93368003.75748
 15 02 15 00 48  0.0000000  0  6G16G18G21G27G29G31
  21726330.260   114172645.57509  21726326.840    88965686.98148
  22759906.380   119604120.90309  22759902.840    93198001.62746
  21222567.020   111525345.87209  21222562.620    86902852.85148
  22929851.880   120497203.09008  22929850.860    93893932.44847
  23812234.620   125134125.65608  23812232.380    97507096.08646
  22818564.820   119912354.52009  22818561.920    93438180.56848
 15 02 15 00 48 30.0000000  0  6G16G18G21G27G29G31
  21712809.960   114101596.21009  21712806.600    88910323.84848
  22747859.600   119540814.92309  22747856.100    93148672.30646
  21229072.780   111559533.21209  21229068.240    86929492.33548
  22917367.980   120431600.35708  22917367.160    93842813.46447
  23826435.160   125208749.80608  23826433.180    97565244.74346
  22835741.180   120002616.50409  22835738.300    93508514.52648
 15 02 15 00 49  0.0000000  0  6G16G18G21G27G29G31
  21699339.160   114030806.45209  21699335.680    88855162.99348
  22735864.800   119477782.11809  22735861.300    93099555.84046
  21235645.820   111594074.30709  21235641.240    86956407.46848
  22904905.460   120366109.88808  22904904.920    93791781.93847
  23840640.640   125283399.91008  23840639.020    97623413.61646
  22852956.680   120093084.09709  22852953.800    93579008.69748
 15 02 15 00 49 30.0000000  0  6G16G18G21G27G29G31
  21685917.380   113960274.30209  21685913.700    88800202.87248
  22723921.620   119415020.75609  22723918.260    93050650.90447
  21242284.980   111628963.32609  21242280.500    86983593.71948
  22892463.640   120300727.49608  22892463.180    93740834.62347
  23854850.420   125358072.43708  23854848.840    97681599.98947
  22870209.920   120183749.96209  22870207.040    93649657.37247
 15 02 15 00 50  0.0000000  0  6G16G18G21G27G29G31
  21672545.220   113890002.66709  21672541.300    88745445.75648
  22712030.720   119352533.97009  22712027.460    93001959.91647
  21248990.120   111664199.28009  21248985.660    87011050.30448
  22880042.560   120235453.94608  22880041.860    93689972.10747
  23869064.540   125432767.45608  23869062.820    97739803.87147
  22887500.540   120274612.27909  22887497.680    93720459.11247
 15 02 15 00 50 30.0000000  0  6G16G18G21G27G29G31
  21659222.900   113819993.01409  21659218.860    88690892.78848
  22700192.400   119290323.17109  22700189.060    92953483.98147
  21255760.800   111699779.29609  21255756.260    87038774.99848
  22867641.980   120170288.32408  22867641.280    93639193.72547
  23883282.800   125507484.43608  23883281.120    97798024.83947
  22904827.800   120365667.18009  22904824.980    93791410.92847
 15 02 15 00 51  0.0000000  0  6G16G18G21G27G29G31
  21645951.600   113750251.62009  21645947.560    88636548.84648
  22688407.860   119228395.19209  22688404.520    92905228.43847
  21262597.540   111735706.77808  21262592.960    87066770.44348
  22855262.700   120105234.87408  22855262.080    93588502.74747
  23897505.940   125582227.27808  23897504.260    97856265.98947
  22922191.920   120456915.80209  22922189.040    93862513.68947
 15 02 15 00 51 30.0000000  0  6G16G18G21G27G29G31
  21632730.620   113680774.84909  21632726.720    88582411.10548
  22676676.520   119166746.71109  22676673.240    92857190.69446
  21269498.900   111771974.30308  21269494.340    87095030.85248
  22842903.600   120040287.99308  22842902.960    93537894.81147
  23911732.880   125656990.36608  23911731.200    97914522.89346
  22939591.260   120548349.46009  22939588.240    93933760.63947
 15 02 15 00 52  0.0000000  0  6G16G18G21G27G29G31
  21619560.940   113611567.92609  21619557.220    88528483.63648
  22664999.480   119105383.38609  22664996.180    92809375.13746
  21276465.160   111808582.72709  21276460.620    87123556.89948
  22830565.320   119975450.53808  22830564.760    93487372.16147
  23925964.260   125731776.35208  23925962.360    97972797.66146
  22957025.820   120639968.15509  22957022.600    94005151.78347
 15 02 15 00 52 30.0000000  0  6G16G18G21G27G29G31
  21606442.920   113542632.65709  21606439.360    88474767.84048
  22653377.040   119044307.30109  22653373.700    92761783.39546
  21283496.000   111845530.25109  21283491.560    87152347.17948
  22818247.880   119910722.37708  22818247.380    93436934.63347
  23940199.920   125806584.81908  23940197.600    98031089.93846
  22974494.920   120731768.75609  22974491.620    94076684.65647
 15 02 15 00 53  0.0000000  0  6G16G18G21G27G29G31
  21593377.240   113473972.01909  21593373.700    88421266.04948
  22641809.800   118983521.16509  22641806.360    92714417.57747
  21290591.260   111882815.96809  21290586.780    87181400.98648
  22805951.380   119846103.90908  22805950.880    93386582.60147
  23954439.980   125881416.14308  23954437.160    98089400.06546
  22991998.100   120823748.66909  22991994.720    94148357.25047
 15 02 15 00 53 30.0000000  0  6G16G18G21G27G29G31
  21580363.900   113405586.07509  21580360.320    88367978.29648
  22630297.920   118923025.57309  22630294.440    92667278.16446
  21297750.220   111920436.36709  21297745.720    87210715.58148
  22793675.460   119781593.25408  22793674.720    93336314.56447
  23968684.020   125956268.25108  23968680.940    98147726.36846
  23009534.440   120915903.05508  23009531.080    94220165.79847
 15 02 15 00 54  0.0000000  0  6G16G18G21G27G29G31
  21567404.060   113337480.69409  21567400.300    88314909.17848
  22618842.420   118862826.57708  22618839.040    92620369.88746
  21304973.120   111958392.94709  21304968.600    87240292.13948
  22781420.800   119717193.99309  22781419.700    93286133.34647
  23982932.600   126031144.74508  23982929.480    98206071.63746
  23027104.120   121008232.75108  23027100.920    94292110.94747
 15 02 15 00 54 30.0000000  0  6G16G18G21G27G29G31
  21554498.000   113269658.40009  21554494.060    88262060.64348
  22607443.840   118802926.99509  22607440.540    92573694.91446
  21312259.820   111996684.57809  21312255.300    87270129.77348
  22769187.420   119652906.59508  22769186.120    93236039.29147
  23997185.580   126106046.00808  23997182.840    98264436.20846
  23044706.680   121100735.12508  23044703.640    94364190.64746
 15 02 15 00 55  0.0000000  0  6G16G18G21G27G29G31
  21541645.360   113202117.88809  21541641.420    88209431.67348
  22596102.040   118743325.74909  22596098.760    92527252.38947
  21319609.260   112035306.25809  21319604.760    87300224.57748
  22756974.540   119588727.51408  22756973.380    93186029.63847
  24011442.440   126180968.01608  24011440.140    98322816.92646
  23062340.900   121193403.76308  23062338.020    94436399.89146
 15 02 15 00 55 30.0000000  0  6G16G18G21G27G29G31
  21528846.140   113134858.64509  21528842.320    88157021.86948
  22584816.960   118684022.56309  22584813.740    92481042.12146
  21327020.620   112074253.47009  21327016.160    87330573.05648
  22744781.800   119524654.28808  22744780.700    93136102.45547
  24025703.040   126255908.72908  24025701.020    98381212.24846
  23080005.760   121286233.11308  23080003.040    94508734.37646
 15 02 15 00 56  0.0000000  0  6G16G18G21G27G29G31
  21516101.900   113067888.25709  21516098.200    88104837.16648
  22573589.980   118625024.99709  22573586.980    92435070.00446
  21334494.760   112113530.34909  21334490.380    87361178.41248
  22732610.100   119460692.20608  22732609.300    93086261.89447
  24039968.440   126330873.58608  24039966.460    98439626.37746
  23097701.700   121379225.51708  23097699.000    94581195.90946
 15 02 15 00 56 30.0000000  0  6G16G18G21G27G29G31
  21503412.820   113001206.96009  21503409.080    88052877.71348
  22562421.280   118566333.54509  22562418.400    92389336.41547
  21342030.920   112153133.11109  21342026.580    87392037.70948
  22720459.220   119396839.62108  22720458.540    93036506.63947
  24054238.100   126405860.29908  24054235.980    98498057.55946
  23115427.760   121472376.28308  23115425.160    94653780.84346
 15 02 15 00 57  0.0000000  0  6G16G18G21G27G29G31
  21490779.560   112934818.80609  21490775.820    88001146.68948
  22551311.580   118507952.31609  22551308.760    92343844.56047
  21349629.060   112193061.60909  21349624.700    87423150.82648
  22708329.440   119333097.74308  22708328.900    92986837.65747
  24068512.000   126480869.81308  24068509.900    98556506.49546
  23133183.660   121565683.76008  23133181.100    94726487.89045
 15 02 15 00 57 30.0000000  0  6G16G18G21G27G29G31
  21478202.180   112868724.36809  21478198.560    87949644.53148
  22540261.160   118449882.30809  22540258.360    92298595.21447
  21357288.540   112233312.50809  21357284.220    87454515.17248
  22696220.420   119269465.27808  22696220.120    92937253.96147
  24082789.940   126555901.11808  24082787.880    98614972.41446
  23150968.480   121659143.35708  23150965.960    94799313.47046
 15 02 15 00 58  0.0000000  0  6G16G18G21G27G29G31
  21465681.320   112802927.09609  21465677.840    87898373.91748
  22529270.700   118392127.10108  22529267.840    92253591.15247
  21365009.380   112273885.79109  21365005.060    87486130.71348
  22684132.620   119205943.79408  22684132.440    92887756.71747
  24097072.240   126630955.64708  24097070.340    98673456.43246
  23168781.980   121752753.79308  23168779.520    94872256.57046
 15 02 15 00 58 30.0000000  0  6G16G18G21G27G29G31
  21453217.180   112737427.66409  21453213.680    87847335.40948
  22518340.160   118334687.13308  22518337.380    92208832.76446
  21372790.920   112314777.73409  21372786.520    87517994.56848
  22672065.640   119142531.51508  22672065.420    92838344.56847
  24111358.540   126706031.22808  24111356.940    98731956.82146
  23186623.280   121846510.26208  23186620.840    94945313.47545
 15 02 15 00 59  0.0000000  0  6G16G18G21G27G29G31
  21440810.720   112672230.85109  21440807.000    87796532.70848
  22507470.680   118277567.63809  22507467.860    92164324.07546
  21380633.360   112355989.84809  21380628.980    87550107.90048
  22660020.080   119079231.32308  22660019.840    92789019.73747
  24125649.400   126781131.07908  24125647.740    98790476.13446
  23204492.340   121940412.57308  23204489.920    95018484.01545
 15 02 15 00 59 30.0000000  0  6G16G18G21G27G29G31
  21428461.560   112607335.05409  21428457.640    87745964.56348
  22496661.980   118220767.08909  22496659.020    92120063.90547
  21388535.620   112397516.37309  21388531.200    87582466.23948
  22647995.120   119016039.46408  22647994.780    92739779.33647
  24139944.200   126856251.23508  24139942.560    98849011.29045
  23222387.900   122034454.23907  23222385.580    95091763.14545
 15 02 15 01 00  0.0000000  0  6G16G18G21G27G29G31
  21416169.720   112542740.71809  21416165.660    87695631.32648
  22485913.980   118164285.91808  22485911.020    92076052.61746
  21396496.900   112439353.48109  21396492.520    87615066.58348
  22635990.460   118952953.93508  22635989.940    92690621.79147
  24154242.540   126931389.46408  24154240.820    98907560.54146
  23240309.000   122128630.16007  23240306.700    95165146.87145
 15 02 15 01 00 30.0000000  0  6G16G18G21G27G29G31
  21403936.740   112478455.84009  21403932.660    87645539.21548
  22475228.380   118108132.42209  22475225.440    92032296.64446
  21404518.060   112481505.44209  21404513.760    87647912.26148
  22624007.140   118889980.80608  22624006.580    92641551.84548
  24168545.480   127006551.74508  24168543.940    98966128.54645
  23258256.220   122222943.45107  23258254.040    95238637.64145
 15 02 15 01 01  0.0000000  0  6G16G18G21G27G29G31
  21391762.200   112414477.73609  21391758.060    87595686.15348
  22464604.640   118052303.83208  22464601.620    91988793.84746
  21412597.980   112523965.89509  21412593.760    87680998.32648
  22612044.320   118827115.36608  22612043.820    92592565.79447
  24182852.140   127081733.11708  24182850.700    99024711.40145
  23276228.200   122317386.40706  23276225.980    95312229.44444
 15 02 15 01 01 30.0000000  0  6G16G18G21G27G29G31
  21379646.980   112350811.71709  21379642.840    87546076.27348
  22454043.640   117996805.49408  22454040.660    91945548.41846
  21420736.840   112566735.90909  21420732.620    87714325.60348
  22600102.540   118764360.57309  22600102.060    92543665.96547
  24197163.100   127156936.65008  24197161.480    99083311.53446
  23294224.760   122411958.91606  23294222.780    95385922.19344
 15 02 15 01 02  0.0000000  0  6G16G18G21G27G29G31
  21367591.520   112287460.01809  21367587.420    87496711.32048
  22443545.980   117941639.62209  22443543.000    91902562.03647
  21428934.340   112609814.00909  21428930.160    87747892.95348
  22588181.860   118701716.50108  22588181.340    92494852.40547
  24211478.280   127232162.46208  24211476.640    99141929.02546
  23312245.440   122506658.02606  23312243.760    95459713.59344
 15 02 15 01 02 30.0000000  0  6G16G18G21G27G29G31
  21355596.620   112224426.47409  21355592.500    87447594.27448
  22433112.380   117886810.29009  22433109.340    91859837.88346
  21437190.420   112653199.94009  21437186.280    87781700.16548
  22576282.460   118639184.94208  22576281.980    92446126.52748
  24225798.020   127307412.07908  24225796.280    99200565.07446
  23330289.900   122601482.23805  23330288.320    95533602.47044
 15 02 15 01 03  0.0000000  0  6G16G18G21G27G29G31
  21343662.420   112161712.13209  21343658.340    87398725.96948
  22422742.980   117832318.60909  22422739.780    91817376.83946
  21445504.560   112696891.03009  21445500.420    87815745.17448
  22564404.320   118576764.90308  22564403.900    92397487.55648
  24240121.940   127382684.22708  24240120.280    99259218.66546
  23348357.460   122696427.88205  23348356.240    95607586.02244
 15 02 15 01 03 30.0000000  0  6G16G18G21G27G29G31
  21331788.740   112099315.75909  21331784.720    87350105.42348
  22412437.660   117778163.59509  22412434.360    91775178.13147
  21453875.780   112740882.26909  21453871.620    87850024.06448
  22552546.760   118514453.01808  22552546.280    92348932.85748
  24254449.440   127457975.92707  24254447.700    99317887.53645
  23366446.980   122791488.45005  23366446.060    95681659.04642
 15 02 15 01 04  0.0000000  0  6G16G18G21G27G29G31
  21319977.500   112037247.11609  21319973.440    87301740.24948
  22402198.340   117724355.15409  22402194.980    91733249.47747
  21462305.140   112785179.22308  21462301.000    87884541.16948
  22540711.180   118452256.82009  22540710.660    92300468.29748
  24268781.780   127533294.16607  24268780.100    99376577.05345
  23384559.280   122886668.67404  23384558.260    95755825.33643
 15 02 15 01 04 30.0000000  0  5G16G18G21G27G29
  21308226.600   111975495.25009  21308222.380    87253621.90948
  22392022.700   117670881.62309  22392019.320    91691581.77347
  21470789.800   112829766.95608  21470785.700    87919284.85348
  22528895.140   118390163.22109  22528894.600    92252083.68348
  24283116.680   127608625.97208  24283115.060    99435277.11245
 15 02 15 01 05  0.0000000  0  5G16G18G21G27G29
  21296538.300   111914072.39009  21296533.980    87205759.95548
  22381913.120   117617755.29609  22381909.680    91650184.63547
  21479331.200   112874653.24108  21479327.260    87954261.18748
  22517100.520   118328182.39508  22517100.080    92203786.95248
  24297456.340   127683981.20208  24297454.720    99493995.46946
 15 02 15 01 05 30.0000000  0  5G16G18G21G27G29
  21284912.460   111852978.30709  21284908.320    87158154.17848
  22371869.600   117564976.37809  22371866.100    91609058.21647
  21487928.940   112919835.14008  21487925.080    87989467.86748
  22505326.880   118266312.05408  22505326.680    92155576.32548
  24311800.240   127759357.75208  24311798.680    99552730.41445
 15 02 15 01 06  0.0000000  0  5G16G18G21G27G29
  21273350.640   111792221.08709  21273346.780    87110810.88648
  22361893.700   117512553.01209  22361890.300    91568208.84947
  21496583.660   112965316.27108  21496579.880    88024907.71048
  22493575.500   118204558.22409  22493575.380    92107456.46648
  24326149.360   127834761.50708  24326147.580    99611486.60246
 15 02 15 01 06 30.0000000  0  5G16G18G21G27G29
  21261851.360   111731792.34109  21261847.760    87063723.55148
  22351983.700   117460476.02009  22351980.420    91527629.39047
  21505292.920   113011083.65708  21505289.100    88060570.61248
  22481844.320   118142910.35709  22481844.120    92059419.15948
  24340501.540   127910181.68708  24340499.520    99670255.56046
 15 02 15 01 07  0.0000000  0  5G16G18G21G27G29
  21250416.800   111671703.29409  21250413.220    87016900.91548
  22342141.820   117408757.12509  22342138.580    91487328.96647
  21514058.280   113057145.51409  21514054.240    88096462.96748
  22470135.100   118081377.64409  22470134.760    92011471.60248
  24354858.460   127985627.53708  24354856.320    99729044.51045
 15 02 15 01 07 30.0000000  0  5G16G18G21G27G29
  21239046.020   111611949.43109  21239042.260    86970339.46648
  22332367.280   117357391.81209  22332364.040    91447304.05647
  21522877.960   113103492.83609  21522873.760    88132577.75448
  22458446.480   118019953.29809  22458445.940    91963608.48148
  24369218.840   128061091.97508  24369216.700    99787847.92345
 15 02 15 01 08  0.0000000  0  5G16G18G21G27G29
  21227740.280   111552537.55609  21227736.360    86924044.50848
  22322661.340   117306387.13409  22322658.180    91407560.15347
  21531752.600   113150129.17909  21531748.260    88168917.75448
  22446779.420   117958642.19509  22446778.740    91915833.61448
  24383583.680   128136579.62208  24383581.820    99846669.41146
 15 02 15 01 08 30.0000000  0  5G16G18G21G27G29
  21216499.360   111493466.74009  21216495.500    86878015.29748
  22313023.840   117255742.03009  22313020.700    91368096.43747
  21540681.160   113197049.11208  21540676.840    88205478.74348
  22435133.320   117897441.48109  22435132.600    91868144.76348
  24397952.560   128212087.97508  24397950.700    99905507.06446
 15 02 15 01 09  0.0000000  0  5G16G18G21G27G29
  21205324.080   111434741.09609  21205320.620    86832255.05948
  22303455.520   117205460.02709  22303452.380    91328915.66347
  21549663.560   113244251.71409  21549659.240    88242259.98748
  22423508.540   117836352.94509  22423507.780    91820543.32248
  24412325.580   128287618.67607  24412323.700    99964362.10546
 15 02 15 01 09 30.0000000  0  5G16G18G21G27G29
  21194214.940   111376362.95409  21194211.880    86786765.59148
  22293956.720   117155543.26509  22293953.560    91290019.50247
  21558699.860   113291737.38709  21558695.580    88279261.80848
  22411905.180   117775376.90009  22411904.520    91773029.53848
  24426702.760   128363171.60107  24426700.880   100023234.46746
 15 02 15 01 10  0.0000000  0  5G16G18G21G27G29
  21183172.300   111318333.98909  21183169.360    86741548.20148
  22284527.740   117105993.65109  22284524.560    91251409.40947
  21567789.480   113339503.40509  21567785.200    88316482.07948
  22400323.240   117714513.25809  22400322.640    91725603.32348
  24441084.420   128438746.87308  24441082.340   100082124.23745
 15 02 15 01 10 30.0000000  0  5G16G18G21G27G29
  21172196.180   111260653.70809  21172193.080    86696602.53048
  22275168.680   117056811.13809  22275165.480    91213085.38347
  21576931.500   113387544.86509  21576927.140    88353916.98048
  22388762.160   117653759.17009  22388761.520    91678262.50048
  24455469.860   128514341.35408  24455467.420   100141029.00646
 15 02 15 01 11  0.0000000  0  5G16G18G21G27G29
  21161287.560   111203327.62909  21161284.160    86651932.87148
  22265880.320   117008000.17709  22265877.080    91175050.88547
  21586126.280   113435863.82908  21586121.900    88391568.12648
  22377222.700   117593118.26009  22377222.040    91631009.86148
  24469859.580   128589958.28708  24469856.880   100199951.25745
 15 02 15 01 11 30.0000000  0  5G16G18G21G27G29
  21150446.740   111146357.91909  21150443.060    86607540.89448
  22256663.220   116959563.46209  22256659.880    91137307.99147
  21595373.280   113484457.26509  21595368.920    88429433.13348
  22365704.760   117532590.49109  22365703.960    91583845.38248
  24484253.560   128665598.00908  24484250.620   100258891.24446
 15 02 15 01 12  0.0000000  0  5G16G18G21G27G29
  21139673.800   111089746.06809  21139670.200    86563427.76448
  22247517.600   116911502.32309  22247514.120    91099857.76047
  21604672.280   113533323.79509  21604667.960    88467510.94148
  22354208.240   117472175.44509  22354207.340    91536768.72948
  24498651.600   128741259.81308  24498648.560   100317848.49446
 15 02 15 01 12 30.0000000  0  5G16G18G21G27G29
  21128969.460   111033495.41409  21128966.220    86519596.07848
  22238444.000   116863819.57109  22238440.380    91062702.36547
  21614023.240   113582463.10609  21614018.860    88505801.30748
  22342733.360   117411874.60409  22342732.520    91489781.06348
  24513053.940   128816944.93108  24513051.020   100376823.90446
 15 02 15 01 13  0.0000000  0  6G16G18G19G21G27G29
  21118334.940   110977611.07309  21118331.860    86476049.84048
  22229443.340   116816520.41609  22229439.720    91025845.89847
  24541072.160   128964207.68008  24541067.840   100491567.88947
  21623426.260   113631875.68709  21623421.800    88544304.61948
  22331280.680   117351690.84809  22331279.960    91442884.65448
  24527461.080   128892656.11008  24527458.520   100435819.60046
 15 02 15 08 34  0.0000000  0 11G01G03G04G06G09G11G17G20G23G31G32
  21281488.480   111834976.63709  21281490.020    87144144.49248
  20791781.800   109261550.28309  20791782.760    85138873.80248
  23616093.580   124103408.53308  23616094.520    96703959.64945
  23819249.640   125171001.50408  23819251.460    97535854.59446
  21719029.540   114134269.73209  21719030.320    88935797.54348
  22942484.460   120563568.29008  22942483.920    93945633.50146
  21881831.440   114989798.96009  21881829.420    89602434.03348
  22574886.420   118631826.46608  22574883.920    92440376.89746
  20581120.820   108154519.72409  20581116.980    84276233.29548
  24331926.100   127865137.69808  24331926.360    99635169.10446
  23682131.600   124450441.05408  23682132.340    96974370.38746
 15 02 15 08 34 30.0000000  0 11G01G03G04G06G09G11G17G20G23G31G32
  21292737.580   111894091.09309  21292739.080    87190207.63748
  20796780.080   109287816.07209  20796781.000    85159340.58448
  23634393.700   124199575.92408  23634394.460    96778895.11345
  23800631.880   125073164.10708  23800633.360    97459617.65646
  21703977.320   114055169.60409  21703978.060    88874161.06748
  22961976.380   120665998.79208  22961975.740    94025449.33546
  21882201.100   114991740.44909  21882199.000    89603946.83048
  22561756.000   118562825.48808  22561753.700    92386609.89746
  20576497.340   108130223.26409  20576493.500    84257300.95648
  24339650.160   127905730.04408  24339650.900    99666799.42546
  23697025.920   124528710.73408  23697026.620    97035359.65946
 15 02 15 08 35  0.0000000  0 11G01G03G04G06G09G11G17G20G23G31G32
  21304058.160   111953581.32909  21304059.760    87236563.59348
  20801813.860   109314267.88209  20801814.600    85179952.31248
  23652728.280   124295924.13208  23652729.080    96853971.47545
  23782024.980   124975384.04908  23782026.680    97383425.39646
  21688995.000   113976437.03309  21688995.780    88812811.00348
  22981507.160   120768633.15608  22981506.440    94105424.01246
  21882680.160   114994256.66009  21882677.860    89605907.45648
  22548648.840   118493947.24208  22548646.800    92332938.52046
  20571963.500   108106398.07909  20571959.780    84238735.85048
  24347470.700   127946828.44908  24347471.720    99698824.12446
  23711920.840   124606983.35008  23711921.500    97096351.20346
 15 02 15 08 35 30.0000000  0 11G01G03G04G06G09G11G17G20G23G31G32
  21315451.680   112013454.62309  21315453.400    87283218.02448
  20806884.480   109340913.13709  20806884.940    85200714.79548
  23671098.540   124392459.93307  23671099.420    96929194.04845
  23763430.680   124877670.99708  23763432.960    97307285.38446
  21674084.420   113898081.36409  21674085.200    88751754.63448
  23001077.920   120871477.52608  23001077.140    94185562.33246
  21883270.040   114997355.01009  21883267.420    89608321.72148
  22535566.580   118425199.80908  22535564.620    92279369.09646
  20567520.880   108083052.12209  20567517.220    84220544.17248
  24355388.960   127988439.94008  24355390.360    99731248.63246
  23726817.720   124685266.40708  23726818.360    97157350.89445
 15 02 15 08 36  0.0000000  0 11G01G03G04G06G09G11G17G20G23G31G32
  21326918.300   112073712.21509  21326920.140    87330171.91648
  20811992.120   109367753.26809  20811992.400    85221629.13548
  23689504.480   124489183.81307  23689505.500    97004563.14845
  23744849.780   124780028.80908  23744852.400    97231200.53046
  21659246.180   113820105.88209  21659246.880    88690994.51448
  23020688.520   120974531.32008  23020687.720    94265863.85246
  21883970.780   115001036.55709  21883968.080    89611190.42548
  22522509.640   118356585.45708  22522507.780    92225903.35546
  20563169.800   108060187.14209  20563166.140    84202727.28848
  24363404.900   128030565.04308  24363406.260    99764073.35245
  23741716.900   124763561.26008  23741717.540    97218359.80446
 15 02 15 08 36 30.0000000  0 11G01G03G04G06G09G11G17G20G23G31G32
  21338456.620   112134346.57209  21338458.520    87377419.38548
  20817135.320   109394780.90809  20817135.620    85242689.58948
  23707944.640   124586087.20907  23707945.660    97080072.13844
  23726281.240   124682452.27008  23726283.960    97155166.88246
  21644479.220   113742505.07209  21644479.880    88630526.35748
  23040337.220   121077785.53908  23040336.480    94346321.55246
  21884781.020   115005294.36509  21884778.400    89614508.15548
  22509476.580   118288097.12408  22509474.780    92172535.83646
  20558909.020   108037796.11409  20558905.180    84185279.71148
  24371517.220   128073195.42508  24371518.180    99797291.82245
  23756616.940   124841860.52608  23756617.480    97279372.15246
 15 02 15 08 37  0.0000000  0 11G01G03G04G06G09G11G17G20G23G31G32
  21350067.140   112195360.08809  21350069.040    87424962.31348
  20822314.660   109421998.70009  20822315.000    85263898.21748
  23726419.320   124683172.16507  23726420.460    97155722.62445
  23707726.160   124584946.48008  23707728.900    97079188.32346
  21629784.400   113665283.39609  21629785.020    88570353.62848
  23060024.260   121181241.29909  23060023.600    94426936.28846
  21885701.260   115010131.08409  21885698.800    89618276.99648
  22496468.020   118219738.13008  22496466.460    92119269.08446
  20554738.880   108015881.73809  20554734.940    84168203.57048
  24379726.220   128116333.08108  24379726.300    99830905.54545
  23771518.320   124920166.89008  23771518.660    97340390.02846
 15 02 15 08 37 30.0000000  0 11G01G03G04G06G09G11G17G20G23G31G32
  21361749.580   112256751.56909  21361751.460    87472799.75548
  20827530.100   109449405.67009  20827530.340    85285254.26748
  23744928.160   124780436.67107  23744929.400    97231512.99544
  23689184.820   124487512.72808  23689187.820    97003265.95446
  21615161.780   113588441.68909  21615162.560    88510476.99648
  23079749.120   121284895.82208  23079748.540    94507705.91647
  21886731.280   115015545.38109  21886729.160    89622495.87448
  22483484.120   118151508.49908  22483482.580    92066103.13846
  20550659.380   107994443.61909  20550655.340    84151498.53448
  24388031.640   128159976.32208  24388031.420    99864913.21846
  23786420.820   124998479.21208  23786421.020    97401412.55545
 15 02 15 08 38  0.0000000  0 11G01G03G04G06G09G11G17G20G23G31G32
  21373504.100   112318521.89109  21373506.000    87520932.40248
  20832781.780   109477002.96409  20832781.880    85306758.62148
  23763471.240   124877881.05607  23763472.660    97307443.53744
  23670657.900   124390154.43608  23670661.000    96927402.39746
  21600612.040   113511982.93909  21600612.900    88450898.76548
  23099511.680   121388748.49509  23099511.160    94588629.94547
  21887871.380   115021538.04209  21887869.400    89627165.44948
  22470525.120   118083409.61708  22470523.600    92013039.06946
  20546670.780   107973483.26909  20546666.720    84135165.79048
  24396433.040   128204125.45908  24396433.260    99899315.09646
  23801324.680   125076798.76308  23801324.840    97462440.70546
 15 02 15 08 38 30.0000000  0 11G01G03G04G06G09G11G17G20G23G31G32
  21385330.040   112380667.25509  21385331.920    87569357.29348
  20838068.900   109504787.08509  20838069.000    85328408.55348
  23782047.680   124975500.48707  23782048.960    97383510.49144
  23652145.280   124292870.46808  23652148.040    96851596.71046
  21586134.920   113435905.38009  21586135.820    88391617.57148
  23119311.000   121492794.30309  23119310.560    94669704.46446
  21889121.020   115028105.65209  21889119.320    89632283.03848
  22457590.580   118015438.85708  22457589.100    91960074.84747
  20542772.460   107952997.34309  20542768.380    84119202.73148
  24404929.360   128248776.23208  24404930.380    99934107.87546
  23816229.160   125155121.99808  23816229.320    97523471.72346
 15 02 15 08 39  0.0000000  0 11G01G03G04G06G09G11G17G20G23G31G32
  21397227.380   112443188.12809  21397229.240    87618074.78948
  20843391.700   109532758.76709  20843391.840    85350204.63848
  23800657.420   125073294.92907  23800658.500    97459713.82344
  23633647.420   124195663.84108  23633650.140    96775851.33646
  21571730.740   113360211.48909  21571731.720    88332635.34748
  23139146.840   121597031.89908  23139146.440    94750928.44446
  21890480.240   115035248.59309  21890478.780    89637848.92548
  22444680.660   117947596.98208  22444679.260    91907211.06346
  20538964.580   107932986.67809  20538960.420    84103610.00748
  24413521.220   128293928.23207  24413521.820    99969291.22745
  23831134.440   125233449.66008  23831134.600    97584506.18846
 15 02 15 08 39 30.0000000  0 11G01G03G04G06G09G11G17G20G23G31G32
  21409195.680   112506081.59009  21409197.520    87667082.63348
  20848749.620   109560915.36309  20848749.880    85372144.82248
  23819299.820   125171260.84006  23819301.220    97536050.77844
  23615164.360   124098534.31108  23615166.860    96700166.03546
  21557399.440   113284900.40909  21557400.440    88273951.43048
  23159018.400   121701457.15508  23159018.020    94832298.64646
  21891948.520   115042963.96209  21891947.000    89643860.88548
  22431795.120   117879882.71608  22431793.580    91854446.71447
  20535246.660   107913448.70509  20535242.460    84088385.61948
  24422208.100   128339578.07907  24422208.260   100004862.43446
  23846040.060   125311779.10908  23846040.180    97645542.06846
 15 02 15 08 40  0.0000000  0 11G01G03G04G06G09G11G17G20G23G31G32
  21421234.740   112569346.82809  21421236.560    87716380.15148
  20854142.620   109589256.43609  20854143.000    85394228.74148
  23837974.620   125269396.62206  23837976.000    97612520.09644
  23596696.480   124001483.70408  23596699.040    96624542.21646
  21543141.300   113209973.37509  21543142.160    88215566.74248
  23178925.280   121806067.95408  23178924.960    94913813.41746
  21893525.660   115051251.21909  21893524.200    89650318.44948
  22418933.940   117812295.75008  22418932.280    91801781.52547
  20531618.740   107894383.48709  20531614.380    84073529.59648
  24430989.560   128385724.34207  24430989.340   100040820.45945
  23860945.880   125390109.82108  23860945.980    97706578.91446
 15 02 15 08 40 30.0000000  0 11G01G03G04G06G09G11G17G20G23G31G32
  21433345.400   112632987.98809  21433347.080    87765970.61648
  20859571.660   109617786.47109  20859572.120    85416459.91248
  23856682.480   125367706.01606  23856684.020    97689124.73244
  23578244.880   123904518.87008  23578247.300    96548985.23447
  21528957.420   113135436.58309  21528958.200    88157486.15148
  23198868.080   121910867.53408  23198867.860    94995475.30346
  21895212.600   115060114.97109  21895211.000    89657225.24048
  22406097.980   117744841.40508  22406096.180    91749219.69646
  20528081.580   107875795.53609  20528077.200    84059045.49048
  24439866.140   128432371.10908  24439865.660   100077168.46245
  23875852.740   125468446.31208  23875852.960    97767620.22846
 15 02 15 08 41  0.0000000  0 11G01G03G04G06G09G11G17G20G23G31G32
  21445526.840   112697001.29609  21445528.460    87815851.06648
  20865036.020   109646502.02609  20865036.560    85438835.64248
  23875422.580   125466184.46606  23875423.980    97765860.99242
  23559809.480   123807638.75108  23559811.920    96473494.24146
  21514847.440   113061288.31609  21514848.180    88099708.30648
  23218845.720   122015850.04408  23218845.460    95077279.72746
  21897008.260   115069550.75009  21897006.540    89664577.76248
  22393286.560   117677516.47108  22393284.740    91696758.72546
  20524634.560   107857681.53609  20524630.160    84044930.69648
  24448836.740   128479513.57507  24448837.120   100113902.75146
  23890759.960   125546785.15408  23890760.520    97828663.37646
 15 02 15 08 41 30.0000000  0 11G01G03G04G06G09G11G17G20G23G31G32
  21457780.260   112761393.16109  21457781.840    87866026.50348
  20870536.960   109675409.87109  20870537.560    85461361.20348
  23894195.800   125564837.60705  23894197.020    97842733.39143
  23541391.640   123710852.37308  23541394.180    96398076.33747
  21500813.000   112987536.98309  21500813.740    88042239.75948
  23238859.060   122121020.31208  23238858.780    95159230.47045
  21898913.740   115079565.03509  21898912.160    89672381.06048
  22380501.100   117610328.64008  22380499.220    91644404.56746
  20521279.080   107840048.52509  20521274.720    84031190.69148
  24457903.000   128527157.30608  24457903.920   100151027.70746
  23905669.060   125625133.04308  23905669.680    97889713.58046
 15 02 15 08 42  0.0000000  0 11G01G03G04G06G09G11G17G20G23G31G32
  21470103.160   112826150.07509  21470104.760    87916486.38248
  20876072.020   109704496.96009  20876072.680    85484026.44148
  23912999.520   125663651.47505  23913000.340    97919731.19744
  23522989.540   123614149.11808  23522992.100    96322723.16647
  21486851.880   112914171.17809  21486852.640    87985071.62648
  23258905.380   122226363.81208  23258905.060    95241316.18845
  21900926.680   115090144.61109  21900925.320    89680624.85148
  22367739.320   117543265.53608  22367737.500    91592147.64146
  20518012.520   107822882.87009  20518008.160    84017814.87148
  24467062.080   128575288.56407  24467063.740   100188532.51446
  23920577.460   125703476.98208  23920578.020    97950760.71645
 15 02 15 08 42 30.0000000  0 11G01G03G04G06G09G11G17G20G23G31G32
  21482496.980   112891279.74209  21482498.520    87967236.72948
  20881642.720   109733771.38009  20881643.420    85506837.64948
  23931835.060   125762632.88505  23931835.360    97996859.43543
  23504605.060   123517539.40608  23504607.780    96247442.93446
  21472966.000   112841200.62809  21472966.760    87928211.48248
  23278985.920   122331887.21008  23278985.640    95323542.07345
  21903048.620   115101297.06309  21903047.440    89689315.04148
  22355002.840   117476335.43309  22355001.240    91539994.34346
  20514836.620   107806193.39709  20514832.240    84004810.08948
  24476315.540   128623914.38008  24476317.120   100226422.69746
  23935486.620   125781825.10808  23935487.060    98011811.09445
 15 02 15 08 43  0.0000000  0 11G01G03G04G06G09G11G17G20G23G31G32
  21494961.440   112956780.96309  21494962.900    88018276.59948
  20887248.940   109763232.37309  20887249.660    85529794.23048
  23950702.180   125861780.40904  23950701.260    98074116.00544
  23486238.700   123421024.87008  23486241.400    96172236.80247
  21459155.500   112768626.17109  21459156.300    87871659.97748
  23299100.200   122437587.91507  23299100.060    95405906.13445
  21905279.520   115113021.28909  21905278.460    89698450.75048
  22342291.680   117409538.07809  22342290.120    91487944.45947
  20511751.220   107789979.47409  20511746.920    83992175.86548
  24485662.940   128673032.82808  24485663.780   100264696.71445
  23950396.500   125860176.55708  23950396.840    98072864.09045
 15 02 15 08 43 30.0000000  0 11G01G03G04G06G09G11G17G20G23G31G32
  21507495.780   113022649.38809  21507497.280    88069602.61848
  20892890.000   109792875.99709  20892890.720    85552893.12848
  23969599.960   125961088.86904  23969600.880    98151502.04243
  23467890.240   123324603.87408  23467892.760    96097103.61447
  21445420.000   112696445.52609  21445420.800    87815415.33948
  23319247.060   122543459.88807  23319246.980    95488403.66745
  21907618.560   115125312.84309  21907617.400    89708028.55448
  22329605.240   117342870.52509  22329603.660    91435995.73246
  20508755.520   107774236.95409  20508751.200    83979908.98349
  24495103.200   128722639.00708  24495102.540   100303350.86345
  23965306.360   125938527.47008  23965306.400    98133916.65345
 15 02 15 08 44  0.0000000  0 12G01G03G04G06G09G10G11G17G20G23G31G32
  21520099.500   113088882.84109  21520101.180    88121213.04748
  20898565.520   109822700.57509  20898566.140    85576133.02548
  23988527.940   126060555.40204                                
  23449559.820   123228277.13208  23449562.100    96022043.81947
  21431759.360   112624658.52009  21431760.180    87759477.43548
  24403957.320   128243653.65507                                
  23339425.880   122649499.69107  23339425.800    95571031.93544
  21910065.200   115138169.38209  21910063.960    89718046.59148
  22316943.280   117276331.45608  22316941.580    91384147.11547
  20505849.160   107758963.86909  20505844.860    83968007.87349
  24504635.620   128772729.89808  24504635.180   100342382.66445
  23980215.760   126016876.12308  23980215.680    98194967.48245
 15 02 15 08 44 30.0000000  0 12G01G03G04G06G09G10G11G17G20G23G31G32
  21532772.080   113155478.13209  21532773.980    88173105.43748
  20904275.000   109852703.37509  20904275.420    85599511.80948
  24007485.240   126160176.27604                                
  23431247.360   123132044.27608  23431249.460    95947057.26646
  21418173.480   112553264.04709  21418174.200    87703845.38048
  24387683.460   128158132.93708  24387684.760    99863486.99846
  23359635.740   122755702.87007  23359635.640    95653787.53643
  21912618.800   115151587.82909  21912617.360    89728502.48748
  22304305.420   117209919.11308  22304303.760    91332397.25647
  20503031.600   107744157.81709  20503027.380    83956470.69249
  24514258.960   128823301.71608  24514258.440   100381789.25345
  23995124.200   126095219.86508  23995124.200    98256014.44846
 15 02 15 08 45  0.0000000  0 12G01G03G04G06G09G10G11G17G20G23G31G32
  21545516.660   113222451.41009  21545518.640    88225292.36748
  20910021.520   109882901.07109  20910021.900    85623042.45148
  24026474.880   126259967.17704                                
  23412956.460   123035924.32008  23412958.220    95872158.60946
  21404665.820   112482280.26009  21404666.540    87648533.34748
  24371426.020   128072698.98508  24371426.680    99796914.99944
  23379879.560   122862084.32806  23379879.340    95736682.06644
  21915282.360   115165583.77809  21915280.760    89739408.38448
  22291694.920   117143650.40208  22291693.180    91280759.31647
  20500306.120   107729835.48609  20500301.880    83945310.43248
  24523976.960   128874370.09308  24523977.160   100421582.83746
  24010034.780   126173575.28708  24010035.040    98317070.51246
 15 02 15 08 45 30.0000000  0 11G01G03G06G09G10G11G17G20G23G31G32
  21558330.600   113289789.03209  21558332.640    88277763.20748
  20915802.540   109913280.54609  20915803.020    85646714.73748
  23394685.000   122939906.60808  23394686.680    95797339.65647
  21391234.080   112411695.59109  21391234.820    87593532.32448
  24355182.780   127987339.54107  24355183.360    99730401.14945
  23400154.480   122968629.00306  23400154.600    95819703.74644
  21918053.220   115180143.88309  21918051.600    89750753.88648
  22279109.460   117077512.86409  22279107.520    91229223.58046
  20497670.180   107715983.39909  20497665.800    83934516.57948
  24533786.560   128925920.81108  24533787.080   100461752.16245
  24024945.080   126251929.28508  24024945.720    98378125.43446
 15 02 15 08 46  0.0000000  0 11G01G03G06G09G10G11G17G20G23G31G32
  21571213.460   113357488.55609  21571215.480    88330516.04048
  20921617.740   109943839.86509  20921618.400    85670527.16248
  23376433.000   122843991.50108  23376434.900    95722600.64147
  21377878.220   112341509.62109  21377878.740    87538841.95848
  24338953.060   127902052.77008  24338954.080    99663944.05944
  23420459.760   123075333.60706  23420460.020    95902850.02744
  21920930.940   115195265.75809  21920929.260    89762537.12648
  22266548.680   117011505.09909  22266546.640    91177788.97247
  20495123.420   107702599.99209  20495119.040    83924087.94748
  24543687.760   128977950.82208  24543688.160   100502295.03646
  24039854.740   126330280.06108  24039855.840    98439177.85246
 15 02 15 08 46 30.0000000  0 11G01G03G06G09G10G11G17G20G23G31G32
  21584166.640   113425557.52709  21584168.700    88383556.75648
  20927468.660   109974587.18809  20927469.520    85694486.08748
  23358202.340   122748189.59808  23358204.480    95647949.84046
  21364600.060   112271731.95209  21364600.440    87484469.75448
  24322738.520   127816847.48506  24322739.000    99597550.09443
  23440796.580   123182204.08105  23440796.940    95986125.66743
  21923917.000   115210956.78609  21923915.320    89774763.86748
  22254014.220   116945635.53109  22254012.120    91126462.06746
  20492667.400   107689692.84009  20492662.860    83914030.41148
  24553681.540   129030466.44708  24553681.520   100543216.31445
  24054765.300   126408635.61208  24054766.820    98500233.99646
 15 02 15 08 47  0.0000000  0 11G01G03G06G09G10G11G17G20G23G31G32
  21597187.920   113493984.27709  21597189.920    88436876.25448
  20933353.220   110005511.35909  20933354.220    85718582.80648
  23339991.420   122652492.06008  23339994.100    95573380.36047
  21351397.620   112202352.91109  21351398.100    87430408.18448
  24306537.620   127731713.20406  24306538.780    99531211.68544
  23461162.560                                                  
  21927008.980   115227204.85909  21927007.300    89787424.67048
  22241504.060   116879893.90309  22241501.880    91075234.83246
  20490299.920   107677250.94909  20490295.280    83904335.41348
  24563765.060   129083455.63608  24563765.120   100584506.50246
  24069674.640   126486984.86708  24069676.340    98561285.23245
 15 02 15 08 47 30.0000000  0 10G01G03G06G09G10G17G20G23G31G32
  21610278.920   113562777.27109  21610280.800    88490481.14348
  20939273.120   110036621.43409  20939274.280    85742824.37648
  23321802.600   122556910.38808  23321805.580    95498901.18847
  21338273.040   112133383.02209  21338273.500    87376665.41648
  24290352.100   127646659.51505  24290354.300    99464936.05445
  21930208.460   115244018.26709  21930206.640    89800525.98548
  22229020.100   116814290.01308  22229017.700    91024114.93347
  20488022.600   107665283.09009  20488017.940    83895009.79449
  24573939.820   129136926.38408  24573940.120   100626171.91945
  24084584.560   126565336.94908  24084586.400    98622338.69446
 15 02 15 08 48  0.0000000  0 10G01G03G06G09G10G17G20G23G31G32
  21623438.160   113631929.05509  21623440.060    88544365.60548
  20945227.200   110067910.58309  20945228.440    85767205.49648
  23303635.080   122461440.13508  23303638.200    95424508.82747
  21325225.220   112064816.83509  21325225.740    87323237.24148
  24274181.100   127561679.91108  24274183.640    99398718.23445
  21933513.960   115261389.53009  21933512.200    89814062.00248
  22216561.060   116748817.35109  22216558.660    90973097.29647
  20485834.160   107653782.35009  20485829.500    83886048.16848
  24584204.900   129190870.06108  24584205.380   100668205.90746
  24099493.740   126643684.88008  24099495.680    98683388.89945
 15 02 15 08 48 30.0000000  0 10G01G03G06G09G10G17G20G23G31G32
  21636666.280   113701443.20509  21636668.220    88598532.41848
  20951216.280   110099382.94509  20951217.500    85791729.38048
  23285490.120   122366087.89208  23285493.160    95350208.43146
  21312255.260   111996659.98109  21312255.980    87270128.02948
  24258025.440   127476779.52905  24258026.680    99332561.84644
  21936926.380   115279322.18909  21936924.780    89828035.47848
  22204127.940   116683480.52808  22204125.380    90922185.49647
  20483735.320   107642752.81309  20483730.720    83877453.71048
  24594560.900   129245289.81609  24594560.940   100710610.82845
  24114402.940   126722033.00008  24114405.000    98744439.25345
 15 02 15 08 49  0.0000000  0 10G01G03G06G09G10G17G20G23G31G32
  21649963.000   113771318.20809  21649964.960    88652980.41648
  20957240.060   110131037.69509  20957241.260    85816395.38848
  23267367.980   122270855.16208  23267370.960    95276001.15046
  21299363.280   111928912.92109  21299364.040    87217338.13648
  24241884.480   127391957.25208  24241885.560    99266466.68744
  21940445.300   115297814.71109  21940443.880    89842445.19848
  22191720.540   116618279.30308  22191717.980    90871379.40047
  20481725.840   107632193.09609  20481721.220    83869225.34448
  24605007.160   129300183.73808  24605007.380   100753385.16546
  24129312.100   126800380.35208  24129314.240    98805489.00346
 15 02 15 08 49 30.0000000  0 10G01G03G06G09G10G17G20G23G31G32
  21663327.320   113841548.00809  21663329.240    88707704.89048
  20963297.480   110162869.44709  20963298.640    85841199.30548
  23249268.120   122175738.94108  23249270.820    95201884.64947
  21286548.600   111861571.69109  21286549.320    87164864.45848
  24225757.420   127307208.73006  24225758.220    99200429.00044
  21944069.600   115316860.60709  21944068.360    89857286.13248
  22179338.040   116553209.09709  22179335.500    90820675.35246
  20479804.740   107622097.78409  20479800.100    83861358.85148
  24615542.420   129355544.77508  24615541.720   100796523.56045
  24144220.140   126878721.55208  24144222.180    98866533.98145
 15 02 15 08 50  0.0000000  0 10G01G03G06G09G10G17G20G23G31G32
  21676760.080   113912137.36209  21676761.940    88762709.53848
  20969389.620   110194883.60109  20969390.760    85866145.36748
  23231191.880   122080747.04408  23231194.300    95127865.04647
  21273812.480   111794643.02509  21273813.240    87112712.27648
  24209645.860   127222539.83008  24209646.020    99134452.98846
  21947800.200   115336464.31709  21947799.040    89872561.72648
  22166981.460   116488275.64008  22166978.960    90770077.86547
  20477973.000   107612472.19609  20477968.320    83853858.38248
  24626167.080   129411376.62008  24626166.560   100840028.77145
  24159128.020   126957062.05708  24159130.000    98927578.40646
 15 02 15 08 50 30.0000000  0 10G01G03G06G09G10G17G20G23G31G32
  21690261.520   113983087.98709  21690263.480    88817995.68848
  20975517.100   110227082.54309  20975518.020    85891235.42748
  23213140.140   121985884.25508  23213142.440    95053946.06346
  21261155.620   111728130.67709  21261156.420    87060884.49548
  24193549.400   127137953.21306  24193550.240    99068541.61944
  21951637.220   115356627.36809  21951636.140    89888273.14548
  22154651.420   116423481.97208  22154649.240    90719589.32447
  20476230.940   107603318.16809  20476226.320    83846725.36648
  24636881.320   129467680.96808  24636881.140   100883902.18245
  24174036.200   127035404.42008  24174038.060    98988624.24345
 15 02 15 08 51  0.0000000  0 10G01G03G06G09G10G17G20G23G31G32
  21703830.700   114054394.58309  21703832.760    88873559.21648
  20981678.940   110259461.68309  20981679.600    85916465.90248
  23195112.480   121891148.46508  23195114.860    94980125.99647
  21248577.340   111662031.33809  21248578.100    87009378.53748
  24177468.080   127053445.16208  24177467.620    99002690.95244
  21955579.600   115377344.32609  21955578.580    89904416.19648
  22142347.280   116358824.02608  22142345.260    90669206.52747
  20474577.780   107594630.94809  20474573.260    83839956.09949
  24647684.280   129524451.73808  24647684.540   100928139.03646
  24188943.740   127113743.83008  24188945.520    99049667.79446
 15 02 15 08 51 30.0000000  0 10G01G03G06G09G10G17G20G23G31G32
  21717466.960   114126053.46109  21717469.120    88929397.24548
  20987874.480   110292018.06509  20987874.880    85941834.48248
  23177108.720   121796539.09208  23177111.280    94906404.45647
  21236077.340   111596343.34009  21236078.080    86958193.10848
  24161401.160   126969012.91707  24161401.560    98936899.87945
  21959626.520   115398611.15809  21959625.560    89920987.70248
  22130068.660   116294299.36409  22130066.740    90618927.57147
  20473012.900   107586407.23009  20473008.380    83833548.00148
  24658575.380   129581684.16908  24658575.260   100972735.68645
  24203850.300   127192077.50408  24203851.920    99110706.89346
 15 02 15 08 52  0.0000000  0  9G01G03G06G09G10G17G20G23G32
  21731170.720   114198067.06409  21731172.920    88985511.69048
  20994104.280   110324754.93209  20994104.480    85967343.71248
  23159130.060   121702061.74508  23159132.840    94832785.76847
  21223656.560   111531071.19609  21223657.280    86907331.72048
  24145349.340   126884660.21704  24145349.420    98871170.37044
  21963778.600   115420430.16209  21963777.620    89937989.48948
  22117816.220   116229911.72409  22117814.260    90568755.41547
  20471536.800   107578649.85709  20471532.300    83827503.30349
  24218756.440   127270408.63908  24218757.680    99171744.04145
 15 02 15 08 52 30.0000000  0  9G01G03G06G09G10G17G20G23G32
  21744942.120   114270435.95909  21744944.340    89041902.97448
  21000368.560   110357673.50909  21000368.680    85992994.52748
  23141177.300   121607720.14208  23141180.300    94759272.86447
  21211315.380   111466217.37909  21211316.020    86856796.29149
  24129312.980   126800389.19407  24129313.540    98805504.79146
  21968035.940   115442801.87009  21968034.780    89955421.93548
  22105590.280   116165663.09009  22105588.180    90518691.54947
  20470149.620   107571359.89309  20470145.140    83821822.80849
  24233662.360   127348738.46608  24233663.120    99232780.14745
 15 02 15 08 53  0.0000000  0  9G01G03G06G09G10G17G20G23G32
  21758780.520   114343157.10809  21758782.800    89098568.75148
  21006666.860   110390771.54809  21006667.120    86018785.18948
  23123250.560   121513514.43308  23123253.780    94685865.85647
  21199053.620   111401780.89909  21199054.180    86806586.05648
  24113291.560   126716197.54308  24113292.120    98739901.02044
  21972397.740   115465722.53809  21972396.340    89973282.17148
  22093390.400   116101551.70709  22093388.280    90468734.63547
  20468850.840   107564534.68209  20468846.400    83816504.47248
  24248567.460   127427064.74908  24248567.760    99293813.53045
 15 02 15 08 53 30.0000000  0  9G01G03G06G09G10G17G20G23G32
  21772685.100   114416226.23809  21772687.460    89155505.67848
  21012998.600   110424045.55809  21012999.100    86044712.97448
  23105349.720   121419443.53008  23105352.880    94612563.90847
  21186870.800   111337759.45909  21186871.380    86756699.23648
  24097285.060   126632082.63908  24097285.460    98674356.98645
  21976863.120   115489187.70609  21976861.560    89991566.68948
  22081216.060   116037574.59909  22081213.940    90418882.36547
  20467639.700   107558170.21709  20467635.300    83811545.15848
  24263471.140   127505384.10508  24263471.440    99354841.48045
 15 02 15 08 54  0.0000000  0  9G01G03G06G09G10G17G20G23G32
  21786657.000   114489648.91309  21786659.440    89212718.09248
  21019364.980   110457501.90409  21019365.660    86070782.84048
  23087476.300   121325516.29008  23087479.240    94539373.89147
  21174768.360   111274160.63609  21174768.940    86707141.72349
  24081294.300   126548051.00908  24081294.660    98608877.90244
  21981432.960   115513202.74709  21981431.460    90010279.67648
  22069068.500   115973738.64009  22069066.400    90369140.07247
  20466517.360   107552272.53509  20466512.940    83806949.57449
  24278374.760   127583702.82108  24278375.200    99415868.94245
 15 02 15 08 54 30.0000000  0  9G01G03G06G09G10G17G20G23G32
  21800694.580   114563416.63109  21800697.060    89270199.37248
  21025764.500   110491132.93809  21025765.420    86096988.82448
  23069629.100   121231727.43908  23069631.760    94466291.71047
  21162745.100   111210977.92309  21162745.680    86657908.46448
  24065318.300   126464095.70908  24065318.980    98543458.15045
  21986105.620   115537758.70309  21986104.240    90029414.14848
  22056946.360   115910036.65608  22056944.340    90319502.19747
  20465482.360   107546833.60209  20465477.900    83802711.45749
  24293276.880   127662013.25208  24293277.460    99476889.94645
 15 02 15 08 55  0.0000000  0  9G01G03G06G09G10G17G20G23G32
  21814799.180   114637536.43409  21814801.580    89327955.01148
  21032198.820   110524946.49309  21032199.960    86123337.03648
  23051809.980   121138087.27608  23051812.440    94393325.39947
  21150802.640   111148220.34009  21150803.260    86609006.46848
  24049358.260   126380224.79607  24049358.880    98478104.22143
  21990882.580   115562862.49109  21990881.460    90048975.50248
  22044851.380   115846477.09409  22044849.300    90269975.27647
  20464536.040   107541860.50509  20464531.580    83798836.32649
  24308178.940   127740323.30708  24308179.720    99537910.64345
 15 02 15 08 55 30.0000000  0  9G01G03G06G09G10G17G20G23G32
  21828969.660   114712002.47009  21828971.980    89385980.43648
  21038667.060   110558937.60209  21038668.260    86149823.60148
  23034018.500   121044593.26608  23034020.920    94320472.95847
  21138940.360   111085884.05009  21138940.980    86560432.73648
  24033413.440   126296433.74107  24033414.220    98412812.52144
  21995762.640   115588507.65009  21995761.740    90068958.69848
  22032782.600   115783055.58709  22032780.580    90220555.94947
  20463677.340   107537348.07409  20463672.960    83795320.15949
  24323079.960   127818628.10408  24323080.840    99598927.25445
 15 02 15 08 56  0.0000000  0  9G01G03G06G09G10G17G20G23G32
  21843206.120   114786815.33809  21843208.480    89444276.11648
  21045169.440   110593107.68709  21045170.620    86176449.62748
  23016255.520   120951249.28808  23016257.940    94247737.42047
  21127158.720   111023971.61609  21127159.340    86512189.28748
  24017484.060   126212724.60008  24017484.800    98347584.73944
  22000745.900   115614694.54509  22000744.960    90089364.05048
  22020740.560   115719774.22109  22020738.500    90171245.81647
  20462906.460   107533297.33209  20462902.140    83792163.74749
  24337980.180   127896928.85808  24337981.080    99659940.74044
 15 02 15 08 56 30.0000000  0  9G01G03G06G09G10G17G20G23G32
  21857508.340   114861973.81709  21857510.780    89502841.11648
  21051705.760   110627456.45409  21051707.020    86203214.88748
  22998521.560   120858057.42108  22998524.020    94175120.42047
  21115457.960   110962483.79109  21115458.520    86464276.70048
  24001570.300   126129097.58906  24001571.020    98282420.86244
  22005831.980   115641421.82409  22005831.020    90110190.44448
  22008725.240   115656633.06509  22008723.020    90122044.95847
  20462223.320   107529707.45509  20462218.980    83789366.45049
  24352879.600   127975225.44708  24352880.560    99720950.98145
 15 02 15 08 57  0.0000000  0  9G01G03G06G09G10G17G20G23G32
  21871875.800   114937475.15309  21871878.240    89561673.27648
  21058275.740   110661982.01109  21058277.020    86230117.89848
  22980816.780   120765018.27408  22980819.240    94102622.42647
  21103837.880   110901419.82709  21103838.420    86416694.38848
  23985672.080   126045551.51407  23985673.000    98217320.16144
  22011020.380   115668686.29309  22011019.240    90131435.45248
  21996736.380   115593630.66609  21996734.020    90072952.17547
  20461627.420   107526575.67409  20461623.060    83786926.10449
  24367777.840   128053516.01908  24367778.820    99781956.51545
 15 02 15 08 57 30.0000000  0  9G01G03G06G09G10G17G20G23G32
  21886308.900   115013321.69209  21886311.360    89620774.42048
  21064880.080   110696687.63109  21064881.380    86257161.21848
  22963142.180   120672137.57708  22963144.620    94030247.90847
  21092299.360   110840784.04409  21092299.740    86369445.71748
  23969789.940   125962089.79008  23969790.500    98152285.02945
  22016311.300   115696489.58209  22016310.080    90153100.31248
  21984774.680   115530771.29509  21984772.420    90023970.89747
  20461119.280   107523905.08609  20461114.900    83784845.12849
  24382675.500   128131803.87408  24382676.500    99842959.93045
 15 02 15 08 58  0.0000000  0  9G01G03G06G09G10G17G20G23G32
  21900807.640   115089513.10309  21900810.100    89680144.29648
  21071518.900   110731573.89409  21071520.120    86284345.29648
  22945498.300   120579418.32808  22945500.760    93957999.18747
  21080842.560   110780578.06409  21080842.820    86322531.95748
  23953923.540   125878713.16908  23953924.760    98087316.40944
  22021704.560   115724831.05009  22021703.340    90175184.52348
  21972840.340   115468055.71309  21972838.160    89975101.63047
  20460698.840   107521695.26209  20460694.380    83783123.18349
  24397572.700   128210089.50908  24397573.860    99903961.62745
 15 02 15 08 58 30.0000000  0  9G01G03G06G09G10G17G20G23G32
  21915370.360   115166040.60809  21915372.860    89739776.06548
  21078190.640   110766633.00009  21078191.700    86311664.05548
  22927884.100   120486855.18708  22927886.600    93885872.11047
  21069466.340   110720795.11509  21069466.460    86275947.83848
  23938072.320   125795414.65007  23938073.260    98022408.37245
  22027198.480   115753701.46909  22027197.240    90197680.92548
  21960931.900   115405476.45409  21960929.800    89926338.60447
  20460364.620   107519938.58309  20460360.020    83781754.33649
  24412468.000   128288365.27007  24412469.520    99964955.59245
 15 02 15 08 59  0.0000000  0  9G01G03G06G09G10G17G20G23G32
  21929998.080   115242909.81109  21930000.680    89799674.08648
  21084896.520   110801871.53309  21084897.400    86339122.62948
  22910301.320   120394457.21508  22910303.880    93813873.71947
  21058172.060   110661442.74409  21058172.120    86229699.24248
  23922237.300   125712201.08008  23922238.580    97957566.75245
  22032794.040   115783106.17709  22032792.840    90220593.64648
  21949050.760   115343040.87809  21949048.760    89877687.53147
  20460117.620   107518640.51009  20460112.980    83780742.84349
  24427362.620   128366637.65708  24427364.720   100025946.93345
 15 02 15 08 59 30.0000000  0  9G01G03G06G09G10G17G20G23G32
  21944690.380   115320118.45309  21944693.020    89859836.59848
  21091636.240   110837288.15509  21091636.940    86366719.97648
  22892750.200   120302225.45408  22892752.780    93742004.85547
  21046959.680   110602520.60109  21046959.700    86183785.88048
  23906417.900   125629071.44008  23906419.180    97892790.42746
  22038490.800   115813042.58309  22038489.620    90243920.66848
  21937196.800   115280748.38209  21937194.960    89829147.94347
  20459957.520   107517799.11309  20459952.880    83780087.18849
  24442256.460   128444905.49008  24442258.960   100086934.71045
 15 02 15 09 00  0.0000000  0  9G01G03G06G09G10G17G20G23G32
  21959446.440   115397661.93309  21959449.080    89920260.02748
  21098409.020   110872879.31509  21098409.720    86394453.31848
  22875230.460   120210158.90708  22875233.080    93670264.72147
  21035828.640   110544026.12909  21035828.660    86138205.77848
  23890614.200   125546022.83208  23890616.000    97828077.37644
  22044287.660   115843505.56909  22044286.600    90267657.99648
  21925369.420   115218595.45309  21925367.640    89780717.11147
  20459883.520   107517410.07309  20459878.820    83779784.01548
  24457148.900   128523165.12308  24457151.440   100147916.12545
 15 02 15 09 00 30.0000000  0  9G01G03G06G09G10G17G20G23G32
  21974266.080   115475539.12309  21974268.660    89980943.49948
  21105214.900   110908644.85509  21105215.760    86422322.53148
  22857742.460   120118259.81808  22857745.280    93598655.08947
  21024779.060   110485960.07909  21024779.060    86092959.52148
  23874826.340   125463055.65208  23874827.400    97763427.45546
  22050184.360   115874493.42509  22050183.480    90291804.33948
  21913568.760   115156582.86909  21913566.980    89732395.63947
  20459895.420   107517472.55809  20459890.620    83779832.67448
  24472039.820   128601416.41708  24472042.140   100208891.08545
 15 02 15 09 01  0.0000000  0  9G01G03G06G09G10G17G20G23G32
  21989150.100   115553754.74209  21989152.660    90041890.68448
  21112055.000   110944590.53209  21112056.040    86450332.10548
  22840287.900   120026536.49608  22840290.840    93527182.40247
  21013812.180   110428329.15309  21013812.280    86048052.32548
  23859054.620   125380175.83608  23859055.580    97698845.93044
  22056181.820   115906010.46909  22056181.060    90316363.01948
  21901796.040   115094716.86309  21901794.120    89684188.37347
  20459994.240   107517991.93409  20459989.480    83780237.35449
  24486930.220   128679665.23008  24486932.380   100269864.07446
 15 02 15 09 01 30.0000000  0  9G01G03G06G09G10G17G20G23G32
  22004098.480   115632308.62809  22004100.940    90103101.46148
  21118929.580   110980717.19109  21118930.740    86478482.69948
  22822867.400   119934992.15408  22822870.480    93455849.19647
  21002928.360   110371135.07609  21002928.680    86003485.54248
  23843299.540   125297384.86207  23843300.900    97634333.54344
  22062279.980   115938056.06409  22062279.000    90341333.57748
  21890051.560   115032999.00109  21890049.460    89636096.54647
  20460180.040   107518968.34609  20460175.380    83780998.16449
  24501820.080   128757912.32908  24501822.320   100330835.70545
 15 02 15 09 02  0.0000000  0  9G01G03G06G09G10G17G20G23G32
  22019108.340   115711185.35709  22019110.780    90164563.80248
  21125835.900   111017010.49909  21125837.120    86506763.14248
  22805478.840   119843614.96408  22805481.880    93384646.22247
  20992125.080   110314364.43409  20992125.600    85959248.71548
  23827559.460   125214668.95108  23827560.060    97569879.46944
  22068475.700   115970614.13309  22068474.640    90366703.44848
  21878332.540   114971415.03809  21878330.240    89588109.05247
  20460449.940   107520386.55409  20460445.400    83782103.23049
  24516706.940   128836143.52208  24516709.300   100391794.97745
 15 02 15 09 02 30.0000000  0  9G01G03G06G09G10G17G20G23G32
  22034182.240   115790398.96309  22034184.720    90226288.63748
  21132776.880   111053485.54009  21132778.100    86535185.20648
  22788125.620   119752422.47408  22788128.340    93313587.18447
  20981405.460   110258033.13409  20981406.160    85915354.22649
  23811836.160   125132043.38208  23811837.060    97505496.05046
  22074771.580   116003698.26209  22074770.400    90392483.24448
  21866641.940   114909980.90409  21866639.520    89540238.30747
  20460806.580   107522260.97509  20460802.160    83783563.78349
  24531593.760   128914373.79808  24531596.080   100452753.52345
 15 02 15 09 03  0.0000000  0  9G01G03G06G09G10G17G20G23G32
  22049318.760   115869941.77609  22049321.240    90288269.99648
  21139751.200   111090135.77609  21139752.400    86563743.77248
  22770806.860   119661410.57508  22770809.100    93242668.86247
  20970768.300   110202135.43709  20970769.180    85871797.63148
  23796128.660   125049502.27008  23796129.460    97441178.47244
  22081165.920   116037300.44309  22081164.720    90418666.72548
  21854978.680   114848690.59309  21854976.220    89492479.63747
  20461248.660   107524584.22909  20461244.380    83785374.08649
  24546479.360   128992596.69608  24546481.360   100513706.35545
 15 02 15 09 03 30.0000000  0  9G01G03G06G09G10G17G20G23G32
  22064517.500   115949811.36509  22064519.920    90350505.99347
  21146758.720   111126959.81209  21146759.760    86592437.77348
  22753522.700   119570580.43209  22753524.600    93171892.18847
  20960213.660   110146670.89209  20960214.520    85828578.53148
  23780437.720   124967044.61006  23780438.500    97376925.68844
  22087658.360   116071417.76509  22087657.080    90445251.60648
  21843342.660   114787543.20509  21843340.260    89444832.32447
  20461775.820   107527354.47109  20461771.540    83787532.68848
  24561363.140   129070810.86707  24561365.040   100574652.34645
 15 02 15 09 04  0.0000000  0  9G01G03G06G09G10G17G20G23G32
  22079779.020   116030010.91609  22079781.500    90412999.10048
  21153800.180   111163961.98809  21153801.060    86621270.59048
  22736274.320   119479938.76908  22736276.020    93101262.34647
  20949742.460   110091644.53509  20949743.340    85785700.88749
  23764763.520   124884674.84007  23764763.420    97312741.46145
  22094249.200   116106052.61909  22094247.980    90472239.74448
  21831734.820   114726543.52909  21831732.540    89397300.10847
  20462388.700   107530574.86409  20462384.380    83790042.05949
  24576245.900   129149020.59807  24576247.880   100635594.84044
 15 02 15 09 04 30.0000000  0  9G01G03G06G09G10G17G20G23G32
  22095102.800   116110537.84709  22095105.440    90475747.30748
  21160875.160   111201140.83009  21160876.020    86650241.06848
  22719061.860   119389486.64908  22719063.560    93030780.22647
  20939354.600   110037055.76009  20939355.360    85743164.20648
  23749105.760   124802391.82008  23749105.620    97248624.93044
  22100937.880   116141201.88009  22100936.700    90499628.73448
  21820155.020   114665690.83009  21820152.900    89349882.42947
  20463086.840   107534243.43609  20463082.460    83792900.66849
  24591127.640   129227224.44408  24591129.560   100696532.79545
 15 02 15 09 05  0.0000000  0  9G01G03G06G09G10G17G20G23G32
  22110488.160   116191388.32309  22110490.880    90538747.62848
  21167983.160   111238493.67309  21167984.140    86679347.12148
  22701885.260   119299223.84808  22701887.200    92960445.62747
  20929049.600   109982902.54309  20929050.360    85700966.91949
  23733463.880   124720193.54607  23733464.180    97184574.46245
  22107723.600   116176861.27709  22107722.560    90527415.21948
  21808602.800   114604982.68709  21808600.720    89302577.38547
  20463869.500   107538356.43409  20463865.160    83796105.59349
  24606007.780   129305419.82908  24606009.620   100757464.13144
 15 02 15 09 05 30.0000000  0  9G01G03G06G09G10G17G20G23G32
  22125935.420   116272563.96209  22125938.100    90602001.32448
  21175124.780   111276023.32309  21175125.920    86708590.94948
  22684745.600   119209155.66708  22684748.000    92890262.65347
  20918828.160   109929188.48509  20918828.920    85659111.83149
  23717838.920   124638083.28607  23717839.280    97120592.42146
  22114606.660   116213032.02509  22114605.640    90555600.16148
  21797078.720   114544422.49709  21797076.620    89255387.62847
  20464737.140   107542915.88709  20464732.780    83799658.40749
  24620886.880   129383609.55208  24620888.500   100818391.09945
 15 02 15 09 06  0.0000000  0  9G01G03G06G09G10G17G20G23G32
  22141444.300   116354063.39509  22141446.960    90665507.32148
  21182300.000   111313729.57409  21182301.260    86737972.39148
  22667643.380   119119284.31308  22667646.280    92820233.07147
  20908690.360   109875914.05709  20908691.020    85617599.30248
  23702230.520   124556061.25208  23702231.240    97056679.30845
  22121586.540   116249712.04309  22121585.760    90584181.92648
  21785582.760   114484010.70909  21785580.660    89208313.52847
  20465689.520   107547920.76409  20465685.120    83803558.30948
  24635764.900   129461793.33608  24635766.860   100879313.41845
 15 02 15 09 06 30.0000000  0  9G01G03G06G09G10G17G20G23G32
  22157013.880   116435882.04009  22157016.660    90729262.04648
  21189508.180   111351608.98909  21189509.480    86767488.77148
  22650578.560   119029608.86708  22650581.640    92750356.12548
  20898635.720   109823076.62009  20898636.340    85576427.28148
  23686638.400   124474124.30808  23686639.220    96992832.36746
  22128662.220   116286895.94708  22128661.680    90613156.32848
  21774114.520   114423744.81709  21774112.300    89161353.10747
  20466725.780   107553366.86209  20466721.500    83807802.03949
  24650641.240   129539967.88508  24650643.260   100940228.53445
 15 02 15 09 07  0.0000000  0  9G01G03G06G09G10G17G20G23G32
  22172644.760   116518022.45909  22172647.580    90793267.49548
  21196750.060   111389665.37209  21196751.360    86797143.04048
  22633552.380   118940135.66308  22633555.380    92680636.78147
  20888664.940   109770680.58709  20888665.660    85535599.22048
  23671063.020   124392276.45808  23671064.200    96929055.00244
  22135834.200   116324585.81208  22135833.800    90642524.97148
  21762674.700   114363628.50409  21762672.360    89114509.22747
  20467846.560   107559257.04509  20467842.360    83812391.79849
  24665516.540   129618136.95508  24665518.780   101001139.35945
 15 02 15 09 07 30.0000000  0  9G01G03G06G09G10G17G20G23G32
  22188336.780   116600484.12109  22188339.600    90857523.29048
  21204025.820   111427899.40209  21204027.160    86826935.74848
  22616565.400   118850867.78508  22616568.040    92611077.43547
  20878778.500   109718727.34409  20878779.320    85495116.18048
  23655504.740   124310519.02608  23655506.720    96865348.02746
  22143102.400   116362780.56409  22143101.860    90672287.06247
  21751263.460   114303663.06309  21751261.000    89067782.92147
  20469051.820   107565590.97809  20469047.660    83817327.35148
  24680390.920   129696301.45108  24680393.200   101062046.64045
 15 02 15 09 08  0.0000000  0  9G01G03G06G09G10G17G20G23G32
  22204088.380   116683259.16509  22204091.220    90922023.26948
  21211334.200   111466304.45209  21211335.500    86856861.72648
  22599616.740   118761801.18208  22599618.860    92541674.92747
  20868975.260   109667210.88309  20868976.020    85454973.49148
  23639963.220   124228846.06406  23639964.320    96801706.61645
  22150465.220   116401471.65609  22150464.480    90702435.91747
  21739879.800   114243842.55309  21739877.380    89021169.56247
  20470340.140   107572361.03309  20470335.900    83822602.73249
  24695262.900   129774454.56508  24695265.100   101122945.01245
 15 02 15 09 08 30.0000000  0  9G01G03G06G09G10G17G20G23G32
  22219897.220   116766335.10309  22219900.120    90986757.69748
  21218672.960   111504869.29709  21218674.160    86886912.21648
  22582704.600   118672927.05008  22582706.260    92472422.38947
  20859253.220   109616120.61909  20859253.860    85415162.90048
  23624438.340   124147231.17508  23624435.760    96738107.49444
  22157920.080   116440646.15309  22157919.240    90732961.45548
  21728521.700   114184156.39609  21728519.500    88974660.89547
  20471709.220   107579555.24509  20471704.880    83828208.63248
  24710130.580   129852585.09707  24710133.000   101183825.82245
 15 02 15 09 09  0.0000000  0  9G01G03G06G09G10G17G20G23G32
  22235773.960   116849767.85609  22235776.920    91051770.15648
  21226052.920   111543651.08309  21226054.140    86917131.75048
  22565840.260   118584305.03108  22565841.800    92403366.29947
  20849623.300   109565514.28109  20849623.780    85375729.38149
  23608932.900   124065762.25208  23608933.840    96674625.27446
  22165477.400   116480359.14709  22165476.440    90763906.59048
  21717200.140   114124662.09309  21717198.160    88928301.71247
  20473169.720   107587229.84309  20473165.320    83834188.85548
  24725004.860   129930750.19707  24725007.420   101244733.59244
 15 02 15 09 09 30.0000000  0  9G01G03G06G09G10G17G20G23G32
  22251707.920   116933501.40209  22251710.940    91117017.00548
  21233463.700   111582595.12409  21233464.980    86947477.72348
  22549013.900   118495882.93908  22549015.680    92334465.97447
  20840075.100   109515337.76709  20840075.580    85336630.80849
  23593442.640   123984369.68508  23593444.000    96611202.56544
  22173126.340   116520553.94109  22173125.260    90795227.15748
  21705904.920   114065305.63409  21705903.100    88882049.95747
  20474710.960   107595328.98509  20474706.560    83840499.89548
  24739875.440   130008895.23108  24739878.300   101305625.69544
 15 02 15 09 10  0.0000000  0  9G01G03G06G09G10G17G20G23G32
  22267695.760   117017518.15009  22267698.880    91182484.53348
  21240902.280   111621685.07309  21240903.520    86977937.38548
  22532222.980   118407646.91008  22532225.100    92265710.65647
  20830605.660   109465575.34009  20830606.180    85297854.88949
  23577968.560   123903032.79508  23577969.640    96547825.25246
  22180863.500   116561212.56109  22180862.480    90826909.15348
  21694633.040   114006071.30309  21694631.260    88835893.36347
  20476329.620   107603835.27409  20476325.300    83847128.18948
  24754739.340   130087003.87708  24754742.180   101366489.47245
 15 02 15 09 10 30.0000000  0  9G01G03G06G09G10G17G20G23G32
  22283745.940   117101862.43608  22283749.160    91248207.28448
  21248377.280   111660966.54209  21248378.480    87008546.30748
  22515476.760   118319645.05408  22515479.180    92197137.81147
  20821223.760   109416273.11809  20821224.340    85259437.58349
  23562508.800   123821834.85907  23562509.580    96484534.92845
  22188697.200   116602378.39909  22188696.260    90858986.37248
  21683393.180   113947005.01109  21683391.300    88789867.71247
  20478034.280   107612793.50209  20478030.020    83854108.64248
  24769604.960   130165121.78108  24769607.600   101427360.46445
 15 02 15 09 11  0.0000000  0  9G01G03G06G09G10G17G20G23G32
  22299854.760   117186515.04608  22299858.160    91314170.27948
  21255885.360   111700421.66409  21255886.540    87039290.53648
  22498772.240   118231861.99108  22498774.820    92128735.45148
  20811926.100   109367413.77709  20811926.780    85221365.38349
  23547071.420   123740695.78708  23547070.680    96421331.15944
  22196623.700   116644031.60709  22196622.820    90891443.36248
  21672181.980   113888089.57409  21672180.160    88743959.59647
  20479821.380   107622184.68609  20479817.080    83861426.46548
  24784468.920   130243231.11008  24784471.420   101488224.75345
 15 02 15 09 11 30.0000000  0  9G01G03G06G09G10G17G20G23G32
  22316023.440   117271481.95109  22316026.860    91380378.19047
  21263427.840   111740057.71609  21263429.080    87070175.74748
  22482111.220   118144307.53508  22482113.740    92060511.22448
  20802714.200   109319005.15209  20802714.860    85183644.38549
  23531649.200   123659656.57708  23531650.840    96358183.75346
  22204644.020   116686177.59109  22204643.040    90924284.35048
  21661000.940   113829332.79909  21660999.220    88698175.11647
  20481692.040   107632015.23109  20481687.780    83869086.64048
  24799332.640   130321339.16108  24799334.880   101549088.06945
 15 02 15 09 12  0.0000000  0  9G01G03G06G09G10G17G20G23G32
  22332249.780   117356751.58909  22332253.080    91446822.01247
  21271002.840   111779864.53609  21271004.120    87101194.02548
  22465492.180   118056973.94808  22465494.640    91992459.09548
  20793586.220   109271037.50609  20793586.860    85146267.00549
  23516244.020   123578704.39508  23516245.660    96295104.11846
  22212755.660   116728804.00509  22212754.640    90957499.67848
  21649848.200   113770724.89909  21649846.580    88652506.64347
  20483644.120   107642273.84609  20483639.980    83877080.37048
  24814194.240   130399435.71708  24814196.260   101609942.43344
 15 02 15 09 12 30.0000000  0  9G01G03G06G09G10G17G20G23G32
  22348533.920   117442324.65209  22348537.100    91513502.27247
  21278610.780   111819844.12609  21278612.080    87132346.92848
  22448916.000   117969865.74708  22448918.420    91924582.59948
  20784542.640   109223513.29809  20784543.240    85109235.17948
  23500856.160   123497841.56708  23500857.760    96232094.20545
  22220958.500   116771910.38609  22220957.560    90991089.01148
  21638724.240   113712268.50509  21638722.740    88606956.22047
  20485677.800   107652961.29809  20485673.740    83885408.26048
  24829053.940   130477522.90408  24829055.760   101670789.47444
 15 02 15 09 13  0.0000000  0  9G01G03G06G09G10G17G20G23G32
  22364875.640   117528200.43709  22364878.860    91580418.39248
  21286251.800   111859997.14809  21286252.940    87163634.97548
  22432383.340   117882986.12708  22432385.720    91856884.20048
  20775583.660   109176433.68509  20775584.180    85072549.78748
  23485485.740   123417069.41808  23485487.220    96169154.92345
  22229252.520   116815496.12309  22229251.660    91025051.87148
  21627629.360   113653964.89309  21627627.900    88561524.84347
  20487793.080   107664077.13509  20487788.980    83894069.94649
  24843911.980   130555601.28807  24843913.660   101731629.66944
 15 02 15 09 13 30.0000000  0  9G01G03G06G09G10G17G20G23G32
  22381275.340   117614380.75409  22381278.500    91647571.81248
  21293926.400   111900326.77809  21293927.360    87195060.64648
  22415895.380   117796340.74709  22415897.560    91789368.33848
  20766710.020   109129802.27409  20766710.460    85036213.65348
  23470133.240   123336391.54308  23470134.380    96106289.04945
  22237637.940   116859561.91009  22237637.140    91059388.80348
  21616564.320   113595817.84409  21616562.800    88516215.46247
  20489990.320   107675623.46009  20489986.180    83903067.07849
  24858768.920   130633674.18907  24858770.460   101792465.58145
 15 02 15 09 14  0.0000000  0  9G01G03G06G09G10G17G20G23G32
  22397732.200   117700861.42209  22397735.200    91714959.27848
  21301634.020   111940830.33509  21301635.020    87226621.82648
  22399452.000   117709929.34609  22399454.000    91722034.80547
  20757921.220   109083616.73209  20757921.580    85000224.94148
  23454798.220   123255805.22807  23454799.620    96043494.60344
  22246113.780   116904102.68409  22246112.940    91094095.83948
  21605528.760   113537825.14609  21605527.040    88471026.35547
  20492268.760   107687596.68209  20492264.620    83912396.84748
  24873624.140   130711738.88107  24873625.700   101853295.08445
 15 02 15 09 14 30.0000000  0  9G01G03G06G09G10G17G20G23G32
  22414245.980   117787641.27009  22414248.800    91782579.88147
  21309374.720   111981507.95909  21309375.760    87258318.65048
  22383053.620   117623754.63908  22383055.500    91654885.71848
  20749217.360   109037877.66209  20749217.720    84964584.14149
  23439480.860   123175311.18306  23439482.280    95980771.97646
  22254679.640   116949116.95009  22254678.840    91129171.85548
  21594522.580   113479987.26609  21594520.700    88425957.89047
  20494628.280   107699995.71809  20494624.020    83922058.41548
  24888477.620   130789795.53607  24888479.520   101914118.30845
 15 02 15 09 15  0.0000000  0  9G01G03G06G09G10G17G20G23G32
  22430817.080   117874722.50209  22430819.820    91850435.32447
  21317149.340   112022363.31609  21317150.340    87290153.96248
  22366701.280   117537822.77208  22366703.220    91587925.82648
  20740599.080   108992588.97809  20740599.500    84929294.29649
  23424181.680   123094913.44907  23424182.840    95918124.41046
  22263335.760   116994606.04309  22263335.140    91164617.84248
  21583546.700   113422308.92708  21583544.820    88381013.71547
  20497069.300   107712823.09909  20497064.960    83932053.75849
  24903330.360   130867847.79207  24903332.580   101974938.10145
 15 02 15 09 15 30.0000000  0  9G01G03G06G09G10G17G20G23G32
  22447444.300   117962098.93608  22447447.060    91918520.77447
  21324956.940   112063391.60409  21324957.880    87322124.02448
  22350394.540   117452131.44208  22350396.800    91521153.37148
  20732065.660   108947746.35509  20732066.300    84894352.02549
  23408899.820   123014607.81308  23408900.680    95855548.65345
  22272080.860   117040562.72609  22272080.520    91200428.18148
  21572600.260   113364785.61909  21572598.540    88336190.35647
  20499590.700   107726072.91709  20499586.400    83942378.26349
  24918181.500   130945890.88808  24918183.920   102035750.78445
 15 02 15 09 16  0.0000000  0  9G01G03G06G09G10G17G20G23G32
  22464127.420   118049768.94708  22464130.220    91986834.99347
  21332797.380   112104592.65609  21332798.180    87354228.71548
  22334134.040   117366683.01708  22334136.600    91454570.19548
  20723617.140   108903349.93909  20723617.880    84859757.45249
  23393635.720   122934394.22308  23393636.540    95793044.64645
  22280914.560   117086984.38009  22280914.240    91236600.85548
  21561683.380   113307417.61409  21561681.900    88291488.01047
  20502192.180   107739743.71809  20502187.980    83953030.82148
  24933031.020   131023924.70508  24933033.360   102096556.22745
 15 02 15 09 16 30.0000000  0  9G01G03G06G09G10G17G20G23G32
  22480866.340   118137732.28209  22480869.160    92055377.77848
  21340670.920   112145967.77009  21340671.580    87386469.04348
  22317920.540   117281481.18008  22317923.240    91388179.18248
  20715253.960   108859401.28209  20715254.740    84825511.76949
  23378389.300   122854274.36808  23378390.240    95730613.61846
  22289836.820   117133870.73109  22289836.540    91273135.62748
  21550796.360   113250206.35509  21550795.040    88246907.80048
  20504873.740   107753835.46609  20504869.640    83964011.39848
  24947879.080   131101950.48108  24947881.280   102157355.41644
 15 02 15 09 17  0.0000000  0  9G01G03G06G09G10G17G20G23G32
  22497660.960   118225988.42209  22497663.800    92124148.72847
  21348577.620   112187517.83009  21348578.300    87418845.67948
  22301754.700   117196529.38008  22301757.320    91321982.98548
  20706976.260   108815901.58509  20706977.080    84791615.93049
  23363160.980   122774249.77108  23363161.340    95668256.74845
  22298847.200   117181220.03309  22298846.900    91310031.12447
  21539939.640   113193154.13809  21539938.300    88202451.52747
  20507635.440   107768348.19009  20507631.300    83975320.00048
  24962725.860   131179969.19408  24962727.800   102218149.11644
 15 02 15 09 17 30.0000000  0  9G01G03G06G09G10G17G20G23G32
  22514510.880   118314535.11809  22514513.680    92193146.08447
  21356517.360   112229242.17809  21356518.220    87451358.12748
  22285636.820   117111829.42808  22285639.260    91255983.03448
  20698783.980   108772850.44809  20698784.740    84758069.60849
  23347950.800   122694319.97008  23347951.180    95605973.79645
  22307945.200   117229029.30509  22307944.860    91347285.05548
  21529113.160   113136260.40209  21529111.760    88158118.75847
  20510476.880   107783279.89009  20510472.660    83986955.08448
  24977571.060   131257980.08308  24977572.540   102278936.69944
 15 02 15 09 18  0.0000000  0  9G01G03G06G09G10G17G20G23G32
  22531415.520   118403369.34809  22531418.280    92262367.49547
  21364489.880   112271139.17009  21364490.980    87484005.10348
  22269567.000   117027382.20609  22269569.340    91190180.02448
  20690676.740   108730246.47009  20690677.480    84724871.73849
  23332758.480   122614483.81807  23332759.040    95543763.79645
  22317130.100   117277294.79609  22317129.680    91384894.47548
  21518316.720   113079524.25909  21518315.200    88113908.77547
  20513397.480   107798627.58109  20513393.200    83998914.33248
  24992414.460   131335981.67008  24992415.860   102339717.03744
 15 02 15 09 18 30.0000000  0  9G01G03G06G09G10G17G20G23G32
  22548375.620   118492495.06808  22548378.420    92331816.03247
  21372496.360   112313214.30609  21372497.580    87516790.89048
  22253546.800   116943195.68908  22253549.160    91124580.14948
  20682655.720   108688095.42609  20682656.340    84692026.78549
  23317585.000   122534746.89708  23317585.340    95481631.13945
  22326402.360   117326019.78709  22326401.720    91422861.94948
  21507551.460   113022951.80809  21507549.840    88069826.34348
  20516398.060   107814395.49409  20516393.720    84011201.01748
  25007257.160   131413979.40208  25007258.380   102400494.38944
 15 02 15 09 19  0.0000000  0  9G01G03G06G09G10G17G20G23G32
  22565389.920   118581905.67108  22565392.800    92401486.56247
  21380535.840   112355462.48109  21380537.240    87549711.52048
  22237575.720   116859267.32109  22237578.260    91059181.43148
  20674719.980   108646392.42309  20674720.620    84659530.95949
  23302429.380   122455104.51708  23302429.500    95419572.18245
  22335760.520   117375196.57409  22335759.740    91461181.49348
  21496816.380   112966538.29809  21496814.700    88025867.76648
  20519477.400   107830577.52409  20519472.980    84023810.40248
  25022098.120   131491968.19307  25022099.340   102461264.76345
 15 02 15 09 19 30.0000000  0  9G01G03G06G09G10G17G20G23G32
  22582458.420   118671600.86809  22582461.400    92471378.83547
  21388608.480   112397885.02909  21388610.120    87582768.01048
  22221654.500   116775600.84208  22221657.220    90993986.78548
  20666869.780   108605138.94209  20666870.300    84627385.39149
  23287292.260   122375558.60908  23287292.360    95357588.38244
  22345204.340   117424824.08309  22345203.600    91499852.19848
  21486111.880   112910285.47909  21486110.120    87982034.38247
  20522635.460   107847173.63309  20522631.220    84036742.45348
  25036937.360   131569949.46207  25036938.920   102522029.26544
 15 02 15 09 20  0.0000000  0  8G01G03G06G09G10G17G20G23
  22599585.120   118761601.71409  22599588.140    92541509.27648
  21396718.520   112440504.51809  21396720.420    87615977.95648
  22205787.920   116692221.35208  22205790.720    90929015.74948
  20659109.500   108564357.75909  20659109.960    84595607.85949
  23272178.120   122296132.18508  23272178.380    95295697.67246
  22354737.840   117474922.61409  22354737.160    91538889.95748
  21475442.340   112854216.38909  21475440.500    87938344.18247
  20525876.240   107864204.88009  20525872.220    84050013.56948
 15 02 15 09 20 30.0000000  0  8G01G03G06G09G10G17G20G23
  22616759.820   118851854.96708  22616762.880    92611836.39048
  21404856.320   112483269.18709  21404858.340    87649301.04448
  22189966.520   116609079.61708  22189969.240    90864229.99448
  20651429.160   108523997.31609  20651429.580    84564158.17549
  23257076.920   122216773.83207  23257077.400    95233860.01946
  22364350.700   117525438.01409  22364349.940    91578252.57148
  21464798.160   112798280.31209  21464796.200    87894757.63147
  20529189.780   107881618.44109  20529185.960    84063582.60248
 15 02 15 09 21  0.0000000  0  8G01G03G06G09G10G17G20G23
  22633988.440   118942391.53409  22633991.440    92682384.26548
  21413028.100   112526211.58209  21413030.080    87682762.63048
  22174197.060   116526210.63809  22174199.560    90799656.75948
  20643835.060   108484090.24009  20643835.520    84533061.75749
  23241994.940   122137516.55107  23241995.060    95172101.10147
  22374048.580   117576400.17409  22374047.740    91617963.30048
  21454185.540   112742510.14509  21454183.380    87851300.36047
  20532582.120   107899445.51309  20532578.360    84077473.84848
 15 02 15 09 21 30.0000000  0  8G01G03G06G09G10G17G20G23
  22651270.480   119033208.92909  22651273.480    92753150.97147
  21421233.600   112569330.78009  21421235.400    87716361.98048
  22158479.940   116443615.98709  22158482.060    90735297.30948
  20636327.040   108444635.78109  20636327.600    84502318.03649
  23226932.060   122058359.72308  23226931.920    95110420.52646
  22383830.740   117627805.94009  22383829.980    91658019.68848
  21443604.360   112686905.53709  21443602.040    87807972.10247
  20536052.760   107917683.87309  20536048.880    84091685.57748
 15 02 15 09 22  0.0000000  0  8G01G03G06G09G10G17G20G23
  22668604.840   119124301.29509  22668607.900    92824131.94248
  21429471.880   112612622.60309  21429473.600    87750095.84048
  22142814.840   116361293.98209  22142816.540    90671150.31648
  20628904.360   108405629.78309  20628904.980    84471923.75949
  23211887.600   121979299.54908  23211888.020    95048815.28545
  22393696.020   117679648.78509  22393695.440    91698416.65748
  21433053.960   112631462.97709  21433051.580    87764770.11347
  20539600.640   107936327.87709  20539596.640    84106213.39148
 15 02 15 09 22 30.0000000  0  8G01G03G06G09G10G17G20G23
  22685992.260   119215672.33609  22685995.400    92895330.05648
  21437743.940   112656092.24809  21437745.520    87783968.26848
  22127203.080   116279252.31609  22127204.520    90607221.77348
  20621568.080   108367077.61109  20621568.720    84441883.11149
  23196862.380   121900341.39008  23196863.060    94987289.51146
  22403645.080   117731931.74309  22403644.700    91739156.57347
  21422535.520   112576188.21209  21422533.180    87721698.88047
  20543226.500   107955381.57409  20543222.280    84121060.43448
 15 02 15 09 23  0.0000000  0  8G01G03G06G09G10G17G20G23
  22703431.820   119307317.36209  22703434.980    92966741.67447
  21446049.300   112699736.68709  21446050.740    87817976.89348
  22111644.420   116197490.44609  22111645.880    90543511.23548
  20614317.580   108328976.27009  20614318.280    84412193.76349
  23181856.120   121821482.85608  23181856.360    94925841.33346
  22413676.620   117784648.64508  22413676.380    91780234.62547
  21412048.500   112521078.78109  21412046.300    87678756.48747
  20546929.440   107974840.53109  20546925.160    84136223.26248
 15 02 15 09 23 30.0000000  0  8G01G03G06G09G10G17G20G23
  22720922.640   119399231.93108  22720925.860    93038363.32047
  21454387.380   112743553.07809  21454388.700    87852119.50948
  22096138.760   116116008.00808  22096140.460    90480018.43848
  20607152.320   108291322.94809  20607153.020    84382853.53249
  23166868.440   121742721.54408  23166868.520    94864468.96645
  22423789.760   117837794.30108  22423789.560    91821646.77947
  21401592.400   112466132.15709  21401590.340    87635940.94648
  20550708.680   107994700.45809  20550704.360    84151698.53448
 15 02 15 09 24  0.0000000  0  8G01G03G06G09G10G17G20G23
  22738465.380   119491419.38908  22738468.660    93110197.62147
  21462759.140   112787546.42709  21462760.420    87886400.01848
  22080687.640   116034812.50509  22080689.620    90416749.23048
  20600073.320   108254122.73309  20600073.980    84353866.37049
  23151900.120   121664062.43608  23151900.740    94803176.26745
  22433985.020   117891371.01909  22433984.820    91863394.81847
  21391168.320   112411354.10009  21391166.500    87593256.76948
  20554564.880   108014964.87909  20554560.480    84167488.99348
 15 02 15 09 24 30.0000000  0  8G01G03G06G09G10G17G20G23
  22756058.780   119583872.75509  22756062.080    93182239.11447
  21471163.540   112831711.44009  21471164.820    87920814.27748
  22065290.620   115953901.08109  22065292.840    90353701.37748
  20593079.580   108217370.27909  20593080.140    84325228.10748
  23136950.300   121585500.84608  23136950.980    94741959.46846
  22444261.000   117945371.30109  22444260.680    91905472.90347
  21380775.360   112356739.85709  21380773.780    87550700.21947
  20558496.800   108035627.21909  20558492.340    84183589.50148
 15 02 15 09 25  0.0000000  0  8G01G03G06G09G10G17G20G23
  22773703.480   119676595.57308  22773706.800    93254490.56647
  21479601.580   112876053.32709  21479602.840    87955366.37448
  22049949.180   115873281.45409  22049951.500    90290880.89648
  20586172.020   108181070.79109  20586172.500    84296942.82049
  23122020.000   121507042.51508  23122020.360    94680823.13146
  22454618.140   117999797.70609  22454617.680    91947883.04448
  21370414.740   112302295.23809  21370413.300    87508275.85548
  20562505.180   108056691.37709  20562500.720    84200003.11148
 15 02 15 09 25 30.0000000  0  8G01G03G06G09G10G17G20G23
  22791399.020   119769585.70808  22791402.360    93326950.31847
  21488073.100   112920571.56509  21488074.360    87990055.87948
  22034663.660   115792955.58809  22034665.940    90228289.32748
  20579350.580   108145223.78209  20579351.020    84269010.10849
  23107109.280   121428687.23008  23107109.360    94619767.11446
  22465055.780   118054647.13108  22465055.200    91990622.81048
  21360086.540   112248020.44109  21360085.020    87465983.82248
  20566589.600   108078155.16209  20566585.140    84216728.12048
 15 02 15 09 26  0.0000000  0  8G01G03G06G09G10G17G20G23
  22809144.600   119862838.91708  22809147.920    93399615.07047
  21496577.720   112965263.59709  21496578.940    88024880.81948
  22019434.040   115712923.47109  22019436.240    90165926.64748
  20572614.660   108109826.57209  20572615.120    84241427.90149
  23092217.580   121350432.61208  23092217.960    94558789.59845
  22475573.020   118109914.60209  22475572.320    92033688.31248
  21349790.320   112193913.62309  21349788.820    87423822.68848
  20570749.380   108100014.73009  20570744.900    84233761.52748
 15 02 15 09 26 30.0000000  0  8G01G03G06G09G10G17G20G23
  22826940.280   119956355.47608  22826943.580    93472485.02647
  21505115.860   113010131.43909  21505117.100    88059842.75048
  22004261.120   115633189.50309  22004263.140    90103796.28748
  20565964.720   108074881.18809  20565965.160    84214197.76949
  23077345.600   121272281.33008  23077346.380    94497892.52446
  22486169.760   118165599.24409  22486168.900    92077078.90348
  21339526.440   112139977.00109  21339525.100    87381794.16948
  20574984.560   108122270.73309  20574980.180    84251103.84048
 15 02 15 09 27  0.0000000  0  8G01G03G06G09G10G17G20G23
  22844784.240   120050125.77208  22844787.500    93545552.69147
  21513686.020   113055167.12209  21513687.240    88094935.45948
  21989143.920   115553748.25709  21989145.780    90041894.03148
  20559399.180   108040379.55209  20559399.660    84187313.41049
  23062492.060   121194225.66108  23062492.900    94437069.93746
  22496843.820   118221690.31509  22496842.860    92120786.18948
  21329293.540   112086203.50009  21329292.500    87339892.76248
  20579293.300   108144913.72909  20579289.020    84268747.70948
 15 02 15 09 27 30.0000000  0  8G01G03G06G09G10G17G20G23
  22862678.080   120144158.42308  22862681.440    93618824.78447
  21522290.000   113100381.04309  21522291.320    88130167.05448
  21974085.000   115474612.57609  21974086.700    89980229.87248
  20552920.080   108006331.92809  20552920.600    84160782.83049
  23047658.860   121116276.32008  23047659.160    94376330.18045
  22507596.560   118278195.56709  22507595.540    92164816.20048
  21319093.760   112032603.71709  21319092.880    87298126.71048
  20583677.360   108167952.44609  20583673.140    84286699.93148
 15 02 15 09 28  0.0000000  0  8G01G03G06G09G10G17G20G23
  22880620.940   120238448.95908  22880624.380    93692297.83147
  21530927.200   113145770.41009  21530928.700    88165535.35448
  21959084.240   115395782.11409  21959085.920    89918803.55348
  20546526.820   107972735.41409  20546527.300    84134603.76648
  23032845.540   121038431.10608  23032845.500    94315671.60346
  22518427.100   118335109.94509  22518426.020    92209165.02347
  21308926.860   111979175.87109  21308925.960    87256494.62548
  20588135.940   108191382.69909  20588131.760    84304957.24748
 15 02 15 09 28 30.0000000  0  8G01G03G06G09G10G17G20G23
  22898612.660   120332996.53508  22898616.300    93765971.15847
  21539597.900   113191336.16909  21539599.580    88201041.10548
  21944142.160   115317260.33709  21944144.040    89857617.74648
  20540219.560   107939590.84609  20540220.040    84108776.86749
  23018052.340   120960691.36508  23018052.120    94255095.21045
  22529335.000   118392431.60909  22529334.180    92253831.20448
  21298793.040   111925921.37309  21298792.060    87214997.62248
  20592668.920   108215204.12509  20592664.800    84323519.37648
 15 02 15 09 29  0.0000000  0  8G01G03G06G09G10G17G20G23
  22916652.520   120427796.89208  22916656.360    93839841.45347
  21548301.680   113237075.79509  21548303.420    88236682.33348
  21929258.640   115239047.13409  21929260.800    89796672.39348
  20533997.780   107906895.46909  20533998.220    84083299.98449
  23003278.800   120883054.73208  23003278.400    94194599.14446
  22540319.220   118450154.93208  22540318.540    92298810.35447
  21288691.720   111872837.39609  21288690.600    87173633.48648
  20597275.640   108239412.80709  20597271.680    84342383.27048
 15 02 15 09 29 30.0000000  0  8G01G03G06G09G10G17G20G23
  22934740.740   120522850.99808  22934744.660    93913909.48647
  21557039.180   113282991.99909  21557040.960    88272461.17148
  21914434.820   115161147.75309  21914436.940    89735971.57448
  20527862.080   107874651.93709  20527862.500    84058175.18949
  22988525.460   120805524.50008  22988524.940    94134186.01446
  22551380.040   118508280.44808  22551379.420    92344102.92647
  21278623.720   111819928.61709  21278622.400    87132405.87348
  20601956.380   108264009.98509  20601952.500    84361549.88648
 15 02 15 09 30  0.0000000  0  8G01G03G06G09G10G17G20G23
  22952875.800   120618151.00008  22952879.720    93988169.12147
  21565809.180   113329078.66509  21565810.900    88308372.83048
  21899670.120   115083558.51709  21899671.880    89675512.44048
  20521811.120   107842853.87809  20521811.600    84033397.52349
  22973791.160   120728094.91308  22973790.620    94073851.30646
  22562515.620   118566799.09408  22562515.180    92389701.79747
  21268587.940   111767189.14409  21268586.320    87091310.18448
  20606709.500   108288987.64709  20606705.680    84381012.99548
 15 02 15 09 30 30.0000000  0  8G01G03G06G09G10G17G20G23
  22971059.000   120713704.16408  22971062.940    94062626.03647
  21574613.440   113375344.84609  21574615.120    88344424.37748
  21884966.700   115006290.91209  21884968.100    89615303.93948
  20515846.660   107811510.15309  20515847.100    84008973.87949
  22959077.660   120650775.44308  22959077.200    94013602.40646
  22573727.320   118625717.14609  22573727.000    92435611.91647
  21258586.100   111714628.55009  21258584.260    87050353.87948
  20611536.440   108314353.53509  20611532.660    84400778.62448
 15 02 15 09 31  0.0000000  0  8G01G03G06G09G10G17G20G23
  22989289.000   120809503.03808  22989292.960    94137274.40247
  21583450.840   113421784.91609  21583452.400    88380611.42248
  21870323.840   114929341.80009  21870325.140    89555343.60748
  20509967.540   107780614.91209  20509967.860    83984899.69549
  22944384.080   120573560.82108  22944383.740    93953435.19545
  22585013.500   118685026.15709  22585013.220    92481826.66447
  21248617.180   111662241.86809  21248615.340    87009533.09747
  20616435.900   108340100.54209  20616432.100    84420841.22948
 15 02 15 09 31 30.0000000  0  8G01G03G06G09G10G17G20G23
  23007565.660   120905547.11108  23007569.660    94212113.83247
  21592321.560   113468400.09409  21592323.020    88416934.91348
  21855742.180   114852714.83109  21855743.580    89495634.28448
  20504173.860   107750169.11209  20504174.200    83961175.72849
  22929710.760   120496452.84208  22929710.580    93893351.08546
  22596373.840   118744724.57109  22596373.560    92528344.85147
  21238681.540   111610030.72609  21238679.840    86968849.09648
  20621407.800   108366228.12109  20621403.980    84441200.39048
 15 02 15 09 32  0.0000000  0  8G01G03G06G09G10G17G20G23
  23025889.040   121001836.65308  23025893.040    94287144.55347
  21601226.060   113515192.51709  21601227.380    88453396.52748
  21841222.620   114776414.60309  21841224.300    89436179.57548
  20498466.060   107720174.67309  20498466.440    83937803.47349
  22915058.240   120419453.95508  22915058.060    93833351.96245
  22607808.160   118804811.77609  22607807.820    92575165.99347
  21228779.860   111557997.91409  21228778.260    86928304.03348
  20626452.260   108392737.03509  20626448.480    84461856.70248
 15 02 15 09 32 30.0000000  0  8G01G03G06G09G10G17G20G23
  23044257.920   121098365.07808  23044261.840    94362361.41147
  21610163.240   113562157.38709  21610164.580    88489992.51148
  21826764.720   114700438.75409  21826766.760    89376977.62748
  20492843.140   107690626.45709  20492843.580    83914778.91849
  22900425.600   120342559.62508  22900425.480    93773434.35545
  22619314.920   118865280.27109  22619314.580    92622284.23747
  21218911.400   111506139.42109  21218909.860    86887894.80848
  20631568.100   108419620.94509  20631564.360    84482805.22248
 15 02 15 09 33  0.0000000  0  8G01G03G06G09G10G17G20G23
  23062672.940   121195135.97208  23062676.820    94437767.18947
  21619134.140   113609300.12109  21619135.680    88526727.07648
  21812370.080   114624795.15609  21812372.320    89318034.56848
  20487306.220   107661529.63309  20487306.620    83892106.08649
  22885814.080   120265776.04208  22885813.900    93713603.01946
  22630894.760   118926132.43609  22630894.420    92669701.43747
  21209077.300   111454461.11609  21209075.840    86847626.00348
  20636756.080   108446883.69009  20636752.340    84504048.93848
 15 02 15 09 33 30.0000000  0  8G01G03G06G09G10G17G20G23
  23081133.340   121292145.35108  23081137.120    94513358.80647
  21628138.460   113656618.55409  21628140.140    88563598.55448
  21798038.780   114549484.13909  21798041.020    89259350.67148
  20481854.780   107632881.74409  20481855.060    83869783.06449
  22871223.340   120189101.07808  22871223.140    93653856.31446
  22642546.660   118987363.43709  22642546.320    92717413.84048
  21199277.160   111402961.14609  21199275.640    86807496.15148
  20642015.460   108474521.52509  20642011.720    84525584.93048
 15 02 15 09 34  0.0000000  0  8G01G03G06G09G10G17G20G23
  23099638.740   121389391.24408  23099642.520    94589134.71546
  21637176.300   113704112.59209  21637178.080    88600606.87148
  21783771.200   114474507.94409  21783773.300    89200927.68248
  20476488.620   107604682.30209  20476488.880    83847809.48149
  22856653.260   120112535.16408  22856652.980    93594194.59846
  22654270.060   119048970.26709  22654269.740    92765419.09747
  21189511.180   111351640.55109  21189509.580    86767506.06948
  20647345.900   108502532.83209  20647342.080    84547411.93448
 15 02 15 09 34 30.0000000  0  8G01G03G06G09G10G17G20G23
  23118188.380   121486869.62408  23118192.180    94665091.77846
  21646247.180   113751780.00009  21646248.920    88637750.28548
  21769567.360   114399866.86809  21769569.420    89142765.82348
  20471207.320   107576928.79909  20471207.620    83826183.37949
  22842103.620   120036076.47908  22842103.460    93534616.41646
  22666063.960   119110948.05309  22666063.800    92813713.40448
  21179779.020   111300497.73409  21179777.360    86727654.51748
  20652746.680   108530913.65509  20652742.700    84569526.88048
 15 02 15 09 35  0.0000000  0  8G01G03G06G09G10G17G20G23
  23136782.580   121584582.17608  23136786.360    94741231.32746
  21655351.700   113799624.32309  21655353.340    88675031.56948
  21755428.400   114325566.85209  21755430.580    89084869.72948
  20466011.440   107549624.37809  20466011.800    83804907.22149
  22827575.120   119959728.98008  22827575.260    93475124.90746
  22677928.560   119173297.05709  22677928.560    92862296.97648
  21170081.480   111249537.00109  21170079.840    86687944.86248
  20658218.120   108559665.95109  20658213.980    84591931.28348
 15 02 15 09 35 30.0000000  0  8G01G03G06G09G10G17G20G23
  23155420.780   121682526.08708  23155424.600    94817551.13746
  21664489.660   113847644.65309  21664491.240    88712449.98648
  21741354.680   114251609.41409  21741357.040    89027240.56348
  20460900.780   107522767.76509  20460901.160    83783979.98249
  22813067.780   119883492.22308  22813068.080    93415719.64646
  22689863.220   119236013.75408  22689863.320    92911167.05147
  21160418.500   111198757.78009  21160416.860    86648376.62948
  20663759.800   108588787.47609  20663755.520    84614623.38248
 15 02 15 09 36  0.0000000  0  8G01G03G06G09G10G17G20G23
  23174102.800   121780700.23108  23174106.660    94894050.35346
  21673661.120   113895841.68109  21673662.760    88750006.09348
  21727346.840   114177997.71309  21727349.340    88969880.82248
  20455875.380   107496359.31509  20455875.760    83763401.97949
  22798581.780   119807367.37708  22798582.020    93356401.57446
  22701867.400   119299096.01908  22701867.660    92960321.96948
  21150790.340   111148161.10809  21150788.660    86608950.65548
  20669371.400   108618276.58609  20669367.080    84637601.91748
 15 02 15 09 36 30.0000000  0  8G01G03G06G09G10G17G20G23
  23192828.600   121879104.62008  23192832.460    94970728.97345
  21682866.460   113944217.37509  21682868.360    88787701.40348
  21713405.700   114104736.07309  21713408.240    88912793.84948
  20450935.580   107470400.49909  20450935.900    83743174.33049
  22784117.520   119731356.86508  22784117.640    93297172.61246
  22713940.920   119362542.70008  22713941.280    93009760.85147
  21141197.520   111097750.12509  21141195.820    86569669.37648
  20675053.160   108648134.33909  20675048.820    84660867.69948
 15 02 15 09 37  0.0000000  0  8G01G03G06G09G10G17G20G23
  23211596.540   121977730.52908  23211600.520    95047580.21645
  21692104.620   113992764.83809  21692106.580    88825530.56648
  21699530.260   114031820.06709  21699532.760    88855976.20348
  20446079.980   107444884.04909  20446080.240    83723291.37849
  22769673.580   119655454.11008  22769673.900    93238027.64146
  22726082.100   119426343.90708  22726082.260    93059476.00147
  21131638.860   111047518.30309  21131637.140    86530527.70348
  20680803.440   108678351.89409  20680799.020    84684413.84648
 15 02 15 09 37 30.0000000  0  8G01G03G06G09G10G17G20G23
  23230407.600   122076582.78307  23230411.680    95124607.81345
  21701376.960   114041490.83009  21701378.740    88863498.85348
  21685722.260   113959258.84509  21685724.640    88799435.01548
  20441309.720   107419816.27309  20441309.980    83703758.04749
  22755251.460   119579666.27008  22755252.000    93178972.20646
  22738291.540   119490504.02508  22738291.620    93109470.81147
  21122115.640   110997473.12109  21122113.960    86491531.46548
  20686623.200   108708934.46309  20686618.660    84708244.40948
 15 02 15 09 38  0.0000000  0  8G01G03G06G09G10G17G20G23
  23249260.560   122175655.06007  23249264.480    95201806.85744
  21710682.580   114090390.86909  21710684.020    88901602.76748
  21671981.380   113887050.38309  21671983.740    88743168.70348
  20436623.880   107395192.27609  20436624.120    83684570.51649
  22740850.540   119503989.34008  22740850.900    93120003.14946
  22750567.800   119555015.15308  22750567.840    93159739.13848
  21112627.160   110947610.87709  21112625.620    86452677.77348
  20692511.220   108739875.86209  20692506.600    84732354.57448
 15 02 15 09 38 30.0000000  0  8G01G03G06G09G10G17G20G23
  23268155.780   122274949.36007  23268159.620    95279178.90644
  21720022.000   114139468.90109  21720023.280    88939845.36748
  21658308.900   113815201.00509  21658311.300    88687182.19448
  20432023.120   107371015.50209  20432023.480    83665731.47249
  22726471.460   119428427.65008  22726471.820    93061123.92446
  22762911.000   119619878.44509  22762910.960    93210281.89147
  21103174.260   110897936.02009  21103172.880    86413970.10048
  20698467.980   108771178.69509  20698463.380    84756746.37348
 15 02 15 09 39  0.0000000  0  8G01G03G06G09G10G17G20G23
  23287092.160   122374459.81507  23287095.900    95356719.38544
  21729394.440   114188721.03809  21729395.760    88978223.62348
  21644704.580   113743709.15909  21644706.900    88631474.28848
  20427506.620   107347281.52109  20427507.060    83647237.46049
  22712113.640   119352977.76908  22712114.180    93002331.82346
  22775319.840   119685086.79008  22775319.560    93261093.53547
  21093756.440   110848445.37609  21093755.160    86375405.97048
  20704492.320   108802837.14909  20704487.900    84781415.27648
 15 02 15 09 39 30.0000000  0  8G01G03G06G09G10G17G20G23
  23306070.720   122474191.96006  23306074.480    95434432.60944
  21738801.260   114238154.75009  21738802.780    89016743.35748
  21631170.220   113672584.71309  21631172.360    88576052.66248
  20423075.740   107323997.30709  20423076.220    83629093.91949
  22697778.540   119277647.48708  22697779.280    92943632.96846
  22787795.160   119750644.93908  22787794.720    93312177.74647
  21084375.360   110799147.17609  21084374.000    86336991.79848
  20710585.400   108834856.94509  20710581.160    84806365.73348
 15 02 15 09 40  0.0000000  0  8G01G03G06G09G10G17G20G23
  23325088.960   122574132.84406  23325092.620    95512308.47844
  21748240.480   114287758.90809  21748242.000    89055395.91348
  21617703.980   113601819.03609  21617706.060    88520910.58948
  20418728.280   107301151.32709  20418728.720    83611291.85949
  22683464.460   119202426.43608  22683465.100    92885019.17446
  22800334.260   119816538.60408  22800333.820    93363523.37747
  21075028.960   110750030.56909  21075027.340    86298719.12648
  20716744.840   108867225.35709  20716740.760    84831587.83448
 15 02 15 09 40 30.0000000  0  8G01G03G06G09G10G17G20G23
  23344148.320   122674289.91306  23344151.860    95590352.83045
  21757713.920   114337542.97809  21757715.500    89094188.66848
  21604308.160   113531423.91309  21604310.300    88466057.25548
  20414465.880   107278752.38209  20414466.260    83593838.14349
  22669173.160   119127324.38008  22669173.560    92826498.11546
  22812938.520   119882774.49309  22812938.120    93415135.69247
  21065719.060   110701106.13409  21065717.220    86260596.21448
  20722972.140   108899950.13109  20722968.100    84857087.61748
 15 02 15 09 41  0.0000000  0  8G01G03G06G09G10G17G20G23
  23363247.960   122774658.32606  23363251.460    95668561.76643
  21767221.160   114387504.11109  21767222.900    89133119.37648
  21590982.760   113461398.85309  21590984.900    88411492.28348
  20410287.960   107256797.09609  20410288.300    83576730.13149
  22654904.060   119052338.99508  22654904.160    92768067.98746
  22825606.840   119949346.60109  22825606.420    93467010.00947
  21056445.180   110652371.56509  21056443.320    86222621.24448
  20729266.440   108933026.84309  20729262.400    84882861.63548
 15 02 15 09 41 30.0000000  0  8G01G03G06G09G10G17G20G23
  23382387.300   122875235.01005  23382390.640    95746933.09843
  21776762.000   114437641.10909  21776763.740    89172187.14448
  21577728.100   113391745.07809  21577730.100    88357216.63548
  20406194.140   107235283.73209  20406194.480    83559966.48949
  22640657.040   118977469.47208  22640657.060    92709728.13546
  22838338.320   120016250.67509  22838338.020    93519142.98447
  21047207.220   110603826.25709  21047205.480    86184793.74748
  20735627.160   108966452.59209  20735623.140    84908907.63648
 15 02 15 09 42  0.0000000  0  8G01G03G06G09G10G17G20G23
  23401565.660   122976016.69805  23401568.900    95825464.16844
  21786336.140   114487952.76909  21786337.820    89211391.00248
  21564544.280   113322463.76009  21564546.180    88303231.21348
  20402184.100   107214210.48609  20402184.460    83543545.79449
  22626431.880   118902715.02308  22626431.880    92651477.97146
  22851132.180   120083482.58209  22851132.060    93571531.40847
  21038005.200   110555469.86209  21038003.620    86147113.45448
  20742053.640   109000224.54209  20742049.760    84935223.40748
 15 02 15 09 42 30.0000000  0  8G01G03G06G09G10G17G20G23
  23420784.080   123077009.55105  23420787.660    95904159.67943
  21795945.000   114538447.11209  21795946.740    89250737.20048
  21551433.240   113253565.29809  21551435.260    88249544.11348
  20398259.260   107193584.80809  20398259.480    83527473.85149
  22612230.080   118828084.23708  22612230.120    92593324.17346
  22863989.340   120151047.03809  22863989.260    93624178.97447
  21028840.720   110507310.78109  21028839.240    86109586.91748
  20748547.220   109034349.19509  20748543.500    84961814.00748
 15 02 15 09 43  0.0000000  0  8G01G03G06G09G10G17G20G23
  23440041.160   123178205.36405  23440044.880    95983013.46143
  21805587.460   114589117.92109  21805589.260    89290220.91148
  21538394.360   113185045.81209  21538396.560    88196152.31748
  20394418.240   107173399.86709  20394418.400    83511745.34249
  22598050.680   118753571.38908  22598050.960    92535262.25546
  22876908.100   120218935.20509  22876908.080    93677078.77947
  21019712.820   110459343.52109  21019711.300    86072209.84048
  20755106.360   109068818.05309  20755102.720    84988672.82448
 15 02 15 09 43 30.0000000  0  8G01G03G06G09G10G17G20G23
  23459336.580   123279602.81104  23459343.660    96062086.26844
  21815263.600   114639965.93609  21815265.420    89329842.70248
  21525428.320   113116908.37909  21525430.520    88143058.23348
  20390661.100   107153655.73709  20390661.180    83496360.32649
  22583893.900   118679177.47508  22583894.240    92477293.02346
  22889887.920   120287144.66108  22889888.060    93730228.92747
  21010621.800   110411569.76809  21010620.240    86034983.54948
  20761730.920   109103630.15909  20761727.220    85015799.11048
 15 02 15 09 44  0.0000000  0  7G03G06G09G10G17G20G23
  21824973.500   114690991.55609  21824975.280    89369602.90948
  21512535.600   113049155.76909  21512537.660    88090264.02048
  20386987.700   107134352.21609  20386987.840    83481318.65049
  22569760.000   118604903.69508  22569760.440    92419417.39346
  22902928.220   120355672.52308  22902928.680    93783627.16447
  21001567.840   110363990.63209  21001566.280    85997908.91448
  20768420.640   109138784.79609  20768416.980    85043192.31548
 15 02 15 09 44 30.0000000  0  7G03G06G09G10G17G20G23
  21834717.200   114742194.63509  21834718.900    89409501.38948
  21499716.440   112981790.18209  21499718.440    88037771.36548
  20383398.000   107115488.45409  20383398.200    83466619.63749
  22555648.960   118530750.01608  22555649.420    92361635.36246
  22916028.620   120424515.49508  22916029.220    93837270.95047
  20992550.920   110316606.40809  20992549.400    85960986.14848
  20775175.200   109174279.78809  20775171.500    85070850.71848
 15 02 15 09 45  0.0000000  0  7G03G06G09G10G17G20G23
  21844494.300   114793573.21609  21844495.960    89449536.61348
  21486970.900   112914811.99809  21486972.900    87985580.58948
  20379891.480   107097061.91409  20379891.600    83452261.31549
  22541560.600   118456715.28708  22541561.020    92303946.03246
  22929188.120   120493668.63508  22929188.780    93891156.43047
  20983570.760   110269415.82909  20983569.320    85924214.27948
  20781993.860   109210111.55009  20781990.080    85098771.54648
 15 02 15 09 45 30.0000000  0  7G03G06G09G10G17G20G23
  21854305.520   114845131.24409  21854307.100    89489711.68148
  21474300.200   112848227.50109  21474302.160    87933696.59048
  20376468.800   107079075.78809  20376468.940    83438246.17049
  22527495.720   118382803.79308  22527496.040    92246352.70046
  22942406.940   120563132.93108  22942407.480    93945284.38347
  20974628.440   110222423.88109  20974627.020    85887597.18748
  20788876.960   109246282.10609  20788873.080    85126956.37748
 15 02 15 09 46  0.0000000  0  7G03G06G09G10G17G20G23
  21864150.480   114896866.71109  21864152.120    89530025.00148
  21461704.520   112782037.02709  21461706.300    87882119.62048
  20373129.400   107061527.37209  20373129.640    83424572.11549
  22513453.960   118309014.20908  22513454.320    92188854.39046
  22955684.040   120632903.44008  22955684.340    93999650.93447
  20965723.600   110175628.97209  20965722.240    85851133.65248
  20795823.760   109282787.85509  20795819.860    85155402.39648
 15 02 15 09 46 30.0000000  0  7G03G06G09G10G17G20G23
  21874028.820   114948777.61009  21874030.460    89570475.01748
  21449183.900   112716240.84809  21449185.500    87830849.89748
  20369872.760   107044413.95509  20369873.080    83411237.00749
  22499435.200   118235344.90208  22499435.540    92131449.78546
  22969018.400   120702974.82708  22969018.600    94054251.90247
  20956856.040   110129029.88509  20956854.660    85814822.69048
  20802833.700   109319625.15409  20802829.800    85184106.76948
 15 02 15 09 47  0.0000000  0  7G03G06G09G10G17G20G23
  21883941.340   115000867.81809  21883942.820    89611064.76748
  21436739.540   112650845.18709  21436741.000    87779892.27448
  20366699.400   107027738.65309  20366699.880    83398243.30049
  22485440.160   118161800.12108  22485440.300    92074142.20246
  22982410.080   120773347.51409  22982410.080    94109087.67247
  20948026.660   110082631.26109  20948025.180    85778667.94448
  20809907.200   109356795.94809  20809903.140    85213071.02348
 15 02 15 09 47 30.0000000  0  7G03G06G09G10G17G20G23
  21893887.840   115053136.67809  21893889.160    89651793.72948
  21424371.720   112585851.70209  21424373.200    87729248.02248
  20363609.180   107011500.13109  20363609.780    83385589.93149
  22471468.820   118088379.77909  22471468.960    92016931.61346
  22995858.420   120844018.05008  22995858.200    94164155.53247
  20939235.420   110036433.26409  20939233.900    85742669.51448
  20817043.760   109394298.05509  20817039.500    85242293.42248
 15 02 15 09 48  0.0000000  0  7G03G06G09G10G17G20G23
  21903868.700   115105586.07609  21903869.980    89692663.36348
  21412081.200   112521264.53609  21412082.920    87678920.39348
  20360602.400   106995699.48409  20360603.060    83373277.75949
  22457521.620   118015086.26809  22457521.580    91959819.82746
  23009363.160   120914985.32308  23009362.760    94219454.62247
  20930482.800   109990438.22009  20930481.340    85706829.24648
  20824243.300   109432131.37209  20824238.940    85271773.92248
 15 02 15 09 48 30.0000000  0  7G03G06G09G10G17G20G23
  21913883.440   115158214.14209  21913884.820    89733672.20748
  21399868.080   112457084.15209  21399870.060    87628909.72948
  20357678.560   106980334.08609  20357679.100    83361304.73249
  22443598.260   117941918.31508  22443598.040    91902805.88747
  23022923.240   120986244.30608  23022922.940    94274981.00047
  20921768.600   109944644.99409  20921767.180    85671146.23648
  20831505.120   109470292.40209  20831500.800    85301509.78348
 15 02 15 09 49  0.0000000  0  7G03G06G09G10G17G20G23
  21923932.420   115211022.29009  21923933.960    89774821.37448
  21387733.000   112393314.21009  21387735.120    87579218.89148
  20354837.660   106965404.52309  20354838.060    83349671.31649
  22429699.060   117868877.71508  22429698.680    91845891.19746
  23036538.380   121057793.07208  23036538.180    94330733.17847
  20913093.340   109899055.97709  20913091.880    85635622.33448
  20838829.100   109508780.56009  20838824.860    85331500.53548
 15 02 15 09 49 30.0000000  0  7G03G06G09G10G17G20G23
  21934015.500   115264009.35709  21934017.100    89816109.96948
  21375676.240   112329955.88409  21375678.260    87529848.79248
  20352079.300   106950908.89109  20352079.620    83338376.02749
  22415823.840   117795963.87708  22415823.540    91789075.28346
  23050207.840   121129627.43308  23050207.880    94386707.89747
  20904456.920   109853670.73509  20904455.320    85600257.22948
  20846214.720   109547593.22209  20846210.700    85361744.15548
 15 02 15 09 50  0.0000000  0  7G03G06G09G10G17G20G23
  21944133.300   115317178.88909  21944135.020    89857540.72448
  21363698.860   112267014.95309  21363700.780    87480803.93548
  20349404.040   106936849.92409  20349404.280    83327420.99049
  22401973.380   117723180.80308  22401973.320    91732361.25946
  23063931.800   121201747.57708  23063932.060    94442905.31147
  20895860.100   109808493.39509  20895858.280    85565054.12548
  20853662.460   109586732.13309  20853658.580    85392241.99748
 15 02 15 09 50 30.0000000  0  8G03G06G07G09G10G17G20G23
  21954283.240   115370517.37309  21954285.080    89899103.15048
  21351798.760   112204480.16209  21351800.600    87432075.55548
  23039735.360   121074625.64705  23039735.380    94343864.03843
  20346809.060   106923213.27209  20346809.340    83316795.04249
  22388145.360   117650515.63608  22388145.580    91675739.13347
  23077707.120   121274137.03608  23077707.540    94499312.57347
  20887300.340   109763511.25509  20887298.440    85530003.11948
  20861169.500   109626182.12809  20861165.680    85422982.23548
 15 02 15 09 51  0.0000000  0  8G03G06G07G09G10G17G20G23
  21964469.300   115424045.26909  21964471.100    89940813.15648
  21339980.240   112142374.27209  21339982.160    87383681.36948
  23021157.920   120977001.55505  23021158.360    94267793.46844
  20344298.220   106910018.58809  20344298.460    83306513.45949
  22374343.820   117577989.44108  22374344.200    91619225.25247
  23091537.100   121346813.17808  23091537.460    94555943.23547
  20878781.740   109718745.65809  20878779.840    85495120.84048
  20868739.340   109665961.69009  20868735.520    85453979.28848
 15 02 15 09 51 30.0000000  0  8G03G06G07G09G10G17G20G23
  21974688.280   115477746.10309  21974690.140    89982657.93048
  21328240.740   112080683.01409  21328242.740    87335610.28048
  23002608.880   120879526.79505  23002609.300    94191839.23743
  20341868.160   106897248.54709  20341868.440    83296562.77849
  22360565.840   117505586.18508  22360566.180    91562807.16146
  23105417.760   121419756.14208  23105418.020    94612781.81046
  20870301.300   109674180.83109  20870299.480    85460395.01948
  20876368.480   109706052.62109  20876364.640    85485218.95048
 15 02 15 09 52  0.0000000  0  8G03G06G07G09G10G17G20G23
  21984941.180   115531624.89209  21984943.080    90024641.34848
  21316581.620   112019413.65409  21316583.660    87287867.94248
  22984089.720   120782209.02205  22984090.000    94116007.35243
  20339519.640   106884907.27209  20339519.940    83286946.19449
  22346812.380   117433311.29708  22346812.580    91506489.10146
  23119349.460   121492967.64808  23119349.780    94669829.63347
  20861860.240   109629822.57209  20861858.340    85425830.16148
  20884057.460   109746458.05009  20884053.620    85516703.68648
 15 02 15 09 52 30.0000000  0  8G03G06G07G09G10G17G20G23
  21995228.440   115585683.91709  21995230.140    90066765.23348
  21305003.600   111958570.76409  21305005.740    87240457.90648
  22965601.480   120685053.13805  22965601.860    94040301.56842
  20337252.940   106872996.26409  20337253.320    83277664.90149
  22333084.140   117361167.93409  22333084.060    91450273.53646
  23133332.280   121566447.33308  23133332.660    94727086.43146
  20853459.060   109585673.75309  20853457.060    85391428.51448
  20891806.400   109787178.70009  20891802.580    85548434.04648
 15 02 15 09 53  0.0000000  0  8G03G06G07G09G10G17G20G23
  22005549.200   115639919.50709  22005550.780    90109026.69648
  21293506.380   111898152.83609  21293508.640    87193379.01148
  22947143.860   120588058.26306  22947144.000    93964721.28544
  20335067.220   106861510.87409  20335067.620    83268715.24749
  22319380.300   117289152.78808  22319379.980    91394157.88246
  23147364.740   121640187.91408  23147365.100    94784546.51246
  20845097.080   109541731.35909  20845095.060    85357187.71048
  20899614.240   109828208.92909  20899610.400    85580405.63348
 15 02 15 09 53 30.0000000  0  8G03G06G07G09G10G17G20G23
  22015904.880   115694338.61709  22015906.320    90151431.16048
  21282091.900   111838169.08109  21282094.020    87146638.43948
  22928718.680   120491233.94306  22928718.520    93889273.85944
  20332963.660   106850457.22709  20332964.240    83260102.01649
  22305702.260   117217273.34108  22305701.820    91338147.96646
  23161447.640   121714193.25709  23161447.820    94842212.91446
  20836775.900   109498003.51809  20836773.940    85323114.08248
  20907482.080   109869554.14009  20907478.060    85612622.64948
 15 02 15 09 54  0.0000000  0  8G03G06G07G09G10G17G20G23
  22026294.600   115748936.75409  22026296.080    90193975.12148
  21270759.660   111778617.18509  21270761.500    87100234.38948
  22910325.740   120394578.99306  22910325.620    93813958.45544
  20330941.300   106839829.87709  20330942.000    83251820.96649
  22292049.180   117145525.72408  22292048.900    91282240.78947
  23175579.580   121788455.86808  23175579.380    94900079.80046
  20828494.820   109454486.34109  20828492.940    85289204.62048
  20915408.640   109911207.83209  20915404.440    85645080.05348
 15 02 15 09 54 30.0000000  0  8G03G06G07G09G10G17G20G23
  22036719.000   115803717.38309  22036720.620    90236661.28748
  21259510.720   111719502.85509  21259512.320    87054171.30348
  22891966.040   120298098.83506  22891966.080    93738779.23244
  20329000.620   106829631.44009  20329001.380    83243874.13249
  22278421.880   117073914.02708  22278421.820    91226439.50747
  23189760.420   121862975.74408  23189760.180    94958147.13246
  20820254.600   109411184.05509  20820252.760    85255462.60148
  20923394.260   109953171.87809  20923389.900    85677779.28148
 15 02 15 09 55  0.0000000  0  8G03G06G07G09G10G17G20G23
  22047177.800   115858678.75809  22047179.540    90279488.28148
  21248345.100   111660826.50109  21248346.640    87008449.49748
  22873639.800   120201794.77907  22873640.160    93663737.20344
  20327141.060   106819859.17609  20327141.820    83236259.38749
  22264820.120   117002436.92108  22264820.280    91170743.11647
  23203989.200   121937747.92808  23203989.220    95016411.07546
  20812055.040   109368095.67309  20812053.280    85221887.27848
  20931438.200   109995442.69809  20931433.760    85710717.55848
 15 02 15 09 55 30.0000000  0  8G03G06G07G09G10G17G20G23
  22057670.920   115913820.45509  22057672.760    90322455.79248
  21237263.200   111602589.94309  21237264.740    86963070.37848
  22855347.520   120105669.10007  22855347.980    93588834.19744
  20325362.380   106810511.76409  20325363.040    83228975.69349
  22251243.980   116931094.53308  22251244.240    91115151.69847
  23218265.240   122012768.86408  23218265.540    95074868.82946
  20803896.260   109325221.66409  20803894.560    85188478.99848
  20939540.100   110038017.99409  20939535.620    85743893.08448
 15 02 15 09 56  0.0000000  0  8G03G06G07G09G10G17G20G23
  22068198.060   115969141.43808  22068199.960    90365562.99248
  21226265.200   111544794.26109  21226266.740    86918034.80448
  22837089.580   120009723.40607  22837090.020    93514071.39745
  20323664.120   106801587.17609  20323664.700    83222021.47549
  22237693.480   116859886.65808  22237693.660    91059665.08047
  23232587.800   122088034.25208  23232588.240    95133517.09046
  20795778.320   109282561.68809  20795776.620    85155237.48548
  20947699.360   110080894.88409  20947694.820    85777303.62448
 15 02 15 09 56 30.0000000  0  8G03G06G07G09G10G17G20G23
  22078759.960   116024645.55109  22078762.040    90408812.89547
  21215352.120   111487445.47609  21215353.640    86873347.46448
  22818867.260   119913964.18707  22818867.560    93439453.91645
  20322046.860   106793088.27909  20322047.340    83215398.97149
  22224169.420   116788817.72108  22224169.560    91004286.75747
  23246956.940   122163544.66308  23246957.580    95192356.26147
  20787702.160   109240120.48709  20787700.400    85122166.46948
  20955916.400   110124075.64209  20955911.800    85810950.95348
 15 02 15 09 57  0.0000000  0  8G03G06G07G09G10G17G20G23
  22089355.980   116080328.37409  22089358.200    90452202.04948
  21204523.580   111430541.33509  21204525.080    86829006.60148
  22800680.160   119818389.98208  22800680.360    93364980.57945
  20320509.600   106785009.73109  20320510.040    83209104.00349
  22210671.060   116717883.85208  22210671.120    90949013.66147
  23261371.300   122239292.62008  23261372.160    95251380.50947
  20779667.000   109197894.71109  20779665.120    85089263.29348
  20964190.000   110167554.08509  20964185.380    85844830.23548
 15 02 15 09 57 30.0000000  0  9G02G03G06G07G09G10G17G20G23
  24854532.360   130611457.43807  24854534.320   101775159.59745
  22099986.120   116136189.95309  22099988.340    90495730.50048
  21193780.000   111374084.04209  21193781.460    86785013.93548
  22782528.720   119723003.30608  22782528.800    93290653.36645
  20319052.100   106777350.59609  20319052.480    83203135.86049
  22197198.440   116647085.58408  22197198.440    90893846.20647
  23275830.280   122315274.94208  23275831.420    95310587.39247
  20771672.800   109155884.67009  20771670.820    85056528.22548
  20972519.900   110211328.34409  20972515.320    85878940.02848
 15 02 15 09 58  0.0000000  0  9G02G03G06G07G09G10G17G20G23
  24834922.540   130508405.86707  24834923.860   101694859.74345
  22110654.720   116192253.26009  22110656.880    90539416.14548
  21183126.160   111318098.66009  21183127.580    86741388.98848
  22764417.800   119627829.95508  22764417.820    93216492.37146
  20317678.580   106770132.78309  20317678.920    83197511.60749
  22183756.140   116576446.63808  22183756.040    90838802.91946
  23290337.680   122391511.26508  23290338.820    95369992.18447
  20763724.180   109114114.36209  20763722.060    85023979.97548
  20980910.140   110255419.79609  20980905.740    85913296.99448
 15 02 15 09 58 30.0000000  0  9G02G03G06G07G09G10G17G20G23
  24815322.040   130405403.38607  24815322.640   101614598.11846
  22121352.280   116248468.99609  22121354.360    90583220.55948
  21172553.020   111262538.08209  21172554.700    86698095.04948
  22746338.560   119532823.37208  22746338.680    93142461.32146
  20316379.480   106763306.01109  20316379.780    83192192.06149
  22170335.020   116505918.53908  22170334.880    90783845.99147
  23304883.600   122467949.26408  23304884.480    95429554.13847
  20755811.880   109072535.28309  20755809.700    84991580.73148
  20989350.980   110299777.31209  20989346.860    85947861.28248
 15 02 15 09 59  0.0000000  0  9G02G03G06G07G09G10G17G20G23
  24795737.680   130302486.42208  24795737.740   101534403.15945
  22132085.320   116304871.18409  22132087.360    90627170.24948
  21162067.600   111207438.41209  21162069.680    86655160.26048
  22728298.060   119438020.29908  22728298.200    93068588.82546
  20315161.120   106756903.32309  20315161.460    83187202.95449
  22156941.500   116435535.47408  22156941.540    90729002.08747
  23319473.780   122544619.47508  23319474.400    95489297.03047
  20747942.640   109031182.48409  20747940.400    84959357.80148
  20997848.500   110344432.79009  20997844.640    85982657.74248
 15 02 15 09 59 30.0000000  0  9G02G03G06G07G09G10G17G20G23
  24776168.820   130199650.01807  24776168.400   101454270.98945
  22142852.500   116361452.71309  22142854.460    90671259.69148
  21151669.100   111152794.63809  21151671.380    86612580.71048
  22710295.480   119343416.12608  22710295.620    92994871.31646
  20314021.880   106750916.50609  20314022.240    83182537.90549
  22143574.420   116365290.98308  22143574.580    90674266.16047
  23334106.140   122621511.51408  23334106.580    95549212.79647
  20740115.200   108990049.28309  20740113.000    84927305.97448
  21006401.080   110389377.54509  21006397.340    86017679.62148
 15 02 15 10 00  0.0000000  0  9G02G03G06G07G09G10G17G20G23
  24756616.340   130096899.44707  24756614.700   101374205.63645
  22153654.520   116418217.12109  22153656.460    90715491.64548
  21141358.580   111098612.48509  21141360.820    86570360.87748
  22692332.000   119249017.24408  22692332.100    92921313.76846
  20312962.280   106745348.15509  20312962.600    83178198.94049
  22130234.480   116295189.44108  22130234.840    90619641.61447
  23348780.780   122698626.07208  23348781.100    95609301.94647
  20732330.520   108949140.27709  20732328.340    84895428.85148
  21015009.120   110434613.53209  21015005.480    86052928.43548
 15 02 15 10 00 30.0000000  0  9G02G03G06G07G09G10G17G20G23
  24737079.700   129994232.06608  24737077.480   101294205.18745
  22164490.420   116475159.48909  22164492.340    90759862.27948
  21131135.400   111044889.01409  21131137.540    86528498.45748
  22674407.160   119154821.70308  22674407.260    92847914.67046
  20311981.160   106740192.21109  20311981.460    83174181.33449
  22116920.840   116225226.52608  22116921.420    90565125.10847
  23363496.000   122775954.51808  23363496.300    95669557.76547
  20724587.800   108908451.67209  20724585.620    84863723.48248
  21023671.320   110480133.73909  21023667.660    86088398.72748
 15 02 15 10 01  0.0000000  0  9G02G03G06G07G09G10G17G20G23
  24717560.960   129891659.57308  24717558.280   101214278.65945
  22175361.940   116532289.10309  22175363.780    90804378.81047
  21121001.640   110991635.63309  21121003.700    86487002.32648
  22656523.180   119060841.06608  22656523.280    92774683.01947
  20311080.080   106735456.93509  20311080.400    83170491.49949
  22103635.420   116155412.27908  22103636.240    90510724.41547
  23378252.920   122853503.13708  23378253.320    95729985.13547
  20716888.780   108867993.08309  20716886.540    84832197.32148
  21032389.100   110525945.73509  21032385.380    86124096.37048
 15 02 15 10 01 30.0000000  0  9G02G03G06G07G09G10G17G20G23
  24698058.960   129789175.61407  24698056.020   101134421.04546
  22186267.460   116589597.70809  22186269.240    90849034.82148
  21110956.240   110938846.10309  21110958.100    86445867.66048
  22638679.040   118967069.85908  22638679.160    92701614.56047
  20310257.180   106731132.95309  20310257.600    83167122.17449
  22090376.960   116085738.73008  22090377.780    90456433.37047
  23393049.380   122931260.33808  23393050.080    95790575.02947
  20709232.040   108827757.25009  20709229.820    84800844.74448
  21041160.560   110572039.44609  21041156.740    86160013.53948
 15 02 15 10 02  0.0000000  0  9G02G03G06G07G09G10G17G20G23
  24678575.740   129686791.86807  24678573.420   101054641.57545
  22197208.880   116647094.66209  22197210.640    90893837.60348
  21101001.360   110886531.97609  21101003.040    86405103.43048
  22620877.100   118873520.41908  22620877.260    92628718.91147
  20309514.180   106727228.67409  20309514.600    83164079.87349
  22077147.460   116016216.51608  22077148.020    90402260.25147
  23407886.660   123009232.38408  23407887.780    95851332.32247
  20701619.640   108787754.60909  20701617.460    84769673.86948
  21049987.160   110618422.78309  21049983.220    86196156.39048
 15 02 15 10 02 30.0000000  0  9G02G03G06G07G09G10G17G20G23
  24659109.940   129584500.88707  24659108.540   100974934.40345
  22208184.300   116704770.17109  22208186.100    90938779.51548
  21091135.420   110834685.40709  21091137.000    86364703.53048
  22603116.040   118780185.62108  22603116.240    92555990.52847
  20308849.000   106723733.11709  20308849.360    83161356.06449
  22063945.040   115946836.24309  22063945.260    90348197.76247
  23422762.500   123087406.28408  23422763.920    95912246.90647
  20694049.800   108747975.65409  20694047.740    84738677.29748
  21058866.640   110665084.04509  21058862.560    86232515.81248
 15 02 15 10 03  0.0000000  0  9G02G03G06G07G09G10G17G20G23
  24639662.940   129482307.77307  24639662.040   100895303.40545
  22219194.340   116762627.48409  22219196.100    90983863.10148
  21081359.340   110783311.68609  21081360.880    86324672.08848
  22585396.980   118687071.21108  22585397.200    92483433.86947
  20308262.020   106720648.46609  20308262.300    83158952.44449
  22050770.300   115877601.67608  22050770.200    90294248.79247
  23437676.980   123165781.81708  23437678.380    95973318.62747
  20686523.440   108708425.03009  20686521.540    84707858.63948
  21067799.260   110712024.53909  21067795.020    86269092.81048
 15 02 15 10 03 30.0000000  0  9G02G03G06G07G09G10G17G20G23
  24620235.820   129380219.01307  24620235.720   100815753.75146
  22230239.760   116820670.83309  22230241.400    91029091.64348
  21071674.320   110732417.13809  21071676.000    86285014.00748
  22567721.140   118594184.12708  22567721.320    92411054.35247
  20307753.880   106717977.89609  20307754.040    83156871.46649
  22037624.060   115808517.73209  22037623.820    90240417.18447
  23452630.120   123244360.04208  23452631.300    96034548.28846
  20679041.580   108669107.99209  20679039.840    84677221.99948
  21076785.440   110759246.73209  21076781.080    86305889.30148
 15 02 15 10 04  0.0000000  0  9G02G03G06G07G09G10G17G20G23
  24600827.160   129278225.87207  24600827.360   100736278.62045
  22241318.440   116878889.03709  22241319.940    91074456.44548
  21062078.740   110681992.49809  21062080.520    86245722.10848
  22550086.960   118501515.88808  22550087.100    92338845.36747
  20307322.140   106715709.04309  20307322.240    83155103.53049
  22024504.380   115739573.73208  22024504.040    90186694.62547
  23467619.040   123323126.43908  23467620.100    96095924.58047
  20671602.100   108630013.72609  20671600.500    84646758.94248
  21085822.680   110806737.73809  21085818.280    86342895.26448
 15 02 15 10 04 30.0000000  0  9G02G03G06G07G09G10G17G20G23
  24581439.160   129176340.94507  24581439.580   100656887.81546
  22252432.340   116937293.08909  22252433.780    91119966.04147
  21052575.120   110632050.82709  21052576.940    86206806.54548
  22532497.000   118409080.21907  22532497.140    92266817.63646
  20306968.760   106713851.80809  20306968.880    83153656.33349
  22011413.600   115670781.60708  22011413.280    90133090.41647
  23482645.320   123402089.03808  23482646.220    96157453.75846
  20664207.320   108591154.39609  20664205.860    84616478.95848
  21094912.660   110854506.54709  21094908.360    86380117.69548
 15 02 15 10 05  0.0000000  0  9G02G03G06G07G09G10G17G20G23
  24562071.280   129074561.07607  24562071.640   100577578.88446
  22263580.440   116995877.13109  22263581.840    91165615.90447
  21043162.680   110582588.27809  21043164.520    86168264.32048
  22514950.800   118316873.99507  22514950.800    92194968.68246
  20306692.400   106712399.21409  20306692.480    83152524.43949
  21998350.840   115602136.46109  21998350.480    90079600.74047
  23497707.180   123481238.40908  23497707.840    96219128.48446
  20656856.240   108552524.97009  20656854.960    84586378.11048
  21104054.080   110902545.85009  21104049.980    86417550.89648
 15 02 15 10 05 30.0000000  0  9G02G03G06G07G09G10G17G20G23
  24542724.720   128972893.39508  24542724.380   100498357.41045
  22274763.740   117054646.19509  22274765.320    91211409.92148
  21033842.660   110533611.80209  21033844.600    86130100.85748
  22497449.740   118224905.20407  22497449.660    92123304.76346
  20306493.820   106711355.15409  20306493.840    83151710.89049
  21985317.260   115533643.86809  21985316.660    90026229.94647
  23512804.940   123560576.74308  23512805.520    96280950.43546
  20649550.140   108514131.38609  20649548.900    84556461.03448
  21113247.620   110950858.88309  21113243.640    86455197.39348
 15 02 15 10 06  0.0000000  0  9G02G03G06G07G09G10G17G20G23
  24523399.040   128871335.63007  24523398.400   100419221.58445
  22285981.420   117113595.52209  22285983.080    91257344.41447
  21024614.500   110485118.74709  21024616.680    86092314.06948
  22479993.320   118133171.20508  22479993.200    92051823.80746
  20306371.860   106710713.75809  20306371.780    83151211.10749
  21972311.900   115465299.61809  21972311.160    89972974.71947
  23527937.060   123640095.72908  23527937.740    96342913.16546
  20642288.360   108475969.86809  20642286.980    84526724.78848
  21122492.020   110999439.05809  21122488.180    86493052.04848
 15 02 15 10 06 30.0000000  0  9G02G03G06G07G09G10G17G20G23
  24504095.120   128769891.54507  24504093.680   100340174.24945
  22297233.720   117172726.93409  22297235.540    91303420.79048
  21015479.020   110437112.72709  21015481.440    86054906.78848
  22462582.480   118041676.86008  22462582.380    91980529.58446
  20306326.580   106710475.60009  20306326.560    83151025.53849
  21959335.180   115397106.16509  21959334.440    89919837.00147
  23543103.300   123719794.11008  23543104.140    96405015.66847
  20635071.320   108438042.78209  20635069.720    84497171.22948
  21131787.320   111048286.33209  21131783.500    86531114.83048
 15 02 15 10 07  0.0000000  0  9G02G03G06G07G09G10G17G20G23
  24484813.580   128668566.48707  24484811.400   100261219.76745
  22308521.260   117232043.37009  22308523.060    91349641.35347
  21006437.360   110389598.70909  21006439.760    86017882.90548
  22445218.340   117950427.63308  22445218.140    91909426.37046
  20306358.340   106710642.52409  20306358.360    83151155.62249
  21946387.840   115329067.61609  21946387.320    89866820.00047
  23558303.580   123799671.38508  23558304.500    96467257.58847
  20627899.640   108400354.27409  20627897.860    84467803.56748
  21141133.780   111097401.97909  21141129.860    86569386.74348
 15 02 15 10 07 30.0000000  0  9G02G03G06G07G09G10G17G20G23
  24465554.680   128567360.25308  24465552.300   100182357.84245
  22319843.480   117291542.53409  22319845.360    91396004.27647
  20997489.420   110342576.31509  20997491.580    85981242.09748
  22427900.880   117859424.15108  22427900.700    91838514.65146
  20306466.500   106711211.02909  20306466.560    83151598.62049
  21933469.580   115261182.24009  21933469.240    89813922.35047
  23573536.880   123879722.14909  23573537.840    96529634.68247
  20620772.960   108362902.91909  20620771.060    84438620.68848
  21150530.660   111146782.05309  21150526.540    86607864.68948
 15 02 15 10 08  0.0000000  0  9G02G03G06G07G09G10G17G20G23
  24446318.980   128466276.77607  24446316.760   100103591.55845
  22331200.760   117351226.04809  22331202.860    91442510.84148
  20988635.700   110296049.08209  20988637.660    85944987.12948
  22410630.960   117768670.86808  22410630.760    91767797.91046
  20306651.060   106712181.56609  20306651.260    83152354.89449
  21920580.920   115193452.30509  21920580.600    89761145.82447
  23588802.880   123959944.69309  23588803.900    96592145.62847
  20613691.820   108325691.16709  20613689.780    84409624.52448
  21159977.700   111196426.16809  21159973.500    86646548.38748
 15 02 15 10 08 30.0000000  0  9G02G03G06G07G09G10G17G20G23
  24427106.280   128365314.23707  24427103.940   100024919.50745
  22342592.480   117411089.86109  22342594.740    91489157.89548
  20979875.800   110250014.90109  20979877.580    85909116.35648
  22393408.300   117678165.96408  22393408.020    91697274.70046
  20306911.100   106713548.92309  20306911.460    83153420.37449
  21907721.200   115125874.42009  21907720.940    89708487.78347
  23604100.240   124040331.93508  23604101.300    96654784.90647
  20606655.760   108288715.86209  20606653.560    84380812.61248
  21169473.800   111246328.64709  21169469.760    86685433.39248
 15 02 15 10 09  0.0000000  0  9G02G03G06G07G09G10G17G20G23
  24407917.880   128264478.86308  24407915.620    99946346.58345
  22354019.340   117471137.80909  22354021.720    91535948.43848
  20971210.760   110204479.45909  20971212.520    85873634.20848
  22376234.160   117587915.94808  22376233.820    91626950.12946
  20307247.240   106715315.69309  20307247.640    83154797.08349
  21894891.320   115058453.21109  21894891.060    89655951.82147
  23619428.940   124120884.26408  23619430.100    96717552.81847
  20599665.700   108251982.04009  20599663.340    84352188.87348
  21179019.360   111296491.63609  21179015.580    86724521.40748
 15 02 15 10 09 30.0000000  0  9G02G03G06G07G09G10G17G20G23
  24388754.140   128163772.79308  24388752.000    99867874.39845
  22365481.280   117531370.01409  22365483.680    91582882.56048
  20962641.060   110159444.78209  20962642.720    85838542.26548
  22359109.080   117497923.81308  22359108.740    91556826.51846
  20307659.220   106717480.85109  20307659.640    83156484.23049
  21882091.440   114991189.53209  21882091.120    89603538.61847
  23634788.420   124201598.60508  23634789.700    96780446.97547
  20592721.640   108215490.48709  20592719.260    84323753.90148
  21188614.160   111346913.24409  21188610.520    86763810.93548
 15 02 15 10 10  0.0000000  0  9G02G03G06G07G09G10G17G20G23
  24369615.040   128063196.74007  24369612.980    99789503.53045
  22376977.940   117591784.79709  22376980.260    91629958.95148
  20954166.680   110114911.05209  20954168.320    85803840.67549
  22342033.300   117408190.53008  22342033.060    91486904.61146
  20308146.500   106720041.47509  20308146.860    83158479.52149
  21869321.520   114924082.66909  21869320.980    89551247.59947
  23650177.800   124282470.06408  23650179.260    96843463.54947
  20585823.420   108179240.42009  20585821.020    84295507.10248
  21198257.700   111397590.42309  21198254.160    86803299.61948
 15 02 15 10 10 30.0000000  0  9G02G03G06G07G09G10G17G20G23
  24350501.300   127962753.49307  24350499.360    99711236.10146
  22388509.360   117652382.60309  22388511.740    91677177.94748
  20945787.940   110070880.65009  20945789.700    85769531.27949
  22325007.420   117318719.28908  22325007.220    91417186.89846
  20308708.860   106722996.82809  20308709.200    83160782.40249
  21856581.800   114857133.96109  21856581.020    89499079.82847
  23665596.600   124363495.81708  23665598.180    96906600.34947
  20578971.420   108143233.39209  20578969.020    84267449.70048
  21207949.740   111448521.79909  21207946.260    86842986.37548
 15 02 15 10 11  0.0000000  0  9G02G03G06G07G09G10G17G20G23
  24331413.280   127862445.56008  24331411.240    99633074.10445
  22400075.620   117713163.67009  22400078.060    91724539.73948
  20937505.240   110027355.57909  20937507.220    85735615.63249
  22308031.940   117229512.99108  22308031.580    91347675.63246
  20309346.200   106726345.91009  20309346.520    83163392.07849
  21843872.300   114790344.04709  21843871.260    89447035.79247
  23681044.160   124444673.00608  23681045.840    96969855.16547
  20572165.800   108107470.36409  20572163.500    84239582.42048
  21217689.880   111499705.66009  21217686.340    86882869.87048
 15 02 15 10 11 30.0000000  0  9G02G03G06G07G09G10G17G20G23
  24312351.620   127762276.47508  24312349.620    99555020.33946
  22411676.960   117774129.15509  22411679.520    91772045.24848
  20929319.340   109984338.86009  20929321.400    85702096.12249
  22291107.480   117140575.02908  22291107.000    91278373.44546
  20310058.440   106730088.65609  20310058.760    83166308.51449
  21831193.360   114723715.06609  21831192.080    89395117.16147
  23696520.100   124525999.55408  23696521.860    97033226.35747
  20565406.960   108071953.59709  20565404.940    84211907.03548
  21227477.940   111551141.53009  21227474.360    86922949.74848
 15 02 15 10 12  0.0000000  0  9G02G03G06G07G09G10G17G20G23
  24293317.020   127662249.98308  24293315.040    99477077.68645
  22423313.680   117835280.54709  22423316.280    91819695.60247
  20921230.860   109941833.76609  20921232.900    85668975.27448
  22274234.900   117051909.91108  22274234.340    91209283.87946
  20310845.660   106734225.29109  20310845.880    83169531.87749
  21818545.240   114657249.09409  21818543.860    89343325.53547
  23712024.100   124607473.60008  23712025.920    97096712.48247
  20558695.420   108036685.59309  20558693.780    84184425.48248
  21237313.800   111602829.26709  21237310.220    86963225.87948
 15 02 15 10 12 30.0000000  0  9G02G03G06G07G09G10G17G20G23
  24274309.200   127562363.88208  24274307.240    99399244.39746
  22434984.960   117896613.22509  22434987.560    91867487.23147
  20913239.240   109899837.49609  20913241.220    85636250.91448
  22257413.860   116963515.54508  22257413.440    91140405.26646
  20311706.680   106738749.96109  20311706.940    83173057.61449
  21805927.360   114590942.44409  21805925.920    89291658.07347
  23727554.760   124689087.39108  23727556.600    97160307.49646
  20552030.680   108001662.53409  20552029.260    84157134.80748
  21247196.380   111654762.59209  21247192.800    87003693.38848
 15 02 15 10 13  0.0000000  0  9G02G03G06G07G09G10G17G20G23
  24255329.020   127462622.50008  24255327.280    99321523.91346
  22446691.280   117958129.48709  22446693.820    91915421.91347
  20905345.240   109858354.17709  20905347.160    85603926.25249
  22240645.380   116875397.19008  22240645.120    91071741.71646
  20312641.700   106743663.74209  20312642.040    83176886.54649
  21793340.460   114524798.50209  21793339.020    89240117.36647
  23743111.880   124770839.89408  23743113.700    97224010.59346
  20545413.440   107966887.65009  20545411.920    84130037.51948
  21257125.820   111706941.94909  21257122.160    87044352.61148
 15 02 15 10 13 30.0000000  0  9G02G03G06G07G09G10G17G20G23
  24236376.960   127363028.55808  24236375.300    99243918.33245
  22458432.600   118019829.29209  22458434.800    91963499.64147
  20897549.080   109817385.50609  20897551.040    85572002.62049
  22223929.860   116787557.09608  22223929.700    91003295.00347
  20313650.520   106748965.34309  20313650.840    83181017.68249
  21780784.660   114458817.78309  21780783.240    89188703.85547
  23758694.860   124852728.19208  23758696.620    97287819.50946
  20538843.720   107932362.14009  20538841.960    84103134.55648
  21267101.720   111759365.41509  21267098.060    87085202.05348
 15 02 15 10 14  0.0000000  0  9G02G03G06G07G09G10G17G20G23
  24217453.180   127263582.91808  24217451.380    99166428.28345
  22470208.580   118081711.35709  22470210.520    92011719.38347
  20889851.000   109776931.96409  20889852.940    85540480.38248
  22207267.540   116699996.58408  22207267.480    90935066.13547
  20314732.660   106754652.18709  20314733.000    83185449.00049
  21768259.820   114392999.97909  21768258.460    89137417.28647
  23774302.700   124934746.98808  23774304.360    97351730.11645
  20532321.200   107898085.18409  20532319.180    84076425.26148
  21277123.580   111812030.27709  21277119.920    87126239.59648
 15 02 15 10 14 30.0000000  0  9G02G03G06G07G09G10G17G20G23
  24198558.820   127164292.08408  24198557.120    99089058.86145
  22482019.920   118143779.98408  22482021.760    92060084.48947
  20882252.160   109736999.59109  20882254.080    85509364.26149
  22190659.780   116612722.95408  22190659.800    90867060.80947
  20315888.720   106760727.33409  20315889.000    83190182.89049
  21755766.820   114327350.11709  21755765.720    89086261.58847
  23789935.680   125016898.08308  23789937.360    97415743.80545
  20525846.940   107864062.55709  20525844.800    84049914.14248
  21287191.820   111864938.80709  21287188.060    87167467.01348
 15 02 15 10 15  0.0000000  0  9G02G03G06G07G09G10G17G20G23
  24179694.100   127065157.89208  24179692.300    99011811.47145
  22493866.500   118206034.27408  22493868.480    92108594.25647
  20874752.640   109697589.27109  20874754.560    85478654.91949
  22174106.900   116525737.67108  22174106.960    90799280.15947
  20317118.260   106767188.61809  20317118.500    83195217.66849
  21743305.740   114261868.29208  21743305.000    89035236.80547
  23805593.080   125099177.53107  23805594.840    97479857.50345
  20519421.000   107830294.07509  20519418.860    84023601.06248
  21297306.020   111918088.50909  21297302.100    87208882.34948
 15 02 15 10 15 30.0000000  0  9G02G03G06G07G09G10G17G20G23
  24160859.280   126966181.03908  24160857.620    98934686.73845
  22505748.100   118268473.02108  22505750.320    92157247.75647
  20867352.620   109658701.53309  20867354.440    85448352.78548
  22157609.200   116439042.11708  22157609.320    90731725.26847
  20318420.860   106774033.58009  20318421.000    83200551.41149
  21730876.540   114196554.16508  21730876.160    88984342.71647
  23821274.040   125181581.03607  23821275.900    97544067.86044
  20513043.320   107796779.62909  20513041.320    83997485.94048
  21307465.640   111971476.78709  21307461.580    87250483.60348
 15 02 15 10 16  0.0000000  0  9G02G03G06G07G09G10G17G20G23
  24142054.920   126867364.05608  24142052.900    98857686.55045
  22517664.880   118331096.35408  22517667.340    92206045.07647
  20860052.400   109620338.18209  20860054.080    85418459.26948
  22141167.180   116352639.26208  22141167.400    90664398.43447
  20319796.280   106781261.07509  20319796.340    83206183.23149
  21718479.500   114131408.39208  21718479.320    88933579.80047
  23836977.900   125264104.69407  23836979.860    97608371.84244
  20506714.180   107763520.20209  20506712.280    83971569.52048
  21317670.240   112025101.85409  21317666.120    87292269.35948
 15 02 15 10 16 30.0000000  0  9G02G03G06G07G09G10G17G20G23
  24123281.040   126768706.68208  24123278.320    98780810.74645
  22529616.220   118393901.24109  22529618.740    92254983.88347
  20852851.680   109582497.86209  20852853.260    85388973.30948
  22124780.720   116266528.47508  22124781.020    90597299.17847
  20321243.680   106788866.75409  20321243.720    83212109.74049
  21706114.260   114066429.05009  21706114.140    88882946.58447
  23852703.480   125346742.58107  23852705.580    97672764.83244
  20500433.240   107730513.89209  20500431.360    83945850.34648
  21327918.860   112078958.90809  21327914.740    87334235.88248
 15 02 15 10 17  0.0000000  0  9G02G03G06G07G09G10G17G20G23
  24104538.500   126670213.14008  24104535.160    98704062.59645
  22541602.580   118456889.55709  22541605.000    92304065.63048
  20845751.200   109545184.17009  20845752.660    85359897.71348
  22108450.720   116180714.39508  22108451.000    90530431.11547
  20322763.040   106796851.20709  20322763.120    83218331.40649
  21693781.300   114001618.72709  21693781.180    88832445.07247
  23868450.540   125429493.46406  23868452.720    97737245.91944
  20494201.000   107697763.26609  20494199.040    83920330.39948
  21338211.640   112133048.36509  21338207.540    87376383.49748
 15 02 15 10 17 30.0000000  0  9G02G03G06G07G09G10G17G20G23
  24085827.940   126571888.02108  24085824.420    98627445.69845
  22553624.340   118520063.69909  22553626.740    92353292.17547
  20838751.640   109508401.15509  20838753.040    85331235.62649
  22092178.260   116095202.13008  22092178.420    90463798.22448
  20324354.620   106805215.56809  20324354.800    83224849.10249
  21681481.200   113936980.70509  21681481.060    88782077.79747
  23884218.900   125512356.37706  23884221.080    97801814.21444
  20488018.140   107665272.30909  20488016.160    83895012.80448
  21348548.800   112187370.81809  21348544.660    87418712.66448
 15 02 15 10 18  0.0000000  0  9G02G03G06G07G09G10G17G20G23
  24067149.440   126473732.36108  24067146.340    98550960.85345
  22565681.180   118583422.42109  22565683.540    92402662.55947
  20831853.020   109472149.24509  20831854.540    85302987.38948
  22075963.460   116009992.78809  22075963.580    90397401.37647
  20326018.020   106813957.31409  20326018.320    83231660.86749
  21669213.860   113872514.70209  21669213.640    88731844.59047
  23900007.800   125595327.21705  23900010.180    97866466.64143
  20481884.600   107633040.38909  20481882.580    83869897.04648
  21358929.820   112241923.53009  21358925.640    87461221.26348
 15 02 15 10 18 30.0000000  0  9G02G03G06G07G09G10G17G20G23
  24048503.620   126375748.84808  24048500.940    98474610.10945
  22577773.100   118646965.80309  22577775.620    92452176.80947
  20825055.800   109436430.10209  20825057.480    85275154.29249
  22059806.800   115925089.28009  22059806.960    90331242.82047
  20327753.000   106823075.19009  20327753.360    83238765.71549
  21656979.520   113808221.86609  21656979.120    88681746.31347
  23915816.680   125678402.77805  23915819.000    97931200.75043
  20475800.540   107601068.54509  20475798.420    83844983.94648
  21369354.340   112296704.58209  21369350.120    87503907.77848
 15 02 15 10 19  0.0000000  0  9G02G03G06G07G09G10G17G20G23
  24029891.280   126277941.49808  24029888.700    98398396.64646
  22589900.480   118710695.36809  22589903.140    92501836.14247
  20818360.620   109401246.87709  20818362.360    85247738.80549
  22043709.080   115840495.64509  22043709.340    90265325.73747
  20329559.700   106832569.39409  20329560.100    83246163.81549
  21644778.540   113744104.47709  21644777.960    88631784.76047
  23931645.080   125761581.50504  23931647.900    97996015.17043
  20469766.400   107569359.31209  20469764.180    83820275.47548
  21379822.340   112351713.94909  21379818.180    87546772.20448
 15 02 15 10 19 30.0000000  0  8G02G03G06G07G09G10G20G23
  24011313.420   126180314.70208  24011311.020    98322323.88646
  22602063.620   118774613.05309  22602066.300    92551642.05547
  20811768.120   109366603.14009  20811769.900    85220743.68349
  22027671.220   115756216.39709  22027671.520    90199653.61648
  20331438.240   106842440.60509  20331438.560    83253855.67649
  21632611.400   113680165.46909  21632610.700    88581962.19647
  20463782.760   107537915.80709  20463780.520    83795774.05748
  21390333.800   112406952.02309  21390329.840    87589814.84048
 15 02 15 10 20  0.0000000  0  8G02G03G06G07G09G10G20G23
  23992768.640   126082860.82108  23992766.080    98246385.85846
  22614260.720   118838709.14908  22614263.440    92601586.98747
  20805276.740   109332490.76609  20805278.600    85194162.62249
  22011691.980   115672244.49409  22011692.140    90134220.97247
  20333386.440   106852677.80309  20333386.700    83261832.72149
  21620476.400   113616395.87409  21620475.680    88532271.64347
  20457847.980   107506729.31309  20457845.920    83771472.90948
  21400886.520   112462407.48209  21400882.860    87633026.87648
 15 02 15 10 20 30.0000000  0  8G02G03G06G07G09G10G20G23
  23974258.420   125985588.23008  23974255.740    98170589.09746
  22626492.880   118902989.34908  22626495.580    92651675.36347
  20798887.760   109298917.00909  20798889.700    85168001.24749
  21995772.840   115588588.18109  21995772.800    90069034.24548
  20335405.080   106863285.30209  20335405.140    83270098.31549
  21608374.940   113552802.73009  21608374.200    88482718.57747
  20451963.480   107475806.61409  20451961.620    83747377.30348
  21411481.300   112518084.21009  21411477.860    87676411.31748
 15 02 15 10 21  0.0000000  0  8G02G03G06G07G09G10G20G23
  23955783.100   125888498.45508  23955779.840    98094934.76646
  22638759.860   118967452.65408  22638762.500    92701906.42947
  20792601.460   109265882.44209  20792603.440    85142260.03749
  21979914.120   115505249.25409  21979913.940    90004094.83848
  20337493.720   106874260.85409  20337493.680    83278650.71449
  21596307.000   113489385.65809  21596306.200    88433302.71147
  20446129.260   107445147.63309  20446127.500    83723487.20748
  21422117.700   112573979.44709  21422114.340    87719966.02948
 15 02 15 10 21 30.0000000  0  8G02G03G06G07G09G10G20G23
  23937343.880   125791599.36308  23937340.580    98019429.05846
  22651062.760   119032104.76408  22651065.380    92752284.61347
  20786419.120   109233394.30009  20786421.120    85116944.60749
  21964117.320   115422235.87109  21964117.040    89939409.10248
  20339653.160   106885608.80609  20339653.080    83287493.30249
  21584273.900   113426151.42709  21584272.980    88384029.31647
  20440346.560   107414759.26109  20440344.860    83699807.96848
  21432796.640   112630097.59209  21432793.200    87763694.44248
 15 02 15 10 22  0.0000000  0  8G02G03G06G07G09G10G20G23
  23918941.100   125694893.85708  23918937.960    97944074.17946
  22663401.620   119096945.97408  22663404.360    92802810.13347
  20780341.140   109201454.39409  20780343.120    85092056.36749
  21948382.920   115339550.75209  21948382.560    89874979.14548
  20341883.260   106897328.15309  20341883.120    83296625.28349
  21572275.780   113363101.21009  21572274.680    88334899.30047
  20434615.520   107384642.73109  20434613.840    83676340.55148
  21443517.800   112686437.30609  21443514.300    87807595.48848
 15 02 15 10 22 30.0000000  0  8G02G03G06G07G09G10G20G23
  23900574.520   125598378.92208  23900571.460    97868867.78146
  22675775.460   119161970.81408  22675778.380    92853478.74747
  20774366.680   109170058.77009  20774368.640    85067592.25348
  21932710.420   115257191.16409  21932710.000    89810802.85748
  20344182.740   106909412.04609  20344182.580    83306041.32349
  21560311.760   113300230.49609  21560310.600    88285909.15947
  20428935.340   107354793.57609  20428933.640    83653081.49148
  21454279.740   112742991.36409  21454276.180    87851663.56148
 15 02 15 10 23  0.0000000  0  8G02G03G06G07G09G10G20G23
  23882244.780   125502057.56308  23882242.200    97793812.26446
  22688184.400   119227179.76608  22688187.320    92904290.82547
  20768496.160   109139209.41309  20768498.140    85043553.78848
  21917100.400   115175160.03109  21917099.960    89746882.51048
  20346551.480   106921859.70109  20346551.240    83315740.80949
  21548382.300   113237540.67709  21548381.080    88237059.95747
  20423306.360   107325213.32509  20423304.680    83630031.95548
  21465082.280   112799758.70409  21465078.600    87895897.82548
 15 02 15 10 23 30.0000000  0  8G02G03G06G07G09G10G20G23
  23863951.900   125405928.65508  23863950.020    97718906.70146
  22700627.780   119292569.28309  22700630.560    92955243.60847
  20762729.280   109108904.25709  20762731.220    85019939.38549
  21901552.600   115093456.25309  21901552.180    89683217.25147
  20348988.460   106934666.18309  20348988.200    83325719.90049
  21536486.880   113175029.12609  21536485.600    88188349.69947
  20417728.120   107295899.48709  20417726.500    83607190.02048
  21475924.400   112856734.15609  21475920.680    87940294.26748
 15 02 15 10 24  0.0000000  0  8G02G03G06G07G09G10G20G23
  23845697.580   125310001.27808  23845695.680    97644158.13846
  22713106.840   119358145.92009  22713109.500    93006342.19247
  20757067.540   109079151.30709  20757069.380    84996755.28149
  21886068.900   115012089.39109  21886068.500    89619814.52048
  20351494.660   106947836.75809  20351494.400    83335982.69549
  21524626.880   113112703.51809  21524625.440    88139784.32447
  20412202.100   107266859.86909  20412200.560    83584561.75248
  21486806.960   112913922.41309  21486803.240    87984856.52548
 15 02 15 10 24 30.0000000  0  8G02G03G06G07G09G10G20G23
  23827481.220   125214272.36208  23827479.140    97569564.24346
  22725620.460   119423903.80809  22725622.940    93057582.01647
  20751510.120   109049946.11709  20751511.900    84973998.00049
  21870648.620   114931055.79309  21870648.300    89556671.47748
  20354068.760   106961364.17809  20354068.580    83346523.56349
  21512801.280   113050558.90509  21512799.740    88091359.99047
  20406727.340   107238089.65609  20406725.840    83562143.41748
  21497728.600   112971316.49109  21497724.960    88029579.15948
 15 02 15 10 25  0.0000000  0  8G02G03G06G07G09G10G20G23
  23809303.820   125118748.14808  23809301.460    97495129.86446
  22738169.320   119489847.24308  22738171.580    93108966.43047
  20746057.940   109021294.48409  20746059.820    84951672.04549
  21855293.220   114850362.85309  21855292.960    89493793.88648
  20356711.340   106975251.46109  20356711.280    83357344.83249
  21501011.020   112988600.75009  21501009.540    88043080.93847
  20401304.780   107209594.16008  20401303.360    83539939.14348
  21508689.900   113028918.94509  21508686.380    88074464.16148
 15 02 15 10 25 30.0000000  0  8G02G03G06G07G09G10G20G23
  23791166.020   125023433.18208  23791163.500    97420858.53446
  22750753.840   119555978.37208  22750756.020    93160497.06747
  20740711.700   108993199.85309  20740713.640    84929780.12549
  21840003.420   114770014.46909  21840003.160    89431184.78248
  20359422.500   106989499.32009  20359422.580    83368447.06549
  21489256.760   112926832.09809  21489255.420    87994949.54647
  20395935.000   107181376.35909  20395933.680    83517951.22748
  21519691.020   113086730.35009  21519687.560    88119511.97848
 15 02 15 10 26  0.0000000  0  8G02G03G06G07G09G10G20G23
  23773068.440   124928330.53208  23773065.800    97346752.63446
  22763373.980   119622297.32508  22763376.400    93212174.06247
  20735471.800   108965663.79509  20735473.820    84908323.45749
  21824779.720   114690013.45209  21824779.480    89368846.35648
  20362202.080   107004106.58209  20362202.280    83379829.35149
  21477538.800   112865254.30809  21477537.580    87946966.88147
  20390618.440   107153437.54809  20390617.080    83496180.72548
  21530731.680   113144749.06509  21530728.200    88164721.34048
 15 02 15 10 26 30.0000000  0  8G02G03G06G07G09G10G20G23
  23755011.400   124833441.33908  23755008.840    97272813.06346
  22776029.500   119688802.69408  22776032.100    93263996.33047
  20730338.220   108938686.30909  20730340.280    84887302.03349
  21809622.460   114610361.08209  21809622.100    89306779.59248
  20365049.600   107019070.52709  20365049.820    83391489.56349
  21465857.100   112803867.09809  21465855.900    87899132.70847
  20385354.980   107125777.42509  20385353.480    83474627.37848
  21541811.400   113202972.35209  21541807.760    88210090.10648
 15 02 15 10 27  0.0000000  0  8G02G03G06G07G09G10G20G23
  23736994.900   124738764.65008  23736992.320    97199039.07446
  22788719.820   119755491.31408  22788722.600    93315961.39847
  20725310.680   108912265.53509  20725312.480    84866714.42649
  21794531.420   114531056.82109  21794530.980    89244984.09948
  20367964.200   107034386.58809  20367964.360    83403424.16049
  21454211.100   112742668.04309  21454210.040    87851445.15747
  20380144.240   107098394.33109  20380142.600    83453289.90648
  21552929.140   113261395.32909  21552925.220    88255614.48448
 15 02 15 10 27 30.0000000  0  8G02G03G06G07G09G10G20G23
  23719019.840   124644305.16608  23719017.280    97125434.35446
  22801445.420   119822365.35608  22801448.440    93368070.93947
  20720389.700   108886405.04309  20720391.340    84846563.39349
  21779507.440   114452105.26309  21779507.020    89183463.44248
  20370945.960   107050055.64009  20370946.080    83415633.80149
  21442601.560   112681660.50009  21442600.640    87803906.82847
  20374986.820   107071291.15909  20374984.980    83432170.55248
  21564084.980   113320018.42909  21564080.740    88301294.78948
 15 02 15 10 28  0.0000000  0  8G02G03G06G07G09G10G20G23
  23701086.280   124550063.95408  23701083.680    97051999.68446
  22814206.020   119889423.17908  22814209.380    93420323.67447
  20715575.060   108861104.52309  20715576.720    84826848.68749
  21764550.740   114373507.35809  21764550.360    89122218.35648
  20373994.300   107066074.68309  20373994.380    83428116.16249
  21431028.440   112620843.90609  21431027.620    87756517.29547
  20369882.520   107044467.25409  20369880.420    83411268.81448
  21575278.360   113378839.17109  21575273.960    88347129.10648
 15 02 15 10 28 30.0000000  0  8G02G03G06G07G09G10G20G23
  23683194.620   124456042.71708  23683191.940    96978736.40346
  22827001.580   119956664.00208  22827005.040    93472719.02947
  20710866.980   108836364.43609  20710868.760    84807570.68948
  21749661.640   114295264.74109  21749661.260    89061250.10948
  20377108.740   107082441.53509  20377108.840    83440869.54149
  21419491.780   112560218.24909  21419490.980    87709276.55247
  20364831.360   107017923.22109  20364829.260    83390585.16248
  21586508.660   113437854.73809  21586504.300    88393115.23648
 15 02 15 10 29  0.0000000  0  8G02G03G06G07G09G10G20G23
  23665346.040   124362247.93508  23665343.300    96905649.61546
  22839832.700   120024091.37508  22839836.040    93525259.74947
  20706266.560   108812189.66209  20706268.480    84788733.20949
  21734841.280   114217383.38409  21734840.900    89000563.37448
  20380289.720   107099158.47909  20380289.920    83453895.72949
  21407992.380   112499788.29709  21407991.640    87662188.30248
  20359834.340   106991663.71709  20359832.280    83370123.21748
  21597776.340   113497067.42209  21597772.220    88439254.96948
 15 02 15 10 29 30.0000000  0  8G02G03G06G07G09G10G20G23
  23647540.520   124268679.62208  23647537.720    96832739.27846
  22852698.960   120091703.25209  22852702.140    93577944.23747
  20701773.640   108788579.46009  20701775.580    84770335.64149
  21720089.760   114139863.89609  21720089.420    88940158.61548
  20383536.740   107116222.09409  20383536.960    83467192.03049
  21396530.100   112439553.23009  21396529.300    87615251.90347
  20354891.240   106965687.66109  20354889.280    83349882.13548
  21609080.700   113556473.38809  21609076.860    88485545.29347
 15 02 15 10 30  0.0000000  0  8G02G03G06G07G09G10G20G23
  23629778.660   124175341.35808  23629775.980    96760008.21446
  22865600.500   120159500.73008  22865603.560    93630773.37147
  20697388.620   108765536.15309  20697390.640    84752379.80749
  21705407.780   114062709.78309  21705407.480    88880038.56448
  20386849.760   107133632.12109  20386850.020    83480758.28049
  21385105.300   112379515.09609  21385104.300    87568468.96847
  20350002.380   106939997.16508  20350000.580    83329863.57048
  21620421.720   113616072.32209  21620418.180    88531985.99448
 15 02 15 10 30 30.0000000  0  8G02G03G06G07G09G10G20G23
  23612061.480   124082237.81608  23612058.880    96687460.03746
  22878537.600   120227485.64108  22878540.720    93683748.52647
  20693112.000   108743062.76309  20693114.100    84734868.05449
  21690796.180   113985925.35409  21690795.880    88820206.56848
  20390228.860   107151389.02009  20390229.140    83494594.82149
  21373718.480   112319676.83009  21373717.300    87521841.78047
  20345168.480   106914595.35809  20345166.720    83310069.95748
  21631799.660   113675864.63309  21631796.280    88578577.37748
 15 02 15 10 31  0.0000000  0  8G02G03G06G07G09G10G20G23
  23594388.600   123989366.96108  23594386.080    96615093.16146
  22891509.520   120295653.54908  22891512.760    93736866.29047
  20688943.320   108721156.13909  20688945.380    84717797.95349
  21676254.600   113909508.77509  21676254.200    88760661.21148
  20393672.900   107169487.03109  20393673.180    83508697.16549
  21362369.080   112260035.24909  21362367.900    87475367.85847
  20340388.960   106889479.02409  20340387.100    83290498.80548
  21643213.380   113735844.34609  21643210.080    88625314.79148
 15 02 15 10 31 30.0000000  0  8G02G03G06G07G09G10G20G23
  23576761.040   123896733.82608  23576758.600    96542911.51646
  22904516.800   120364006.88308  22904519.960    93790128.54747
  20684883.340   108699819.90109  20684885.320    84701172.30749
  21661783.980   113833464.83609  21661783.440    88701406.21448
  20397182.020   107187927.27109  20397182.260    83523066.18949
  21351057.680   112200593.92709  21351056.680    87429049.96548
  20335664.440   106864651.77709  20335662.500    83271152.90748
  21654663.020   113796012.20309  21654659.700    88672198.80948
 15 02 15 10 32  0.0000000  0  8G02G03G06G07G09G10G20G23
  23559178.900   123804338.98908  23559176.540    96470915.60046
  22917559.020   120432543.66508  22917562.180    93843533.75247
  20680931.800   108679053.26709  20680933.600    84684990.51549
  21647384.320   113757794.02009  21647383.740    88642441.97448
  20400755.600   107206706.35809  20400755.880    83537699.25149
  21339784.160   112141351.97609  21339783.380    87382887.42247
  20330994.780   106840112.43809  20330992.740    83252031.36048
  21666147.940   113856365.21409  21666144.520    88719227.10448
 15 02 15 10 32 30.0000000  0  8G02G03G06G07G09G10G20G23
  23541643.060   123712186.63908  23541640.580    96399108.60846
  22930636.440   120501265.27508  22930639.680    93897082.95347
  20677089.000   108658858.72309  20677090.640    84669254.50448
  21633056.360   113682500.13709  21633055.800    88583771.45548
  20404393.660   107225824.33209  20404393.960    83552596.38149
  21328549.060   112082311.87309  21328548.420    87336882.17047
  20326380.400   106815863.55809  20326378.320    83233136.14348
  21677668.000   113916903.15909  21677664.540    88766399.50747
 15 02 15 10 33  0.0000000  0  8G02G03G06G07G09G10G20G23
  23524153.600   123620277.48008  23524150.760    96327491.10946
  22943748.760   120570170.18808  22943752.040    93950774.99347
  20673354.860   108639235.96109  20673356.520    84653964.03649
  21618800.240   113607584.10209  21618799.760    88525395.35648
  20408095.660   107245278.32909  20408095.940    83567755.34649
  21317352.420   112023473.31109  21317351.700    87291033.95847
  20321821.220   106791904.98408  20321819.240    83214467.12748
  21689222.700   113977622.81609  21689219.100    88813713.49047
 15 02 15 10 33 30.0000000  0  8G02G03G06G07G09G10G20G23
  23506711.260   123528615.85908  23506708.300    96256066.52946
  22956896.240   120639259.82908  22956899.480    94004610.97947
  20669729.920   108620187.51409  20669731.820    84639121.07449
  21604616.760   113533049.92409  21604616.420    88467316.81148
  20411861.620   107265068.44309  20411861.880    83583176.22249
  21306194.680   111964838.67909  21306193.760    87245344.65948
  20317317.660   106768238.98409  20317315.800    83196026.09248
  21700811.980   114038524.35009  21700808.220    88861169.20648
 15 02 15 10 34  0.0000000  0  8G02G03G06G07G09G10G20G23
  23489316.960   123437207.49908  23489313.900    96184839.26246
  22970079.440   120708537.58708  22970082.700    94058593.55347
  20666215.180   108601717.87209  20666217.180    84624729.13349
  21590507.140   113458903.57809  21590506.920    88409540.48048
  20415691.900   107285196.67709  20415692.160    83598860.56049
  21295076.560   111906412.56109  21295075.540    87199817.84147
  20312870.720   106744870.28309  20312868.880    83177816.71448
  21712436.120   114099609.84109  21712432.400    88908768.25848
 15 02 15 10 34 30.0000000  0  8G02G03G06G07G09G10G20G23
  23471971.000   123346054.49508  23471968.040    96113810.98046
  22983298.260   120778002.87608  22983301.520    94112722.25847
  20662810.780   108583827.56609  20662812.700    84610788.63349
  21576471.600   113385146.46209  21576471.440    88352067.45448
  20419586.140   107305661.10609  20419586.420    83614806.88049
  21283998.140   111848195.53609  21283997.180    87154453.94048
  20308480.540   106721799.49709  20308478.740    83159839.48748
  21724094.780   114160877.30609  21724091.280    88956509.10147
 15 02 15 10 35  0.0000000  0  8G02G03G06G07G09G10G20G23
  23454673.200   123255155.65008  23454670.760    96042980.76546
  22996552.040   120847651.82608  22996555.240    94166994.07047
  20659516.120   108566513.75109  20659518.000    84597297.34649
  21562509.860   113311777.21209  21562509.700    88294896.64348
  20423543.300   107326456.53209  20423543.680    83631011.11049
  21272958.980   111790185.08709  21272958.160    87109251.00647
  20304146.500   106699024.04208  20304144.760    83142092.37948
  21735787.040   114222321.39309  21735783.720    89004387.56748
 15 02 15 10 35 30.0000000  0  8G02G03G06G07G09G10G20G23
  23437423.660   123164510.05408  23437421.400    95972347.85946
  23009840.120   120917480.93708  23009843.240    94221406.27147
  20656330.740   108549773.99309  20656332.500    84584253.37549
  21548621.720   113238794.93009  21548621.600    88238027.38848
  20427562.440   107347578.08309  20427562.940    83647469.46149
  21261958.760   111732378.68509  21261958.000    87064207.07148
  20299868.080   106676541.21109  20299866.280    83124573.29048
  21747512.000   114283936.92109  21747508.780    89052399.62548
 15 02 15 10 36  0.0000000  0  8G02G03G06G07G09G10G20G23
  23420224.260   123074127.17208  23420221.940    95901919.65646
  23023163.820   120987497.11408  23023167.020    94275964.23447
  20653256.080   108533616.29609  20653257.740    84571662.95149
  21534809.020   113166208.91409  21534808.860    88181466.90548
  20431644.740   107369031.27209  20431645.400    83664186.23549
  21250999.040   111674784.52609  21250998.180    87019328.53147
  20295647.020   106654359.27009  20295645.060    83107288.65948
  21759270.760   114345729.50909  21759267.460    89100549.65547
 15 02 15 10 36 30.0000000  0  8G02G03G06G07G09G10G20G23
  23403075.060   122984007.74608  23403072.640    95831696.75847
  23036522.860   121057698.43408  23036525.980    94330666.46747
  20650291.960   108518039.71109  20650293.640    84559525.34349
  21521071.860   113094019.78509  21521071.600    88125215.67948
  20435789.660   107390812.98609  20435790.320    83681159.00049
  21240079.600   111617401.98309  21240078.640    86974614.88547
  20291483.180   106632477.71209  20291481.140    83090238.09648
  21771062.640   114407695.85709  21771059.280    89148835.07847
 15 02 15 10 37  0.0000000  0  8G02G03G06G07G09G10G20G23
  23385976.060   122894151.99508  23385973.480    95761679.32246
  23049916.700   121128082.53408  23049919.740    94385511.12947
  20647438.180   108503042.81709  20647439.840    84547839.44349
  21507410.120   113022227.04109  21507409.820    88069273.34048
  20439996.460   107412919.40209  20439997.000    83698384.76249
  21229200.220   111560229.88709  21229199.100    86930065.21248
  20287376.200   106610895.09808  20287374.140    83073420.46448
  21782886.840   114469832.23409  21782883.520    89197252.97747
 15 02 15 10 37 30.0000000  0  8G02G03G06G07G09G10G20G23
  23368927.860   122804562.73908  23368925.100    95691869.55546
  23063345.280   121198649.51508  23063348.440    94440498.28047
  20644694.960   108488626.76309  20644696.720    84536606.14449
  21493824.340   112950833.49009  21493824.080    88013642.05948
  20444264.800   107435349.33309  20444265.180    83715862.61449
  21218361.120   111503269.52809  21218359.900    86885680.52748
  20283326.320   106589612.70908  20283324.260    83056836.77648
  21794743.220   114532137.62409  21794739.980    89245802.58347
 15 02 15 10 38  0.0000000  0  8G02G03G06G07G09G10G20G23
  23351931.120   122715244.16508  23351928.040    95622270.69946
  23076809.000   121269400.96108  23076812.140    94495629.18347
  20642062.700   108474794.07709  20642064.480    84525827.42249
  21480315.280   112879843.12409  21480315.000    87958324.95248
  20448594.700   107458103.03309  20448595.040    83733592.75149
  21207562.880   111446523.85509  21207561.720    86841463.13048
  20279334.080   106568633.28309  20279332.000    83040489.16648
  21806631.840   114594612.15309  21806628.700    89294483.97248
 15 02 15 10 38 30.0000000  0  8G02G03G06G07G09G10G20G23
  23334986.860   122626201.74308  23334983.600    95552887.03247
  23090308.400   121340339.69708  23090311.480    94550906.01947
  20639542.160   108461548.53209  20639543.960    84515506.21349
  21466883.880   112809260.94309  21466883.580    87903325.92648
  20452986.480   107481181.95509  20452986.840    83751576.31749
  21196806.320   111389996.96809  21196805.220    86797416.22548
  20275400.240   106547960.80609  20275398.240    83024380.74048
  21818552.840   114657257.30209  21818549.960    89343298.31748
 15 02 15 10 39  0.0000000  0  8G02G03G06G07G09G10G20G23
  23318094.480   122537431.57108  23318091.140    95483715.49946
  23103842.100   121411459.27108  23103845.160    94606323.75347
  20637132.280   108448884.56609  20637134.060    84505638.17849
  21453529.460   112739083.22909  21453529.180    87848642.06048
  20457438.660   107504578.32409  20457439.040    83769807.22949
  21186090.340   111333683.54309  21186089.280    86753535.64448
  20271523.860   106527590.16009  20271521.880    83008507.49948
  21830504.840   114720065.18909  21830502.140    89392239.46048
 15 02 15 10 39 30.0000000  0  8G02G03G06G07G09G10G20G23
  23301255.360   122448940.97808  23301251.960    95414761.83346
  23117411.060   121482764.27708  23117414.140    94661885.98547
  20634834.040   108436807.73809  20634835.760    84496227.65648
  21440253.240   112669316.65309  21440253.020    87794278.57648
  20461951.860   107528295.45609  20461952.260    83788288.09049
  21175416.020   111277589.41009  21175414.880    86709825.93948
  20267706.020   106507527.00509  20267704.000    82992873.86448
  21842488.460   114783039.15109  21842485.800    89441310.01248
 15 02 15 10 40  0.0000000  0  8G02G03G06G07G09G10G20G23
  23284469.680   122360730.82208  23284466.240    95346026.66747
  23131015.020   121554253.04108  23131018.200    94717591.42147
  20632647.360   108425317.19809  20632649.120    84487273.98349
  21427055.420   112599961.86609  21427055.180    87740235.95148
  20466525.580   107552330.31209  20466525.940    83807016.53549
  21164783.220   111221714.08709  21164782.040    86666286.73448
  20263946.640   106487771.11509  20263944.540    82977479.65948
  21854503.100   114846176.04009  21854500.320    89490507.53147
 15 02 15 10 40 30.0000000  0  8G02G03G06G07G09G10G20G23
  23267738.060   122272805.31908  23267734.660    95277513.33746
  23144654.240   121625927.09009  23144657.420    94773441.22547
  20630572.780   108414415.34109  20630574.540    84478779.02349
  21413936.740   112531022.80109  21413936.440    87686517.25848
  20471159.860   107576683.13909  20471160.140    83825992.72749
  21154192.560   111166060.50009  21154191.400    86622920.30648
  20260246.260   106468325.06109  20260244.080    82962326.88048
  21866548.800   114909476.19509  21866545.840    89539832.25947
 15 02 15 10 41  0.0000000  0  8G02G03G06G07G09G10G20G23
  23251060.560   122185164.36208  23251057.420    95209221.71946
  23158328.100   121697783.31308  23158331.180    94829432.97847
  20628609.900   108404099.90609  20628611.640    84470741.02449
  21400897.000   112462498.47009  21400896.540    87633121.73348
  20475853.800   107601349.43209  20475854.000    83845213.20549
  21143643.780   111110626.86209  21143642.620    86579725.27448
  20256604.460   106449186.77309  20256602.200    82947413.92648
  21878624.760   114972935.24909  21878621.660    89589280.81148
 15 02 15 10 41 30.0000000  0  8G02G03G06G07G09G10G20G23
  23234438.560   122097815.12108  23234435.680    95141157.38147
  23172037.460   121769826.65908  23172040.500    94885570.55647
  20626759.700   108394376.67709  20626761.360    84463164.48749
  21387937.580   112394396.41409  21387936.960    87580055.24548
  20480608.020   107626332.89009  20480608.200    83864680.81749
  21133138.020   111055419.16209  21133136.760    86536706.30448
  20253022.280   106430362.57908  20253020.100    82932745.71548
  21890731.780   115036557.17509  21890728.560    89638856.28148
 15 02 15 10 42  0.0000000  0  8G02G03G06G07G09G10G20G23
  23217871.480   122010754.57008  23217868.820    95073318.00947
  23185781.320   121842051.26808  23185784.520    94941849.36447
  20625021.240   108385240.61109  20625022.780    84456045.47349
  21375057.800   112326712.83109  21375057.060    87527314.83048
  20485421.220   107651626.33509  20485421.400    83884389.98049
  21122674.400   111000433.07209  21122673.140    86493860.00448
  20249498.940   106411847.80709  20249496.900    82918318.60048
  21902868.360   115100334.24909  21902864.960    89688552.64048
 15 02 15 10 42 30.0000000  0  8G02G03G06G07G09G10G20G23
  23201360.160   121923987.02108  23201357.500    95005706.97347
  23199560.080   121914458.99808  23199563.440    94998270.86147
  20623394.900   108376694.33409  20623396.380    84449386.03048
  21362258.460   112259452.01609  21362257.640    87474903.85248
  20490293.500   107677230.29209  20490293.640    83904341.10749
  21112253.580   110945671.98409  21112252.480    86451189.04548
  20246035.180   106393645.58909  20246033.200    82904135.04948
  21915034.520   115164267.40409  21915030.980    89738370.62847
 15 02 15 10 43  0.0000000  0  8G02G03G06G07G09G10G20G23
  23184905.180   121837515.02608  23184902.360    94938326.22547
  23213373.600   121987049.41808  23213377.120    95054834.70847
  20621880.780   108368738.14209  20621882.400    84443186.40249
  21349539.900   112192615.82909  21349539.060    87422823.76048
  20495224.520   107703143.02409  20495224.700    83924532.84049
  21101875.800   110891136.63209  21101874.800    86408693.98048
  20242631.000   106375756.63108  20242629.100    82890195.60148
  21927229.980   115228354.88509  21927226.420    89788308.88448
 15 02 15 10 43 30.0000000  0  8G02G03G06G07G09G10G20G23
  23168506.860   121751341.22108  23168503.980    94871177.83947
  23227221.920   122059822.54708  23227225.560    95111540.91547
  20620479.080   108361372.83109  20620480.900    84437447.17449
  21336902.600   112126206.66909  21336901.800    87371076.40148
  20500214.020   107729363.23909  20500214.360    83944964.16849
  21091541.300   110836828.28709  21091540.360    86366375.79548
  20239286.740   106358182.39209  20239284.860    82876501.37848
  21939454.520   115292595.42809  21939451.000    89838366.39747
 15 02 15 10 44  0.0000000  0  8G02G03G06G07G09G10G20G23
  23152166.520   121665472.95608  23152163.760    94804267.52647
  23241105.900   122132783.12308  23241109.660    95168393.17347
  20619191.020   108354603.88809  20619192.820    84432172.66149
  21324347.880   112060231.52009  21324347.240    87319667.25948
  20505262.720   107755894.44709  20505263.160    83965637.82549
  21081251.200   110782753.17009  21081250.300    86324239.35948
  20236003.480   106340928.64909  20236001.640    82863056.89648
  21951708.860   115356992.81109  21951705.560    89888546.12747
 15 02 15 10 44 30.0000000  0  8G02G03G06G07G09G10G20G23
  23135883.440   121579906.36708  23135880.900    94737592.28047
  23255024.380   122205924.86908  23255028.100    95225386.61647
  20618015.440   108348425.71409  20618017.180    84427358.48549
  21311874.860   111994686.12409  21311874.400    87268593.00148
  20510369.120   107782729.01509  20510369.700    83986547.86549
  21071004.480   110728906.15109  21071003.600    86282280.65748
  20232780.200   106323990.18009  20232778.480    82849858.07449
  21963991.620   115421539.38709  21963988.580    89938842.10748
 15 02 15 10 45  0.0000000  0  9G02G03G06G07G09G10G20G23G30
  23119658.520   121494644.98708  23119656.220    94671154.87247
  23268977.440   122279248.16308  23268981.140    95282521.52847
  20616952.580   108342839.37509  20616954.280    84423005.47749
  21299484.120   111929573.10809  21299483.760    87217855.65148
  20515533.080   107809866.02309  20515533.720    84007693.57449
  21060801.460   110675288.98209  21060800.660    86240501.04748
  20229617.380   106307369.00509  20229615.660    82836906.50149
  21976302.580   115486234.16509  21976299.780    89989253.57348
  23084378.240   121309218.64405  23084381.300    94526670.31144
 15 02 15 10 45 30.0000000  0  9G02G03G06G07G09G10G20G23G30
  23103489.840   121409678.12708  23103487.380    94604946.95347
  23282962.560   122352739.74208  23282966.260    95339787.56747
  20615999.960   108337832.21409  20616001.520    84419103.78149
  21287173.580   111864881.76109  21287173.360    87167446.89148
  20520751.820   107837290.88709  20520752.480    84029063.58749
  21050639.920   110621889.74009  21050639.260    86198891.26048
  20226512.580   106291052.64509  20226510.800    82824192.45049
  21988639.100   115551062.60309  21988636.380    90039769.18648
  23064437.340   121204429.27405  23064441.040    94445016.34943
 15 02 15 10 46  0.0000000  0  9G02G03G06G07G09G10G20G23G30
  23087384.220   121325041.82608  23087381.560    94538996.61847
  23296986.080   122426433.09608  23296989.700    95397210.84547
  20615163.880   108333438.47109  20615165.540    84415680.05949
  21274950.100   111800647.78109  21274950.000    87117394.51948
  20526031.580   107865035.87409  20526032.100    84050683.04749
  21040526.560   110568743.52209  21040525.900    86157478.63148
  20223472.460   106275076.37309  20223470.580    82811743.39348
  22001007.340   115616057.38909  22001004.640    90090414.41848
  23044532.880   121099831.24805  23044536.580    94363511.48444
 15 02 15 10 46 30.0000000  0  9G02G03G06G07G09G10G20G23G30
  23071337.040   121240712.58508  23071334.260    94473285.55847
  23311043.040   122500301.91308  23311046.480    95454770.84347
  20614439.500   108329632.45409  20614441.420    84412714.28849
  21262809.000   111736846.78409  21262809.080    87067679.54948
  20531367.080   107893073.41709  20531367.440    84072530.46549
  21030456.600   110515825.30709  21030455.780    86116243.67848
  20220492.080   106259414.46509  20220490.140    82799539.29648
  22013402.000   115681190.89209  22013399.220    90141167.74447
  23024660.220   120995401.14706  23024664.200    94282137.45144
 15 02 15 10 47  0.0000000  0  9G02G03G06G07G09G10G20G23G30
  23055350.540   121156702.72708  23055347.780    94407823.35947
  23325135.180   122574355.95208  23325138.700    95512475.16847
  20613829.060   108326424.43309  20613830.960    84410214.50749
  21250752.720   111673490.80009  21250752.740    87018311.30448
  20536759.880   107921411.95509  20536760.060    84094612.41849
  21020432.060   110463146.22209  21020431.080    86075195.05348
  20217573.640   106244078.21209  20217571.720    82787588.96148
  22025824.660   115746471.38609  22025821.700    90192035.60448
  23004822.020   120891151.54906  23004826.100    94200904.06544
 15 02 15 10 47 30.0000000  0  9G02G03G06G07G09G10G20G23G30
  23039423.940   121073008.20508  23039421.240    94342606.86947
  23339261.260   122648588.38108  23339264.940    95570318.47647
  20613331.280   108323808.23709  20613333.060    84408175.88249
  21238780.300   111610575.34509  21238780.240    86969286.34648
  20542208.420   107950043.35609  20542208.440    84116922.57649
  21010452.040   110410700.83709  21010450.840    86034328.53348
  20214716.060   106229062.14209  20214714.240    82775888.11748
  22038273.800   115811891.29109  22038270.720    90243012.08847
  22985017.560   120787078.64307  22985021.420    94119808.35844
 15 02 15 10 48  0.0000000  0  9G02G03G06G07G09G10G20G23G30
  23023558.840   120989637.07708  23023556.080    94277642.37147
  23353422.280   122723004.46808  23353425.980    95628304.92846
  20612947.320   108321789.66809  20612948.840    84406602.96149
  21226893.160   111548107.67709  21226892.860    86920610.29648
  20547713.380   107978971.71409  20547713.440    84139464.12749
  21000517.880   110358495.85909  21000516.480    85993649.34048
  20211920.660   106214372.76809  20211919.000    82764441.83948
  22050750.240   115877454.94009  22050747.100    90294100.58447
  22965248.360   120683190.63507  22965252.040    94038856.73344
 15 02 15 10 48 30.0000000  0  9G02G03G06G07G09G10G20G23G30
  23007755.440   120906589.76008  23007752.560    94212930.19047
  23367617.700   122797602.15508  23367621.480    95686432.84547
  20612676.680   108320367.15309  20612678.140    84405494.48849
  21215091.300   111486088.06109  21215090.760    86872283.37248
  20553274.200   108008193.57709  20553274.220    84162234.37949
  20990629.320   110306530.55809  20990627.820    85953156.91048
  20209187.320   106200009.08209  20209185.760    82753249.34749
  22063253.220   115943158.47509  22063249.980    90345298.07447
  22945514.540   120579488.39907  22945518.020    93958049.83444
 15 02 15 10 49  0.0000000  0  9G02G03G06G07G09G10G20G23G30
  22992014.080   120823868.08208  22992011.040    94148471.76047
  23381847.480   122872380.57708  23381851.280    95744701.61046
  20612519.260   108319540.49409  20612520.780    84404850.30549
  21203374.900   111424517.64809  21203374.240    86824306.49148
  20558890.420   108037706.95909  20558890.460    84185231.79849
  20980786.340   110254805.49609  20980784.900    85912851.67748
  20206516.180   106185971.73409  20206514.540    82742311.14549
  22075782.460   116009000.40109  22075779.140    90396603.39947
  22925816.500   120475974.03707  22925819.720    93877389.35244
 15 02 15 10 49 30.0000000  0  9G02G03G06G07G09G10G20G23G30
  22976335.200   120741474.15508  22976331.880    94084268.71247
  23396111.680   122947339.09408  23396115.420    95803110.69947
  20612475.200   108319309.42509  20612476.840    84404670.22249
  21191744.260   111363398.08809  21191743.480    86776680.89648
  20564561.640   108067509.91809  20564561.780    84208454.83949
  20970989.140   110203321.61409  20970987.880    85872734.35648
  20203907.300   106172261.28909  20203905.440    82731627.67148
  22088337.740   116074978.79609  22088334.340    90448015.06847
  22906154.580   120372649.86607  22906157.760    93796877.06945
 15 02 15 10 50  0.0000000  0  9G02G03G06G07G09G10G20G23G30
  22960719.120   120659410.31008  22960715.460    94020322.87947
  23410410.060   123022476.96308  23410413.880    95861659.54047
  20612544.400   108319673.73609  20612546.220    84404954.06649
  21180199.700   111302730.85009  21180198.900    86729407.76948
  20570287.560   108097600.45409  20570287.740    84231901.97549
  20961237.920   110152079.36409  20961236.880    85832805.32648
  20201360.600   106158878.09109  20201358.620    82721199.19448
  22100918.700   116141091.86909  22100915.220    90499531.66847
  22886529.180   120269518.12908  22886532.280    93716514.75045
 15 02 15 10 50 30.0000000  0  9G02G03G06G07G09G10G20G23G30
  22945167.340   120577684.86208  22945163.480    93956640.72747
  23424743.800   123097800.13708  23424747.720    95920352.76547
  20612728.160   108320639.86109  20612730.020    84405706.86849
  21168742.660   111242523.99609  21168741.880    86682493.39248
  20576069.220   108127983.34209  20576069.380    84255576.91749
  20951534.160   110101086.17909  20951533.360    85793070.37248
  20198877.460   106145829.54309  20198875.560    82711031.47748
  22113526.300   116207344.58409  22113522.720    90551157.08947
  22866942.040   120166587.71008  22866945.160    93636309.30045
 15 02 15 10 51  0.0000000  0  9G02G03G06G07G09G10G20G23G30
  22929678.660   120496291.23109  22929674.660    93893217.13847
  23439111.100   123173299.43908  23439114.940    95979183.24947
  20613024.820   108322199.08509  20613026.920    84406921.80749
  21157371.820   111182770.42509  21157371.140    86635932.20948
  20581904.620   108158648.15309  20581904.660    84279471.52749
  20941876.340   110050334.44609  20941875.780    85753523.57648
  20196456.460   106133107.57309  20196454.680    82701118.22648
  22126158.480   116273726.43909  22126154.880    90602883.13847
  22847392.040   120063852.43408  22847395.180    93556255.90645
 15 02 15 10 51 30.0000000  0  9G02G03G06G07G09G10G20G23G30
  22914255.380   120415241.34508  22914251.400    93830061.39947
  23453513.620   123248983.82108  23453517.280    96038157.95547
  20613436.200   108324360.72309  20613438.320    84408606.18649
  21146089.340   111123481.08109  21146088.760    86589732.76548
  20587795.180   108189602.63009  20587795.100    84303591.85649
  20932266.460   109999834.77709  20932266.060    85714173.18948
  20194099.700   106120722.45509  20194097.860    82691467.47948
  22138816.720   116340245.45609  22138813.160    90654716.06048
  22827881.480   119961324.22208  22827884.660    93476363.87546
 15 02 15 10 52  0.0000000  0  9G02G03G06G07G09G10G20G23G30
  22898896.800   120334532.21908  22898893.180    93767171.18447
  23467950.180   123324847.46808  23467953.740    96097272.33147
  20613961.220   108327119.37709  20613963.360    84410755.75849
  21134894.540   111064652.35709  21134893.980    86543892.23848
  20593739.480   108220839.66709  20593739.360    84327932.36149
  20922703.700   109949582.59409  20922703.300    85675015.62748
  20191806.280   106108669.52209  20191804.220    82682075.56748
  22151499.780   116406894.78109  22151496.200    90706650.52047
  22808409.820   119859000.19008  22808412.960    93396630.92846
 15 02 15 10 52 30.0000000  0  9G02G03G06G07G09G10G20G23G30
  22883604.160   120254170.18609  22883600.880    93704551.42847
  23482421.560   123400894.29808  23482425.160    96156529.44547
  20614600.700   108330479.34509  20614602.820    84413373.89049
  21123788.560   111006290.26609  21123787.960    86498415.32148
  20599738.040   108252362.02109  20599737.900    84352495.19549
  20913189.200   109899583.51709  20913188.540    85636055.31248
  20189577.060   106096954.16109  20189574.880    82672946.70448
  22164208.200   116473677.32209  22164204.580    90758688.78047
  22788978.380   119756887.25408  22788981.540    93317062.48946
 15 02 15 10 53  0.0000000  0  9G02G03G06G07G09G10G20G23G30
  22868376.440   120174149.25208  22868373.360    93642197.44147
  23496926.040   123477115.60808  23496929.760    96215922.51247
  20615352.960   108334432.29009  20615355.000    84416454.08449
  21112770.160   110948388.22609  21112769.520    86453296.87348
  20605788.900   108284159.76209  20605788.960    84377272.61749
  20903721.480   109849830.14709  20903720.540    85597286.45648
  20187410.520   106085569.11909  20187408.400    82664075.21648
  22176940.120   116540583.56909  22176936.540    90810823.43047
  22769586.040   119654979.71709  22769589.100    93237654.09646
 15 02 15 10 53 30.0000000  0  9G02G03G06G07G09G10G20G23G30
  22853215.540   120094478.77309  22853212.600    93580116.57347
  23511464.960   123553518.06408  23511468.840    96275456.73647
  20616219.380   108338985.21909  20616221.380    84420001.79449
  21101840.940   110890954.89509  21101840.280    86408543.66048
  20611893.140   108316238.40309  20611893.420    84402268.92649
  20894302.020   109800330.93409  20894301.120    85558715.64348
  20185308.260   106074522.03309  20185306.180    82655467.08548
  22189696.540   116607618.96409  22189693.040    90863058.72047
  22750234.580   119553287.24309  22750237.580    93158413.30347
 15 02 15 10 54  0.0000000  0  9G02G03G06G07G09G10G20G23G30
  22838121.900   120015161.11508  22838119.000    93518310.62447
  23526038.280   123630101.20108  23526042.380    96335131.75247
  20617199.920   108344138.01709  20617201.940    84424016.93849
  21091001.260   110833991.86809  21091000.560    86364156.90948
  20618050.580   108348596.22709  20618051.020    84427482.78449
  20884931.000   109751086.59909  20884930.400    85520343.42348
  20183270.520   106063813.76809  20183268.440    82647122.96248
  22202477.140   116674782.07809  22202473.820    90915393.53247
  22730924.500   119451812.33409  22730927.500    93079342.04247
 15 02 15 10 54 30.0000000  0  9G02G03G06G07G09G10G20G23G30
  22823095.520   119936196.73708  22823092.660    93456779.95847
  23540645.520   123706862.53208  23540649.800    96394945.60447
  20618294.180   108349888.43509  20618296.140    84428497.76049
  21080251.080   110777498.62609  21080250.240    86320136.21348
  20624260.560   108381229.57609  20624261.000    84452911.33149
  20875608.420   109702096.29209  20875608.020    85482169.15448
  20181297.040   106053443.00108  20181294.980    82639041.82648
  22215281.400   116742069.48809  22215278.340    90967825.19047
  22711655.880   119350555.45209  22711658.880    93000440.68247
 15 02 15 10 55  0.0000000  0  9G02G03G06G07G09G10G20G23G30
  22808137.160   119857590.19508  22808134.260    93395528.12447
  23555287.080   123783804.05708  23555291.480    96454899.87246
  20619502.680   108356238.80309  20619504.580    84433446.07249
  21069591.060   110721479.38609  21069590.080    86276484.86548
  20630523.240   108414139.27309  20630523.540    84478555.22249
  20866334.980   109653363.51509  20866334.500    85444195.56048
  20179388.460   106043413.22709  20179386.460    82631226.39148
  22228109.540   116809481.80809  22228106.640    91020354.19147
  22692429.660   119249521.64409  22692432.720    92921713.15848
 15 02 15 10 55 30.0000000  0  9G02G03G06G07G09G10G20G23G30
  22793247.000   119779342.81408  22793243.980    93334556.14147
  23569962.740   123860924.48308  23569967.160    96514993.54046
  20620825.280   108363188.07309  20620826.980    84438861.07549
  21059021.360   110665934.58809  21059020.220    86233203.21748
  20636838.060   108447322.89609  20636838.220    84504412.55849
  20857110.660   109604888.95009  20857109.920    85406423.15948
  20177544.740   106033724.38909  20177542.880    82623676.61948
  22240961.160   116877017.28609  22240958.380    91072979.15647
  22673246.220   119148712.56909  22673249.320    92843160.75348
 15 02 15 10 56  0.0000000  0  9G02G03G06G07G09G10G20G23G30
  22778425.320   119701455.00108  22778422.180    93273864.37747
  23584672.020   123938221.58008  23584676.460    96575224.88846
  20622261.440   108370734.21209  20622263.020    84444741.16749
  21048541.940   110610864.37609  21048540.640    86190291.37048
  20643204.240   108480776.98509  20643204.360    84530480.65649
  20847935.240   109556671.53509  20847934.300    85368851.14948
  20175765.840   106024375.65709  20175763.840    82616391.87448
  22253835.540   116944672.50909  22253832.920    91125697.43147
  22654105.740   119048129.08609  22654108.800    92764784.14648
 15 02 15 10 56 30.0000000  0  9G02G03G06G07G09G10G20G23G30
  22763672.940   119623930.62408  22763669.760    93213455.78647
  23599415.140   124015696.47608  23599419.600    96635594.76146
  20623811.380   108378878.63109  20623812.920    84451087.44549
  21038153.340   110556271.74609  21038151.980    86147751.67948
  20649621.800   108514501.53209  20649621.880    84556759.49649
  20838809.220   109508713.90009  20838808.200    85331481.55148
  20174052.040   106015369.28109  20174049.900    82609373.89048
  22266732.840   117012447.95509  22266730.360    91178509.37847
  22635008.960   118947775.24709  22635011.960    92686586.48348
 15 02 15 10 57  0.0000000  0  9G02G03G06G07G09G10G20G23G30
  22748990.060   119546771.30109  22748987.060    93153331.67147
  23614191.860   124093347.91708  23614196.320    96696102.20446
  20625474.860   108387620.24109  20625476.480    84457899.06149
  21027855.740   110502157.40609  21027854.360    86105584.67748
  20656090.380   108548494.11809  20656090.480    84583247.19949
  20829732.720   109461016.31909  20829731.640    85294314.59848
  20172403.300   106006705.21409  20172401.180    82602622.64148
  22279652.600   117080341.27409  22279650.220    91231413.17747
  22615956.140   118847652.80109  22615959.120    92608569.12748
 15 02 15 10 57 30.0000000  0  9G02G03G06G07G09G10G20G23G30
  22734378.100   119469984.77208  22734375.220    93093498.01047
  23629003.080   124171180.89608  23629007.580    96756751.10246
  20627252.880   108396964.18009  20627254.620    84465180.02649
  21017650.380   110448528.25609  21017649.180    86063795.77048
  20662610.740   108582758.58409  20662610.780    84609946.76249
  20820707.020   109413585.39309  20820705.900    85257355.42848
  20170820.960   105998389.84609  20170818.780    82596143.10848
  22292595.500   117148356.27309  22292593.160    91284411.79847
  22596948.840   118747769.77709  22596951.820    92530738.35348
 15 02 15 10 58  0.0000000  0  9G02G03G06G07G09G10G20G23G30
  22719836.320   119393567.43108  22719833.600    93033952.05547
  23643847.720   124249189.35208  23643852.160    96817536.74046
  20629144.400   108406904.55309  20629146.220    84472925.75249
  21007536.580   110395380.37509  21007535.420    86022381.86748
  20669181.460   108617287.73809  20669181.500    84636852.56549
  20811731.280   109366416.75209  20811730.020    85220600.63848
  20169304.180   105990418.64009  20169301.900    82589931.75548
  22305560.280   117216486.40009  22305557.900    91337500.13047
  22577986.520   118648123.09809  22577989.520    92453091.74448
 15 02 15 10 58 30.0000000  0  9G02G03G06G07G09G10G20G23G30
  22705365.940   119317525.14208  22705363.360    92974698.33747
  23658726.300   124327375.94008  23658730.640    96878461.18245
  20631150.040   108417444.19609  20631151.920    84481138.44749
  20997515.220   110342718.21109  20997514.240    85981346.46448
  20675802.800   108652083.12209  20675802.900    84663965.82749
  20802806.280   109319514.72709  20802804.840    85184053.60648
  20167853.600   105982795.30509  20167851.260    82583991.47148
  22318547.180   117284733.25409  22318544.840    91390679.41747
  22559070.280   118548718.46109  22559073.380    92375633.74948
 15 02 15 10 59  0.0000000  0  9G02G03G06G07G09G10G20G23G30
  22690966.260   119241854.07109  22690963.660    92915733.87947
  23673637.680   124405734.73608  23673641.720    96939519.82845
  20633268.640   108428577.25709  20633270.420    84489813.53549
  20987585.460   110290537.61409  20987584.620    85940686.30348
  20682473.400   108687137.69509  20682473.560    84691281.03849
  20793931.120   109272874.82709  20793929.620    85147710.82648
  20166468.340   105975515.15509  20166466.020    82578318.59848
  22331554.920   117353089.91709  22331552.720    91443944.26247
  22540199.560   118449552.92009  22540202.740    92298362.05648
 15 02 15 10 59 30.0000000  0  9G02G03G06G07G09G10G20G23G30
  22676639.240   119166564.35009  22676636.520    92857066.58847
  23688583.180   124484272.79108  23688587.080    97000718.14146
  20635501.460   108440310.89709  20635503.360    84498956.60049
  20977749.100   110238847.89509  20977748.360    85900408.64548
  20689194.420   108722457.33809  20689194.740    84718802.80349
  20785107.400   109226505.74409  20785106.000    85111579.06848
  20165149.920   105968586.57409  20165147.600    82572919.67748
  22344584.660   117421562.87709  22344582.740    91497299.71647
  22521376.260   118350636.53109  22521379.460    92221284.51648
 15 02 15 11 00  0.0000000  0  9G02G03G06G07G09G10G20G23G30
  22662384.440   119091653.89308  22662381.480    92798694.82247
  23703561.720   124562984.94508  23703565.620    97062052.12145
  20637847.520   108452640.04809  20637849.640    84508563.69449
  20968005.560   110187645.48309  20968004.800    85860510.69948
  20695964.680   108758035.81709  20695965.140    84746526.26249
  20776334.360   109180403.62009  20776333.220    85075655.32648
  20163897.600   105962005.76209  20163895.300    82567791.73748
  22357635.400   117490145.70309  22357633.640    91550740.79047
  22502599.920   118251967.18409  22502603.140    92144399.46848
 15 02 15 11 00 30.0000000  0  9G02G03G06G07G09G10G20G23G30
  22648202.800   119017128.36208  22648199.640    92740622.99847
  23718574.020   124641874.84908  23718578.100    97123524.60045
  20640307.640   108465568.37109  20640309.860    84518637.68349
  20958355.820   110136936.02309  20958355.000    85820996.87448
  20702784.720   108793875.67409  20702785.240    84774453.39149
  20767613.200   109134574.15909  20767612.280    85039944.05848
  20162712.440   105955777.88009  20162710.120    82562938.81548
  22370707.920   117558841.68409  22370706.060    91604270.05647
  22483871.880   118153551.49709  22483875.080    92067712.07648
 15 02 15 11 01  0.0000000  0  9G02G03G06G07G09G10G20G23G30
  22634094.260   118942987.60508  22634090.860    92682851.00247
  23733619.620   124720939.50908  23733623.900    97185133.25345
  20642881.360   108479092.91709  20642883.500    84529176.26249
  20948799.760   110086718.60409  20948798.820    85781866.43948
  20709653.740   108829972.83109  20709654.360    84802581.01049
  20758943.660   109089015.90209  20758942.920    85004444.11848
  20161594.060   105949900.88009  20161591.760    82558359.30848
  22383801.440   117627646.84409  22383799.280    91657884.39247
  22465192.140   118055389.53609  22465195.300    91991222.37548
 15 02 15 11 01 30.0000000  0  9G02G03G06G07G09G10G20G23G30
  22620059.960   118869237.23408  22620056.500    92625383.20347
  23748699.060   124800181.47908  23748703.300    97246880.07145
  20645569.060   108493216.24009  20645571.040    84540181.42049
  20939338.160   110036997.55509  20939337.080    85743122.79348
  20716572.060   108866328.73709  20716572.660    84830910.25649
  20750326.560   109043733.29809  20750326.000    84969158.97448
  20160543.240   105944378.64109  20160541.060    82554056.24048
  22396916.060   117696562.83709  22396913.640    91711585.09147
  22446561.760   117957486.85109  22446564.840    91914934.70648
 15 02 15 11 02  0.0000000  0  9G02G03G06G07G09G10G20G23G30
  22606100.020   118795878.16908  22606096.760    92568220.31147
  23763811.880   124879599.05908  23763816.060    97308763.74245
  20648370.360   108507936.69809  20648372.240    84551651.88449
  20929971.000   109987772.85809  20929969.920    85704765.92748
  20723539.100   108902940.65409  20723539.700    84859438.99949
  20741761.840   108998726.02209  20741761.480    84934088.37348
  20159559.880   105939210.91809  20159557.820    82550029.42548
  22410051.260   117765587.02609  22410048.620    91765370.11247
  22427980.980   117859844.78709  22427984.040    91838850.11848
 15 02 15 11 02 30.0000000  0  9G02G03G06G07G09G10G20G23G30
  22592214.240   118722908.77208  22592211.160    92511361.05347
  23778957.200   124959188.04007  23778961.500    97370780.95445
  20651284.420   108523249.96309  20651286.280    84563584.26249
  20920697.900   109939042.40109  20920696.720    85666794.15548
  20730553.800   108939803.21909  20730554.420    84888163.03948
  20733249.080   108953991.30009  20733248.720    84899230.14048
  20158643.420   105934394.95209  20158641.500    82546276.68648
  22423206.100   117834714.74509  22423203.260    91819235.77947
  22409449.580   117762462.10109  22409452.600    91762967.62447
 15 02 15 11 03  0.0000000  0  9G02G03G06G07G09G10G20G23G30
  22578404.240   118650337.39408  22578401.280    92454811.95247
  23794136.220   125038954.07607  23794140.800    97432936.10845
  20654312.260   108539161.70309  20654314.160    84575982.98849
  20911520.260   109890813.30209  20911518.980    85629213.05948
  20737617.140   108976921.10909  20737617.740    84917086.03549
  20724789.740   108909536.78509  20724789.260    84864590.26448
  20157795.160   105929937.47809  20157793.280    82542803.31048
  22436381.400   117903950.85209  22436378.580    91873185.90847
  22390969.200   117665347.55609  22390972.200    91687294.08048
 15 02 15 11 03 30.0000000  0  9G02G03G06G07G09G10G20G23G30
  22564669.760   118578162.84308  22564666.940    92398572.04047
  23809348.260   125118893.04807  23809353.180    97495226.01946
  20657453.120   108555667.70709  20657455.100    84588844.77049
  20902437.660   109843083.63309  20902436.200    85592021.11148
  20744728.040   109014289.12209  20744728.740    84946203.93149
  20716383.200   108865359.99009  20716382.620    84830166.78548
  20157014.620   105925835.78409  20157012.720    82539607.15448
  22449576.260   117973290.23509  22449573.560    91927216.50047
  22372539.600   117568500.01909  22372542.640    91611828.58948
 15 02 15 11 04  0.0000000  0  9G02G03G06G07G09G10G20G23G30
  22551011.300   118506387.16709  22551008.400    92342642.96247
  23824593.140   125199004.55507  23824598.140    97557650.36845
  20660707.000   108572767.51109  20660709.100    84602169.24749
  20893450.320   109795854.65809  20893448.860    85555219.32348
  20751886.260   109051905.83009  20751887.020    84975515.61049
  20708029.680   108821462.26709  20708029.120    84795960.75548
  20156301.980   105922090.62209  20156299.980    82536688.83448
  22462790.380   118042731.83209  22462787.980    91981326.72747
  22354161.300   117471922.11008  22354164.380    91536573.20348
 15 02 15 11 04 30.0000000  0  9G02G03G06G07G09G10G20G23G30
  22537429.680   118435015.02208  22537426.660    92287028.31947
  23839871.180   125279290.56707  23839876.200    97620210.69345
  20664074.280   108590462.91509  20664076.480    84615957.83549
  20884558.960   109749130.22009  20884557.500    85518810.67448
  20759091.960   109089772.12809  20759092.780    85005021.78449
  20699729.920   108777847.05909  20699729.360    84761974.86948
  20155657.780   105918705.30009  20155655.760    82534050.90248
  22476024.120   118112276.73009  22476021.980    92035517.44847
  22335835.200   117375618.78708  22335838.440    91461531.78848
 15 02 15 11 05  0.0000000  0  9G02G03G06G07G09G10G20G23G30
  22523925.180   118364048.26209  22523922.120    92231729.55947
  23855182.200   125359750.14106  23855187.280    97682906.26345
  20667554.840   108608752.95809  20667556.940    84630209.78449
  20875763.740   109702910.97409  20875762.260    85482795.68648
  20766344.820   109127886.13609  20766345.700    85034720.97649
  20691484.160   108734515.22209  20691483.480    84728209.79548
  20155082.120   105915680.28309  20155080.200    82531693.71948
  22489277.500   118181923.69109  22489275.360    92089787.71947
  22317561.800   117279592.22308  22317565.120    91386706.02548
 15 02 15 11 05 30.0000000  0  9G02G03G06G07G09G10G20G23G30
  22510497.680   118293485.99408  22510494.500    92176745.99647
  23870525.660   125440379.84007  23870530.920    97745734.40145
  20671147.940   108627633.95109  20671149.940    84644922.21949
  20867064.340   109657195.26109  20867062.880    85447173.03748
  20773644.020   109166243.33609  20773644.820    85064609.66249
  20683291.940   108691464.78109  20683291.180    84694663.97248
  20154574.640   105913013.38108  20154572.820    82529615.58148
  22502549.680   118251668.10909  22502547.320    92144133.93747
  22299341.000   117183841.97008  22299344.300    91312095.54648
 15 02 15 11 06  0.0000000  0  9G02G03G06G07G09G10G20G23G30
  22497147.940   118223332.35309  22497144.700    92122080.83647
  23885901.820   125521180.75607  23885907.080    97808695.97045
  20674853.680   108647106.85609  20674855.620    84660095.88049
  20858461.260   109611986.11509  20858460.000    85411945.14348
  20780989.540   109204843.78409  20780990.140    85094687.90748
  20675153.860   108648698.68509  20675153.020    84661339.73748
  20154135.800   105910706.99409  20154133.980    82527818.37448
  22515840.600   118321510.70709  22515838.100    92198556.65847
  22281173.680   117088372.18509  22281176.880    91237703.60248
 15 02 15 11 06 30.0000000  0  9G02G03G06G07G09G10G20G23G30
  22483876.420   118153589.77208  22483873.160    92067735.97347
  23901310.580   125602152.87507  23901315.680    97871790.91144
  20678671.920   108667171.51909  20678673.940    84675730.64249
  20849954.860   109567285.18309  20849953.720    85377113.24448
  20788381.160   109243686.57009  20788381.640    85124954.97048
  20667070.320   108606218.70409  20667069.360    84628238.44348
  20153765.860   105908762.52309  20153764.000    82526303.17948
  22529149.980   118391450.80709  22529147.440    92253055.34847
  22263060.340   116993185.89809  22263063.460    91163532.55248
 15 02 15 11 07  0.0000000  0  9G02G03G06G07G09G10G20G23G30
  22470684.340   118084264.83908  22470681.060    92013716.55847
  23916752.580   125683300.11607  23916757.640    97935022.32844
  20682603.340   108687831.64409  20682605.520    84691829.38949
  20841546.300   109523097.99409  20841545.140    85342681.65848
  20795819.460   109282774.57809  20795819.880    85155413.11749
  20659042.300   108564030.34709  20659041.240    84595364.38448
  20153465.820   105907185.16609  20153463.800    82525074.04348
  22542478.460   118461491.56509  22542476.000    92307632.46547
  22245002.260   116898290.05509  22245005.340    91089587.81348
 15 02 15 11 07 30.0000000  0  9G02G03G06G07G09G10G20G23G30
  22457571.420   118015356.83108  22457568.300    91960021.99947
  23932227.240   125764619.18107  23932232.360    97998387.60245
  20686647.400   108709083.59809  20686649.720    84708389.31749
  20833235.220   109479422.99509  20833234.080    85308649.18748
  20803303.560   109322103.46809  20803303.960    85186058.97349
  20651069.360   108522132.07509  20651068.280    84562716.37048
  20153235.240   105905972.98709  20153233.020    82524129.47648
  22555825.200   118531628.92309  22555822.840    92362284.86047
  22226999.340   116803684.30109  22227002.400    91015869.11948
 15 02 15 11 08  0.0000000  0  9G02G03G06G07G09G10G20G23G30
  22444537.900   117946867.22308  22444535.260    91906653.47647
  23947734.320   125846108.54507  23947739.280    98061885.59345
  20690803.920   108730925.71709  20690806.180    84725409.12149
  20825021.660   109436260.48509  20825020.600    85275016.06548
  20810832.980   109361670.82709  20810833.420    85216890.63849
  20643151.620   108480524.36009  20643150.580    84530294.75948
  20153074.000   105905125.66009  20153071.720    82523469.20148
  22569189.860   118601860.79009  22569187.620    92417010.89247
  22209051.960   116709370.23809  22209054.940    90942377.71548
 15 02 15 11 08 30.0000000  0  9G02G03G06G07G09G10G20G23G30
  22431584.300   117878797.40108  22431582.160    91853612.05047
  23963273.600   125927767.03007  23963278.600    98125515.37045
  20695072.420   108753356.47909  20695074.540    84742887.59649
  20816905.680   109393610.98209  20816904.680    85241782.69048
  20818407.340   109401474.42809  20818407.880    85247906.38449
  20635289.300   108439207.52909  20635288.280    84498099.81448
  20152982.220   105904643.19809  20152979.940    82523093.23348
  22582572.160   118672185.30709  22582570.060    92471809.10647
  22191160.440   116615349.64709  22191163.280    90869114.98248
 15 02 15 11 09  0.0000000  0  9G02G03G06G07G09G10G20G23G30
  22418711.300   117811149.89708  22418709.280    91800899.71747
  23978845.060   126009594.39407  23978849.940    98189276.72945
  20699452.840   108776375.39709  20699454.920    84760824.38049
  20808887.580   109351475.76109  20808886.600    85208950.06548
  20826026.480   109441513.18509  20826027.140    85279105.36848
  20627482.740   108398183.24009  20627481.740    84466132.83648
  20152960.160   105904527.02509  20152957.860    82523002.69748
  22595971.940   118742601.64909  22595969.920    92526678.88547
  22173325.300   116521625.38509  22173328.000    90796083.16648
 15 02 15 11 09 30.0000000  0  9G02G03G06G07G09G10G20G23G30
  22405918.900   117743924.35408  22405916.680    91748516.19147
  23994448.120   126091587.81607  23994453.020    98253167.48845
  20703944.520   108799979.34509  20703946.600    84779217.02249
  20800967.200   109309853.68409  20800966.140    85176517.27548
  20833689.660   109481783.23909  20833690.340    85310484.57749
  20619731.520   108357450.23909  20619730.620    84434392.82248
  20153007.400   105904775.30108  20153005.180    82523196.13548
  22609388.520   118813106.40309  22609386.540    92581617.54847
  22155546.580   116428197.63409  22155549.220    90723282.38248
 15 02 15 11 10  0.0000000  0  9G02G03G06G07G09G10G20G23G30
  22393208.660   117677129.85009  22393205.940    91696468.54447
  24010083.880   126173753.48307  24010088.820    98317192.48545
  20708548.580   108824174.14109  20708550.740    84798070.06549
  20793145.960   109268752.41409  20793144.820    85144490.31848
  20841397.940   109522289.86909  20841398.460    85342048.14948
  20612037.060   108317016.50609  20612036.340    84402885.99748
  20153125.360   105905395.58208  20153123.240    82523679.44848
  22622823.020   118883705.45509  22622821.100    92636629.68647
  22137826.020   116335075.60909  22137828.660    90650719.83148
 15 02 15 11 10 30.0000000  0  9G02G03G06G07G09G10G20G23G30
  22380579.800   117610763.14809  22380576.760    91644754.24547
  24025751.340   126256085.78107  24025756.340    98381347.28145
  20713263.880   108848953.93709  20713266.240    84817378.94649
  20785423.100   109228168.29009  20785421.860    85112866.33248
  20849150.020   109563026.59709  20849150.440    85373791.00249
  20604398.840   108276878.25909  20604398.240    84371609.43348
  20153313.280   105906383.70808  20153311.240    82524449.39548
  22636274.300   118954392.20109  22636272.380    92691710.17347
  22120163.140   116242256.80109  22120165.740    90578393.54448
 15 02 15 11 11  0.0000000  0  9G02G03G06G07G09G10G20G23G30
  22368033.160   117544829.30309  22368030.000    91593377.24447
  24041450.940   126338587.38207  24041456.000    98445634.03945
  20718091.000   108874320.94509  20718093.440    84837145.39449
  20777799.420   109188105.52909  20777798.120    85081648.60648
  20856946.200   109603995.14809  20856946.660    85405714.49149
  20596817.840   108237040.11909  20596817.220    84340566.72048
  20153572.000   105907743.80008  20153570.060    82525509.18748
  22649742.700   119025168.90009  22649740.740    92746860.73746
  22102558.980   116149746.83609  22102561.540    90506307.91448
 15 02 15 11 11 30.0000000  0  9G02G03G06G07G09G10G20G23G30
  22355569.520   117479332.16209  22355566.200    91542340.51947
  24057182.860   126421259.05007  24057188.080    98510053.26246
  20723029.900   108900275.50709  20723032.500    84857369.66549
  20770275.260   109148566.09809  20770274.000    85050838.67448
  20864786.440   109645195.33209  20864786.940    85437818.47849
  20589294.420   108197504.41609  20589293.860    84309759.66948
  20153901.860   105909477.52009  20153900.080    82526860.10748
  22663228.400   119096035.90709  22663226.300    92802081.69546
  22085014.340   116057549.47509  22085016.880    90434465.86848
 15 02 15 11 12  0.0000000  0  9G02G03G06G07G09G10G20G23G30
  22343188.540   117414269.70709  22343185.120    91491642.50047
  24072946.280   126504096.06607  24072951.720    98574601.34045
  20728079.700   108926812.62209  20728082.360    84878047.89149
  20762850.180   109109547.30009  20762849.020    85020434.44048
  20872669.700   109686621.61509  20872670.220    85470098.64749
  20581827.960   108158268.01509  20581827.460    84279185.84348
  20154302.300   105911581.46309  20154300.480    82528499.53148
  22676730.300   119166987.78309  22676728.040    92857368.78147
  22067528.900   115965663.11709  22067531.440    90362866.17048
 15 02 15 11 12 30.0000000  0  9G02G03G06G07G09G10G20G23G30
  22330891.240   117349647.18309  22330887.880    91441287.30947
  24088741.760   126587101.13607  24088747.340    98639280.37345
  20733240.920   108953934.46909  20733243.480    84899181.75149
  20755524.900   109071053.26109  20755523.860    84990439.10548
  20880596.300   109728275.78809  20880596.800    85502556.39348
  20574419.420   108119335.76409  20574418.920    84248849.01048
  20154773.980   105914059.87409  20154772.060    82530430.73448
  22690248.720   119238026.81309  22690246.360    92912723.76547
  22050103.720   115874093.47009  22050106.260    90291513.25748
 15 02 15 11 13  0.0000000  0  9G02G03G06G07G09G10G20G23G30
  22318677.340   117285463.14409  22318674.200    91391273.76847
  24104568.500   126670269.99407  24104574.200    98704087.04445
  20738512.620   108981636.36509  20738515.080    84920767.60549
  20748298.940   109033080.96609  20748297.960    84960850.32548
  20888565.260   109770152.69309  20888565.740    85535187.70049
  20567068.360   108080705.26009  20567067.780    84218747.31048
  20155316.360   105916909.81408  20155314.400    82532651.44548
  22703782.780   119309148.06609  22703780.300    92968142.82947
  22032738.520   115782839.29009  22032741.080    90220406.16648
 15 02 15 11 13 30.0000000  0  9G02G03G06G07G09G10G20G23G30
  22306548.300   117221725.04709  22306545.300    91341607.71947
  24120427.360   126753607.62808  24120433.040    98769025.22345
  20743895.580   109009922.91509  20743897.980    84942809.01349
  20741173.520   108995637.43209  20741172.680    84931673.56848
  20896577.340   109812256.53609  20896577.880    85567995.82849
  20559776.000   108042383.05009  20559775.320    84188885.84448
  20155930.600   105920137.39109  20155928.640    82535166.40248
  22717333.340   119380356.33509  22717330.880    93023629.69447
  22015434.880   115691908.61609  22015437.460    90149551.14648
 15 02 15 11 14  0.0000000  0  9G02G03G06G07G09G10G20G23G30
  22294503.440   117158428.66309  22294500.300    91292285.88347
  24136317.020   126837107.25707  24136322.760    98834089.64045
  20749388.340   109038786.76809  20749390.720    84965300.28449
  20734147.800   108958717.40809  20734146.980    84902904.74048
  20904631.160   109854579.62209  20904631.780    85600974.81549
  20552541.280   108004364.24509  20552540.580    84159260.79348
  20156615.740   105923737.12509  20156613.700    82537971.37048
  22730898.960   119451644.22009  22730896.620    93079178.58946
  21998192.200   115601297.67609  21998194.780    90078945.27448
 15 02 15 11 14 30.0000000  0  9G02G03G06G07G09G10G20G23G30
  22282544.020   117095580.82209  22282540.760    91243313.55047
  24152238.340   126920773.16207  24152244.260    98899283.62344
  20754991.620   109068231.74809  20754994.040    84988244.36749
  20727222.760   108922326.27409  20727221.920    84874548.02948
  20912727.340   109897125.38009  20912728.020    85634127.30148
  20545365.360   107966654.93309  20545364.860    84129876.89748
  20157372.820   105927715.07909  20157370.700    82541071.05448
  22744480.360   119523015.43509  22744478.260    93134792.40747
  21981011.760   115511013.74109  21981014.320    90008594.21448
 15 02 15 11 15  0.0000000  0  9G02G03G06G07G09G10G20G23G30
  22270670.280   117033183.40309  22270667.020    91194692.18647
  24168191.140   127004604.38407  24168197.060    98964606.40645
  20760705.220   109098256.38309  20760707.720    85011640.12349
  20720398.520   108886464.68309  20720397.600    84846603.93248
  20920865.520   109939892.07509  20920866.280    85667451.94548
  20538248.620   107929256.12809  20538248.280    84100734.95948
  20158201.740   105932071.16409  20158199.680    82544465.37449
  22758077.380   119594468.56209  22758075.580    93190470.05847
  21963893.960   115421058.93509  21963896.440    89938499.61148
 15 02 15 11 15 30.0000000  0  9G02G03G06G07G09G10G20G23G30
  22258882.340   116971237.25809  22258879.100    91146422.47148
  24184175.020   127088599.32807  24184180.680    99030056.78744
  20766528.700   109128858.52509  20766531.100    85035485.88949
  20713675.060   108851132.56709  20713674.100    84819072.42348
  20929045.180   109982877.20909  20929046.040    85700946.80549
  20531191.200   107892167.96409  20531190.740    84071835.09148
  20159102.520   105936805.30209  20159100.660    82548154.28048
  22771689.660   119666001.57309  22771688.180    93246209.95647
  21946839.020   115331434.61009  21946841.460    89868662.52548
 15 02 15 11 16  0.0000000  0  9G02G03G06G07G09G10G20G23G30
  22247180.920   116909746.05409  22247177.820    91098507.24148
  24200190.240   127172759.27807  24200195.880    99095635.70345
  20772462.220   109160038.88609  20772464.440    85059782.22549
  20707052.920   108816332.56909  20707051.820    84791955.52948
  20937266.540   110026081.29109  20937267.460    85734612.27948
  20524193.560   107855393.57009  20524192.820    84043179.72748
  20160075.720   105941919.90709  20160074.040    82552139.65248
  22785317.460   119737615.39409  22785316.100    93302012.82547
  21929847.760   115242145.09909  21929850.140    89799086.33248
 15 02 15 11 16 30.0000000  0  9G02G03G06G07G09G10G20G23G30
  22235566.580   116848712.54809  22235563.500    91050948.66547
  24216236.660   127257083.61406  24216242.540    99161342.72645
  20778505.520   109191796.27409  20778507.600    85084528.19049
  20700532.220   108782065.46009  20700531.040    84765253.87848
  20945529.320   110069502.90609  20945530.360    85768447.26048
  20517255.680   107818934.29909  20517254.740    84014769.90848
  20161121.560   105947415.43409  20161119.880    82556421.84649
  22798960.500   119809308.95009  22798959.140    93357877.82747
  21912920.720   115153192.80309  21912923.000    89729772.89248
 15 02 15 11 17  0.0000000  0  9G02G03G06G07G09G10G20G23G30
  22224038.800   116788133.76309  22224035.800    91003744.41347
  24232313.460   127341567.56306  24232319.580    99227174.10645
  20784657.540   109224125.32609  20784659.480    85109719.61249
  20694112.340   108748327.99609  20694111.020    84738964.92049
  20953832.440   110113136.50009  20953833.580    85802447.41949
  20510377.020   107782787.02809  20510376.060    83986603.19948
  20162239.260   105953288.55109  20162237.560    82560998.26649
  22812617.700   119881077.22909  22812616.340    93413801.05547
  21896057.520   115064575.93709  21896059.660    89660720.82148
 15 02 15 11 17 30.0000000  0  9G02G03G06G07G09G10G20G23G30
  22212598.740   116728015.35809  22212595.520    90956898.90147
  24248421.280   127426214.06606  24248427.460    99293132.15644
  20790918.740   109257028.38809  20790920.800    85135358.30248
  20687793.980   108715124.50309  20687792.660    84713092.05548
  20962176.360   110156984.24009  20962177.520    85836614.44848
  20503558.640   107746956.54909  20503557.740    83958683.33548
  20163429.600   105959543.62309  20163427.920    82565872.30248
  22826289.420   119952922.57909  22826288.080    93469784.32046
  21879259.300   114976300.49309  21879261.300    89591934.78548
 15 02 15 11 18  0.0000000  0  9G02G03G06G07G09G10G20G23G30
  22201247.020   116668360.94209  22201243.480    90910414.94847
  24264560.220   127511024.09906  24264566.460    99359217.63444
  20797289.220   109290505.79909  20797291.360    85161444.53748
  20681577.720   108682457.46109  20681576.400    84687637.19848
  20970561.180   110201046.28109  20970562.300    85870948.47148
  20496801.040   107711445.59909  20496800.260    83931012.46148
  20164693.060   105966183.17609  20164691.420    82571045.93948
  22839975.740   120024845.66908  22839974.520    93525828.17646
  21862526.760   114888370.44109  21862528.700    89523417.89248
 15 02 15 11 18 30.0000000  0  9G02G03G06G07G09G10G20G23G30
  22189982.960   116609167.34009  22189979.080    90864290.07547
  24280729.180   127595991.58506  24280735.340    99425425.79845
  20803767.820   109324550.90109  20803770.060    85187973.13949
  20675462.580   108650322.18609  20675461.280    84662596.71448
  20978985.560   110245315.89009  20978986.540    85905444.22748
  20490103.580   107676250.22509  20490102.840    83903587.48848
  20166028.760   105973202.19009  20166027.120    82576515.26648
  22853675.620   120096840.24109  22853674.520    93581927.72346
  21845859.360   114800782.79409  21845861.300    89455167.80948
 15 02 15 11 19  0.0000000  0  9G02G03G06G07G09G10G20G23G30
  22178807.820   116550441.48809  22178803.640    90818529.68647
  24296929.040   127681121.07006  24296935.400    99491760.17245
  20810355.140   109359167.48009  20810357.520    85214947.04049
  20669449.760   108618724.45109  20669448.420    84637975.08848
  20987450.100   110289796.79109  20987451.100    85940104.62848
  20483467.480   107641376.98509  20483466.660    83876413.54748
  20167437.840   105980606.46409  20167436.120    82582284.80048
  22867390.080   120168910.34909  22867389.100    93638086.14946
  21829258.460   114713544.95709  21829260.480    89387190.31048
 15 02 15 11 19 30.0000000  0  9G02G03G06G07G09G10G20G23G30
  22167721.720   116492184.29609  22167717.600    90773134.47647
  24313159.420   127766410.90605  24313166.000    99558219.52144
  20817050.840   109394353.25109  20817053.260    85242364.46049
  20663539.240   108587663.98909  20663537.840    84613772.10348
  20995954.360   110334486.61109  20995955.420    85974927.81848
  20476892.660   107606825.87009  20476891.720    83849490.60048
  20168920.120   105988395.67809  20168918.400    82588354.27848
  22881118.700   120241053.91209  22881117.760    93694301.80546
  21812724.420   114626658.36309  21812726.500    89319486.49948
 15 02 15 11 20  0.0000000  0  9G02G03G06G07G09G10G20G23G30
  22156725.220   116434398.68608  22156721.440    90728106.73147
  24329420.420   127851861.71305  24329426.920    99624804.28044
  20823854.840   109430108.12609  20823857.160    85270225.35449
  20657731.280   108557142.75309  20657729.880    84589989.31248
  21004498.420   110379385.27109  21004499.460    86009913.74648
  20470379.540   107572599.39309  20470378.640    83822820.62648
  20170475.960   105996571.77709  20170474.320    82594725.21948
  22894861.380   120313271.29409  22894860.360    93750574.98446
  21796257.900   114540126.63709  21796260.020    89252059.21148
 15 02 15 11 20 30.0000000  0  9G02G03G06G07G09G10G20G23G30
  22145818.780   116377087.00608  22145815.400    90683448.26347
  24345711.900   127937473.14905  24345717.920    99691514.20544
  20830766.840   109466431.02609  20830769.180    85298528.84748
  20652026.080   108527161.91709  20652024.660    84566627.60748
  21013081.960   110424491.68709  21013083.020    86045061.54748
  20463928.380   107538699.10409  20463927.660    83796404.81348
  20172105.620   106005135.63509  20172104.080    82601398.31248
  22908618.060   120385561.97709  22908616.900    93806905.29246
  21779859.480   114453952.39509  21779861.520    89184910.46948
 15 02 15 11 21  0.0000000  0  9G02G03G06G07G09G10G20G23G30
  22135001.800   116320245.12708  22134998.960    90639155.88647
  24362032.680   128023238.49105  24362039.200    99758344.10644
  20837785.540   109503314.60409  20837787.920    85327269.25049
  20646422.660   108497715.88209  20646421.260    84543682.63548
  21021703.660   110469798.49309  21021704.700    86080365.50948
  20457538.360   107505120.21609  20457537.800    83770239.44348
  20173808.020   106014081.85009  20173806.520    82608369.35848
  22922387.420   120457918.97809  22922386.240    93863287.26647
  21763528.380   114368131.99509  21763530.360    89118037.45448
 15 02 15 11 21 30.0000000  0  9G02G03G06G07G09G10G20G23G30
  22124275.080   116263876.84408  22124272.600    90595232.54148
  24378383.160   128109159.07504  24378389.840    99825432.89544
  20844911.000   109540759.33009  20844913.580    85356446.89349
  20640921.560   108468807.51709  20640920.200    84521156.63049
  21030363.580   110515306.26709  21030364.560    86115826.06749
  20451210.220   107471865.91509  20451209.620    83744326.99748
  20175583.660   106023412.95309  20175582.120    82615640.31748
  22936169.500   120530342.98609  22936168.320    93919721.45847
  21747265.440   114282669.68709  21747267.400    89051443.48448
 15 02 15 11 22  0.0000000  0  9G02G03G06G07G09G10G20G23G30
  22113639.260   116207985.17808  22113636.920    90551680.57448
  24394763.340   128195235.35004  24394768.880    99892505.11443
  20852143.180   109578764.89709  20852145.840    85386061.56649
  20635522.960   108440438.01409  20635521.680    84499050.52549
  21039061.700   110561014.83109  21039062.600    86151443.07849
  20444944.300   107438938.45409  20444943.700    83718669.22948
  20177432.960   106033130.83609  20177431.340    82623212.66448
  22949964.340   120602834.48209  22949963.200    93976208.22747
  21731071.280   114197568.92309  21731073.300    88985131.23148
 15 02 15 11 22 30.0000000  0  8G02G06G07G09G10G20G23G30
  22103097.860   116152589.10909  22103095.580    90508514.80047
  20859485.100   109617347.03709  20859487.940    85416125.50349
  20630230.340   108412625.31309  20630229.140    84477378.29548
  21047800.960   110606940.00009  21047801.900    86187228.87348
  20438744.140   107406356.35109  20438743.580    83693280.56548
  20179359.240   106043253.20309  20179357.540    82631100.19048
  22963774.980   120675409.50709  22963773.980    94032760.07847
  21714949.580   114112849.19309  21714951.640    88919115.89248
 15 02 15 11 23  0.0000000  0  8G02G06G07G09G10G20G23G30
  22092646.320   116097665.11508  22092644.160    90465716.88148
  20866931.700   109656479.11809  20866934.600    85446617.96649
  20625039.060   108385344.93109  20625037.920    84456120.85548
  21056576.360   110653055.24809  21056577.400    86223162.77949
  20432605.200   107374095.78909  20432604.680    83668142.46048
  20181357.860   106053755.46509  20181356.100    82639283.73848
  22977596.540   120748042.30508  22977595.660    94089356.94747
  21698896.060   114028487.62309  21698898.160    88853379.63248
 15 02 15 11 23 30.0000000  0  8G02G06G07G09G10G20G23G30
  22082287.180   116043227.32208  22082285.120    90423297.79948
  20874484.920   109696171.62309  20874487.880    85477547.11749
  20619951.500   108358609.46809  20619950.280    84435288.01648
  21065390.060   110699371.30409  21065391.080    86259253.15849
  20426529.900   107342169.79009  20426529.280    83643265.04448
  20183431.100   106064650.22609  20183429.380    82647773.12148
  22991431.020   120820743.95808  22991430.440    94146007.45246
  21682913.480   113944498.50709  21682915.520    88787933.59848
 15 02 15 11 24  0.0000000  0  8G02G06G07G09G10G20G23G30
  22072020.680   115989276.62108  22072018.660    90381258.27548
  20882144.460   109736422.37809  20882147.320    85508911.29549
  20614967.640   108332418.83909  20614966.420    84414879.73849
  21074241.660   110745886.20409  21074242.660    86295498.49349
  20420518.280   107310578.84509  20420517.620    83618648.72548
  20185579.020   106075937.68208  20185577.360    82656568.50548
  23005278.260   120893512.70208  23005278.000    94202710.25747
  21667002.040   113860883.52709  21667004.060    88722779.11848
 15 02 15 11 24 30.0000000  0  8G02G06G07G09G10G20G23G30
  22061846.460   115935810.31909  22061844.340    90339596.21648
  20889909.180   109777225.30009  20889911.880    85540705.71848
  20610086.640   108306768.64809  20610085.300    84394892.56648
  21083129.960   110792594.07809  21083130.940    86331894.18648
  20414569.860   107279319.95509  20414569.240    83594291.13848
  20187800.860   106087613.66909  20187799.240    82665666.63648
  23019137.360   120966343.17608  23019137.260    94259461.15347
  21651161.360   113777640.34209  21651163.340    88657914.33548
 15 02 15 11 25  0.0000000  0  9G02G05G06G07G09G10G20G23G30
  22051765.140   115882832.08409  22051762.880    90298314.46148
  24671238.940   129648238.67107  24671243.120   101024613.36546
  20897778.900   109818580.32209  20897781.480    85572930.34948
  20605308.840   108281661.13209  20605307.500    84375328.26648
  21092054.900   110839495.08609  21092055.880    86368440.37748
  20408685.220   107248395.79509  20408684.580    83570194.37848
  20190097.020   106099680.03209  20190095.320    82675068.96648
  23033008.400   121039235.95208  23033008.380    94316260.59446
  21635392.140   113694772.80009  21635394.160    88593342.25148
 15 02 15 11 25 30.0000000  0  9G02G05G06G07G09G10G20G23G30
  22041779.360   115830355.41809  22041776.880    90257423.54748
  24653631.660   129555709.11008  24653635.480   100952512.46646
  20905755.800   109860498.22909  20905758.260    85605593.59248
  20600636.660   108257108.99909  20600635.340    84356196.72548
  21101018.580   110886600.36509  21101019.640    86405145.72348
  20402866.840   107217819.78109  20402866.200    83546368.89248
  20192470.100   106112149.98409  20192468.240    82684785.78148
  23046893.700   121112202.33709  23046893.460    94373117.41146
  21619697.180   113612295.45109  21619699.200    88529074.21648
 15 02 15 11 26  0.0000000  0  9G02G05G06G07G09G10G20G23G30
  22031884.360   115778356.70009  22031881.840    90216905.05948
  24636017.960   129463146.47908  24636020.900   100880385.74946
  20913834.540   109902951.61409  20913836.920    85638674.09648
  20596065.380   108233087.17109  20596064.160    84337478.41548
  21110016.000   110933882.78509  21110017.100    86441989.12148
  20397110.040   107187567.51909  20397109.440    83522795.69148
  20194915.160   106124998.06009  20194913.260    82694797.23148
  23060788.040   121185216.06309  23060787.520    94430011.10446
  21604071.960   113530184.77309  21604074.060    88465091.92248
 15 02 15 11 26 30.0000000  0  9G02G05G06G07G09G10G20G23G30
  22022084.300   115726857.23709  22022081.860    90176775.58948
  24618401.760   129370571.58808  24618404.480   100808249.56646
  20922018.700   109945958.79509  20922021.060    85672186.12049
  20591598.740   108209615.41809  20591597.720    84319188.73848
  21119050.820   110981360.99809  21119051.840    86478985.07748
  20391418.900   107157660.17909  20391418.320    83499491.26048
  20197436.020   106138244.99309  20197434.160    82705119.46648
  23074694.960   121258296.03609  23074694.140    94486956.42346
  21588520.860   113448462.97809  21588522.880    88401412.62048
 15 02 15 11 27  0.0000000  0  9G02G05G06G07G09G10G20G23G30
  22012378.460   115675853.16809  22012375.980    90137032.14348
  24600782.340   129277979.56608  24600784.340   100736099.90646
  20930306.760   109989512.24309  20930309.060    85706123.81049
  20587235.880   108186688.70709  20587234.860    84301323.75048
  21128121.600   111029027.89809  21128122.520    86516128.06148
  20385792.480   107128093.00109  20385791.900    83476451.87648
  20200031.760   106151885.51409  20200029.880    82715748.39248
  23088613.220   121331435.59609  23088612.160    94543948.15746
  21573043.100   113367126.43009  21573045.020    88338033.50048
 15 02 15 11 27 30.0000000  0  9G02G05G06G07G09G10G20G23G30
  22002767.760   115625348.38109  22002765.160    90097677.74848
  24583160.240   129185373.67808  24583162.140   100663939.57045
  20938698.840   110033612.66109  20938701.200    85740487.70349
  20582977.400   108164310.07609  20582976.300    84283885.83748
  21137228.480   111076884.53909  21137229.380    86553418.90148
  20380231.400   107098869.80409  20380230.880    83453680.53348
  20202702.960   106165922.37409  20202701.080    82726686.16248
  23102543.060   121404636.33309  23102541.800    94600987.56946
  21557639.480   113286179.65809  21557641.380    88274958.11448
 15 02 15 11 28  0.0000000  0  9G02G05G06G07G09G10G20G23G30
  21993252.160   115575343.07409  21993249.300    90058712.57448
  24565535.420   129092753.82508  24565536.840   100591768.25046
  20947194.460   110078256.94609  20947196.880    85775275.39049
  20578822.820   108142477.93109  20578821.780    84266873.77648
  21146370.940   111124928.31209  21146371.920    86590855.54648
  20374735.760   107069990.41209  20374735.280    83431177.08648
  20205449.440   106180354.97609  20205447.540    82737932.30148
  23116484.080   121477895.83409  23116482.680    94658072.76646
  21542310.140   113205623.53309  21542312.080    88212187.12348
 15 02 15 11 28 30.0000000  0  9G02G05G06G07G09G10G20G23G30
  21983832.320   115525840.56909  21983829.180    90020139.19648
  24547908.180   129000121.96408  24547909.800   100519587.67546
  20955793.440   110123444.51309  20955795.920    85810486.40749
  20574772.620   108121193.92109  20574771.520    84250288.81948
  21155548.900   111173159.06209  21155550.040    86628437.88148
  20369306.040   107041457.05909  20369305.540    83408943.28648
  20208271.420   106195184.39009  20208269.480    82749487.64948
  23130436.440   121551214.59009  23130435.000    94715204.14846
  21527055.780   113125461.32009  21527057.740    88149723.07948
 15 02 15 11 29  0.0000000  0  9G02G05G06G07G09G10G20G23G30
  21974509.180   115476846.60209  21974505.960    89981962.06848
  24530279.580   128907483.64508  24530281.160   100447402.00546
  20964496.420   110169178.36609  20964498.860    85846123.11149
  20570827.660   108100463.11309  20570826.660    84234134.94348
  21164763.180   111221580.25909  21164764.340    86666168.61448
  20363943.300   107013275.56309  20363942.740    83386983.65048
  20211169.940   106210416.07609  20211168.020    82761356.44448
  23144400.800   121624596.37909  23144399.100    94772384.63746
  21511877.620   113045699.98409  21511879.600    88087571.39948
 15 02 15 11 29 30.0000000  0  9G02G05G06G07G09G10G20G23G30
  21965281.800   115428355.83309  21965278.520    89944177.04948
  24512648.600   128814833.06608  24512650.300   100375206.78945
  20973301.620   110215449.64509  20973304.060    85882178.58049
  20566986.680   108080278.47209  20566985.640    84218406.63049
  21174012.300   111270183.53609  21174013.240    86704041.23648
  20358646.500   106985440.35209  20358645.820    83365293.85748
  20214143.720   106226043.73109  20214141.880    82773533.79348
  23158375.600   121698033.31309  23158373.620    94829608.09646
  21496774.780   112966334.58109  21496776.720    88025728.23948
 15 02 15 11 30  0.0000000  0  9G02G05G06G07G09G10G20G23G30
  21956151.320   115380374.60809  21956148.200    89906789.07048
  24495016.060   128722175.17208  24495018.100   100303005.91445
  20982209.540   110262260.99309  20982212.040    85918654.89149
  20563250.680   108060645.02909  20563249.600    84203107.84049
  21183296.760   111318972.10209  21183297.420    86742058.25648
  20353416.640   106957956.99709  20353415.940    83343878.23748
  20217193.780   106242072.07609  20217192.000    82786023.37148
  23172361.560   121771528.93609  23172359.340    94886877.29946
  21481748.580   112887371.68809  21481750.420    87964198.72248
 15 02 15 11 30 30.0000000  0  9G02G05G06G07G09G10G20G23G30
  21947117.320   115332900.25809  21947114.320    89869796.05948
  24477381.920   128629507.91008  24477384.060   100230797.66946
  20991219.080   110309606.59509  20991221.600    85955547.49648
  20559618.840   108041558.90009  20559617.720    84188235.51949
  21192615.460   111367940.75609  21192615.880    86780215.59548
  20348253.260   106930822.64309  20348252.580    83322734.56048
  20220319.440   106258497.56909  20220317.620    82798822.41048
  23186357.800   121845078.71509  23186355.460    94944188.69746
  21466798.680   112808809.47809  21466800.500    87902981.42748
 15 02 15 11 31  0.0000000  0  9G02G05G06G07G09G10G20G23G30
  21938180.140   115285934.22709  21938177.060    89833199.14448
  24459746.080   128536831.36308  24459748.120   100158582.21746
  21000329.900   110357484.52209  21000332.420    85992854.90649
  20556091.100   108023020.13609  20556089.900    84173789.71749
  21201968.040   111417088.13709  21201968.400    86818512.20648
  20343156.480   106904038.31309  20343155.860    83301863.63148
  20223520.740   106275320.46409  20223518.940    82811931.11849
  23200364.100   121918681.64509  23200361.880    95001541.49246
  21451925.420   112730649.94209  21451927.300    87842077.90648
 15 02 15 11 31 30.0000000  0  9G02G05G06G07G09G10G20G23G30
  21929341.340   115239485.17109  21929338.160    89797005.06848
  24442110.040   128444153.82308  24442112.120   100086366.01746
  21009543.020   110405899.90009  21009545.520    86030581.10848
  20552668.760   108005035.53709  20552667.620    84159775.74349
  21211355.620   111466420.00809  21211356.080    86856952.57448
  20338127.800   106877612.42109  20338127.240    83281272.00548
  20226799.140   106292548.34709  20226797.400    82825355.39948
  23214381.620   121992343.97109  23214379.680    95058940.58646
  21437130.500   112652902.24709  21437132.480    87781495.30248
 15 02 15 11 32  0.0000000  0  9G02G05G06G07G09G10G20G23G30
  21920599.980   115193548.39609  21920596.700    89761210.16648
  24424472.720   128351469.85908  24424475.000   100014144.79446
  21018856.940   110454844.56909  21018859.400    86068719.74748
  20549350.820   107987599.57309  20549349.680    84146189.26649
  21220776.800   111515928.83009  21220777.420    86895530.81148
  20333166.280   106851539.88009  20333165.760    83260955.72148
  20230153.460   106310175.26009  20230151.740    82839090.61548
  23228409.000   122066058.41609  23228407.280    95116380.28346
  21422413.140   112575562.15909  21422415.200    87721230.31348
 15 02 15 11 32 30.0000000  0  9G02G05G06G07G09G10G20G23G30
  21911956.760   115148127.84509  21911953.380    89725817.53148
  24406834.800   128258782.94408  24406837.400    99941921.26046
  21028271.760   110504319.17009  21028274.080    86107271.32248
  20546137.780   107970714.73709  20546136.640    84133032.24549
  21230231.820   111565615.91509  21230232.660    86934247.96548
  20328272.700   106825824.28009  20328272.160    83240917.57248
  20233584.220   106328204.31409  20233582.680    82853139.17648
  23242446.720   122139826.83009  23242445.140    95173862.03346
  21407774.240   112498634.29109  21407776.280    87661286.53648
 15 02 15 11 33  0.0000000  0  9G02G05G06G07G09G10G20G23G30
  21903411.380   115103222.48409  21903408.120    89690826.32148
  24389196.260   128166092.28708  24389198.840    99869694.79946
  21037786.600   110554319.38209  21037788.720    86146232.46348
  20543029.180   107954378.71109  20543027.960    84120302.84949
  21239720.040   111615477.69909  21239721.140    86973101.23848
  20323446.840   106800464.30709  20323446.320    83221156.52748
  20237091.120   106346633.35309  20237089.680    82867499.42148
  23256494.200   122213646.10309  23256492.680    95231383.41746
  21393213.740   112422118.36809  21393215.720    87601663.74148
 15 02 15 11 33 30.0000000  0  9G02G05G06G07G09G10G20G23G30
  21894964.820   115058837.35909  21894961.940    89656240.49448
  24371557.900   128073402.50808  24371560.720    99797469.07746
  21047401.760   110604846.84509  21047403.840    86185604.45149
  20540025.740   107938595.19809  20540024.440    84108003.99849
  21249242.040   111665516.48809  21249243.340    87012092.45548
  20318689.680   106775464.84709  20318689.160    83201676.41548
  20240674.960   106365466.48609  20240673.500    82882174.55448
  23270551.900   122287519.15008  23270550.480    95288946.71846
  21378732.660   112346019.98109  21378734.700    87542366.31148
 15 02 15 11 34  0.0000000  0  9G02G05G06G07G09G10G20G23G30
  21886617.520   115014973.82508  21886614.800    89622061.11348
  24353919.800   127980714.06308  24353922.420    99725244.34046
  21057116.720   110655899.07109  21057118.920    86225385.33848
  20537127.320   107923363.46209  20537125.860    84096135.09048
  21258797.520   111715730.58609  21258798.880    87051220.26648
  20314001.220   106750826.59809  20314000.740    83182477.76048
  20244335.780   106384703.61809  20244334.240    82897164.50348
  23284619.340   122361444.47208  23284618.180    95346550.73646
  21364331.360   112270340.67609  21364333.480    87483395.44448
 15 02 15 11 34 30.0000000  0  9G02G05G06G07G09G10G20G23G30
  21878369.320   114971630.92108  21878366.860    89588287.38248
  24336281.720   127888025.12808  24336284.120    99653019.29545
  21066930.760   110707472.03909  21066933.060    86265571.99748
  20534333.540   107908681.80009  20534332.020    84084694.80949
  21268385.760   111766116.69309  21268387.120    87090482.11348
  20309381.320   106726548.74109  20309380.860    83163559.92548
  20248073.060   106404342.83909  20248071.480    82912467.75148
  23298696.100   122435419.47008  23298695.380    95404193.43646
  21350009.860   112195080.43809  21350011.980    87424751.11348
 15 02 15 11 35  0.0000000  0  9G02G05G06G07G09G10G20G23G30
  21870220.940   114928811.42509  21870218.600    89554921.52248
  24318644.220   127795339.00608  24318646.320    99580796.42146
  21076843.680   110759564.93509  21076846.140    86306163.78248
  20531644.560   107894551.24309  20531643.040    84073683.95349
  21278006.760   111816674.88309  21278008.120    87129878.04148
  20304830.440   106702633.40309  20304830.000    83144924.56648
  20251887.260   106424386.33009  20251885.600    82928086.01248
  23312782.440   122509444.69208  23312782.060    95461875.27046
  21335768.760   112120242.48009  21335770.760    87366435.81548
 15 02 15 11 35 30.0000000  0  9G02G05G06G07G09G10G20G23G30
  21862172.580   114886516.49309  21862170.160    89521964.41348
  24301007.420   127702656.25808  24301008.820    99508576.14745
  21086855.140   110812175.50709  21086857.780    86347158.96349
  20529060.320   107880971.61409  20529059.020    84063102.41149
  21287660.200   111867403.73709  21287661.540    87169406.96748
  20300348.700   106679081.46109  20300348.180    83126572.39248
  20255778.280   106444833.72509  20255776.740    82944019.01548
  23326878.200   122583518.66309  23326878.040    95519595.12646
  21321608.320   112045828.58409  21321610.240    87308450.97349
 15 02 15 11 36  0.0000000  0  9G02G05G06G07G09G10G20G23G30
  21854223.820   114844744.45009  21854221.320    89489414.75148
  24283370.940   127609975.44407  24283372.140    99436357.37246
  21096964.220   110865299.02309  21096966.980    86388553.83349
  20526580.440   107867940.21109  20526579.340    84052948.04949
  21297345.420   111918299.38109  21297346.700    87209065.85348
  20295935.840   106655891.60209  20295935.280    83108502.35148
  20259745.760   106465682.85509  20259744.300    82960265.04348
  23340982.860   122657638.09309  23340982.720    95577350.38146
  21307528.380   111971838.05009  21307530.300    87250796.02048
 15 02 15 11 36 30.0000000  0  9G02G05G06G07G09G10G20G23G30
  21846376.220   114803504.06209  21846373.520    89457279.36548
  24265736.300   127517304.41208  24265736.920    99364146.18546
  21107171.920   110918940.62309  21107174.760    86430352.41049
  20524206.380   107855464.46309  20524205.340    84043226.66249
  21307063.500   111969367.79709  21307064.760    87248859.37148
  20291593.540   106633072.21709  20291593.000    83090721.00448
  20263791.060   106486940.89009  20263789.640    82976829.70948
  23355097.520   122731809.66609  23355097.460    95635146.27446
  21293530.720   111898280.08409  21293532.660    87193478.12648
 15 02 15 11 37  0.0000000  0  9G02G05G06G07G09G10G20G23G30
  21838629.320   114762793.60709  21838626.420    89425556.90548
  24248102.840   127424641.36808  24248103.700    99291941.29345
  21117477.120   110973094.71209  21117480.020    86472550.32849
  20521937.360   107843540.52209  20521936.360    84033935.25349
  21316813.600   112020604.35609  21316814.800    87288783.89948
  20287321.280   106610621.04809  20287320.820    83073226.57448
  20267913.680   106508604.96009  20267912.180    82993710.76048
  23369221.260   122806029.18609  23369221.300    95692979.51746
  21279615.040   111825153.08909  21279617.060    87136496.06548
 15 02 15 11 37 30.0000000  0  9G02G05G06G07G09G10G20G23G30
  21830983.720   114722615.27409  21830980.680    89394249.09748
  24230471.280   127331988.37707  24230472.100    99219744.15946
  21127879.580   111027760.38909  21127882.600    86515146.88648
  20519773.620   107832169.57909  20519772.580    84025074.75349
  21326595.720   112072009.03909  21326596.800    87328839.44348
  20283119.460   106588540.39209  20283119.060    83056020.86448
  20272113.880   106530676.83709  20272112.360    83010909.58648
  23383354.160   122880297.05708  23383354.140    95750850.46246
  21265782.020   111752460.23309  21265784.020    87079852.28748
