     2.11           OBSERVATION DATA    G                   RINEX VERSION / TYPE
SPIDER V4,0,0,3554                      2015 03 13 01:04    PGM / RUN BY / DATE 
CKHR                                                        MARKER NAME         
CKHR                                                        MARKER NUMBER       
                                                            OBSERVER / AGENCY   
496547              LEICA GRX1200+GNSS  8.10/4.007          REC # / TYPE / VERS 
10301042            LEIAR25         NONE                    ANT # / TYPE        
  5141838.0877   498328.5776  3730203.3049                  APPROX POSITION XYZ 
        0.0720        0.0000        0.0000                  ANTENNA: DELTA H/E/N
     1     1                                                WAVELENGTH FACT L1/2
     4    C1    L1    P2    L2                              # / TYPES OF OBSERV 
    30.000                                                  INTERVAL            
  2015    02    15    07    04   30.0000000     GPS         TIME OF FIRST OBS   
  2015    02    15    23    59   30.0000000     GPS         TIME OF LAST OBS    
    16                                                      LEAP SECONDS        
    29                                                      # OF SATELLITES     
   G 1   361   361   361   361                              PRN / # OF OBS      
   G 2   939   939   939   939                              PRN / # OF OBS      
   G 3   509   509   509   509                              PRN / # OF OBS      
   G 4   226   226   226   226                              PRN / # OF OBS      
   G 5   649   649   649   649                              PRN / # OF OBS      
   G 6   816   816   815   815                              PRN / # OF OBS      
   G 7   665   665   665   665                              PRN / # OF OBS      
   G 9   773   773   773   773                              PRN / # OF OBS      
   G10   762   762   762   762                              PRN / # OF OBS      
   G11   262   262   262   262                              PRN / # OF OBS      
   G12   825   824   824   824                              PRN / # OF OBS      
   G13   793   793   792   792                              PRN / # OF OBS      
   G14   506   506   506   506                              PRN / # OF OBS      
   G15   684   684   684   684                              PRN / # OF OBS      
   G16    82    82    82    82                              PRN / # OF OBS      
   G17   827   827   827   827                              PRN / # OF OBS      
   G18   376   376   375   375                              PRN / # OF OBS      
   G19    38    38    38    38                              PRN / # OF OBS      
   G20   803   803   803   803                              PRN / # OF OBS      
   G21   311   310   310   310                              PRN / # OF OBS      
   G23   612   612   612   612                              PRN / # OF OBS      
   G24   826   826   825   825                              PRN / # OF OBS      
   G25   763   763   762   762                              PRN / # OF OBS      
   G27    25    25    25    25                              PRN / # OF OBS      
   G28   614   614   614   614                              PRN / # OF OBS      
   G29   596   596   596   596                              PRN / # OF OBS      
   G30   710   710   710   710                              PRN / # OF OBS      
   G31   618   617   617   617                              PRN / # OF OBS      
   G32   253   253   253   253                              PRN / # OF OBS      
BIT 2 OF LLI FLAGS DATA COLLECTED UNDER A/S CONDITION       COMMENT             
SNR is mapped to RINEX snr flag value [2-9]                 COMMENT             
Lx:     = 25dBHz -> 1; 26-27dBHz -> 2; 28-31dBHz -> 3       COMMENT             
       32-35dBHz -> 4; 36-38dBHz -> 5; 39-41dBHz -> 6       COMMENT             
       42-44dBHz -> 7; 45-48dBHz -> 8; >=49dBHz -> 9        COMMENT             
                                                            END OF HEADER       
 15 02 15 07 04 30.0000000  0 11G01G03G04G11G14G17G19G23G28G31G32
  20422173.420   107319245.19209  20422174.180    83625388.63049
  20647845.080   108505158.52909  20647845.440    84549474.80549
  21005835.700   110386410.88609  21005834.000    86015378.35848
  20378834.320   107091497.21809  20378831.480    83447907.87148
  24635131.500   129458491.06407  24635132.680   100876748.39546
  23557803.660   123797092.39208  23557801.960    96465259.77047
  23781422.960   124972221.51308  23781419.960    97380938.73147
  22747733.220   119540143.52609  22747729.640    93148149.22847
  24391151.480   128176363.73508  24391149.020    99877676.52944
  24374891.300   128090921.43808  24374891.620    99811108.45744
  21128545.120   111031254.36009  21128543.880    86517854.17048
 15 02 15 07 05  0.0000000  0 11G01G03G04G11G14G17G19G23G28G31G32
  20420388.960   107309868.04609  20420389.760    83618081.72449
  20644034.220   108485132.56909  20644034.660    84533870.13649
  21014789.140   110433461.48909  21014787.360    86052041.10848
  20385898.380   107128618.91909  20385895.480    83476833.81948
  24652500.700   129549767.40407  24652502.000   100947872.62545
  23541530.680   123711577.15508  23541528.860    96398624.49447
  23801777.420   125079185.05609  23801774.500    97464286.81647
  22729824.160   119446030.56809  22729820.580    93074814.44747
  24399504.320   128220259.20908  24399502.080    99911880.69244
  24366245.500   128045487.03908  24366245.700    99775705.03045
  21140000.640   111091453.38709  21139999.440    86564762.45248
 15 02 15 07 05 30.0000000  0 11G01G03G04G11G14G17G19G23G28G31G32
  20418668.480   107300827.15709  20418669.400    83611036.84149
  20640284.780   108465429.75609  20640285.300    84518517.26249
  21023807.300   110480852.29209  21023805.560    86088968.92648
  20393054.160   107166222.61109  20393051.200    83506135.34648
  24669918.960   129641300.44208  24669920.080   101019196.90645
  23525321.700   123626398.31109  23525319.820    96332251.33647
  23822161.100   125186302.22509  23822158.440    97547754.62747
  22711963.580   119352172.80209  22711960.060    93001678.52147
  24407918.540   128264477.16608  24407917.460    99946336.13545
  24357671.280   128000427.78308  24357671.060    99740594.02345
  21151500.640   111151885.87209  21151499.360    86611852.64148
 15 02 15 07 06  0.0000000  0 11G01G03G04G11G14G17G19G23G28G31G32
  20417007.420   107292098.43809  20417008.440    83604235.19449
  20636591.960   108446024.28709  20636592.540    84503396.08149
  21032885.420   110528558.36809  21032883.800    86126142.42348
  20400296.660   107204282.11609  20400293.700    83535792.04348
  24687381.100   129733062.72308  24687381.780   101090699.83744
  23509172.480   123541533.41709  23509170.420    96266122.81447
  23842568.780   125293545.62308  23842566.480    97631320.80447
  22694147.140   119258547.34009  22694143.700    92928723.59747
  24416389.100   128308989.89708  24416387.720    99981021.30445
  24349164.180   127955720.83108  24349163.780    99705757.56545
  21163039.920   111212524.73209  21163038.580    86659103.63148
 15 02 15 07 06 30.0000000  0 11G01G03G04G11G14G17G19G23G28G31G32
  20415406.440   107283685.08709  20415407.480    83597679.28949
  20632956.040   108426917.61209  20632956.660    84488507.72349
  21042023.800   110576581.79609  21042022.400    86163563.20648
  20407626.220   107242799.37409  20407623.340    83565805.42848
  24704886.900   129825054.07108  24704887.100   101162381.28644
  23493083.880   123456987.07208  23493081.680    96200242.51147
  23863000.460   125400915.19108  23862998.500    97714985.28847
  22676375.780   119165158.74409  22676372.420    92855953.24447
  24424916.020   128353796.95107  24424914.300   100015935.82045
  24340724.780   127911371.10108  24340724.220    99671199.31345
  21174618.500   111273370.38109  21174617.160    86706515.75248
 15 02 15 07 07  0.0000000  0 11G01G03G04G11G14G17G19G23G28G31G32
  20413866.200   107275590.90009  20413867.220    83591372.08849
  20629377.360   108408111.76009  20629378.040    84473853.78749
  21051222.960   110624924.92009  21051221.840    86201233.09948
  20415043.400   107281776.93609  20415040.580    83596177.49748
  24722436.260   129917274.63907  24722435.660   101234241.41043
  23477056.900   123372764.59209  23477054.720    96134614.56347
  23883456.220   125508411.29308  23883454.500    97798748.36647
  22658650.380   119072011.83509  22658647.160    92783371.23147
  24433498.860   128398898.49308  24433497.260   100051079.76045
  24332354.120   127867383.80608  24332353.880    99636923.48845
  21186236.580   111334423.66409  21186235.280    86754089.67148
 15 02 15 07 07 30.0000000  0 11G01G03G04G11G14G17G19G23G28G31G32
  20412386.260   107267813.77909  20412387.320    83585311.94449
  20625855.260   108389602.98109  20625855.980    84459431.31649
  21060482.420   110673584.70409  21060481.560    86239149.73048
  20422547.580   107321211.59209  20422544.800    83626905.73348
  24740027.900   130009718.59307  24740027.140   101306275.53243
  23461091.440   123288865.30008  23461089.260    96069238.45247
  23903935.020   125616028.20508  23903933.300    97882605.57946
  22640970.960   118979105.94509  22640967.720    92710977.01247
  24442136.380   128444289.14808  24442134.520   100086448.96045
  24324052.140   127823758.35608  24324052.660    99602929.74645
  21197893.300   111395679.71109  21197891.940    86801821.56748
 15 02 15 07 08  0.0000000  0 11G01G03G04G11G14G17G19G23G28G31G32
  20410966.780   107260354.57909  20410967.860    83579499.53149
  20622389.560   108371390.33709  20622390.240    84445239.61749
  21069802.180   110722560.99309  21069801.480    86277313.00248
  20430138.500   107361102.23509  20430135.720    83657989.28548
  24757661.620   130102383.36308  24757661.020   101378481.66144
  23445187.980   123205291.84009  23445185.900    96004116.24847
  23924436.440   125723763.64708  23924434.620    97966555.15147
  22623337.760   118886442.76409  22623334.460    92638771.92247
  24450828.360   128489965.70906  24450827.540   100122041.02646
  24315819.720   127780497.19909  24315820.340    99569219.71045
  21209588.160   111457136.42809  21209586.800    86849709.84348
 15 02 15 07 08 30.0000000  0 11G01G03G04G11G14G17G19G23G28G31G32
  20409607.940   107253214.21609  20409609.060    83573935.57549
  20618980.060   108353473.01009  20618980.660    84431278.03249
  21079182.100   110771853.19209  21079181.520    86315722.43848
  20437816.100   107401448.40309  20437813.300    83689427.79448
  24775336.780   130195266.19908  24775336.340   101450857.75945
  23429346.880   123122046.40009  23429344.900    95939249.62647
  23944959.980   125831614.89508  23944958.060    98050594.96047
  22605751.220   118794024.54109  22605747.740    92566757.70847
  24459574.720   128535925.96507  24459572.760   100157854.20945
  24307657.260   127737602.54908  24307657.780    99535795.37945
  21221320.840   111518792.02509  21221319.480    86897753.08548
 15 02 15 07 09  0.0000000  0 11G01G03G04G11G14G17G19G23G28G31G32
  20408310.960   107246398.59709  20408312.140    83568624.65749
  20615627.580   108335855.19309  20615628.120    84417549.82149
  21088623.240   110821466.27309  21088622.620    86354381.90648
  20445581.260   107442254.76009  20445578.480    83721224.89048
  24793054.000   130288369.75508  24793053.520   101523405.80445
  23413569.480   123039135.91409  23413567.580    95874644.02247
  23965506.080   125939584.59408  23965503.820    98134727.06746
  22588212.640   118701858.34009  22588209.040    92494939.86747
  24468375.220   128582172.46108  24468373.600   100193890.20644
  24299565.760   127695081.79708  24299566.160    99502662.45145
  21233091.920   111580649.41809  21233090.600    86945953.56148
 15 02 15 07 09 30.0000000  0 11G01G03G04G11G14G17G19G23G28G31G32
  20407075.020   107239903.22409  20407076.200    83563563.26549
  20612330.880   108318530.64209  20612331.420    84404050.14249
  21098124.460   110871394.62009  21098123.700    86393287.03448
  20453432.800   107483515.09409  20453430.100    83753375.73248
  24810811.500   130381685.56107  24810811.180   101596119.25145
  23397855.280   122956557.58508  23397853.440    95810297.21647
  23986073.180   126047664.61408  23986070.780    98218945.12647
  22570721.380   118609940.86409  22570717.700    92423315.83947
  24477228.420   128628696.29607  24477226.020   100230142.48445
  24291544.860   127652932.00408  24291545.100    99469818.50745
  21244900.040   111642701.33909  21244898.720    86994305.61948
 15 02 15 07 10  0.0000000  0 11G01G03G04G11G14G17G19G23G28G31G32
  20405900.900   107233732.48809  20405902.000    83558754.85049
  20609090.460   108301502.00209  20609091.000    84390781.03049
  21107686.260   110921641.19909  21107685.360    86432440.14248
  20461371.280   107525232.33009  20461368.700    83785882.60148
  24828609.460   130475214.91606  24828609.620   101668998.99644
  23382205.500   122874317.71509  23382203.780    95746214.17247
  24006661.440   126155855.89108  24006658.900    98303249.89246
  22553278.400   118518277.37309  22553274.740    92351889.71947
  24486134.820   128675498.46707  24486132.800   100266611.60944
  24283595.620   127611158.76507  24283595.760    99437267.93245
  21256745.480   111704949.31309  21256744.160    87042810.45848
 15 02 15 07 10 30.0000000  0 11G01G03G04G11G14G17G19G23G28G31G32
  20404788.780   107227887.73509  20404789.780    83554200.44449
  20605906.280   108284768.88609  20605906.760    84377742.20249
  21117308.700   110972206.45609  21117307.620    86471841.56448
  20469396.740   107567406.30709  20469394.200    83818745.37748
  24846447.560   130568955.36606  24846447.860   101742043.25744
  23366620.700   122792418.93008  23366618.980    95682396.88447
  24027270.420   126264156.49408  24027267.780    98387639.83346
  22535884.260   118426870.63709  22535880.620    92280663.66947
  24495093.640   128722576.85308  24495091.760   100303295.98644
  24275718.360   127569764.86708  24275718.980    99405013.01646
  21268627.920   111767392.00409  21268626.620    87091467.01648
 15 02 15 07 11  0.0000000  0 11G01G03G04G11G14G17G19G23G28G31G32
  20403738.960   107222370.55209  20403739.880    83549901.29849
  20602778.360   108268331.16409  20602778.800    84364933.56149
  21126991.860   111023090.85409  21126990.700    86511491.68748
  20477509.160   107610037.10709  20477506.620    83851964.12748
  24864325.580   130662904.94207  24864326.220   101815250.60244
  23351101.360   122710864.17409  23351099.500    95618847.68547
  24047899.740   126372564.59408  24047897.340    98472113.55046
  22518539.400   118335723.10009  22518535.900    92209639.59447
  24504104.440   128769929.58608  24504102.520   100340194.09344
  24267914.160   127528753.23208  24267914.880    99373055.95146
  21280547.200   111830028.11709  21280545.920    87140274.31448
 15 02 15 07 11 30.0000000  0 10G01G03G04G11G17G19G23G28G31G32
  20402749.760   107217172.38909  20402750.720    83545850.72849
  20599704.720   108252178.54909  20599705.080    84352347.06349
  21136733.800   111074284.48409  21136732.620    86551382.76248
  20485706.640   107653114.56409  20485704.060    83885530.91348
  23335646.100   122629645.83509  23335644.020    95555560.61447
  24068547.220   126481068.18808  24068545.140    98556661.68747
  22501242.460   118244827.71309  22501239.100    92138811.99747
  24513165.120   128817544.21708  24513163.260   100377296.34544
  24260181.300   127488116.76008  24260181.800    99341391.18445
  21292501.120   111892846.29809  21292499.880    87189223.47448
 15 02 15 07 12  0.0000000  0 10G01G03G04G11G17G19G23G28G31G32
  20401824.700   107212311.20609  20401825.680    83542062.75449
  20596688.360   108236327.23609  20596688.660    84339995.36849
  21146537.720   111125804.03509  21146536.540    86591527.81748
  20493992.300   107696655.26809  20493989.580    83919458.68748
  23320258.800   122548784.55309  23320256.680    95492551.78147
  24089215.700   126589681.85208  24089214.000    98641295.58847
  22483997.160   118154203.63109  22483993.960    92068195.82147
  24522278.520   128865435.42908  24522275.860   100414614.13644
  24252523.440   127447875.02308  24252523.920    99310033.98646
  21304492.620   111955861.77509  21304491.360    87238326.38248
 15 02 15 07 12 30.0000000  0 10G01G03G04G11G17G19G23G28G31G32
  20400960.860   107207771.65609  20400961.860    83538525.39349
  20593726.000   108220760.15509  20593726.360    84327865.13249
  21156400.380   111177633.08909  21156399.360    86631914.01148
  20502362.860   107740642.25309  20502360.080    83953734.19948
  23304936.600   122468265.64609  23304934.480    95429809.72347
  24109901.600   126698386.81408  24109900.160    98726000.62046
  22466800.740   118063836.29409  22466797.620    91997779.69347
  24531440.960   128913584.13708  24531438.960   100452132.44644
  24244938.040   127408013.79808  24244938.720    99278973.35146
  21316518.220   112019056.54609  21316516.960    87287568.99348
 15 02 15 07 13  0.0000000  0 10G01G03G04G11G17G19G23G28G31G32
  20400160.900   107203567.61209  20400161.860    83535249.46449
  20590820.040   108205489.47709  20590820.440    84315965.86349
  21166324.320   111229784.37909  21166323.460    86672551.30848
  20510820.720   107785087.94309  20510817.880    83988367.15548
  23289682.500   122388104.63908  23289680.380    95367346.55947
  24130606.920   126807193.52408  24130605.580    98810784.94546
  22449656.100   117973740.86509  22449653.000    91927575.44947
  24540654.320   128962000.46807  24540651.960   100489859.41444
  24237427.800   127368548.06908  24237428.620    99248220.79646
  21328580.040   112082441.54109  21328578.760    87336959.83248
 15 02 15 07 13 30.0000000  0 10G01G03G04G11G17G19G23G28G31G32
  20399423.640   107199693.07409  20399424.580    83532230.30549
  20587969.020   108190507.44709  20587969.500    84304291.52349
  21176308.260   111282250.73709  21176307.460    86713434.12148
  20519364.380   107829984.65309  20519361.540    84023351.55548
  23274495.560   122308297.13709  23274493.480    95305158.88047
  24151329.880   126916092.81208  24151328.640    98895641.42846
  22432562.400   117883912.29809  22432559.120    91857579.14047
  24549916.780   129010674.85108  24549915.060   100527787.33244
  24229992.160   127329473.62208  24229993.140    99217773.09746
  21340676.440   112146008.07409  21340675.080    87386492.14048
 15 02 15 07 14  0.0000000  0 10G01G03G04G11G17G19G23G28G31G32
  20398749.140   107196148.53709  20398750.060    83529468.27049
  20585172.640   108175812.81809  20585173.260    84292841.12449
  21186352.060   111335031.63009  21186351.340    86754562.02448
  20527993.600   107875331.36909  20527990.840    84058686.60148
  23259376.240   122228844.99809  23259374.240    95243248.06847
  24172069.840   127025081.52008  24172068.760    98980567.53546
  22415519.860   117794352.32909  22415516.400    91787792.12747
  24559227.940   129059603.78708  24559225.920   100565913.78044
  24222631.200   127290792.14408  24222632.640    99187631.75346
  21352806.940   112209753.94209  21352805.560    87436164.18648
 15 02 15 07 14 30.0000000  0 10G01G03G04G11G17G19G23G28G31G32
  20398138.760   107192941.06309  20398139.680    83526968.89749
  20582432.000   108161410.95409  20582432.640    84281618.85449
  21196456.820   111388132.51009  21196456.120    86795939.27448
  20536709.480   107921133.62709  20536706.820    84094376.62348
  23244326.180   122149756.48309  23244324.300    95181620.62947
  24192827.580   127134163.41608  24192826.320    99065566.29146
  22398529.880   117705069.29209  22398526.460    91718220.91347
  24568588.020   129108791.09708  24568586.000   100604241.47544
  24215346.860   127252512.32208  24215348.280    99157803.25045
  21364972.380   112273683.39109  21364970.940    87485979.28248
 15 02 15 07 15  0.0000000  0 10G01G03G04G11G17G19G23G28G31G32
  20397591.660   107190066.10209  20397592.580    83524728.61649
  20579745.900   108147295.55809  20579746.500    84270619.80748
  21206621.500   111441547.77509  21206620.760    86837561.50148
  20545510.820   107967384.99709  20545508.200    84130416.60548
  23229344.820   122071029.05409  23229343.040    95120274.56147
  24213601.580   127243330.46608  24213600.140    99150631.40946
  22381591.880   117616059.72409  22381588.540    91648862.80447
  24577995.780   129158228.67408  24577993.980   100642764.13944
  24208138.160   127214630.58408  24208139.360    99128284.95445
  21377171.320   112337789.11609  21377169.980    87535931.73448
 15 02 15 07 15 30.0000000  0 10G01G03G04G11G17G19G23G28G31G32
  20397108.040   107187524.79009  20397109.020    83522748.33049
  20577114.260   108133466.07309  20577114.800    84259843.54449
  21216846.140   111495277.51209  21216845.240    86879428.76948
  20554397.460   108014084.90209  20554394.880    84166806.09048
  23214432.720   121992665.02709  23214430.840    95059211.65847
  24234391.380   127352580.57508  24234389.860    99235761.22546
  22364706.320   117527325.85709  22364703.120    91579719.50847
  24587450.740   129207913.84908  24587448.700   100681479.72944
  24201005.760   127177149.27508  24201006.720    99099078.71846
  21389403.520   112402069.71909  21389402.280    87586020.45848
 15 02 15 07 16  0.0000000  0 10G01G03G04G11G17G19G23G28G31G32
  20396688.420   107185319.83309  20396689.460    83521030.13249
  20574537.280   108119923.43709  20574537.700    84249290.80449
  21227130.860   111549323.05909  21227129.800    86921542.11748
  20563369.660   108061234.57809  20563367.080    84203546.04448
  23199590.480   121914668.10909  23199588.520    94998434.79847
  24255196.800   127461912.91808  24255195.060    99320955.13146
  22347873.960   117438871.51309  22347870.900    91510794.02547
  24596952.640   129257845.35708  24596950.600   100720387.29544
  24193950.200   127140072.45308  24193951.380    99070187.65245
  21401668.980   112466525.06509  21401667.800    87636245.33548
 15 02 15 07 16 30.0000000  0 10G01G03G04G11G17G19G23G28G31G32
  20396333.540   107183455.12809  20396334.680    83519577.07549
  20572015.320   108106669.83609  20572015.620    84238963.28749
  21237476.140   111603687.15709  21237474.980    86963903.69148
  20572427.800   108108836.24009  20572425.380    84240638.19948
  23184819.180   121837044.37209  23184817.220    94937948.74947
  24276017.900   127571328.04308  24276015.880    99406213.55146
  22331095.740   117350701.89709  22331092.800    91442090.41847
  24606501.360   129308023.57608  24606499.200   100759487.13444
  24186972.460   127103405.43008  24186973.660    99041615.90545
  21413967.980   112531156.54709  21413966.820    87686607.46948
 15 02 15 07 17  0.0000000  0 10G01G03G04G09G11G17G19G23G31G32
  20396043.160   107181929.20009  20396044.320    83518387.99649
  20569547.700   108093702.09709  20569547.920    84228858.53249
  21247881.440   111658367.09909  21247880.300    87006511.37448
  24717263.060   129890095.37207  24717263.540   101213069.22244
  20581571.440   108156886.91809  20581569.160    84278080.24048
  23170118.840   121759793.85609  23170116.980    94877753.50447
  24296853.820   127680821.19708  24296851.680    99491532.74946
  22314371.620   117262816.30309  22314368.640    91373608.12747
  24180072.820   127067148.24508  24180074.200    99013363.49746
  21426299.720   112595959.89109  21426298.520    87737103.53148
 15 02 15 07 31 30.0000000  0 11G01G03G04G09G11G17G19G20G23G31G32
  20416458.900   107289215.22109  20416460.040    83601990.14149
  20520993.760   107838550.07809  20520994.280    84030041.06949
  21575520.200   113380123.10009  21575519.300    88348144.23248
  24099746.260   126645022.43108  24099748.280    98684440.60646
  20883228.260   109742105.42509  20883226.060    85513319.12448
  22776700.260   119692367.98109  22776698.800    93266772.87448
  24905501.900   130879293.87108  24905501.420   101983859.13445
  24538609.860   128951271.67208  24538608.000   100481504.53844
  21854615.140   114846775.92609  21854610.680    89490976.75548
  24015696.500   126203335.22608  24015696.040    98340258.87745
  21796743.460   114542657.04409  21796742.620    89254017.92148
 15 02 15 07 32  0.0000000  0 11G01G03G04G09G11G17G19G20G23G31G32
  20418187.860   107298301.27909  20418189.060    83609070.13149
  20520094.800   107833826.00309  20520095.300    84026359.93149
  21587704.540   113444152.26209  21587703.660    88398037.00648
  24078727.140   126534566.11808  24078728.820    98598370.73146
  20894866.300   109803263.94809  20894864.220    85560975.05548
  22764340.800   119627418.40109  22764339.280    93216162.76548
  24926575.840   130990038.18908  24926575.400   102070153.17646
  24522726.500   128867806.29306  24522725.560   100416466.45445
  21839693.860   114768364.25209  21839689.480    89429876.72348
  24011322.140   126180349.81608  24011322.200    98322348.16846
  21809917.800   114611888.25609  21809916.940    89307964.21948
 15 02 15 07 32 30.0000000  0 11G01G03G04G09G11G17G19G20G23G31G32
  20419988.580   107307764.30609  20419989.820    83616443.86549
  20519247.780   107829374.79609  20519248.260    84022891.41349
  21599948.880   113508496.71609  21599948.000    88448175.46848
  24057732.560   126424238.24608  24057734.180    98512400.91546
  20906586.500   109864854.55409  20906584.540    85608967.66548
  22752068.000   119562923.89809  22752066.380    93165907.24848
  24947652.680   131100797.32108  24947652.120   102156458.77946
  24506863.020   128784443.17507  24506862.300   100351508.11045
  21824840.160   114690307.93909  21824835.900    89369053.59948
  24007039.560   126157845.87808  24007039.880    98304812.60946
  21823117.600   114681253.27309  21823116.640    89362014.78448
 15 02 15 07 33  0.0000000  0 11G01G03G04G09G11G17G19G20G23G31G32
  20421858.360   107317590.13409  20421859.620    83624100.30149
  20518449.700   107825180.69709  20518450.140    84019623.24349
  21612250.300   113573141.14109  21612249.440    88498547.67148
  24036760.020   126314026.10008  24036761.600    98426521.31946
  20918385.900   109926861.00109  20918383.900    85657284.32348
  22739879.160   119498871.40009  22739877.620    93115996.17948
  24968729.000   131211554.17708  24968728.440   102242762.57946
  24491016.100   128701167.18707  24491015.540   100286617.66145
  21810051.500   114612593.78609  21810047.400    89308497.10048
  24002846.300   126135810.17208  24002846.960    98287641.96046
  21836339.720   114750735.71209  21836338.700    89416156.84848
 15 02 15 07 33 30.0000000  0 11G01G03G04G09G11G17G19G20G23G31G32
  20423798.240   107327784.43009  20423799.540    83632043.85149
  20517701.300   107821247.86809  20517701.760    84016558.65849
  21624609.660   113638090.03209  21624608.840    88549157.11748
  24015810.740   126203936.83508  24015812.440    98340737.48146
  20930265.120   109989286.93609  20930263.060    85705927.84048
  22727775.700   119435267.68509  22727774.200    93066434.79348
  24989805.480   131322311.26008  24989804.660   102329066.59245
  24475186.760   128617983.18908  24475185.880   100221798.92644
  21795329.220   114535228.40209  21795325.300    89248212.36348
  23998743.560   126114249.25008  23998744.200    98270841.22546
  21849584.900   114820339.15409  21849583.860    89470393.20248
 15 02 15 07 34  0.0000000  0 11G01G03G04G09G11G17G19G20G23G31G32
  20425808.160   107338346.84109  20425809.500    83640274.25449
  20517002.240   107817574.39309  20517002.740    84013696.16949
  21637026.560   113703341.53209  21637025.880    88600002.35548
  23994885.040   126093971.55808  23994886.600    98255050.25646
  20942223.880   110052130.26009  20942221.720    85754896.60748
  22715757.960   119372114.16209  22715756.480    93017224.21448
  25010881.400   131433064.95308  25010880.320   102415367.96845
  24459374.920   128534890.99108  24459374.000   100157051.66944
  21780673.460   114458212.32909  21780669.680    89188199.82448
  23994731.120   126093163.69908  23994731.880    98254410.94246
  21862852.540   114890061.01709  21862851.540    89524721.82848
 15 02 15 07 34 30.0000000  0 11G01G03G04G09G11G17G19G20G23G31G32
  20427887.680   107349275.05509  20427889.080    83648789.69049
  20516351.780   107814156.40809  20516352.340    84011032.75549
  21649500.380   113768892.30809  21649499.820    88651080.79048
  23973982.840   125984129.36108  23973984.200    98169458.89546
  20954261.280   110115386.65409  20954259.060    85804187.23848
  22703825.820   119309410.07209  22703824.300    92968363.83848
  25031955.740   131543809.92008  25031954.340   102501662.58245
  24443579.940   128451887.09408  24443579.140   100092373.26444
  21766084.080   114381544.36209  21766080.280    89128458.53748
  23990808.880   126072551.97608  23990809.300    98238349.86945
  21876141.860   114959896.74209  21876140.840    89579139.19448
 15 02 15 07 35  0.0000000  0 11G01G03G04G09G11G17G19G20G23G31G32
  20430038.620   107360578.21309  20430040.020    83657597.29549
  20515751.440   107811001.56009  20515752.020    84008574.38549
  21662032.620   113834750.16009  21662032.140    88702398.50248
  23953106.180   125874420.96908  23953107.240    98083971.78646
  20966378.640   110179063.53209  20966376.460    85853805.52148
  22691981.160   119247165.45109  22691979.560    92919861.49348
  25053029.480   131654552.22808  25053027.820   102587955.07445
  24427803.400   128368980.17307  24427802.240   100027770.35044
  21751562.940   114305234.53409  21751559.060    89068996.31548
  23986978.740   126052424.03108  23986979.120    98222665.78746
  21889454.120   115029853.39509  21889453.160    89633650.78248
 15 02 15 07 35 30.0000000  0 11G01G03G04G09G11G17G19G20G23G31G32
  20432259.920   107372251.17609  20432261.380    83666693.05949
  20515199.940   107808103.17409  20515200.460    84006315.84749
  21674622.120   113900908.61309  21674621.680    88753950.44948
  23932254.120   125764842.54108  23932255.240    97998585.97846
  20978574.620   110243153.52709  20978572.480    85903745.70948
  22680223.280   119185376.86809  22680221.620    92871714.50348
  25074101.020   131765283.62908  25074099.540   102674239.03945
  24412044.120   128286164.63407  24412042.780    99963238.66745
  21737109.180   114229278.93709  21737105.160    89009810.11948
  23983239.720   126032775.59808  23983239.960    98207355.33445
  21902788.080   115099923.64109  21902787.180    89688250.89648
 15 02 15 07 36  0.0000000  0 11G01G03G04G09G11G17G19G20G23G31G32
  20434552.360   107384297.84609  20434553.820    83676080.03849
  20514697.700   107805463.67309  20514698.160    84004259.05149
  21687269.380   113967370.23909  21687268.940    88805738.65448
  23911427.740   125655399.60908  23911429.240    97913305.76346
  20990849.660   110307658.71409  20990847.440    85954009.44048
  22668553.120   119124049.49209  22668551.380    92823926.91048
  25095170.780   131876005.07108  25095169.760   102760515.27945
  24396302.960   128203443.93907  24396301.560    99898780.87844
  21722723.720   114153682.56609  21722719.620    88950903.85848
  23979592.720   126013611.44308  23979593.180    98192422.24246
  21916144.000   115170109.32009  21916143.280    89742940.96948
 15 02 15 07 36 30.0000000  0 11G01G03G04G09G11G17G19G20G23G31G32
  20436916.120   107396719.38909  20436917.580    83685759.12149
  20514244.600   107803082.71109  20514245.080    84002403.70349
  21699974.420   114034135.10809  21699973.960    88857763.14548
  23890627.620   125546094.79008  23890629.440    97828133.16847
  21003203.580   110372578.31109  21003201.220    86004596.07748
  22656971.160   119063185.81609  22656969.360    92776500.63148
  25116238.240   131986714.28808  25116237.320   102846782.00145
  24380579.780   128120818.01806  24380578.680    99834396.99645
  21708406.820   114078447.23009  21708402.820    88892278.92148
  23976038.180   125994933.55708  23976038.980    98177868.04246
  21929521.700   115240409.46309  21929521.000    89797720.24548
 15 02 15 07 37  0.0000000  0 11G01G03G04G09G11G17G19G20G23G31G32
  20439350.560   107409512.32109  20439351.960    83695727.58849
  20513839.760   107800955.33309  20513840.260    84000745.95949
  21712736.280   114101198.45409  21712735.840    88910020.21648
  23869853.380   125436926.11008  23869855.440    97743066.63246
  21015635.320   110437907.10909  21015632.880    86055501.56748
  22645476.980   119002783.33009  22645475.080    92729433.69748
  25137302.260   132097405.10708  25137301.080   102933034.41145
  24364873.940   128038283.58907  24364873.140    99770084.38144
  21694158.080   114003570.32609  21694154.220    88833933.26548
  23972575.860   125976739.17108  23972576.720    98163690.58246
  21942920.100   115310818.45409  21942919.420    89852584.32248
 15 02 15 07 37 30.0000000  0 10G01G03G04G09G11G17G20G23G31G32
  20441857.420   107422685.56709  20441858.680    83705992.41149
  20513484.560   107799088.96809  20513485.120    83999291.59949
  21725556.360   114168567.76209  21725555.840    88962515.70048
  23849107.000   125327903.94108  23849109.120    97658114.27046
  21028146.040   110503651.76209  21028143.740    86106731.11548
  22634072.480   118942852.34309  22634070.560    92682734.21148
  24349187.120   127955848.76007  24349186.420    99705849.41045
  21679979.420   113929062.13209  21679975.800    88775874.93248
  23969207.600   125959038.07808  23969208.120    98149897.52046
  21956340.500   115381343.12909  21956339.860    89907538.55748
 15 02 15 07 38  0.0000000  0 10G01G03G04G09G11G17G20G23G31G32
  20444434.920   107436230.01409  20444436.060    83716546.48649
  20513177.060   107797473.03109  20513177.620    83998032.37949
  21738432.640   114236232.75409  21738432.040    89015241.59148
  23828387.060   125219020.69108  23828389.300    97573270.15546
  21040733.820   110569801.63909  21040731.660    86158276.42148
  22622756.140   118883385.24309  22622754.360    92636396.18248
  24333517.460   127873503.71007  24333516.780    99641684.37245
  21665869.360   113854914.39009  21665865.980    88718097.46148
  23965931.520   125941821.74408  23965931.860    98136482.19746
  21969780.860   115451972.34309  21969780.180    89962574.26148
 15 02 15 07 38 30.0000000  0 10G01G03G04G09G11G17G20G23G31G32
  20447084.880   107450155.27509  20447085.960    83727397.29749
  20512918.820   107796115.66909  20512919.300    83996974.64749
  21751366.700   114304201.72709  21751366.140    89068204.35348
  23807695.740   125110287.50108  23807698.100    97488542.97646
  21053400.180   110636364.06009  21053398.060    86210143.17748
  22611530.120   118824392.98709  22611528.560    92590428.17248
  24317866.640   127791257.81208  24317865.900    99577596.57544
  21651829.820   113781137.57909  21651826.760    88660609.03448
  23962749.520   125925100.63308  23962750.060    98123452.77646
  21983242.500   115522713.61809  21983241.740    90017697.27548
 15 02 15 07 39  0.0000000  0 10G01G03G04G09G11G17G20G23G31G32
  20449805.620   107464452.98109  20449806.820    83738538.33449
  20512707.920   107795007.11909  20512708.360    83996110.80949
  21764356.680   114372465.16409  21764356.240    89121396.57448
  23787031.760   125001697.52508  23787034.100    97403927.40146
  21066143.220   110703328.83509  21066141.060    86262323.46548
  22600393.140   118765868.26409  22600391.740    92544824.48248
  24302233.040   127709102.12207  24302232.440    99513579.08745
  21637859.420   113707724.28409  21637856.720    88603403.88548
  23959660.200   125908867.28208  23959661.120    98110803.41846
  21996723.460   115593556.58809  21996722.680    90072899.55548
 15 02 15 07 39 30.0000000  0 10G01G03G04G09G11G17G20G23G31G32
  20452599.180   107479133.42709  20452600.460    83749977.59449
  20512546.000   107794156.18909  20512546.480    83995447.69449
  21777404.380   114441031.85209  21777404.060    89174825.09948
  23766397.280   124893262.56908  23766399.500    97319432.60646
  21078964.420   110770704.27509  21078962.240    86314823.73948
  22589347.500   118707823.06509  22589346.180    92499594.41248
  24286618.480   127627046.31908  24286617.620    99449639.41344
  21623960.460   113634686.12009  21623957.920    88546491.02048
  23956665.840   125893132.60208  23956667.100    98098542.64147
  22010225.340   115664509.53109  22010224.620    90128187.50248
 15 02 15 07 40  0.0000000  0 10G01G03G04G09G11G17G20G23G31G32
  20455464.180   107494188.95109  20455465.400    83761709.14349
  20512431.320   107793553.77309  20512431.880    83994978.24649
  21790508.180   114509893.28009  21790508.020    89228483.30348
  23745791.280   124784976.52208  23745793.200    97235053.84646
  21091861.900   110838480.86109  21091859.760    86367636.62048
  22578391.860   118650250.69909  22578390.600    92454732.82248
  24271021.360   127545082.12008  24271020.180    99385771.13445
  21610131.700   113562016.22109  21610129.260    88489865.13148
  23953765.140   125877889.60208  23953766.660    98086664.97847
  22023746.280   115735562.79709  22023745.520    90183553.64348
 15 02 15 07 40 30.0000000  0 10G01G03G04G09G11G17G20G23G31G32
  20458401.660   107509625.45809  20458402.860    83773737.54249
  20512364.840   107793204.39709  20512365.420    83994705.96649
  21803669.000   114579053.68809  21803668.880    89282374.46848
  23725215.080   124676846.78408  23725216.660    97150796.86046
  21104836.400   110906662.29309  21104834.280    86420764.95148
  22567527.600   118593158.21509  22567526.240    92410245.12748
  24255442.660   127463215.04406  24255441.280    99321978.52645
  21596374.480   113489721.46309  21596371.940    88433531.54348
  23950959.260   125863144.92608  23950960.960    98075175.63947
  22037286.980   115806720.32309  22037286.360    90239001.00048
 15 02 15 07 41  0.0000000  0 10G01G03G04G09G11G17G20G23G31G32
  20461411.580   107525442.66509  20461412.800    83786062.59249
  20512346.160   107793106.34609  20512346.780    83994629.53649
  21816886.580   114648511.74909  21816886.340    89336497.57748
  23704668.760   124568874.64708  23704670.160    97066662.71147
  21117887.580   110975246.52009  21117885.440    86474207.14548
  22556754.900   118536546.79509  22556753.420    92366132.30348
  24239882.220   127381444.13608  24239880.640    99258260.91644
  21582688.840   113417802.20309  21582686.060    88377490.55448
  23948248.140   125848898.98808  23948249.900    98064074.88146
  22050847.300   115877979.93609  22050846.560    90294527.91848
 15 02 15 07 41 30.0000000  0 10G01G03G04G09G11G17G20G23G31G32
  20464494.460   107541643.32509  20464495.700    83798686.44349
  20512375.560   107793260.99909  20512376.220    83994750.02049
  21830161.100   114718268.80009  21830160.740    89390853.66648
  23684153.040   124461064.37308  23684154.540    96982654.70746
  21131015.640   111044234.21109  21131013.440    86527963.73548
  22546074.540   118480420.57809  22546072.900    92322397.56648
  24224340.480   127299771.92808  24224339.000    99194620.17944
  21569075.400   113346262.48609  21569072.420    88321745.31948
  23945632.540   125835155.16008  23945634.200    98053365.39545
  22064427.240   115949342.33009  22064426.400    90350134.90948
 15 02 15 07 42  0.0000000  0 10G01G03G04G09G11G17G20G23G31G32
  20467649.880   107558225.21809  20467651.160    83811607.35749
  20512452.400   107793664.69909  20512453.100    83995064.57149
  21843491.900   114788321.59409  21843491.320    89445440.20648
  23663668.020   124353415.35008  23663669.540    96898772.32546
  21144219.600   111113621.20509  21144217.380    86582031.46248
  22535486.300   118424778.54709  22535484.500    92279040.10048
  24208817.080   127218195.37408  24208815.720    99131053.95445
  21555533.900   113275101.01109  21555530.780    88266294.82148
  23943112.060   125821911.87707  23943113.900    98043045.94946
  22078026.020   116020803.36809  22078025.100    90405818.78648
 15 02 15 07 42 30.0000000  0 10G01G03G04G09G11G17G20G23G31G32
  20470877.740   107575187.80009  20470879.040    83824824.90849
  20512576.280   107794315.55909  20512576.960    83995571.71049
  21856878.500   114858667.99509  21856877.840    89500255.52248
  23643214.000   124245928.60008  23643215.400    96815016.37646
  21157498.940   111183404.96809  21157496.800    86636408.36248
  22524990.300   118369621.65209  22524988.520    92236060.68248
  24193311.720   127136713.87608  24193310.540    99067561.81845
  21542064.360   113204318.09509  21542061.180    88211139.31348
  23940687.020   125809169.08607  23940688.660    98033116.52445
  22091643.000   116092360.70609  22091642.040    90461577.68247
 15 02 15 07 43  0.0000000  0 10G01G03G04G09G11G17G20G23G31G32
  20474178.420   107592532.83309  20474179.700    83838340.48149
  20512747.240   107795213.95509  20512747.940    83996271.75849
  21870321.060   114929308.64609  21870320.380    89555300.13448
  23622791.500   124138607.41508  23622792.900    96731389.47346
  21170853.760   111253585.36509  21170851.620    86691094.34548
  22514587.040   118314952.32009  22514585.320    92193461.19448
  24177824.700   127055328.44807  24177823.520    99004144.56945
  21528667.380   113133916.38309  21528664.100    88156280.84848
  23938357.820   125796929.45408  23938359.340    98023579.17546
  22105278.200   116164014.21509  22105277.240    90517411.54148
 15 02 15 07 43 30.0000000  0 10G01G03G04G09G11G17G20G23G31G32
  20477552.440   107610263.23909  20477553.700    83852156.35149
  20512965.600   107796361.44109  20512966.340    83997165.89049
  21883819.920   115000245.25109  21883819.260    89610575.35548
  23602401.100   124031456.25108  23602402.800    96647895.06846
  21184284.280   111324163.34709  21184282.120    86746090.12848
  22504277.340   118260774.94609  22504275.740    92151245.04248
  24162356.440   126974041.76507  24162355.200    98940804.24745
  21515343.800   113063899.80309  21515340.340    88101722.47848
  23936125.140   125785196.32608  23936126.480    98014436.49246
  22118931.860   116235764.79609  22118931.080    90573321.03148
 15 02 15 07 44  0.0000000  0 10G01G03G04G09G11G17G20G23G31G32
  20480999.420   107628376.94909  20481000.640    83866270.88949
  20513230.640   107797754.57509  20513231.440    83998251.43849
  21897374.360   115071474.58209  21897373.820    89666078.68048
  23582043.060   123924474.65908  23582044.920    96564532.78446
  21197789.720   111395134.82409  21197787.520    86801392.53348
  22494061.160   118207088.90509  22494059.640    92109411.73648
  24146906.260   126892850.92007  24146905.300    98877538.67045
  21502093.380   112994267.27309  21502089.720    88047463.37848
  23933988.840   125773968.56708  23933989.980    98005687.57346
  22132603.240   116307608.58209  22132602.460    90629303.15548
 15 02 15 07 44 30.0000000  0 10G01G03G04G09G11G17G20G23G31G32
  20484519.600   107646875.54909  20484520.760    83880685.34849
  20513542.500   107799393.66509  20513543.320    83999528.64949
  21910984.440   115142996.79209  21910984.060    89721810.20948
  23561718.080   123817665.87708  23561719.940    96481305.13747
  21211369.980   111466499.22009  21211367.760    86857001.10448
  22483939.000   118153896.74209  22483937.500    92067963.28748
  24131474.560   126811756.95208  24131473.700    98814348.57545
  21488916.480   112925021.36009  21488912.660    87993505.53048
  23931949.160   125763248.14708  23931949.940    97997334.00546
  22146292.380   116379545.47209  22146291.680    90685357.82348
 15 02 15 07 45  0.0000000  0 10G01G03G04G09G11G17G20G23G31G32
  20488113.680   107665762.45709  20488114.780    83895402.38849
  20513901.560   107801280.75409  20513902.380    84000999.10049
  21924650.720   115214814.13009  21924650.500    89777771.72248
  23541426.920   123711034.77508  23541428.880    96398215.97547
  21225025.280   111538257.98509  21225023.100    86912916.97648
  22473911.660   118101202.64909  22473910.140    92026902.95148
  24116062.060   126730763.57108  24116061.120    98751236.73945
  21475813.840   112856166.57809  21475810.040    87939852.46148
  23930006.640   125753039.00908  23930007.300    97989378.85946
  22159999.600   116451576.89209  22159998.860    90741486.14347
 15 02 15 07 45 30.0000000  0 10G01G03G04G09G11G17G20G23G31G32
  20491780.780   107685033.18709  20491781.900    83910418.49849
  20514306.740   107803410.04909  20514307.520    84002658.27349
  21938372.120   115286920.65509  21938371.940    89833958.56148
  23521169.040   123604578.58708  23521171.040    96315263.11647
  21238754.440   111610405.02109  21238752.280    86969135.40048
  22463978.740   118049004.55309  22463977.240    91986229.08948
  24100667.700   126649865.37708  24100666.520    98688199.09545
  21462784.680   112787699.03609  21462781.060    87886501.13448
  23928160.540   125743337.33308  23928161.260    97981819.12646
  22173723.600   116523696.62109  22173722.820    90797683.28547
 15 02 15 07 46  0.0000000  0 10G01G03G04G09G11G17G20G23G31G32
  20495521.560   107704691.10209  20495522.680    83925736.31049
  20514758.440   107805783.65409  20514759.200    84004507.82349
  21952149.100   115359318.70009  21952148.820    89890372.54748
  23500945.400   123498302.21108  23500947.240    96232450.35946
  21252557.680   111682941.60509  21252555.600    87025657.36348
  22454140.900   117997306.45209  22454139.480    91945944.83448
  24085291.980   126569065.39107  24085290.520    98625238.02944
  21449830.040   112719622.98909  21449826.580    87833454.86748
  23926411.640   125734147.01708  23926412.480    97974657.83546
  22187464.680   116595906.27909  22187463.800    90853950.48547
 15 02 15 07 46 30.0000000  0 10G01G03G04G09G11G17G20G23G31G32
  20499336.600   107724739.39409  20499337.760    83941358.32249
  20515257.020   107808403.41009  20515257.740    84006549.17549
  21965981.940   115432010.03509  21965981.560    89947015.10248
  23480756.900   123392210.47808  23480758.420    96149781.48246
  21266435.140   111755868.71209  21266433.220    87082483.62948
  22444398.940   117946112.26909  22444397.600    91906053.23348
  24069935.320   126488366.27908  24069933.880    98562355.59744
  21436950.860   112651942.84109  21436947.440    87780717.10048
  23924760.740   125725471.80708  23924761.460    97967897.92346
  22201223.140   116668207.27409  22201222.300    90910288.86447
 15 02 15 07 47  0.0000000  0 10G01G03G04G09G11G17G20G23G31G32
  20503225.080   107745173.46009  20503226.180    83957280.94049
  20515801.360   107811263.46909  20515802.000    84008777.77949
  21979869.540   115504989.10309  21979869.060    90003881.84148
  23460603.000   123286300.39308  23460604.240    96067254.15046
  21280385.680   111829179.86009  21280383.980    87139609.15548
  22434752.400   117895419.34609  22434751.080    91866552.24048
  24054597.040   126407762.82708  24054595.540    98499547.63445
  21424146.400   112584654.83609  21424143.000    87728284.90148
  23923207.240   125717307.81808  23923207.800    97961536.38346
  22214997.700   116740593.16709  22214997.000    90966693.38947
 15 02 15 07 47 30.0000000  0 10G01G03G04G09G11G17G20G23G31G32
  20507188.060   107765998.60109  20507189.040    83973508.28049
  20516392.220   107814367.85509  20516392.760    84011196.75948
  21993812.620   115578259.66309  21993812.040    90060975.72147
  23440484.900   123180578.85108  23440486.220    95984873.75847
  21294410.040   111902878.39809  21294408.420    87197036.54248
  22425202.460   117845233.91509  22425201.060    91827446.68648
  24039278.040   126327260.24708  24039276.420    98436818.28244
  21411417.780   112517765.11909  21411414.380    87676163.05148
  23921752.060   125709660.42208  23921752.600    97955577.41046
  22228789.060   116813067.69509  22228788.460    91023166.98347
 15 02 15 07 48  0.0000000  0 10G01G03G04G09G11G17G20G23G31G32
  20511225.020   107787212.28309  20511225.880    83990038.38749
  20517028.820   107817712.77409  20517029.280    84013803.17349
  22007810.460   115651818.11009  22007809.760    90118293.94448
  23420402.380   123075044.94508  23420403.960    95902639.58946
  21308507.360   111976959.71309  21308505.640    87254762.19348
  22415748.800   117795554.41809  22415747.280    91788735.36948
  24023977.600   126246855.68008  24023976.180    98374165.28645
  21398764.540   112451272.08609  21398761.240    87624350.31048
  23920394.860   125702528.00208  23920395.320    97950019.72746
  22242596.400   116885626.61509  22242596.100    91079706.32847
 15 02 15 07 48 30.0000000  0 10G01G03G04G09G11G17G20G23G31G32
  20515336.260   107808816.33809  20515337.060    84006872.68349
  20517711.260   107821298.83109  20517711.700    84016597.47749
  22021863.040   115725664.92209  22021862.340    90175836.85148
  23400356.120   122969702.14708  23400357.820    95820554.34547
  21322677.540   112051423.57609  21322675.660    87312785.94648
  22406391.980   117746383.90209  22406390.440    91750420.65748
  24008695.860   126166550.13508  24008694.680    98311589.55445
  21386187.220   112385178.27509  21386184.020    87572848.64848
  23919136.080   125695912.84208  23919136.380    97944865.10746
  22256419.960   116958269.92909  22256419.660    91136311.46548
 15 02 15 07 49  0.0000000  0 10G01G03G04G09G11G17G20G23G31G32
  20519521.520   107830809.76209  20519522.360    84024010.38149
  20518439.080   107825123.76409  20518439.560    84019577.91749
  22035970.040   115799797.99409  22035969.500    90233602.80947
  23380346.400   122864551.11308  23380347.960    95738618.48846
  21336919.920   112126267.06309  21336917.940    87371105.50548
  22397132.080   117697722.65009  22397130.600    91712502.78248
  23993432.780   126086342.84908  23993431.900    98249090.36645
  21373685.940   112319483.73109  21373682.700    87521658.10348
  23917975.580   125689814.33908  23917975.780    97940113.05146
  22270259.140   117030994.97509  22270258.780    91192980.27647
 15 02 15 07 49 30.0000000  0 10G01G03G04G09G11G17G20G23G31G32
  20523781.660   107853197.00209  20523782.540    84041454.95349
  20519212.940   107829190.82009  20519213.480    84022747.03149
  22050132.080   115874220.47609  22050131.760    90291594.29848
  23360374.440   122759597.90708  23360375.840    95656836.77047
  21351234.960   112201492.54309  21351232.880    87429722.71848
  22387970.140   117649576.18009  22387968.760    91674986.03848
  23978189.400   126006237.73408  23978188.540    98186670.70045
  21361261.800   112254194.03309  21361258.420    87470783.01948
  23916914.240   125684237.17008  23916914.380    97935767.26246
  22284114.440   117103804.65309  22284114.020    91249715.03247
 15 02 15 07 50  0.0000000  0 10G01G03G04G09G11G17G20G23G31G32
  20528115.720   107875972.32809  20528116.600    84059201.92749
  20520031.600   107833493.09909  20520032.160    84026099.42449
  22064347.880   115948925.38509  22064347.700    90349805.87348
  23340439.340   122654838.48608  23340440.840    95575206.07047
  21365621.080   112277092.08009  21365618.960    87488631.38648
  22378905.320   117601940.01409  22378903.920    91637866.92348
  23962964.160   125926228.46407  23962963.220    98124325.77045
  21348913.800   112189304.15609  21348910.260    87420219.48548
  23915951.100   125679176.22408  23915951.160    97931823.73545
  22297984.500   117176691.66309  22297984.060    91306510.04447
 15 02 15 07 50 30.0000000  0 10G01G03G04G09G11G17G20G23G31G32
  20532525.000   107899142.78609  20532525.820    84077256.79949
  20520896.120   107838036.40609  20520896.740    84029639.64049
  22078618.600   116023918.48509  22078618.440    90408241.99347
  23320542.740   122550281.48108  23320544.440    95493733.12047
  21380079.440   112353071.46909  21380077.360    87547836.06048
  22369939.080   117554822.07109  22369937.560    91601151.61648
  23947758.420   125846321.79708  23947757.520    98062060.87444
  21336643.340   112124822.10409  21336639.740    87369973.74448
  23915087.740   125674639.39208  23915087.880    97928288.58846
  22311870.280   117249661.26509  22311869.860    91363369.42947
 15 02 15 07 51  0.0000000  0 10G01G03G04G09G11G17G20G23G31G32
  20537008.660   107922704.39409  20537009.480    84095616.46349
  20521805.540   107842815.59009  20521806.240    84033363.65749
  22092943.240   116099194.67409  22092943.100    90466898.69048
  23300684.280   122445924.60408  23300686.120    95412416.10147
  21394608.820   112429424.21209  21394606.920    87607331.65148
  22361070.920   117508219.63309  22361069.360    91564838.00548
  23932571.460   125766513.30308  23932570.420    97999872.36045
  21324449.800   112060744.81809  21324446.260    87320043.40448
  23914323.320   125670622.58208  23914323.460    97925158.63846
  22325770.660   117322708.00009  22325770.280    91420288.90447
 15 02 15 07 51 30.0000000  0 10G01G03G04G09G11G17G20G23G31G32
  20541567.280   107946660.19309  20541568.180    84114283.29149
  20522760.220   107847832.54109  20522760.960    84037272.95349
  22107322.100   116174755.59709  22107321.920    90525777.29048
  23280864.820   122341772.57008  23280866.580    95331258.69347
  21409209.580   112506151.54809  21409207.780    87667119.14448
  22352301.720   117462137.20009  22352300.220    91528929.60148
  23917403.680   125686805.86807  23917402.580    97937762.64445
  21312333.920   111997076.00109  21312330.480    87270431.34348
  23913658.600   125667129.39708  23913658.700    97922436.71646
  22339685.960   117395833.33509  22339685.620    91477269.64147
 15 02 15 07 52  0.0000000  0 10G01G03G04G09G11G17G20G23G31G32
  20546200.260   107971006.77309  20546201.220    84133254.63149
  20523759.280   107853082.67809  20523760.040    84041363.94749
  22121754.300   116250596.65509  22121753.980    90584874.15147
  23261083.940   122237823.67008  23261085.660    95250259.56047
  21423880.660   112583248.00009  21423878.800    87727194.25048
  22343630.840   117416572.09109  22343629.560    91493424.30748
  23902254.440   125607195.82007  23902253.240    97875728.83545
  21300295.300   111933813.25209  21300291.900    87221135.70048
  23913092.980   125664156.86309  23913092.980    97920120.51746
  22353615.220   117469032.27709  22353614.940    91534307.73447
 15 02 15 07 52 30.0000000  0 10G01G03G04G09G11G17G20G23G31G32
  20550908.820   107995750.34909  20550909.760    84152535.30949
  20524803.680   107858571.06609  20524804.480    84045640.59049
  22136240.740   116326722.88809  22136240.380    90644193.22647
  23241343.220   122134085.76208  23241344.920    95169424.83747
  21438622.680   112660717.44709  21438620.760    87787560.00048
  22335059.780   117371531.59909  22335058.660    91458327.79848
  23887124.820   125527689.16208  23887123.860    97813775.69044
  21288335.260   111870963.57909  21288331.960    87172161.93648
  23912627.660   125661711.35609  23912627.520    97918214.99146
  22367559.340   117542309.55009  22367559.260    91591406.85947
 15 02 15 07 53  0.0000000  0 10G01G03G04G09G11G17G20G23G31G32
  20555692.120   108020886.95209  20555693.100    84172122.24249
  20525892.480   107864292.63909  20525893.300    84050098.93649
  22150780.440   116403129.07009  22150780.080    90703730.46847
  23221642.320   122030556.55508  23221643.940    95088752.72447
  21453434.540   112738554.12009  21453432.560    87848211.91048
  22326588.100   117327013.00109  22326587.040    91423637.96948
  23872014.040   125448281.49508  23872013.180    97751899.52245
  21276453.280   111808524.14609  21276450.060    87123507.83848
  23912261.980   125659789.48408  23912261.700    97916717.47746
  22381517.340   117615659.53209  22381517.000    91648562.66147
 15 02 15 07 53 30.0000000  0 10G01G03G04G09G11G17G20G23G31G32
  20560550.940   108046420.87009  20560552.140    84192018.77849
  20527026.240   107870250.58009  20527027.100    84054741.46349
  22165374.000   116479818.39109  22165373.700    90763488.31947
  23201982.220   121927242.05308  23201983.780    95008247.92447
  21468316.700   112816760.55909  21468314.760    87909151.94148
  22318216.900   117283021.81709  22318215.800    91389359.10448
  23856922.820   125368976.68608  23856921.960    97690103.54844
  21264650.360   111746499.90909  21264647.160    87075177.27248
  23911996.740   125658396.12208  23911996.520    97915631.77646
  22395489.780   117689085.21609  22395489.440    91705777.43447
 15 02 15 07 54  0.0000000  0 10G01G03G04G09G11G17G20G23G31G32
  20565484.900   108072349.80109  20565486.340    84212223.10749
  20528204.320   107876441.44209  20528205.160    84059565.49149
  22180020.680   116556787.18509  22180020.400    90823463.93947
  23182362.740   121824141.60808  23182364.460    94927909.93047
  21483268.360   112895332.27009  21483266.480    87970376.59448
  22309945.900   117239557.02509  22309944.680    91355490.41448
  23841850.540   125289772.22907  23841849.720    97628385.80246
  21252926.360   111684889.47109  21252923.020    87027169.13448
  23911831.720   125657529.10209  23911831.460    97914956.22646
  22409475.900   117762582.72009  22409475.540    91763048.18047
 15 02 15 07 54 30.0000000  0 10G01G03G04G09G11G17G20G23G31G32
  20570494.400   108098675.45809  20570496.020    84232736.57449
  20529426.880   107882865.89709  20529427.660    84064571.54549
  22194720.620   116634036.17209  22194720.360    90883657.90047
  23162784.660   121721258.69408  23162786.540    94847741.44947
  21498289.520   112974269.00109  21498287.740    88031885.68848
  22301775.600   117196621.11709  22301774.180    91322033.84448
  23826797.600   125210669.57808  23826797.060    97566747.42245
  21241281.660   111623695.39209  21241278.160    86979485.43648
  23911767.280   125657190.58508  23911767.020    97914692.50945
  22423475.760   117836152.27809  22423475.400    91820375.05747
 15 02 15 07 55  0.0000000  0 10G01G03G04G09G11G17G20G23G31G32
  20575578.780   108125394.47309  20575580.540    84253556.55749
  20530693.060   107889519.45509  20530693.760    84069756.12649
  22209472.980   116711560.61509  22209472.700    90944066.49947
  23143247.800   121618591.67308  23143249.700    94767741.16047
  21513379.140   113053565.53409  21513377.460    88093675.14348
  22293705.500   117154211.69609  22293703.920    91288987.53448
  23811763.540   125131665.29008  23811763.200    97505185.60545
  21229715.680   111562915.23209  21229712.120    86932124.28348
  23911802.780   125657377.50208  23911802.440    97914838.21946
  22437488.560   117909789.07309  22437488.160    91877754.34547
 15 02 15 07 55 30.0000000  0 10G01G03G04G09G11G17G20G23G31G32
  20580738.860   108152511.64309  20580740.840    84274686.78149
  20532003.540   107896405.90009  20532004.240    84075122.17349
  22224278.460   116789364.05309  22224278.280    91004692.49647
  23123753.240   121516147.00608  23123755.220    94687914.13947
  21528537.760   113133224.54109  21528536.120    88155747.05348
  22285736.640   117112334.70509  22285735.020    91256356.10848
  23796749.140   125052763.77608  23796748.820    97443703.87845
  21218229.560   111502554.72809  21218226.000    86885090.13048
  23911939.180   125658094.82208  23911938.960    97915397.23046
  22451514.780   117983496.58909  22451514.360    91935188.71847
 15 02 15 07 56  0.0000000  0 10G01G03G04G09G11G17G20G23G31G32
  20585974.300   108180024.56609  20585976.420    84296125.38449
  20533357.640   107903521.61809  20533358.340    84080666.87749
  22239136.420   116867442.92409  22239136.300    91065533.12947
  23104300.760   121413924.03008  23104302.920    94608259.88847
  21543764.620   113213241.87109  21543762.960    88218098.16848
  22277868.800   117070989.17409  22277867.280    91224138.80348
  23781753.760   124973962.27308  23781753.560    97382300.16546
  21206822.880   111442612.06709  21206819.380    86838381.58048
  23912176.160   125659340.47508  23912176.020    97916367.93846
  22465553.680   118057270.93109  22465553.200    91992675.17947
 15 02 15 07 56 30.0000000  0 10G01G03G04G09G11G17G20G23G31G32
  20591286.600   108207940.96909  20591288.760    84317878.38749
  20534756.700   107910873.63309  20534757.400    84086395.70849
  22254048.040   116945803.78209  22254047.940    91126593.47647
  23084892.180   121311932.21508  23084894.580    94528785.76347
  21559060.740   113293622.85109  21559059.000    88280732.64548
  22270103.640   117030183.42909  22270102.200    91192342.09448
  23766778.920   124895268.40308  23766778.360    97320980.22145
  21195497.320   111383096.25009  21195493.920    86792005.63448
  23912515.140   125661122.50808  23912515.080    97917756.57646
  22479606.460   118131118.44409  22479605.980    92050218.63947
 15 02 15 07 57  0.0000000  0 10G01G03G04G09G11G17G20G23G31G32
  20596673.500   108236249.00209  20596675.600    84339936.55249
  20536198.180   107918448.85609  20536198.920    84092298.46349
  22269010.840   117024433.61909  22269010.740    91187863.43047
  23065525.700   121210161.45108  23065528.260    94449483.86947
  21574423.400   113374353.66709  21574421.600    88343639.70948
  22262439.160   116989906.47809  22262437.760    91160957.43048
  23751822.220   124816669.94608  23751821.560    97259734.66646
  21184250.840   111323995.98709  21184247.540    86745953.49048
  23912954.060   125663429.30608  23912954.220    97919554.08746
  22493670.600   118205025.95409  22493670.120    92107808.85947
 15 02 15 07 57 30.0000000  0 10G01G03G04G09G11G17G20G23G31G32
  20602136.700   108264957.73609  20602138.720    84362306.94949
  20537683.700   107926255.41309  20537684.500    84098381.47649
  22284026.300   117103340.09209  22284026.160    91249348.93847
  23046203.440   121108622.49708  23046205.960    94370362.61847
  21589853.940   113455441.52109  21589852.180    88406825.00048
  22254877.300   116950168.68509  22254875.920    91129992.91248
  23736885.240   124738175.94907  23736884.460    97198570.50346
  21173085.280   111265321.13009  21173082.060    86700232.83148
  23913494.700   125666270.23808  23913494.760    97921767.82346
  22507747.560   118279001.17809  22507747.140    92165451.82947
 15 02 15 07 58  0.0000000  0 10G01G03G04G09G11G17G20G23G31G32
  20607676.020   108294066.63609  20607677.980    84384989.17849
  20539212.900   107934291.76309  20539213.800    84104643.56149
  22299094.140   117182521.88609  22299093.860    91311048.97047
  23026925.640   121007316.62208  23026928.120    94291422.99447
  21605351.860   113536883.85309  21605350.140    88470286.50948
  22247418.180   116910970.56909  22247416.800    91099448.90748
  23721967.940   124659785.52108  23721967.140    97137487.07545
  21162000.820   111207072.11809  21161997.560    86654844.00048
  23914136.860   125669644.99008  23914136.860    97924397.50846
  22521837.120   118353042.29909  22521836.740    92223146.15647
 15 02 15 07 58 30.0000000  0 10G01G03G04G09G11G17G20G23G31G32
  20613290.960   108323573.03009  20613292.920    84407981.12249
  20540785.200   107942554.24009  20540786.120    84111081.83049
  22314213.460   117261974.78009  22314213.280    91372960.24847
  23007692.060   120906242.86508  23007694.440    94212664.24747
  21620916.400   113618676.02909  21620914.600    88534020.61248
  22240061.340   116872310.12709  22240059.960    91069323.87148
  23707069.840   124581495.82407  23707068.920    97076482.05046
  21150997.020   111149246.88509  21150993.680    86609785.38348
  23914880.040   125673550.96908  23914879.880    97927441.14446
  22535938.400   118427145.30209  22535938.040    92280888.68647
 15 02 15 07 59  0.0000000  0 10G01G03G04G09G11G17G20G23G31G32
  20618982.080   108353479.65209  20618984.000    84431284.94049
  20542400.920   107951044.66109  20542401.780    84117697.73049
  22329384.680   117341700.34509  22329384.640    91435084.01047
  22988503.460   120805405.71608  22988505.680    94134089.87747
  21636547.720   113700818.80709  21636545.800    88598027.91748
  22232807.640   116834191.54709  22232806.220    91039621.06348
  23692191.540   124503309.55408  23692190.600    97015557.71146
  21140074.540   111091849.17809  21140071.180    86565059.91348
  23915724.980   125677991.53408  23915724.800    97930901.34646
  22550051.840   118501311.75109  22550051.540    92338680.64447
 15 02 15 07 59 30.0000000  0 10G01G03G04G09G11G17G20G23G31G32
  20624749.040   108383784.53009  20624750.840    84454899.08649
  20544059.440   107959760.07709  20544060.260    84124488.95749
  22344607.340   117421695.43709  22344607.340    91497417.79747
  22969359.740   120704804.97708  22969361.920    94055699.73347
  21652245.060   113783308.40209  21652243.080    88662305.47448
  22225656.880   116796613.82409  22225655.360    91010339.71248
  23677332.540   124425224.51108  23677331.640    96954712.23545
  21129233.200   111034877.99809  21129229.900    86520666.79648
  23916671.260   125682964.54008  23916671.200    97934776.41346
  22564176.840   118575538.23409  22564176.460    92396519.41747
 15 02 15 08 00  0.0000000  0 10G01G03G04G09G11G17G20G23G31G32
  20630592.140   108414489.38409  20630593.780    84478824.89949
  20545760.940   107968701.31009  20545761.720    84131456.13149
  22359881.500   117501960.84109  22359881.440    91559962.19847
  22950261.560   120604444.14208  22950263.820    93977496.51747
  21668008.240   113866144.23809  21668006.340    88726852.82848
  22218609.500   116759579.61109  22218607.900    90981481.85548
  23662493.180   124347242.40408  23662492.060    96893946.94346
  21118473.600   110978335.97909  21118470.320    86476608.07648
  23917719.320   125688472.17708  23917719.300    97939068.07846
  22578313.280   118649825.36509  22578313.060    92454405.40947
 15 02 15 08 00 30.0000000  0 10G01G03G04G09G11G17G20G23G31G32
  20636511.800   108445596.45909  20636513.260    84503064.14549
  20547505.660   107977869.64909  20547506.440    84138600.27949
  22375207.280   117582497.43909  22375207.160    91622717.94147
  22931209.780   120504327.20508  22931212.140    93899483.36547
  21683837.440   113949326.76009  21683835.580    88791670.33648
  22211666.060   116723091.84209  22211664.480    90953049.82848
  23647673.740   124269365.14108  23647672.500    96833263.35946
  21107796.180   110922225.67209  21107792.940    86432885.78748
  23918869.520   125694516.68208  23918869.520    97943778.08246
  22592461.420   118724174.19009  22592461.080    92512339.52047
 15 02 15 08 01  0.0000000  0 10G01G03G04G09G11G17G20G23G31G32
  20642507.680   108477103.89909  20642508.920    84527615.33849
  20549293.080   107987262.37609  20549293.820    84145919.25949
  22390583.980   117663302.39309  22390583.800    91685682.78347
  22912204.480   120404454.11608  22912206.860    93821660.20947
  21699731.840   114032852.07509  21699730.000    88856754.93748
  22204826.460   116687149.79309  22204825.040    90925043.01648
  23632873.760   124191590.72408  23632872.660    96772659.93745
  21097200.940   110866546.52109  21097197.600    86389499.43048
  23920121.560   125701096.17508  23920121.540    97948904.96246
  22606620.640   118798581.59009  22606620.540    92570319.21847
 15 02 15 08 01 30.0000000  0 10G01G03G04G09G11G17G20G23G31G32
  20648579.520   108509010.65609  20648580.540    84552477.71649
  20551122.800   107996877.50409  20551123.520    84153411.56049
  22406011.160   117744373.10009  22406011.000    91748854.70947
  22893245.760   120304825.56208  22893248.060    93744027.61947
  21715690.800   114116717.27809  21715689.100    88922104.39348
  22198090.720   116651753.35909  22198089.420    90897461.36648
  23618093.160   124113918.26508  23618092.200    96712135.94345
  21086687.740   110811298.16009  21086684.280    86346448.78248
  23921475.340   125708210.28208  23921475.240    97954448.43446
  22620790.640   118873045.31109  22620790.400    92628342.86647
 15 02 15 08 02  0.0000000  0 10G01G03G04G09G11G17G20G23G31G32
  20654728.200   108541321.75209  20654729.080    84577655.13949
  20552995.620   108006719.23209  20552996.300    84161080.41649
  22421489.660   117825713.75209  22421489.500    91812236.96047
  22874334.940   120205448.38208  22874337.100    93666590.89847
  21731714.940   114200925.35109  21731713.360    88987721.01448
  22191460.020   116616908.53809  22191458.740    90870309.53548
  23603332.800   124036352.43308  23603331.920    96651695.04446
  21076257.640   110756486.28809  21076253.960    86303738.23248
  23922931.720   125715863.79208  23922931.700    97960412.20846
  22634972.000   118947569.27909  22634972.000    92686413.39247
 15 02 15 08 02 30.0000000  0 10G01G03G04G09G11G17G20G23G31G32
  20660952.620   108574030.98209  20660953.460    84603142.81449
  20554910.180   108016780.51709  20554910.860    84168920.36349
  22437018.200   117907316.82809  22437018.120    91875823.73347
  22855471.120   120106318.16808  22855473.300    93589346.63947
  21747802.840   114285468.26709  21747801.340    89053598.55248
  22184933.320   116582610.04809  22184931.920    90843583.43148
  23588591.620   123958887.02208  23588590.660    96591332.39245
  21065909.500   110702105.45209  21065905.560    86261363.55748
  23924489.720   125724050.90308  23924489.540    97966791.81046
  22649163.520   119022146.08009  22649163.420    92744525.11847
 15 02 15 08 03  0.0000000  0 10G01G03G04G09G11G17G20G23G31G32
  20667253.680   108607143.31709  20667254.600    84628944.58749
  20556867.300   108027065.44709  20556868.060    84176934.57549
  22452597.460   117989186.21609  22452597.480    91939618.01947
  22836655.580   120007441.68008  22836657.760    93512300.08547
  21763955.040   114370348.67709  21763953.600    89119739.07248
  22178511.720   116548863.62709  22178510.100    90817287.49848
  23573870.420   123881526.67308  23573869.440    96531051.60346
  21055644.360   110648161.71709  21055640.300    86219329.47148
  23926150.100   125732776.42508  23926149.860    97973590.93446
  22663365.860   119096779.61609  22663365.740    92802681.04147
 15 02 15 08 03 30.0000000  0 10G01G03G04G09G11G17G20G23G31G32
  20673630.800   108640655.66909  20673631.860    84655058.06949
  20558866.220   108037570.14409  20558867.120    84185120.04649
  22468226.680   118071317.84809  22468226.720    92003616.60147
  22817888.080   119908817.63109  22817890.180    93435450.23647
  21780170.700   114455561.71009  21780169.200    89186138.79648
  22172194.740   116515667.18909  22172192.980    90791420.13048
  23559168.600   123804268.47908  23559167.780    96470850.45146
  21045461.780   110594652.70709  21045457.800    86177634.14548
  23927912.400   125742037.63908  23927912.220    97980807.50046
  22677578.240   119171465.72209  22677578.180    92860877.90547
 15 02 15 08 04  0.0000000  0 10G01G03G04G09G11G17G20G23G31G32
  20680084.600   108674571.32109  20680085.820    84681485.81349
  20560907.420   108048297.03809  20560908.460    84193478.66249
  22483906.160   118153713.60409  22483906.200    92067821.07247
  22799169.500   119810451.11608  22799171.540    93358801.04847
  21796450.000   114541108.94209  21796448.400    89252798.93448
  22165983.160   116483025.11109  22165981.440    90765984.74248
  23544486.880   123727115.72708  23544486.000    96410731.38145
  21035362.540   110541582.19909  21035358.780    86136280.51248
  23929777.220   125751837.70708  23929777.300    97988443.95146
  22691801.180   119246206.53609  22691800.720    92919117.45547
 15 02 15 08 04 30.0000000  0 10G01G03G04G09G11G17G20G23G31G32
  20686615.040   108708889.71709  20686616.420    84708227.36749
  20562990.700   108059244.83509  20562991.780    84202009.39449
  22499635.620   118236372.03809  22499635.600    92132230.17847
  22780500.080   119712343.39808  22780502.220    93282353.51647
  21812792.320   114626987.67509  21812790.640    89319717.35648
  22159877.040   116450937.37309  22159875.440    90740981.27348
  23529825.080   123650067.75008  23529824.260    96350694.03145
  21025346.880   110488950.81409  21025343.300    86095269.03548
  23931744.460   125762176.31208  23931744.780    97996500.02146
  22706034.220   119321000.56009  22706033.780    92977398.42347
 15 02 15 08 05  0.0000000  0 10G01G03G04G09G11G17G20G23G31G32
  20693222.540   108743613.19909  20693224.060    84735284.58749
  20565116.320   108070415.07009  20565117.460    84210713.45949
  22515415.260   118319294.11709  22515415.180    92196844.72447
  22761880.700   119614498.62608  22761882.840    93206110.87647
  21829197.680   114713198.35509  21829196.060    89386894.44248
  22153877.080   116419407.54909  22153875.560    90716412.55648
  23515183.720   123573126.65308  23515182.840    96290739.89145
  21015415.360   110436761.46409  21015411.940    86054602.00048
  23933814.520   125773055.83808  23933815.180    98004977.56846
  22720277.500   119395849.05709  22720277.120    93035721.85047
 15 02 15 08 05 30.0000000  0 10G01G03G04G09G11G17G20G23G31G32
  20699905.940   108778735.44109  20699907.620    84762652.51949
  20567282.940   108081800.67209  20567284.080    84219585.34049
  22531243.720   118402472.70009  22531243.640    92261659.13647
  22743310.560   119516912.28109  22743312.680    93130069.61947
  21845664.560   114799732.55209  21845663.000    89454323.62448
  22147982.280   116388430.23909  22147980.820    90692274.37948
  23500561.460   123496286.16908  23500560.460    96230864.22745
  21005567.000   110385008.66609  21005563.700    86014275.13648
  23935986.240   125784469.95408  23935987.100    98013871.67046
  22734529.640   119470744.65309  22734529.360    93094081.98247
 15 02 15 08 06  0.0000000  0 10G01G03G04G09G11G17G20G23G31G32
  20706666.440   108814262.82109  20706668.320    84790336.14849
  20569491.640   108093407.24509  20569492.660    84228629.40749
  22547121.820   118485912.53909  22547121.820    92326677.12147
  22724791.280   119419592.59509  22724793.280    93054236.13347
  21862193.800   114886594.82509  21862192.420    89522008.44948
  22142193.940   116358012.30709  22142192.500    90668572.07248
  23485959.680   123419552.87108  23485958.600    96171071.93346
  20995803.180   110333699.47209  20995799.900    85974293.93148
  23938261.020   125796425.06208  23938261.920    98023187.35146
  22748791.740   119545692.72009  22748791.640    93152482.98247
 15 02 15 08 06 30.0000000  0 10G01G03G04G09G11G17G20G23G31G32
  20713503.780   108850193.19309  20713505.740    84818333.80449
  20571741.900   108105231.94709  20571742.800    84237843.45349
  22563049.020   118569610.76409  22563049.280    92391896.45347
  22706322.820   119322539.33409  22706324.600    92978610.25847
  21878784.760   114973781.11609  21878783.520    89589945.76148
  22136511.780   116328152.55009  22136510.380    90645304.70348
  23471377.760   123342924.02808  23471376.680    96111361.20146
  20986123.740   110282832.73909  20986120.300    85934657.50848
  23940638.420   125808919.02208  23940639.200    98032922.92046
  22763063.280   119620690.21909  22763063.260    93210922.53047
 15 02 15 08 07  0.0000000  0 10G01G03G04G09G11G17G20G23G31G32
  20720417.800   108886525.85709  20720419.700    84846644.93149
  20574033.360   108117273.34609  20574034.200    84247226.34949
  22579025.000   118653565.48409  22579025.420    92457315.64047
  22687905.220   119225753.49909  22687906.840    92903192.75747
  21895437.020   115061288.71809  21895435.760    89658133.44648
  22130935.860   116298851.16509  22130934.520    90622472.43148
  23456815.740   123266399.65508  23456814.560    96051731.77145
  20976528.540   110232408.45609  20976525.000    85895365.85748
  23943118.280   125821951.38908  23943119.320    98043077.99946
  22777343.980   119695735.35809  22777344.000    93269399.18747
 15 02 15 08 07 30.0000000  0 10G01G03G04G09G11G17G20G23G31G32
  20727408.240   108923260.32809  20727410.120    84875269.16249
  20576365.780   108129530.26709  20576366.680    84256777.19049
  22595049.560   118737775.05409  22595049.960    92522933.44247
  22669538.720   119129236.47509  22669540.240    92827984.71547
  21912150.020   115149115.24009  21912148.640    89726569.63947
  22125466.360   116270108.77309  22125465.080    90600075.74748
  23442273.420   123189979.06608  23442272.100    95992183.32345
  20967017.500   110182426.88909  20967013.920    85856419.18348
  23945700.620   125835521.49408  23945701.900    98053652.10746
  22791633.480   119770826.81409  22791633.280    93327911.95547
 15 02 15 08 08  0.0000000  0 10G01G03G04G09G11G17G20G23G31G32
  20734475.380   108960398.02109  20734477.240    84904207.59549
  20578739.360   108142003.48809  20578740.280    84266496.57749
  22611122.740   118822239.71509  22611123.000    92588749.99347
  22651223.940   119032991.62209  22651225.480    92752988.75748
  21928923.540   115237260.39609  21928922.120    89795254.11947
  22120103.720   116241927.38909  22120102.400    90578116.21748
  23427751.060   123113663.78607  23427749.700    95932716.78146
  20957591.060   110132890.48909  20957587.460    85817819.40148
  23948385.740   125849630.60708  23948386.880    98064646.21946
  22805931.840   119845965.19209  22805931.800    93386461.27147
 15 02 15 08 08 30.0000000  0 10G01G03G04G09G11G17G20G23G31G32
  20741619.440   108997939.74209  20741621.220    84933460.84649
  20581154.140   108154693.07209  20581155.000    84276384.53548
  22627244.460   118906959.26909  22627244.540    92654765.17047
  22632961.460   118937021.49209  22632963.020    92678206.84747
  21945757.340   115325722.79609  21945755.920    89864185.80247
  22114848.140   116214308.40709  22114846.700    90556594.90848
  23413248.760   123037454.20008  23413247.520    95873332.77045
  20948249.500   110083800.37509  20948245.840    85779567.36648
  23951173.620   125864279.59608  23951174.280    98076061.03046
  22820239.080   119921150.29309  22820239.080    93445046.99547
 15 02 15 08 09  0.0000000  0 10G01G03G04G09G11G17G20G23G31G32
  20748840.720   109035887.24909  20748842.400    84963030.29949
  20583610.340   108167600.17209  20583611.120    84286442.00449
  22643414.800   118991934.29809  22643414.740    92720979.40547
  22614752.000   118841329.78009  22614753.540    92603641.89547
  21962651.540   115414502.67909  21962650.180    89933364.86247
  22109700.000   116187254.55709  22109698.520    90535513.95548
  23398767.100   122961352.99908  23398766.000    95814033.11146
  20938993.260   110035159.19909  20938989.680    85741665.17248
  23954064.500   125879470.37208  23954064.560    98087897.98046
  22834555.500   119996382.95209  22834555.560    93503669.79047
 15 02 15 08 09 30.0000000  0 10G01G03G04G09G11G17G20G23G31G32
  20756138.400   109074236.50909  20756139.980    84992912.80849
  20586107.000   108180720.12209  20586107.760    84296665.32549
  22659632.780   119077159.89309  22659632.760    92787388.88847
  22596595.120   118745914.25309  22596596.520    92529292.15048
  21979605.000   115503593.51009  21979603.640    90002786.22848
  22104658.760   116160762.64109  22104657.240    90514870.88548
  23384305.220   122885355.76708  23384304.200    95754814.50645
  20929821.800   109986963.75809  20929818.300    85704110.29748
  23957057.660   125895198.98208  23957057.360    98100154.03346
  22848879.860   120071658.34509  22848880.040    93562325.86947
 15 02 15 08 10  0.0000000  0 10G01G03G04G09G11G17G20G23G31G32
  20763512.740   109112988.63309  20763514.240    85023109.23849
  20588644.180   108194053.42709  20588645.020    84307054.88649
  22675898.340   119162635.74109  22675898.480    92853993.37147
  22578491.420   118650777.96809  22578492.600    92455159.99348
  21996617.620   115592994.84609  21996616.240    90072449.54348
  22099724.760   116134834.43009  22099723.200    90494667.07448
  23369863.420   122809463.63008  23369862.380    95695677.78446
  20920735.560   109939215.83909  20920732.100    85666904.13848
  23960153.440   125911466.30708  23960153.160    98112829.87146
  22863212.500   120146976.75109  22863212.740    93621015.47447
 15 02 15 08 10 30.0000000  0 10G01G03G04G09G11G17G20G23G31G32
  20770963.960   109152144.83009  20770965.400    85053620.52949
  20591222.080   108207600.65809  20591222.960    84317611.14649
  22692211.540   119248362.27209  22692211.920    92920793.18047
  22560441.440   118555923.91309  22560442.380    92381247.74648
  22013689.220   115682705.90009  22013687.780    90142354.19947
  22094898.340   116109471.86809  22094896.880    90474904.02948
  23355441.980   122733678.01208  23355440.800    95636624.07146
  20911735.040   109891917.51409  20911731.460    85630048.31348
  23963351.940   125928273.43708  23963351.740    98125926.32846
  22877553.400   120222338.56309  22877553.620    93679738.90747
 15 02 15 08 11  0.0000000  0 10G01G03G04G09G11G17G20G23G31G32
  20778492.520   109191707.39909  20778493.920    85084448.47048
  20593841.060   108221363.60409  20593841.920    84328335.49549
  22708572.700   119334340.66709  22708573.160    92987789.23947
  22542445.860   118461356.38709  22542446.640    92307558.76247
  22030819.680   115772726.66309  22030818.300    90212500.19247
  22090180.200   116084678.14109  22090178.800    90455584.21548
  23341041.320   122658001.53908  23341040.020    95577655.40346
  20902820.820   109845071.75209  20902816.980    85593545.12648
  23966653.480   125945622.38009  23966653.320    98139444.99546
  22891902.980   120297745.32609  22891903.260    93738497.34447
 15 02 15 08 11 30.0000000  0 10G01G03G04G09G11G17G20G23G31G32
  20786096.940   109231668.85609  20786098.400    85115587.23549
  20596499.560   108235334.14509  20596500.420    84339221.61449
  22724980.220   119420562.27509  22724980.580    93054974.83247
  22524503.700   118367069.68609  22524504.480    92234088.60848
  22048007.300   115863048.37009  22048006.080    90282880.68247
  22085569.100   116060446.53909  22085567.640    90436702.41248
  23326659.940   122582426.35708  23326658.640    95518765.68146
  20893991.400   109798671.90109  20893987.380    85557389.40948
  23970056.660   125963505.85709  23970056.300    98153380.18846
  22906259.660   120373188.71009  22906259.500    93797284.35947
 15 02 15 08 12  0.0000000  0 10G01G03G04G09G11G17G20G23G31G32
  20793779.500   109272041.09409  20793781.040    85147046.09648
  20599199.760   108249523.68709  20599200.600    84350278.38048
  22741436.080   119507037.89109  22741436.220    93122358.34347
  22506617.620   118273077.64909  22506618.440    92160848.06648
  22065254.160   115953681.27109  22065252.940    90353503.66047
  22081067.380   116036789.64409  22081065.860    90418268.45348
  23312300.120   122506964.76208  23312298.800    95459964.46746
  20885249.040   109752730.55509  20885245.040    85521590.97348
  23973563.780   125981935.71309  23973563.200    98167741.15146
  22920625.220   120448679.98509  22920625.060    93856108.65646
 15 02 15 08 12 30.0000000  0 10G01G03G04G09G11G17G20G23G31G32
  20801538.260   109312813.78509  20801539.820    85178816.98848
  20601939.580   108263921.34609  20601940.400    84361497.31549
  22757938.040   119593756.12109  22757938.180    93189930.89346
  22488786.060   118179371.81909  22488786.840    92087830.54048
  22082557.940   116044613.07209  22082556.640    90424359.54247
  22076673.240   116013697.83009  22076671.680    90400274.81248
  23297959.980   122431606.88408  23297958.700    95401244.06145
  20876592.000   109707238.01509  20876588.160    85486142.26148
  23977172.960   126000901.62709  23977172.260    98182519.80947
  22934997.800   120524208.01309  22934997.680    93914961.61647
 15 02 15 08 13  0.0000000  0 10G01G03G04G09G11G17G20G23G31G32
  20809373.920   109353990.77409  20809375.540    85210902.92549
  20604719.620   108278530.42109  20604720.440    84372881.00149
  22774486.720   119680719.99509  22774486.900    93257694.88647
  22471010.060   118085957.93609  22471010.800    92015040.51348
  22099918.820   116135845.29609  22099917.580    90495449.51547
  22072387.420   115991175.61809  22072385.960    90382725.01048
  23283640.200   122356356.36508  23283638.960    95342607.29346
  20868021.220   109662198.87509  20868017.600    85451046.85048
  23980884.720   126020406.86809  23980884.140    98197718.69447
  22949377.820   120599775.92008  22949377.820    93973845.67547
 15 02 15 08 13 30.0000000  0 10G01G03G04G09G11G17G20G23G31G32
  20817286.500   109395571.94309  20817288.240    85243303.81049
  20607539.800   108293350.37209  20607540.620    84384429.00349
  22791081.920   119767928.23309  22791082.080    93325649.24747
  22453289.900   117992837.79009  22453290.660    91942479.36748
  22117336.540   116227375.80709  22117335.320    90566771.93747
  22068209.980   115969223.07009  22068208.680    90365619.09948
  23269340.820   122281213.29208  23269339.660    95284054.28546
  20859536.840   109617613.74809  20859533.400    85416305.21548
  23984699.060   126040451.38409  23984698.780    98213337.79547
  22963765.140   120675382.88009  22963765.300    94032760.10246
 15 02 15 08 14  0.0000000  0 10G01G03G04G09G11G17G20G23G31G32
  20825276.540   109437559.92609  20825278.440    85276021.68849
  20610400.540   108308383.31009  20610401.340    84396142.96249
  22807723.960   119855382.26009  22807724.180    93393795.16647
  22435626.460   117900015.96309  22435627.240    91870150.68048
  22134811.340   116319205.86509  22134810.140    90638327.76747
  22064141.800   115947844.49209  22064140.520    90348960.43948
  23255062.460   122206180.55508  23255061.200    95225587.21245
  20851139.500   109573486.02209  20851136.200    85381919.99348
  23988616.400   126061037.75708  23988616.440    98229379.11847
  22978160.480   120751030.91509  22978160.840    94091706.59347
 15 02 15 08 14 30.0000000  0 11G01G03G04G06G09G11G17G20G23G31G32
  20833342.960   109479948.89009  20833344.900    85309052.01449
  20613300.640   108323622.95009  20613301.380    84408017.99649
  22824411.500   119943075.55209  22824411.840    93462127.51747
  24663362.580   129606848.50607                                
  22418019.000   117807488.48009  22418019.740    91798051.34748
  22152341.700   116411327.56709  22152340.480    90710110.83847
  22060181.820   115927034.45209  22060180.540    90332744.80148
  23240804.060   122131252.48108  23240802.760    95167201.67946
  20842828.160   109529810.56109  20842825.020    85347887.17848
  23992635.600   126082160.18508  23992635.940    98245838.13947
  22992562.420   120826713.63909  22992562.900    94150680.06047
 15 02 15 08 15  0.0000000  0 11G01G03G04G06G09G11G17G20G23G31G32
  20841488.680   109522754.53809  20841490.600    85342407.02648
  20616242.960   108339084.53909  20616243.640    84420065.97748
  22841147.300   120031022.25709  22841147.600    93530657.36847
  24644367.720   129507030.01107  24644371.820   100914574.72445
  22400470.920   117715272.94709  22400471.560    91726195.09248
  22169930.180   116503754.98809  22169928.940    90782132.13447
  22056333.040   115906809.00609  22056331.800    90316984.70248
  23226568.700   122056445.15408  23226567.460    95108910.26146
  20834606.020   109486603.70609  20834603.000    85314219.51548
  23996759.680   126103834.08208  23996760.160    98262726.87046
  23006973.980   120902445.97809  23006974.120    94209692.24647
 15 02 15 08 15 30.0000000  0 11G01G03G04G06G09G11G17G20G23G31G32
  20849708.520   109565949.96509  20849710.420    85376065.76849
  20619222.300   108354740.74809  20619222.900    84432265.61249
  22857925.980   120119194.86309  22857926.280    93599363.15147
  24625368.840   129407190.04107  24625372.480   100836777.33546
  22382977.460   117623344.42009  22382978.060    91654562.47848
  22187571.240   116596459.20009  22187569.940    90854369.10447
  22052590.500   115887141.99809  22052589.280    90301659.73148
  23212351.280   121981731.76608  23212350.020    95050692.01246
  20826468.200   109443839.32309  20826465.180    85280896.63248
  24000983.620   126126032.07008  24000984.120    98280023.97446
  23021389.640   120978200.46208  23021389.800    94268721.65747
 15 02 15 08 16  0.0000000  0 11G01G03G04G06G09G11G17G20G23G31G32
  20858005.560   109609550.77909  20858007.380    85410040.40149
  20622241.540   108370606.80309  20622242.080    84444628.76649
  22874750.380   120207607.85209  22874750.920    93668256.32847
  24606369.180   129307345.99407  24606372.320   100758976.74246
  22365541.920   117531720.43309  22365542.640    91583167.17348
  22205267.400   116689453.68709  22205266.120    90926832.26747
  22048957.200   115868049.34609  22048955.980    90286782.34748
  23198154.840   121907128.29208  23198153.500    94992559.42546
  20818417.820   109401533.92809  20818414.660    85247931.40548
  24005310.360   126148769.85108  24005310.940    98297741.70946
  23035812.440   121053992.11808  23035812.780    94327780.04247
 15 02 15 08 16 30.0000000  0 11G01G03G04G06G09G11G17G20G23G31G32
  20866379.760   109653556.81609  20866381.560    85444330.77149
  20625300.560   108386682.07809  20625301.100    84457154.94849
  22891620.320   120296260.03809  22891621.040    93737335.84346
  24587368.960   129207499.32208  24587371.900   100681174.09745
  22348164.600   117440402.70409  22348165.620    91512010.51448
  22223018.500   116782736.86809  22223017.340    90999520.38647
  22045433.360   115849532.24609  22045432.280    90272353.41248
  23183979.280   121832634.65908  23183977.960    94934512.41446
  20810454.940   109359687.93409  20810451.480    85215324.13748
  24009739.800   126172046.94708  24009740.380    98315879.69046
  23050242.120   121129820.31709  23050242.300    94386866.89546
 15 02 15 08 17  0.0000000  0 11G01G03G04G06G09G11G17G20G23G31G32
  20874830.060   109697962.93809  20874831.860    85478932.91549
  20628398.360   108402961.13209  20628398.880    84469839.93549
  22908534.680   120385145.26609  22908535.340    93806596.93246
  24568367.680   129107646.62407  24568370.760   100603366.83545
  22330844.980   117349388.03309  22330846.260    91441090.00748
  22240823.320   116876301.74909  22240822.280    91072428.01647
  22042018.300   115831586.07109  22042017.240    90258369.36748
  23169823.580   121758246.33508  23169822.460    94876547.49446
  20802578.600   109318296.60709  20802574.840    85183071.17848
  24014270.920   126195858.02208  24014271.280    98334433.81145
  23064677.800   121205679.16308  23064677.860    94445977.67547
 15 02 15 08 17 30.0000000  0 11G01G03G04G06G09G11G17G20G23G31G32
  20883357.600   109742775.42409  20883359.400    85513851.69649
  20631536.040   108419449.85909  20631536.600    84482688.28848
  22925494.480   120474268.80409  22925494.940    93876043.81147
  24549366.660   129007795.89507  24549369.800   100525561.05145
  22313584.620   117258684.70809  22313586.120    91370412.10248
  22258682.780   116970152.90709  22258681.800    91145558.71547
  22038713.080   115814216.98809  22038712.020    90244835.00548
  23155689.100   121683969.76108  23155688.180    94818669.63446
  20794790.120   109277367.21209  20794786.200    85151178.15148
  24018904.800   126220208.97408  24018904.560    98353408.63845
  23079120.140   121281574.67408  23079120.440    94505116.94846
 15 02 15 08 18  0.0000000  0 11G01G03G04G06G09G11G17G20G23G31G32
  20891961.020   109787986.86409  20891962.780    85549081.34749
  20634712.120   108436140.49809  20634712.660    84495693.98349
  22942498.060   120563622.46108  22942498.420    93945669.94147
  24530365.040   128907941.47207  24530368.020   100447752.35945
  22296382.420   117168287.15609  22296384.060    91299972.46248
  22276595.000   117064280.95509  22276593.960    91218905.15847
  22035516.540   115797418.62609  22035515.420    90231745.36648
  23141574.540   121609797.66508  23141573.740    94760873.18646
  20787088.200   109236893.02909  20787084.200    85119639.83848
  24023640.140   126245092.66808  24023639.260    98372798.57445
  23093568.040   121357498.77509  23093568.000    94564278.55846
 15 02 15 08 18 30.0000000  0 11G01G03G04G06G09G11G17G20G23G31G32
  20900641.560   109833603.13409  20900643.160    85584626.45349
  20637927.660   108453038.58809  20637928.220    84508861.32149
  22959546.260   120653210.90709  22959546.660    94015479.01147
  24511364.140   128808090.98408  24511367.440   100369946.85645
  22279239.940   117078203.26509  22279241.600    91229777.22848
  22294560.600   117158689.86209  22294559.520    91292470.46847
  22032429.840   115781197.40109  22032428.580    90219105.43448
  23127481.000   121535736.38808  23127480.260    94703163.12246
  20779474.060   109196880.54709  20779470.100    85088461.29648
  24028477.900   126270514.40108  24028476.740    98392607.77045
  23108022.400   121433456.86308  23108022.260    94623466.65046
 15 02 15 08 19  0.0000000  0 11G01G03G04G06G09G11G17G20G23G31G32
  20909399.060   109879623.97809  20909400.620    85620486.80049
  20641182.560   108470143.59209  20641183.200    84522189.89149
  22976638.900   120743032.90109  22976639.320    94085470.07847
  24492364.320   128708246.01208  24492367.640   100292145.56645
  22262157.440   116988434.68209  22262159.100    91159827.70548
  22312579.160   117253377.70809  22312577.940    91366253.12747
  22029453.120   115765553.92009  22029451.680    90206915.68648
  23113408.640   121461786.16508  23113407.840    94645539.57046
  20771947.840   109157330.33109  20771943.940    85057642.95748
  24033417.960   126296473.67708  24033416.520    98412835.84545
  23122483.000   121509448.36208  23122483.100    94682680.72947
 15 02 15 08 19 30.0000000  0 11G01G03G04G06G09G11G17G20G23G31G32
  20918233.040   109926046.88009  20918234.660    85656660.44748
  20644476.320   108487452.67709  20644477.080    84535677.48348
  22993775.320   120833085.08609  22993775.880    94155640.50847
  24473365.380   128608405.80808  24473368.540   100214347.94645
  22245134.840   116898980.86109  22245136.480    91090123.44848
  22330649.840   117348340.14809  22330648.600    91440249.75647
  22026585.880   115750485.93909  22026584.340    90195174.39148
  23099357.020   121387944.44008  23099356.200    94588000.59646
  20764509.160   109118240.37409  20764505.360    85027183.26748
  24038459.700   126322967.58709  24038458.440    98433480.50246
  23136949.540   121585470.15709  23136949.480    94741918.45446
 15 02 15 08 20  0.0000000  0 11G01G03G04G06G09G11G17G20G23G31G32
  20927143.620   109972872.42009  20927145.320    85693147.84648
  20647809.020   108504966.18909  20647809.860    84549324.37548
  23010955.480   120923367.03409  23010956.160    94225989.98147
  24454367.660   128508572.71208  24454370.700   100136555.94146
  22228172.660   116809844.31409  22228174.240    91020666.42448
  22348772.500   117443575.96509  22348771.340    91514459.40047
  22023828.320   115735994.57209  22023826.760    90183882.40148
  23085326.360   121314212.31708  23085325.420    94530547.02546
  20757158.360   109079611.86409  20757154.600    84997083.15048
  24043603.140   126349996.52308  24043602.360    98454542.03346
  23151421.920   121661522.54608  23151421.920    94801180.02647
 15 02 15 08 20 30.0000000  0 11G01G03G04G06G09G11G17G20G23G31G32
  20936131.160   110020102.14909  20936132.880    85729950.19348
  20651180.840   108522685.39909  20651181.720    84563131.54149
  23028179.440   121013879.07909  23028180.000    94296518.73947
  24435372.000   128408750.20308  24435375.100   100058772.21446
  22211271.540   116721028.58909  22211273.160    90951459.38648
  22366947.200   117539085.07609  22366946.200    91588882.00847
  22021180.880   115722082.03909  22021179.280    90173041.45348
  23071316.960   121240591.82208  23071315.820    94473180.43946
  20749895.860   109041447.25809  20749892.120    84967344.51048
  24048848.600   126377561.89308  24048848.220    98476021.56746
  23165900.220   121737606.69109  23165900.620    94860466.29547
 15 02 15 08 21  0.0000000  0 11G01G03G04G06G09G11G17G20G23G31G32
  20945195.100   110067733.03309  20945196.800    85767065.12348
  20654591.200   108540606.99109  20654592.080    84577096.40549
  23045446.520   121104617.65308  23045447.220    94367224.05047
  24416378.140   128308937.10208  24416381.360    99980995.81145
  22194431.260   116632532.51709  22194433.040    90882501.43548
  22385173.020   117634862.58509  22385172.160    91663513.74747
  22018642.980   115708745.46309  22018641.380    90162649.29448
  23057328.280   121167080.56008  23057327.040    94415898.97446
  20742721.100   109003744.09209  20742717.500    84937965.43848
  24054195.400   126405660.43708  24054195.360    98497916.52347
  23180384.020   121813719.00908  23180384.520    94919774.57046
 15 02 15 08 21 30.0000000  0 11G01G03G04G06G09G11G17G20G23G31G32
  20954335.240   110115764.06009  20954336.880    85804491.85449
  20658039.840   108558729.82609  20658040.720    84591218.08149
  23062756.280   121195580.50109  23062757.020    94438104.09546
  24397386.380   128209134.39908  24397389.780    99903227.49146
  22177652.040   116544357.17909  22177653.920    90813793.40048
  22403449.520   117730905.86009  22403448.760    91738352.58147
  22016214.640   115695984.65209  22016213.140    90152705.79748
  23043360.140   121093677.69408  23043358.940    94358701.89446
  20735634.080   108966502.19409  20735630.620    84908945.78648
  24059643.320   126434290.46408  24059643.640    98520225.59647
  23194872.560   121889858.31208  23194873.440    94979103.83547
 15 02 15 08 22  0.0000000  0 11G01G03G04G06G09G11G17G20G23G31G32
  20963552.440   110164200.15809  20963554.040    85842234.22549
  20661527.640   108577058.60209  20661528.520    84605500.23249
  23080109.460   121286771.72509  23080110.140    94509162.05546
  24378397.840   128109348.86608  24378401.320    99825472.58246
  22160935.140   116456509.38909  22160937.000    90745340.59348
  22421777.200   117827218.06709  22421776.540    91813400.97447
  22013896.960   115683805.11209  22013895.460    90143215.23448
  23029413.600   121020388.44908  23029412.580    94301593.44546
  20728635.820   108929726.58409  20728632.460    84880289.47448
  24065193.340   126463456.72508  24065193.860    98542952.53347
  23209367.360   121966029.07309  23209368.540    95038457.61047
 15 02 15 08 22 30.0000000  0 11G01G03G04G06G09G11G17G20G23G31G32
  20972845.840   110213037.17909  20972847.480    85880289.00148
  20665053.840   108595588.93709  20665054.740    84619939.44448
  23097505.100   121378186.06009  23097505.800    94580393.93046
  24359412.040   128009578.25208  24359415.500    99747729.29246
  22144280.120   116368986.96309  22144281.980    90677141.33048
  22440154.960   117923793.02209  22440154.200    91888654.11847
  22011689.220   115672203.07609  22011687.680    90134174.66648
  23015487.980   120947209.15608  23015487.060    94244570.64446
  20721725.800   108893414.26209  20721722.460    84851994.16948
  24070844.600   126493154.86208  24070845.220    98566093.88146
  23223867.280   122042226.87708  23223868.120    95097832.48846
 15 02 15 08 23  0.0000000  0 11G01G03G04G06G09G11G17G20G23G31G32
  20982215.320   110262274.12809  20982217.000    85918655.41349
  20668618.200   108614319.74909  20668619.120    84634534.86949
  23114942.880   121469821.92109  23114943.660    94651798.39746
  24340429.320   127909823.53307  24340432.740    99669998.38447
  22127687.080   116281790.93209  22127689.060    90609196.40848
  22458582.220   118020628.22009  22458581.240    91964110.01847
  22009591.220   115661177.87009  22009589.660    90125583.57848
  23001583.220   120874139.41208  23001582.320    94187633.18146
  20714903.920   108857564.62609  20714900.520    84824059.40648
  24076596.820   126523383.59408  24076597.560    98589648.70647
  23238372.080   122118450.47108  23238372.540    95157227.46946
 15 02 15 08 23 30.0000000  0 11G01G03G04G06G09G11G17G20G23G31G32
  20991661.160   110311912.67109  20991662.940    85957334.75548
  20672221.000   108633252.45909  20672221.940    84649287.62049
  23132422.920   121561679.71508  23132423.600    94723375.81547
  24321450.180   127810088.39608  24321453.560    99592282.79046
  22111156.900   116194924.86509  22111158.940    90541508.59048
  22477059.100   118117723.64209  22477057.840    92039768.71547
  22007603.320   115650731.52709  22007601.760    90117443.55848
  22987699.800   120801181.27108  22987698.800    94130782.70246
  20708170.580   108822180.18309  20708167.080    84796487.12948
  24082450.280   126554144.12608  24082451.060    98613617.89046
  23252882.200   122194701.18508  23252882.720    95216643.57347
 15 02 15 08 24  0.0000000  0 11G01G03G04G06G09G11G17G20G23G31G32
  21001182.160   110361946.31809  21001184.060    85996321.97449
  20675860.960   108652380.51209  20675861.900    84664192.58348
  23149943.820   121653752.29009  23149944.680    94795120.55247
  24302474.140   127710368.49808  24302477.660    99514579.02345
  22094688.620   116108384.27609  22094690.820    90474074.39348
  22495583.860   118215071.01709  22495582.440    92115623.73547
  22005724.460   115640858.19209  22005722.920    90109750.02248
  22973836.500   120728328.73108  22973835.540    94074014.53446
  20701524.640   108787255.00209  20701520.980    84769272.71548
  24088403.880   126585429.73008  24088404.480    98637996.26046
  23267396.220   122270972.34408  23267396.840    95276075.58646
 15 02 15 08 24 30.0000000  0 11G01G03G04G06G09G11G17G20G23G31G32
  21010780.520   110412386.67109  21010782.580    86035626.10048
  20679540.320   108671715.45609  20679541.180    84679258.74849
  23167507.580   121746050.08008  23167508.300    94867040.84247
  24283503.600   127610677.37808  24283506.840    99436897.62445
  22078284.880   116022182.77809  22078287.160    90406904.42648
  22514158.380   118312680.42409  22514157.120    92191682.92747
  22003957.000   115631570.03009  22003955.560    90102512.46448
  22959995.580   120655594.08208  22959994.640    94017338.20846
  20694968.400   108752801.55009  20694964.600    84742425.88548
  24094459.540   126617251.31008  24094459.820    98662792.27746
  23281916.360   122347275.26708  23281916.740    95335532.36046
 15 02 15 08 25  0.0000000  0 11G01G03G04G06G09G11G17G20G23G31G32
  21020454.360   110463223.41309  21020456.560    86075239.10948
  20683257.020   108691246.79209  20683257.860    84694477.94849
  23185112.080   121838561.97409  23185112.720    94939127.92347
  24264537.000   127511006.79408  24264540.140    99359232.25446
  22061944.060   115936312.00709  22061946.420    90339992.16148
  22532780.420   118410539.69709  22532779.360    92267936.81047
  22002298.980   115622856.97909  22002297.620    90095723.03948
  22946175.140   120582967.33408  22946174.180    93960745.95646
  20688500.040   108718809.93909  20688496.120    84715938.92848
  24100615.220   126649598.51008  24100615.400    98687997.86146
  23296440.580   122423599.45808  23296440.720    95395005.70846
 15 02 15 08 25 30.0000000  0 11G01G03G04G06G09G11G17G20G23G31G32
  21030204.700   110514461.98509  21030206.960    86115165.22848
  20687012.120   108710979.88609  20687013.020    84709854.36449
  23202758.160   121931292.49809  23202758.820    95011385.33946
  24245575.660   127411364.17708  24245578.980    99281588.72246
  22045667.620   115850779.36309  22045669.960    90273343.37248
  22551450.620   118508652.21009  22551449.780    92344388.04747
  22000751.480   115614724.84609  22000750.180    90089386.27948
  22932376.380   120510454.66908  22932375.400    93904242.60146
  20682120.720   108685286.29609  20682116.680    84689816.63848
  24106871.860   126682476.39608  24106871.820    98713616.97846
  23310969.640   122499950.20708  23310969.820    95454499.72246
 15 02 15 08 26  0.0000000  0 11G01G03G04G06G09G11G17G20G23G31G32
  21040031.180   110566100.11609  21040033.360    86155402.69248
  20690805.180   108730912.44609  20690806.060    84725386.20949
  23220445.320   122024238.59708  23220445.940    95083810.77946
  24226619.500   127311749.46208  24226622.740    99203966.91346
  22029455.500   115765584.58909  22029457.820    90206957.85448
  22570168.340   118607014.44309  22570167.600    92421033.86547
  21999314.100   115607171.87809  21999312.900    90083500.81748
  22918598.860   120438054.00108  22918597.940    93847826.54746
  20675830.140   108652228.92609  20675826.020    84664057.67048
  24113228.980   126715882.30708  24113228.620    98739647.56646
  23325503.320   122576324.83808  23325503.500    95514012.38746
 15 02 15 08 26 30.0000000  0 11G01G03G04G06G09G11G17G20G23G31G32
  21049933.520   110618136.18609  21049935.480    86195950.24248
  20694635.920   108751042.80509  20694636.720    84741072.18749
  23238173.060   122117397.74008  23238173.560    95156402.22547
  24207668.740   127212163.14807  24207672.240    99126367.25846
  22013307.780   115680728.09909  22013310.060    90140835.92748
  22588933.020   118705623.32909  22588932.220    92497871.84347
  21997986.720   115600196.73309  21997985.520    90078065.61648
  22904842.480   120365764.48008  22904841.620    93791497.06846
  20669628.080   108619636.85909  20669623.980    84638661.27548
  24119686.060   126749814.02308  24119685.520    98766087.86546
  23340041.220   122652721.88108  23340041.300    95573542.52046
 15 02 15 08 27  0.0000000  0 11G01G03G04G06G09G11G17G20G23G31G32
  21059912.000   110670571.84209  21059913.700    86236809.16649
  20698504.600   108771372.58809  20698505.400    84756913.56349
  23255941.480   122210770.67609  23255942.060    95229160.22646
  24188724.180   127112609.05708  24188727.740    99048792.70146
  21997225.180   115596213.49209  21997227.400    90074980.40948
  22607744.620   118804478.24409  22607743.580    92574901.56947
  21996769.760   115593801.46009  21996768.580    90073082.25448
  22891107.640   120293587.99408  22891106.780    93735255.70247
  20663514.900   108587512.23609  20663510.840    84613629.12848
  24126243.380   126784272.91708  24126242.600    98792938.98146
  23354583.420   122729142.81708  23354583.720    95633091.23746
 15 02 15 08 27 30.0000000  0 11G01G03G04G06G09G11G17G20G23G31G32
  21069966.200   110723405.70109  21069967.660    86277978.36849
  20702410.980   108791900.39309  20702411.760    84772909.22349
  23273750.040   122304355.15108  23273750.800    95302083.08747
  24169785.880   127013087.95308  24169789.300    98971243.80946
  21981207.700   115512041.34809  21981209.980    90009391.74048
  22626602.600   118903576.67109  22626601.280    92652121.05147
  21995662.940   115587985.15209  21995661.860    90068550.02948
  22877394.360   120221524.32609  22877393.440    93679102.23046
  20657490.460   108555854.25009  20657486.440    84588960.58248
  24132900.500   126819256.90808  24132899.760    98820199.23046
  23369130.200   122805586.06809  23369130.680    95692657.37047
 15 02 15 08 28  0.0000000  0 11G01G03G04G06G09G11G17G20G23G31G32
  21080096.440   110776639.86109  21080097.820    86319459.49948
  20706355.320   108812628.36509  20706356.220    84789060.86548
  23291599.040   122398152.44509  23291599.800    95375171.76946
  24150854.520   126913604.05908  24150858.240    98893723.96246
  21965256.140   115428215.84709  21965258.500    89944073.18048
  22645506.940   119002918.87009  22645505.500    92729530.46047
  21994666.840   115582750.22509  21994665.720    90064470.84948
  22863703.020   120149576.07808  22863702.080    93623038.70546
  20651555.420   108524665.86409  20651551.440    84564657.95848
  24139657.860   126854768.07808  24139657.600    98847870.26746
  23383681.780   122882053.67108  23383682.340    95752242.47246
 15 02 15 08 28 30.0000000  0 11G01G03G04G06G09G11G17G20G23G31G32
  21090301.480   110830268.15809  21090302.960    86361247.73948
  20710336.600   108833550.35409  20710337.540    84805363.69549
  23309487.220   122492155.38909  23309488.120    95448420.70146
  24131929.580   126814153.62208  24131933.300    98816230.16346
  21949369.740   115344732.76309  21949372.220    89879021.42948
  22664456.040   119102496.93109  22664454.700    92807123.64647
  21993780.260   115578090.74009  21993779.100    90060840.04548
  22850032.520   120077737.24108  22850031.600    93567060.42546
  20645708.700   108493941.36909  20645704.760    84540716.81548
  24146514.200   126890799.83008  24146514.440    98875946.90646
  23398236.420   122958539.39008  23398236.940    95811841.64846
 15 02 15 08 29  0.0000000  0 11G01G03G04G06G09G11G17G20G23G31G32
  21100582.060   110884294.01609  21100583.820    86403345.75948
  20714355.420   108854669.79209  20714356.420    84821820.37048
  23327415.120   122586366.65109  23327415.880    95521831.96146
  24113012.260   126714742.15608  24113015.720    98738766.66546
  21933549.640   115261597.52209  21933552.080    89814240.72948
  22683450.260   119202312.67509  22683449.260    92884902.08747
  21993003.800   115574010.29509  21993002.640    90057660.44048
  22836383.820   120006012.53708  22836382.820    93511171.09446
  20639951.060   108463684.74309  20639947.140    84517140.23848
  24153470.140   126927354.94208  24153470.740    98904431.36846
  23412795.300   123035046.53209  23412795.580    95871457.57046
 15 02 15 08 29 30.0000000  0 11G01G03G04G06G09G11G17G20G23G31G32
  21110937.780   110938714.84809  21110939.880    86445751.55748
  20718411.400   108875984.25009  20718412.440    84838429.01449
  23345382.160   122680782.81209  23345382.800    95595402.88746
  24094102.360   126615369.39308  24094105.720    98661333.39646
  21917795.720   115178809.59309  21917798.020    89749730.66748
  22702489.000   119302362.13909  22702488.240    92962862.60647
  21992337.160   115570507.00909  21992336.000    90054930.58748
  22822756.380   119934399.74608  22822755.380    93455368.95646
  20634282.120   108433894.14709  20634278.220    84493926.80448
  24160525.240   126964430.31008  24160525.860    98933321.24546
  23427357.940   123111572.45308  23427358.220    95931088.10647
 15 02 15 08 30  0.0000000  0 11G01G03G04G06G09G11G17G20G23G31G32
  21121369.480   110993534.33809  21121371.780    86488468.00249
  20722505.300   108897497.46409  20722506.320    84855192.54548
  23363388.640   122775406.75608  23363389.480    95669135.70046
  24075200.900   126516041.27408  24075204.140    98583934.91646
  21902109.020   115096374.65809  21902111.140    89685495.66348
  22721572.660   119402647.15809  22721571.920    93041006.68847
  21991781.040   115567584.59809  21991779.920    90052653.36448
  22809150.880   119862902.80508  22809149.960    93399657.09147
  20628702.660   108404573.93409  20628698.780    84471079.91248
  24167680.120   127002029.49808  24167680.640    98962619.28446
  23441924.500   123188121.01508  23441924.920    95990736.24246
 15 02 15 08 30 30.0000000  0 11G01G03G04G06G09G11G17G20G23G31G32
  21131876.320   111048748.32509  21131878.720    86531491.84148
  20726636.260   108919205.35409  20726637.180    84872107.76349
  23381433.660   122870233.51409  23381434.720    95743026.57646
  24056307.540   126416755.99508  24056310.840    98506569.81446
  21886489.060   115014290.50209  21886490.960    89621533.99848
  22740700.160   119503161.99209  22740699.300    93119329.83747
  21991334.700   115565239.16209  21991333.680    90050825.72148
  22795566.960   119791518.97808  22795566.060    93344033.37746
  20623212.020   108375720.46809  20623208.140    84448596.70248
  24174933.680   127040147.21808  24174933.920    98992321.38445
  23456494.740   123264688.01109  23456495.080    96050398.78046
 15 02 15 08 31  0.0000000  0 11G01G03G04G06G09G11G17G20G23G31G32
  21142458.260   111104356.69809  21142460.640    86574822.99048
  20730804.260   108941107.91009  20730805.060    84889174.66349
  23399516.900   122965262.18108  23399518.100    95817074.75446
  24037422.600   126317515.75608  24037426.140    98429239.80546
  21870936.220   114932559.07509  21870937.880    89557847.17948
  22759871.100   119603904.72909  22759870.000    93197830.56947
  21990998.220   115563470.97209  21990997.180    90049447.88848
  22782004.540   119720248.17508  22782003.640    93288497.73946
  20617810.300   108347334.03809  20617806.400    84426477.41248
  24182285.780   127078783.06108  24182286.080    99022427.19946
  23471068.740   123341273.17708  23471068.760    96110075.50646
 15 02 15 08 31 30.0000000  0 11G01G03G04G06G09G11G17G20G23G31G32
  21153115.680   111160361.19309  21153117.920    86618462.81748
  20735009.620   108963207.06909  20735010.400    84906394.77248
  23417638.720   123060493.56808  23417640.180    95891280.91246
  24018547.060   126218324.66808  24018550.640    98351948.08146
  21855451.280   114851184.12009  21855452.680    89494438.13648
  22779085.500   119704876.11909  22779084.180    93276509.51247
  21990772.040   115562282.14609  21990770.900    90048521.50848
  22768464.200   119649093.37908  22768463.180    93233052.48346
  20612497.920   108319417.17709  20612494.020    84404724.02848
  24189736.940   127117938.88508  24189737.380    99052938.19946
  23485646.220   123417878.54908  23485646.620    96169767.91346
 15 02 15 08 32  0.0000000  0 11G01G03G04G06G09G11G17G20G23G31G32
  21163847.860   111216758.40209  21163849.980    86662408.64348
  20739251.720   108985499.56509  20739252.540    84923765.53049
  23435798.500   123155923.43309  23435800.080    95965641.74346
  23999680.740   126119181.71308  23999684.360    98274693.88347
  21840033.980   114770164.28509  21840035.100    89431305.80748
  22798342.280   119806070.77309  22798340.920    93355362.36146
  21990655.500   115561669.40609  21990654.300    90048044.03248
  22754945.400   119578051.50008  22754944.180    93177695.20746
  20607274.300   108291966.94509  20607270.420    84383334.25548
  24197286.480   127157610.34908  24197286.820    99083851.00646
  23500226.800   123494500.70208  23500227.660    96229473.38146
 15 02 15 08 32 30.0000000  0 11G01G03G04G06G09G11G17G20G23G31G32
  21174655.100   111273550.01109  21174657.080    86706661.79048
  20743530.980   109007987.23909  20743531.840    84941288.37548
  23453996.380   123251552.69808  23453997.880    96040157.92646
  23980824.440   126020090.97508  23980827.960    98197480.34246
  21824684.980   114689503.22409  21824685.760    89368453.05548
  22817641.520   119907488.94609  22817640.320    93434389.42847
  21990648.940   115561634.56809  21990647.720    90048016.86348
  22741448.660   119507124.93508  22741447.300    93122427.76047
  20602139.900   108264985.65609  20602136.040    84362309.88148
  24204934.380   127197798.58408  24204934.520    99115166.48746
  23514811.180   123571141.39308  23514811.960    96289193.33846
 15 02 15 08 33  0.0000000  0 11G01G03G04G06G09G11G17G20G23G31G32
  21185537.140   111330734.84009  21185539.020    86751221.34548
  20747847.220   109030669.13009  20747848.080    84958962.56648
  23472231.900   123347379.50509  23472233.180    96114828.05146
  23961978.280   125921053.68808  23961981.660    98120308.49846
  21809404.380   114609201.80309  21809404.900    89305880.53948
  22836982.740   120009127.71609  22836981.740    93513588.37647
  21990752.120   115562176.53509  21990750.960    90048439.17348
  22727973.820   119436313.78409  22727972.360    93067250.30246
  20597094.720   108238473.15609  20597090.860    84341650.79448
  24212680.220   127238502.04208  24212680.080    99146883.43346
  23529398.840   123647799.60408  23529399.400    96348926.93946
 15 02 15 08 33 30.0000000  0 11G01G03G04G06G09G11G17G20G23G31G32
  21196493.660   111388311.25209  21196495.480    86796086.01948
  20752200.140   109053543.80109  20752201.020    84976786.96848
  23490504.420   123443401.38109  23490505.380    96189650.14446
  23943142.480   125822070.68608  23943145.560    98043178.87146
  21794192.220   114529260.36909  21794192.560    89243588.53948
  22856365.360   120110983.94909  22856364.560    93592956.77946
  21990964.800   115563294.18409  21990963.720    90049310.06048
  22714520.620   119365616.94308  22714519.160    93012161.86446
  20592138.440   108212427.65309  20592134.520    84321355.60348
  24220523.400   127279718.41008  24220523.240    99179000.03446
  23543989.440   123724473.79008  23543990.200    96408672.95046
 15 02 15 08 34  0.0000000  0 11G01G03G04G06G09G11G17G20G23G31G32
  21207525.320   111446283.04009  21207527.180    86841258.77948
  20756590.580   109076615.25609  20756591.440    84994764.71348
  23508814.520   123539621.40908  23508815.660    96264626.64846
  23924318.100   125723148.17008  23924321.220    97966096.41546
  21779049.540   114449684.75409  21779049.840    89181581.60048
  22875789.860   120213060.03309  22875789.260    93672496.48047
  21991287.780   115564991.47409  21991286.660    90050632.62648
  22701090.060   119295038.93508  22701088.640    92957166.03646
  20587271.960   108186853.56309  20587267.900    84301427.74948
  24228464.760   127321450.97508  24228464.760    99211518.85446
  23558583.980   123801167.94509  23558584.880    96468434.51946
 15 02 15 08 34 30.0000000  0 11G01G03G04G06G09G11G17G20G23G31G32
  21218631.020   111504644.10609  21218632.960    86886734.86848
  20761017.360   109099877.64809  20761018.180    85012891.24248
  23527161.000   123636032.47808  23527161.980    96339752.08146
  23905504.440   125624282.56508  23905507.660    97889058.33746
  21763975.660   114370470.87509  21763975.940    89119856.53248
  22895254.620   120315348.01609  22895254.200    93752201.31247
  21991719.880   115567262.41409  21991718.740    90052402.17148
  22687681.100   119224574.75808  22687679.740    92902258.89846
  20582494.160   108161745.74709  20582490.040    84281863.22748
  24236503.140   127363693.11008  24236503.280    99244434.74646
  23573181.300   123877876.00008  23573182.040    96528206.94346
 15 02 15 08 35  0.0000000  0 11G01G03G04G06G09G11G17G20G23G31G32
  21229811.700   111563399.26009  21229813.780    86932518.04848
  20765481.440   109123336.07409  20765482.160    85031170.52648
  23545544.540   123732638.72808  23545545.720    96415029.54146
  23886703.080   125525481.23808  23886706.320    97812070.30246
  21748971.900   114291625.58409  21748972.220    89058418.67348
  22914760.360   120417851.44309  22914759.960    93832074.01047
  21992262.120   115570111.98609  21992260.960    90054622.61048
  22674294.780   119154229.66809  22674293.480    92847444.56046
  20577806.020   108137109.30009  20577801.920    84262666.00849
  24244639.320   127406449.06408  24244639.640    99277751.01046
  23587782.020   123954603.05708  23587782.380    96587994.17445
 15 02 15 08 35 30.0000000  0 11G01G03G04G06G09G11G17G20G23G31G32
  21241066.460   111622543.35409  21241068.620    86978604.29648
  20769981.880   109146985.68609  20769982.500    85049598.77748
  23563964.140   123829434.48409  23563965.700    96490454.63646
  23867913.520   125426741.55208  23867916.820    97735130.34446
  21734037.660   114213145.74909  21734038.000    88997265.60048
  22934305.880   120520563.94609  22934305.540    93912109.62247
  21992913.580   115573535.21609  21992912.400    90057290.04648
  22660930.380   119083999.42209  22660929.100    92792719.68546
  20573206.660   108112939.82109  20573202.580    84243832.66048
  24252872.340   127449713.40508  24252872.720    99311463.41746
  23602385.420   124031344.18708  23602385.580    96647792.35946
 15 02 15 08 36  0.0000000  0 11G01G03G04G06G09G11G17G20G23G31G32
  21252394.420   111682071.93409  21252396.640    87024990.14548
  20774517.860   109170822.30109  20774518.440    85068172.75248
  23582418.860   123926414.44508  23582420.500    96566023.32846
  23849135.300   125328061.60008  23849138.760    97658236.95546
  21719172.440   114135028.92709  21719172.820    88936395.39048
  22953890.060   120623479.25209  22953889.620    93992303.26747
  21993673.360   115577527.35609  21993672.160    90060400.79048
  22647587.180   119013880.54608  22647585.900    92738081.62246
  20568695.420   108089233.34909  20568691.340    84225360.09949
  24261201.160   127493480.98808  24261201.460    99345567.95147
  23616990.740   124108095.13908  23616990.880    96707598.21846
 15 02 15 08 36 30.0000000  0 11G01G03G04G06G09G11G17G20G23G31G32
  21263797.480   111741994.84009  21263799.640    87071683.25948
  20779091.260   109194856.05809  20779091.920    85086900.34549
  23600910.360   124023587.46808  23600912.000    96641742.46746
  23830370.800   125229453.79108  23830374.360    97581399.73146
  21704378.460   114057286.99409  21704379.000    88875817.31248
  22973514.540   120726605.69909  22973513.840    94072661.43946
  21994543.440   115582098.86909  21994542.120    90063963.00848
  22634267.160   118943883.50209  22634265.880    92683538.47347
  20564274.300   108066000.24909  20564270.220    84207256.41149
  24269627.440   127537760.78608  24269627.680    99380071.61846
  23631599.760   124184866.07308  23631600.040    96767419.60646
 15 02 15 08 37  0.0000000  0 11G01G03G04G06G09G11G17G20G23G31G32
  21275274.140   111802304.67809  21275276.280    87118677.89548
  20783700.720   109219079.92509  20783701.580    85105776.07748
  23619437.140   124120945.74208  23619438.760    96717605.90346
  23811619.180   125130913.37908  23811622.760    97504615.05346
  21689654.720   113979914.57609  21689655.500    88815527.16148
  22993177.620   120829934.59709  22993176.700    94153177.34546
  21995522.280   115587242.59209  21995520.880    90067971.09648
  22620969.120   118874001.86208  22620967.820    92629085.25146
  20559941.960   108043233.47309  20559937.880    84189516.08849
  24278149.760   127582544.97608  24278149.840    99414968.31446
  23646211.260   124261649.85008  23646211.620    96827251.03146
 15 02 15 08 37 30.0000000  0 11G01G03G04G06G09G11G17G20G23G31G32
  21286823.860   111862999.33109  21286826.160    87165972.37548
  20788346.000   109243492.15809  20788347.100    85124798.58248
  23637998.660   124218486.32108  23638000.320    96793611.40246
  23792880.460   125032440.84108  23792883.820    97427883.22546
  21675001.200   113902911.56209  21675002.240    88755524.85148
  23012878.560   120933462.19909  23012877.480    94233848.12346
  21996609.480   115592956.26109  21996608.120    90072423.29748
  22607692.840   118804234.74709  22607691.520    92574721.28446
  20555698.080   108020931.69309  20555694.020    84172138.10349
  24286767.540   127627830.92208  24286767.520    99450255.98647
  23660824.980   124338444.41608  23660825.340    96887090.89346
 15 02 15 08 38  0.0000000  0 11G01G03G04G06G09G11G17G20G23G31G32
  21298448.060   111924085.37209  21298450.520    87213571.84248
  20793028.520   109268099.69709  20793029.780    85143973.28448
  23656596.020   124316215.20109  23656597.340    96869763.63846
  23774156.400   124934045.42008  23774159.580    97351211.51246
  21660419.620   113826286.61509  21660420.940    88695817.14248
  23032618.140   121037193.66609  23032617.080    94314677.74246
  21997806.380   115599246.37009  21997805.080    90077324.66848
  22594439.740   118734589.42308  22594438.340    92520452.19646
  20551544.060   107999102.15509  20551539.980    84155128.10249
  24295481.940   127673624.63608  24295481.880    99485939.31447
  23675441.880   124415257.00208  23675442.620    96946944.72246
 15 02 15 08 38 30.0000000  0 11G01G03G04G06G09G11G17G20G23G31G32
  21310145.660   111985556.87709  21310148.220    87261471.65948
  20797747.240   109292896.94509  20797748.560    85163295.80949
  23675227.940   124414125.38809  23675229.060    96946057.17145
  23755446.400   124835723.82408  23755449.560    97274597.31946
  21645909.260   113750035.75409  21645910.840    88636400.92748
  23052395.020   121141121.72509  23052394.100    94395660.52246
  21999111.900   115606107.29209  21999110.740    90082670.82548
  22581208.880   118665061.02109  22581207.480    92466274.25346
  20547478.860   107977739.34009  20547474.740    84138481.78349
  24304291.680   127719919.70908  24304291.760    99522013.29246
  23690061.120   124492081.76808  23690062.020    97006808.08746
 15 02 15 08 39  0.0000000  0 11G01G03G04G06G09G11G17G20G23G31G32
  21321916.920   112047415.10309  21321919.480    87309672.81848
  20802502.500   109317885.63709  20802503.800    85182767.51948
  23693894.420   124512217.59308  23693895.520    97022492.55646
  23736751.260   124737480.04608  23736754.280    97198043.76646
  21631470.680   113674162.28509  21631472.600    88577278.78848
  23072209.140   121245245.82809  23072208.400    94476796.08746
  22000526.320   115613540.22209  22000525.240    90088462.72048
  22568000.640   118595651.29609  22567999.320    92412188.76046
  20543502.800   107956844.95409  20543498.640    84122200.48049
  24313196.680   127766716.51008  24313197.220    99558478.20846
  23704683.080   124568920.48208  23704683.880    97066682.31346
 15 02 15 08 39 30.0000000  0 11G01G03G04G06G09G11G17G20G23G31G32
  21333761.440   112109658.01809  21333763.980    87358173.74448
  20807293.920   109343064.17309  20807295.140    85202387.13148
  23712595.040   124610489.23108  23712596.260    97099067.72146
  23718071.000   124639314.71908  23718074.180    97121551.38446
  21617103.920   113598666.22009  21617106.200    88518450.72748
  23092060.000   121349562.74909  23092059.440    94558081.90546
  22002049.240   115621543.16509  22002048.160    90094698.75548
  22554814.940   118526359.82209  22554813.640    92358195.42847
  20539615.540   107936417.32809  20539611.320    84106282.87449
  24322196.560   127814012.41708  24322197.480    99595332.01946
  23719307.420   124645771.36108  23719308.040    97126566.04746
 15 02 15 08 40  0.0000000  0 11G01G03G04G06G09G11G17G20G23G31G32
  21345679.760   112172288.58709  21345682.200    87406976.73848
  20812122.140   109368435.91509  20812123.260    85222157.30348
  23731330.140   124708942.39708  23731331.740    97175784.30846
  23699406.760   124541233.57108  23699409.800    97045124.56246
  21602810.120   113523552.56909  21602812.560    88459920.63848
  23111947.900   121454074.12208  23111947.460    94639519.24247
  22003681.320   115630119.30209  22003680.140    90101381.43148
  22541652.440   118457190.21608  22541651.180    92304297.03547
  20535817.820   107916460.34009  20535813.600    84090731.99349
  24331292.100   127861809.87908  24331292.920    99632576.67645
  23733934.560   124722637.79408  23733935.440    97186461.85346
 15 02 15 08 40 30.0000000  0 11G01G03G04G06G09G11G17G20G23G31G32
  21357670.140   112235298.08909  21357672.460    87456075.00248
  20816985.560   109393992.62909  20816986.520    85242071.60548
  23750098.120   124807567.91208  23750100.000    97252635.23446
  23680757.420   124443230.69608  23680760.520    96968758.71647
  21588587.940   113448814.60909  21588590.440    88401683.29948
  23131871.000   121558770.32009  23131870.540    94721100.57446
  22005420.920   115639260.34909  22005419.600    90108504.30648
  22528511.700   118388134.91109  22528510.460    92250487.77546
  20532108.020   107896965.63509  20532103.860    84075541.33449
  24340481.500   127910099.88708  24340481.840    99670205.16145
  23748563.140   124799511.50608  23748564.200    97246363.35646
 15 02 15 08 41  0.0000000  0 11G01G03G04G06G09G11G17G20G23G31G32
  21369733.520   112298691.13709  21369735.760    87505472.13748
  20821885.100   109419739.38709  20821885.980    85262133.99148
  23768899.600   124906369.64708  23768901.520    97329623.47846
  23662124.300   124345313.38908  23662127.260    96892459.57746
  21574438.580   113374459.01809  21574441.080    88343743.91048
  23151829.760   121663653.83109  23151829.280    94802827.87346
  22007268.760   115648970.25409  22007267.360    90116070.43148
  22515393.700   118319199.28208  22515392.500    92196771.69047
  20528487.120   107877938.31609  20528483.040    84060714.86249
  24349765.280   127958886.17508  24349765.220    99708220.39444
  23763194.320   124876397.44408  23763195.300    97306274.40546
 15 02 15 08 41 30.0000000  0 11G01G03G04G06G09G11G17G20G23G31G32
  21381869.800   112362467.30409  21381872.020    87555167.81748
  20826820.760   109445676.27909  20826821.580    85282344.53848
  23787734.320   125005346.42208  23787736.180    97406748.09246
  23643507.940   124247484.08508  23643510.980    96816229.01046
  21560362.320   113300487.36009  21560364.760    88286103.68448
  23171823.760   121768722.66009  23171823.360    94884699.57746
  22009224.720   115659248.64909  22009223.320    90124079.53148
  22502298.580   118250384.12809  22502297.360    92143149.54746
  20524955.280   107859378.61009  20524951.240    84046252.76049
  24359143.160   128008167.39408  24359143.100    99746621.28845
  23777827.760   124953295.70008  23777828.580    97366195.01746
 15 02 15 08 42  0.0000000  0 11G01G03G04G06G09G11G17G20G23G31G32
  21394078.800   112426625.90909  21394081.120    87605161.49248
  20831792.540   109471803.16409  20831793.360    85302703.13448
  23806602.040   125104496.98308  23806603.780    97484008.11446
  23624908.700   124149744.90308  23624911.640    96740068.66547
  21546359.420   113226901.01409  21546361.780    88228763.70548
  23191852.660   121873975.09309  23191852.420    94966714.36446
  22011288.760   115670095.10309  22011287.280    90132531.27448
  22489226.440   118181690.03108  22489225.220    92089621.69447
  20521512.320   107841285.74109  20521508.220    84032154.42649
  24368615.120   128057942.43008  24368615.320    99785406.99745
  23792463.520   125030206.03408  23792464.020    97426125.08046
 15 02 15 08 42 30.0000000  0 11G01G03G04G06G09G11G17G20G23G31G32
  21406359.940   112491163.40709  21406362.240    87655450.41048
  20836799.820   109498117.00309  20836800.740    85323207.38348
  23825502.000   125203816.84108  23825503.720    97561400.11745
  23606326.460   124052095.14308  23606329.580    96663978.00547
  21532429.620   113153698.39909  21532431.740    88171722.73048
  23211915.580   121979406.51808  23211915.420    95048868.62647
  22013460.140   115681505.92309  22013458.720    90141422.78648
  22476176.740   118113113.95209  22476175.580    92036185.83747
  20518157.700   107823657.29609  20518153.620    84018417.98049
  24378180.380   128108207.17808  24378180.640    99824574.28445
  23807101.020   125107125.33908  23807101.340    97486062.13745
 15 02 15 08 43  0.0000000  0 11G01G03G04G06G09G11G17G20G23G31G32
  21418713.260   112556080.29209  21418715.520    87706034.96348
  20841842.860   109524618.86409  20841843.900    85343858.15548
  23844434.300   125303306.31808  23844435.760    97638924.28046
  23587761.900   123954538.18408  23587765.040    96587959.64447
  21518573.460   113080882.11509  21518575.260    88114982.78448
  23232012.360   122085016.07708  23232012.300    95131161.65546
  22015739.020   115693481.75509  22015737.720    90150754.56448
  22463149.860   118044657.57908  22463148.700    91982843.21147
  20514891.600   107806494.39309  20514887.640    84005044.28349
  24387838.740   128158961.34009  24387838.740    99864122.95245
  23821740.120   125184054.68908  23821740.720    97546007.00746
 15 02 15 08 43 30.0000000  0 11G01G03G04G06G09G11G17G20G23G31G32
  21431139.000   112621378.00709  21431141.240    87756916.26548
  20846922.060   109551310.69709  20846923.160    85364656.96048
  23863398.900   125402966.01108  23863400.820    97716581.01846
  23569215.820   123857078.31408  23569219.060    96512016.97347
  21504791.440   113008455.59509  21504792.940    88058546.55148
  23252143.020   122190803.43609  23252143.100    95213593.24446
  22018125.680   115706023.87509  22018124.420    90160527.60848
  22450146.300   117976323.67608  22450145.220    91929596.05047
  20511714.400   107789798.68809  20511710.580    83992034.63249
  24397590.420   128210205.79809  24397590.060    99904053.67745
  23836381.540   125260995.96708  23836382.320    97605961.18745
 15 02 15 08 44  0.0000000  0 11G01G03G04G06G09G11G17G20G23G31G32
  21443636.660   112687053.51909  21443638.900    87808091.94248
  20852037.000   109578190.10109  20852038.160    85385601.90748
  23882395.200   125502792.19608  23882397.060    97794367.51145
  23550688.240   123759715.44208  23550691.380    96436149.83746
  21491083.280   112936417.83509  21491084.540    88002413.23948
  23272306.820   122296764.26609  23272306.940    95296160.00646
  22020619.580   115719129.13209  22020618.260    90170739.44948
  22437165.700   117908110.24908  22437164.500    91876442.72347
  20508625.660   107773567.37309  20508621.880    83979386.83849
  24407434.700   128261936.56909  24407434.120    99944363.34146
  23851024.800   125337946.67108  23851025.360    97665922.73146
 15 02 15 08 44 30.0000000  0 11G01G03G04G06G09G11G17G20G23G31G32
  21456205.860   112753105.04509  21456208.200    87859560.62948
  20857187.460   109605255.92009  20857188.700    85406692.10848
  23901422.820   125602782.59108  23901424.760    97872281.97746
  23532179.320   123662450.67908  23532182.480    96360359.18247
  21477449.000   112864769.11809  21477450.200    87946583.07848
  23292503.160   122402895.63009  23292503.200    95378859.65346
  22023220.320   115732795.81309  22023218.960    90181388.75848
  22424208.000   117840016.95509  22424206.760    91823383.04446
  20505625.200   107757799.52109  20505621.360    83967100.18449
  24417371.020   128314151.32208  24417370.620    99985050.12846
  23865669.460   125414905.67708  23865670.080    97725890.73146
 15 02 15 08 45  0.0000000  0 11G01G03G04G06G09G11G17G20G23G31G32
  21468847.260   112819535.87209  21468849.700    87911324.88548
  20862374.220   109632512.02309  20862375.460    85427930.58748
  23920482.160   125702939.83608  23920484.240    97950326.43245
  23513690.280   123565290.31308  23513693.340    96284649.86547
  21463889.760   112793514.71809  21463890.900    87891060.18148
  23312732.300   122509199.46609  23312732.200    95461693.68646
  22025928.420   115747026.67509  22025927.060    90192477.69648
  22411274.020   117772047.95809  22411272.620    91770420.20047
  20502713.660   107742498.98109  20502709.780    83955177.67549
  24427399.860   128366852.87208  24427399.600   100026116.21546
  23880316.540   125491876.74908  23880317.380    97785868.13646
 15 02 15 08 45 30.0000000  0 11G01G03G04G06G09G11G17G20G23G31G32
  21481559.960   112886341.50909  21481562.460    87963381.19848
  20867596.500   109659954.56209  20867597.600    85449314.34448
  23939572.460   125803258.81808  23939574.960    98028496.91845
  23495220.840   123468232.76908  23495223.900    96209020.66947
  21450405.080   112722652.18309  21450406.120    87835842.63648
  23332993.080   122615669.88209  23332992.960    95544657.53046
  22028743.020   115761817.48209  22028741.760    90204002.95548
  22398363.040   117704199.95609  22398361.480    91717551.64747
  20499890.200   107727661.43509  20499886.260    83943615.93249
  24437520.060   128420035.96108  24437520.220   100067557.48846
  23894965.320   125568855.92508  23894966.440    97845851.85446
 15 02 15 08 46  0.0000000  0 11G01G03G04G06G09G11G17G20G23G31G32
  21494344.160   112953522.77009  21494346.600    88015730.20148
  20872854.480   109687585.01309  20872855.480    85470844.51748
  23958693.640   125903739.88908  23958696.100    98106793.75246
  23476771.660   123371281.89208  23476774.780    96133474.60547
  21436995.440   112652184.34109  21436996.380    87780932.64048
  23353285.500   122722306.80708  23353285.260    95627751.13746
  22031664.380   115777169.09109  22031663.160    90215965.19948
  22385475.360   117636474.93509  22385473.800    91664778.91847
  20497155.180   107713288.67409  20497151.240    83932416.36249
  24447731.960   128473700.88008  24447732.460   100109374.23046
  23909615.660   125645844.84508  23909617.320    97905843.11446
 15 02 15 08 46 30.0000000  0 11G01G03G04G06G09G11G17G20G23G31G32
  21507199.800   113021079.29909  21507202.180    88068371.62148
  20878148.240   109715403.71209  20878149.180    85492521.37048
  23977845.340   126004381.91908  23977847.820    98185215.96146
  23458343.240   123274440.33008  23458346.380    96058013.70147
  21423661.240   112582112.88109  21423662.100    87726331.51248
  23373609.140   122829108.31109  23373608.980    95710972.97046
  22034692.360   115793080.96509  22034691.180    90228364.01548
  22372611.240   117568873.45209  22372609.660    91612102.46447
  20494508.580   107699380.30809  20494504.560    83921578.65449
  24458035.380   128527846.09408  24458035.920   100151565.22546
  23924267.740   125722843.65608  23924269.880    97965842.05546
 15 02 15 08 47  0.0000000  0 11G01G03G04G06G09G11G17G20G23G31G32
  21520126.080   113089007.09909  21520128.440    88121302.34348
  20883477.180   109743407.34709  20883478.160    85514342.33148
  23997026.760   126105180.51408  23997028.940    98263760.19745
  23439935.520   123177707.10308  23439938.720    95982637.22247
  21410402.140   112512435.84809  21410402.920    87672037.73248
  23393963.040   122936069.01909  23393963.020    95794318.86846
  22037826.040   115809548.74909  22037824.980    90241196.00548
  22359770.140   117501393.03509  22359768.600    91559520.33347
  20491949.680   107685933.12209  20491945.640    83911100.31949
  24468429.360   128582467.04807  24468430.060   100194126.94046
  23938921.600   125799848.90209  23938923.540    98025846.09946
 15 02 15 08 47 30.0000000  0 11G01G03G04G06G09G11G17G20G23G31G32
  21533123.180   113157307.05809  21533125.560    88174523.07048
  20888841.580   109771597.48809  20888842.620    85536308.62648
  24016238.100   126206135.83908  24016240.200    98342426.54045
  23421549.120   123081086.16608  23421552.280    95907348.22547
  21397218.580   112443156.11909  21397219.340    87618053.54148
  23414347.320   123043189.00208  23414347.420    95877788.85946
  22041065.620   115826573.08009  22041064.640    90254461.67048
  22346952.400   117434035.94809  22346951.080    91507034.30947
  20489478.760   107672948.35009  20489474.740    83900982.30049
  24478913.860   128637564.31307  24478914.640   100237059.76445
  23953577.240   125876862.21108  23953578.640    98085856.42545
 15 02 15 08 48  0.0000000  0 11G01G03G04G06G09G11G17G20G23G31G32
  21546190.940   113225978.32709  21546193.320    88228033.11548
  20894241.480   109799974.06009  20894242.560    85558420.18048
  24035478.920   126307246.54408  24035481.040    98421213.96545
  23403184.460   122984579.74908  23403187.800    95832148.46947
  21384110.860   112374274.89909  21384111.620    87564379.86448
  23434761.440   123150465.44008  23434761.700    95961380.77946
  22044410.980   115844153.07809  22044410.000    90268160.31548
  22334158.160   117366802.34109  22334156.960    91454644.50647
  20487095.760   107660425.71609  20487091.800    83891224.38949
  24489488.600   128693135.90308  24489489.640   100280362.17146
  23968234.060   125953883.47108  23968235.040    98145872.91845
 15 02 15 08 48 30.0000000  0 11G01G03G04G06G09G11G17G20G23G31G32
  21559329.600   113295022.32209  21559331.940    88281833.59848
  20899677.260   109828539.14009  20899678.340    85580678.64348
  24054749.380   126408513.48208  24054751.640    98500123.13245
  23384842.520   122888192.34308  23384845.760    95757041.43647
  21371079.520   112305795.55909  21371080.400    87511019.36248
  23455205.560   123257898.99908  23455205.880    96045095.13046
  22047862.420   115862290.17409  22047861.360    90282293.07048
  22321387.920   117299694.79908  22321386.860    91402352.92247
  20484801.120   107648367.11709  20484797.180    83881828.08149
  24500154.080   128749182.54608  24500155.120   100324034.82046
  23982892.500   126030914.79208  23982893.540    98205897.24845
 15 02 15 08 49  0.0000000  0 12G01G03G04G06G09G10G11G17G20G23G31G32
  21572537.740   113364431.49309  21572540.080    88335918.63548
  20905147.640   109857286.03109  20905148.700    85603078.77348
  24074048.100   126509928.54608  24074050.540    98579147.71245
  23366522.380   122791919.52808  23366525.460    95682023.73846
  21358123.580   112237712.62009  21358124.600    87457967.74448
  24387164.180   128155400.33108  24387164.760    99861367.34245
  23475677.980   123365480.91808  23475678.160    96128925.08046
  22051418.360   115880976.74609  22051417.260    90296853.99648
  22308640.560   117232707.13109  22308639.560    91350154.73647
  20482593.440   107636765.27109  20482589.420    83872787.68349
  24510908.600   128805696.25908  24510909.380   100368071.44746
  23997551.720   126107949.26408  23997552.840    98265924.05846
 15 02 15 08 49 30.0000000  0 12G01G03G04G06G09G10G11G17G20G23G31G32
  21585815.360   113434206.31409  21585817.760    88390288.59948
  20910652.840   109886215.95509  20910653.960    85625621.52648
  24093375.040   126611491.73108  24093377.660    98658287.71146
  23348224.760   122695764.96208  23348227.820    95607098.14347
  21345243.560   112170028.61009  21345244.680    87405226.98148
  24370932.580   128070103.08908  24370933.140    99794901.96145
  23496178.420   123473210.28109  23496178.400    96212869.91246
  22055078.860   115900212.89609  22055077.820    90311843.16148
  22295916.500   117165841.28709  22295915.460    91298051.49847
  20480472.880   107625621.27209  20480468.800    83864104.04949
  24521751.940   128862676.72408  24521752.440   100412471.77446
  24012211.820   126184988.06308  24012213.080    98325954.16846
 15 02 15 08 50  0.0000000  0 12G01G03G04G06G09G10G11G17G20G23G31G32
  21599163.600   113504352.30109  21599166.080    88444947.76948
  20916194.160   109915335.23909  20916195.260    85648311.82448
  24112731.140   126713207.98008  24112733.380    98737546.99245
  23329951.300   122599737.26608  23329954.260    95532271.39647
  21332440.900   112102751.01309  21332442.220    87352802.89448
  24354714.380   127984875.90208  24354715.300    99728491.20045
  23516707.640   123581091.41308  23516707.540    96296932.98146
  22058844.960   115920003.79809  22058844.000    90327264.58648
  22283216.900   117099103.95509  22283215.740    91246048.36647
  20478440.560   107614941.25809  20478436.480    83855781.96349
  24532684.780   128920128.25108  24532685.160   100457239.13846
  24026873.840   126262037.56908  24026875.000    98385992.60345
 15 02 15 08 50 30.0000000  0 12G01G03G04G06G09G10G11G17G20G23G31G32
  21612582.600   113574869.51209  21612585.060    88499896.20448
  20921771.640   109944644.67109  20921772.660    85671150.30248
  24132116.240   126815076.82608  24132118.580    98816925.14545
  23311702.540   122503839.63208  23311705.440    95457546.02047
  21319716.140   112035881.86309  21319717.500    87300697.08048
  24338509.560   127899720.03307  24338510.780    99662136.03744
  23537265.580   123689123.80208  23537265.440    96381113.94946
  22062716.680   115940349.28009  22062715.680    90343118.17148
  22270541.920   117032496.47809  22270540.740    91194146.44547
  20476496.480   107604725.41109  20476492.440    83847821.56949
  24543707.140   128978050.83108  24543707.540   100502373.58146
  24041538.180   126339098.65708  24041538.880    98446040.11245
 15 02 15 08 51  0.0000000  0 12G01G03G04G06G09G10G11G17G20G23G31G32
  21626070.500   113645748.52109  21626072.940    88555126.57648
  20927383.680   109974135.74109  20927384.640    85694130.32548
  24151528.600   126917088.38908  24151530.820    98896414.54145
  23293477.320   122408065.90708  23293480.200    95382917.18847
  21307067.780   111969413.80009  21307069.080    87248903.80448
  24322316.920   127814627.52507  24322317.980    99595830.18844
  23557850.140   123797296.25308  23557849.940    96465404.03746
  22066692.080   115961239.84809  22066691.060    90359396.49348
  22257890.020   116966010.84909  22257888.920    91142339.45247
  20474639.060   107594964.94809  20474635.060    83840216.01949
  24554817.180   129036434.24108  24554817.560   100547867.11546
  24056203.100   126416162.55408  24056203.540    98506089.79945
 15 02 15 08 51 30.0000000  0 12G01G03G04G06G09G10G11G17G20G23G31G32
  21639628.160   113716994.11409  21639630.620    88610642.57548
  20933031.280   110003814.01609  20933032.280    85717256.23248
  24170968.760   127019246.91708  24170971.380    98976018.40545
  23275277.180   122312424.03508  23275280.040    95308391.09547
  21294497.040   111903353.56809  21294498.280    87197428.32448
  24306137.240   127729604.30107  24306137.740    99529578.40044
  23578462.000   123905612.52908  23578461.820    96549806.20946
  22070772.080   115982679.89909  22070770.980    90376102.97348
  22245262.540   116899653.07209  22245261.440    91090632.10847
  20472869.320   107585665.05609  20472865.320    83832969.35849
  24566015.620   129095282.18308  24566015.840   100593722.64246
  24070869.520   126493234.91208  24070870.100    98566146.07146
 15 02 15 08 52  0.0000000  0 12G01G03G04G06G09G10G11G17G20G23G31G32
  21653254.780   113788602.06009  21653257.200    88666440.94648
  20938713.820   110033676.23609  20938714.940    85740525.46148
  24190435.920   127121547.76208  24190438.680    99055733.20345
  23257102.080   122216913.13208  23257104.860    95233967.03347
  21282003.580   111837699.02609  21282004.700    87146268.96148
  24289970.380   127644647.43507  24289970.320    99463378.26344
  23599100.280   124014067.29908  23599100.240    96634316.29746
  22074955.820   116004665.06809  22074954.600    90393234.23448
  22232658.900   116833420.42409  22232657.760    91039022.24947
  20471186.540   107576821.95609  20471182.520    83826078.63349
  24577301.560   129154589.60408  24577301.600   100639936.18645
  24085536.840   126570312.41908  24085538.140    98626206.33846
 15 02 15 08 52 30.0000000  0 12G01G03G04G06G09G10G11G17G20G23G31G32
  21666950.360   113860572.49809  21666952.760    88722521.77048
  20944431.560   110063723.28909  20944432.780    85763938.72448
  24209930.240   127223990.36708  24209933.060    99135558.49145
  23238952.540   122121536.43508  23238955.260    95159647.57047
  21269587.700   111772452.24609  21269588.660    87095427.33648
  24273816.320   127559758.39908  24273816.640    99397231.08144
  23619764.740   124122659.34409  23619764.860    96718933.34846
  22079243.300   116027195.45409  22079242.060    90410790.33148
  22220079.340   116767314.44209  22220078.180    90987511.10347
  20469590.840   107568436.29609  20469586.800    83819544.35949
  24588674.720   129214356.15208  24588674.740   100686507.49445
  24100205.360   126647395.84108  24100207.120    98686271.20146
 15 02 15 08 53  0.0000000  0 12G01G03G04G06G09G10G11G17G20G23G31G32
  21680714.980   113932906.09509  21680717.440    88778885.56548
  20950184.860   110093956.75609  20950186.060    85787497.25248
  24229451.520   127326575.13408  24229454.140    99215494.51345
  23220829.220   122026297.96908  23220831.960    95085435.83647
  21257249.940   111707615.92509  21257250.760    87044905.54448
  24257675.720   127474939.13608  24257676.640    99331138.21845
  23640455.360   124231388.45309  23640455.680    96803657.18946
  22083634.480   116050271.05609  22083633.320    90428771.29048
  22207524.300   116701337.20409  22207523.080    90936100.28947
  20468082.380   107560509.20409  20468078.340    83813367.40449
  24600135.140   129274581.76507  24600135.420   100733436.47145
  24114875.460   126724486.81508  24114877.260    98746341.94646
 15 02 15 08 53 30.0000000  0 12G01G03G04G06G09G10G11G17G20G23G31G32
  21694548.120   114005599.91509  21694550.700    88835530.06448
  20955973.320   110124374.66709  20955974.480    85811199.50048
  24248999.160   127429298.53308  24249002.220    99295538.52445
  23202732.300   121931198.12808  23202735.000    95011332.10247
  21244990.140   111643189.13509  21244990.760    86994702.86948
  24241548.020   127390187.97608  24241549.700    99265098.45645
  23661171.220   124340250.27808  23661171.820    96888484.45446
  22088128.780   116073888.75409  22088127.800    90447174.65448
  22194993.500   116635487.20009  22194992.160    90884788.62447
  20466660.740   107553038.09409  20466656.640    83807545.76449
  24611682.080   129335262.61606  24611682.760   100780720.17546
  24129546.720   126801583.36108  24129548.080    98806417.08945
 15 02 15 08 54  0.0000000  0 12G01G03G04G06G09G10G11G17G20G23G31G32
  21708449.180   114078650.74909  21708451.880    88892452.74848
  20961796.440   110154974.66809  20961797.560    85835043.63148
  24268572.640   127532156.66108  24268575.580    99375687.62545
  23184661.760   121836236.93908  23184664.460    94937336.41147
  21232807.940   111579170.61709  21232808.460    86944818.32648
  24225432.980   127305502.97207  24225434.540    99199110.20045
  23681911.520   124449240.49108  23681912.140    96973411.77946
  22092725.580   116098045.10909  22092724.700    90465997.74548
  22182486.520   116569762.53509  22182485.080    90833574.62847
  20465325.300   107546020.19909  20465321.140    83802077.28049
  24623314.940   129396394.61907  24623315.980   100828355.38045
  24144218.620   126878683.06608  24144219.420    98866494.68545
 15 02 15 08 54 30.0000000  0 12G01G03G04G06G09G10G11G17G20G23G31G32
  21722419.100   114152063.24309  21722421.860    88949657.23148
  20967655.200   110185762.40409  20967656.340    85859034.04548
  24288172.560   127635154.26108  24288175.640    99455945.31845
  23166619.180   121741422.46208  23166621.860    94863455.04047
  21220704.460   111515567.06509  21220705.080    86895257.13748
  24209331.480   127220890.13808  24209332.880    99133178.18944
  23702677.040   124558363.06609  23702677.720    97058442.21145
  22097425.680   116122744.38009  22097424.760    90485243.87948
  22170004.520   116504169.34809  22170003.060    90782463.06647
  20464077.120   107539460.74809  20464072.900    83796966.01449
  24635034.560   129457981.96408  24635036.000   100876345.43445
  24158892.120   126955791.46008  24158892.880    98926579.03345
 15 02 15 08 55  0.0000000  0 12G01G03G04G06G09G10G11G17G20G23G31G32
  21736456.800   114225831.47909  21736459.520    89007138.94148
  20973548.660   110216732.91609  20973549.840    85883166.89548
  24307797.640   127738284.50308  24307800.300    99536306.41945
  23148604.000   121646752.11508  23148606.760    94789685.98247
  21208679.000   111452374.56209  21208679.860    86846016.24048
  24193242.840   127136344.82807  24193244.040    99067298.78245
  23723466.400   124667610.83109  23723467.140    97143570.19446
  22102227.940   116147980.46109  22102227.000    90504908.32148
  22157546.640   116438703.17509  22157545.220    90731450.49247
  20462915.000   107533353.89509  20462910.780    83792207.42949
  24646839.700   129520017.85208  24646841.180   100924684.99945
  24173566.220   127032903.57208  24173567.220    98986666.27845
 15 02 15 08 55 30.0000000  0 12G01G03G04G06G09G10G11G17G20G23G31G32
  21750562.100   114299954.47909  21750564.620    89064897.08448
  20979476.860   110247886.18609  20979478.060    85907442.15348
  24327447.860   127841546.20708  24327450.500    99616769.90244
  23130616.620   121552228.23908  23130619.480    94716031.06047
  21196731.860   111389594.10109  21196733.060    86797096.41448
  24177167.400   127051867.40808  24177168.880    99001472.30945
  23744279.060   124776981.49608  23744279.740    97228793.95646
  22107132.060   116173751.83009  22107131.180    90524989.86848
  22145113.040   116373364.62009  22145111.660    90680537.37847
  20461838.980   107527699.38509  20461834.720    83787801.31549
  24658729.860   129582500.35008  24658730.940   100973372.60345
  24188240.940   127110019.47808  24188242.120    99046756.47045
 15 02 15 08 56  0.0000000  0 12G01G03G04G06G09G10G11G17G20G23G31G32
  21764735.720   114374436.69309  21764738.080    89122935.13648
  20985440.940   110279227.64009  20985442.160    85931864.05648
  24347123.760   127944943.40208  24347126.300    99697338.99045
  23112658.600   121457858.72008  23112661.560    94642496.42747
  21184864.420   111327232.11709  21184865.940    86748502.66948
  24161105.740   126967463.75108  24161107.260    98935703.31844
  23765115.600   124886478.41808  23765116.420    97314116.10245
  22112138.820   116200062.71009  22112138.040    90545491.81248
  22132704.880   116308159.67309  22132703.580    90629728.37347
  20460850.000   107522502.17609  20460845.680    83783751.53849
  24670705.820   129645433.12608  24670706.460   101022411.07245
  24202917.180   127187144.41308  24202918.400    99106853.68045
 15 02 15 08 56 30.0000000  0 11G01G03G04G06G09G10G11G17G20G23G32
  21778975.600   114449267.53609  21778977.920    89181244.83748
  20991439.020   110310747.71309  20991440.220    85956425.13948
  24366823.200   128048464.82108  24366826.140    99778004.81945
  23094728.640   121363636.34108  23094731.560    94569076.42247
  21173075.040   111265279.97309  21173076.780    86700228.27948
  24145056.400   126883124.84307  24145057.260    98869984.65344
  23785973.920   124996089.88408  23785974.640    97399527.51346
  22117246.220   116226902.31009  22117245.520    90566405.75548
  22120320.480   116243079.14809  22120319.160    90579016.30747
  20459946.100   107517752.09709  20459941.780    83780050.16549
  24217593.460   127264268.77708  24217594.560    99166950.47645
 15 02 15 08 57  0.0000000  0 11G01G03G04G06G09G10G11G17G20G23G32
  21793282.540   114524451.06809  21793284.960    89239829.35648
  20997472.060   110342451.47609  20997473.260    85981129.35648
  24386547.360   128152114.24708  24386549.900    99858770.55545
  23076828.140   121269568.62908  23076830.920    94495776.95147
  21161364.960   111203743.76809  21161366.720    86652278.00448
  24129020.660   126798856.29208  24129021.780    98804320.86045
  23806854.720   125105819.58908  23806855.420    97485031.03446
  22122454.940   116254274.37609  22122454.280    90587734.59948
  22107960.840   116178128.43909  22107959.520    90528405.38947
  20459128.040   107513453.28309  20459123.740    83776700.43049
  24232270.740   127341397.68908  24232271.940    99227050.83145
 15 02 15 08 57 30.0000000  0 11G01G03G04G06G09G10G11G17G20G23G32
  21807657.360   114599991.66709  21807659.920    89298692.12148
  21003541.120   110374344.34409  21003542.320    86005980.91948
  24406296.660   128255895.81708  24406299.260    99939639.13845
  23058958.560   121175663.37308  23058961.240    94422604.07047
  21149735.460   111142629.87009  21149737.120    86604656.79548
  24112999.240   126714663.58008  24113000.980    98738716.23344
  23827758.700   125215670.63508  23827759.280    97570629.10845
  22127765.660   116282182.52909  22127765.040    90609481.16148
  22095627.100   116113314.04309  22095625.760    90477900.71247
  20458396.840   107509610.90409  20458392.580    83773706.35849
  24246949.780   127418536.55208  24246951.340    99287158.91746
 15 02 15 08 58  0.0000000  0 11G01G03G04G06G09G10G11G17G20G23G32
  21822098.280   114675879.16109  21822100.880    89357825.18948
  21009644.460   110406417.19509  21009645.680    86030972.72048
  24426068.940   128359798.62808  24426071.340   100020602.26945
  23041118.600   121081913.91608  23041121.260    94349552.57447
  21138184.900   111081930.03809  21138186.420    86557358.23148
  24096990.520   126630537.83207  24096991.980    98673163.68644
  23848683.720   125325631.56908  23848684.160    97656312.81245
  22133176.400   116310616.28609  22133175.700    90631637.29248
  22083317.560   116048626.87909  22083316.200    90427495.16447
  20457750.580   107506214.74509  20457746.320    83771059.98249
  24261628.900   127495676.16808  24261630.600    99347267.55845
 15 02 15 08 58 30.0000000  0 11G01G03G04G06G09G10G11G17G20G23G32
  21836605.980   114752116.97709  21836608.500    89417231.22648
  21015782.820   110438674.55209  21015784.060    86056108.30048
  24445865.020   128463825.93008  24445867.500   100101662.36044
  23023309.560   120988327.11008  23023312.240    94276627.84147
  21126714.220   111021649.69509  21126715.600    86510386.55349
  24080995.540   126546484.14407  24080996.840    98607667.32845
  23869630.140   125435704.81908  23869630.600    97742084.06346
  22138687.820   116339578.67309  22138687.000    90654205.35548
  22071033.100   115984071.83709  22071031.700    90377192.56547
  20457190.120   107503269.43709  20457185.840    83768764.92649
  24276309.120   127572821.03008  24276310.900    99407380.31245
 15 02 15 08 59  0.0000000  0 11G01G03G04G06G09G10G11G17G20G23G32
  21851180.340   114828705.07809  21851182.760    89476910.22048
  21021956.460   110471117.49109  21021957.760    86081388.48448
  24465684.340   128567977.39908  24465686.920   100182819.19145
  23005532.180   120894906.49708  23005534.900    94203832.57947
  21115323.800   110961790.81009  21115325.000    86463743.26048
  24065014.420   126462503.85808  24065016.460    98542228.25745
  23890597.740   125545889.52308  23890598.220    97827942.14945
  22144299.800   116369069.37209  22144298.940    90677185.07348
  22058774.160   115919650.73309  22058772.720    90326994.30847
  20456715.460   107500774.91409  20456711.200    83766821.11349
  24290990.580   127649972.14508  24290992.440    99467497.94546
 15 02 15 08 59 30.0000000  0 11G01G03G04G06G09G10G11G17G20G23G32
  21865820.160   114905637.80909  21865822.540    89536857.74448
  21028164.540   110503741.40509  21028165.900    86106809.68348
  24485526.120   128672246.77008  24485528.880   100264067.87345
  22987786.080   120801649.82108  22987788.740    94131165.06347
  21104012.800   110902349.62209  21104013.740    86417425.45348
  24049046.560   126378592.78708  24049048.300    98476843.00245
  23911585.180   125656178.80708  23911585.900    97913881.67545
  22150011.180   116399082.42809  22150010.300    90700571.82748
  22046539.920   115855359.61209  22046538.620    90276897.35647
  20456325.520   107498725.86009  20456321.300    83765224.42549
  24305672.480   127727125.03008  24305674.420    99527616.94446
 15 02 15 09 00  0.0000000  0 11G01G03G04G06G09G10G11G17G20G23G32
  21880525.520   114982915.78609  21880528.100    89597074.30048
  21034407.460   110536548.08209  21034408.820    86132373.30148
  24505390.480   128776634.47608  24505392.800   100345408.87545
  22970071.980   120708561.41808  22970074.600    94058628.69547
  21092781.560   110843328.79209  21092782.380    86371435.20848
  24033092.580   126294753.12107  24033094.200    98411513.36644
  23932592.520   125766572.48808  23932593.440    97999902.57146
  22155822.000   116429617.91509  22155821.060    90724365.67848
  22034330.800   115791200.30609  22034329.500    90226903.11647
  20456020.500   107497123.23909  20456016.360    83763975.61049
  24320354.960   127804281.30808  24320356.940    99587738.58645
 15 02 15 09 00 30.0000000  0 11G01G03G04G06G09G10G11G17G20G23G32
  21895296.740   115060540.03809  21895299.600    89657560.68148
  21040685.600   110569539.64409  21040686.860    86158080.97048
  24525277.320   128881140.99008  24525280.160   100426842.31645
  22952390.720   120615645.72308  22952393.240    93986226.88147
  21081630.600   110784731.26009  21081631.560    86325774.79248
  24017152.640   126210987.29308  24017154.420    98346241.38245
  23953619.780   125877070.64208  23953620.840    98086004.92846
  22161732.300   116460676.32309  22161731.300    90748566.99248
  22022147.400   115727175.85709  22022145.920    90177013.93947
  20455800.680   107495968.42409  20455796.620    83763075.72749
  24335038.380   127881443.08808  24335040.300    99647864.51944
 15 02 15 09 01  0.0000000  0 11G01G03G04G06G09G10G11G17G20G23G32
  21910133.020   115138505.77309  21910136.160    89718313.11948
  21046998.260   110602712.45809  21046999.440    86183929.87348
  24545185.940   128985761.30008  24545188.680   100508364.51045
  22934742.040   120522901.55908  22934744.580    93913958.73247
  21070559.500   110726554.17909  21070560.840    86280441.99748
  24001225.900   126127292.10608  24001227.480    98281024.45045
  23974665.780   125987667.42708  23974667.040    98172184.08645
  22167741.100   116492252.44909  22167740.040    90773171.71048
  22009989.000   115663283.06609  22009987.420    90127227.34247
  20455665.340   107495257.33409  20455661.300    83762521.59849
  24349722.180   127958606.69208  24349724.040    99707991.91045
 15 02 15 09 01 30.0000000  0 11G01G03G04G06G09G10G11G17G20G23G32
  21925034.920   115216815.51009  21925038.120    89779333.63748
  21053346.140   110636070.20909  21053347.220    86209922.88548
  24565116.760   129090497.51208  24565119.680   100589976.99444
  22917127.120   120430335.02408  22917129.720    93841828.99147
  21059569.320   110668802.05609  21059570.980    86235440.34549
  23985313.480   126043671.62007  23985314.880    98215865.68545
  23995730.800   126098364.66008  23995732.280    98258441.50445
  22173848.920   116524348.38709  22173847.760    90798181.48348
  21997856.400   115599526.29309  21997854.880    90077546.74647
  20455615.040   107494992.90909  20455611.000    83762315.52249
  24364406.940   128035775.72108  24364408.740    99768123.50745
 15 02 15 09 02  0.0000000  0 11G01G03G04G06G09G10G11G17G20G23G32
  21940001.660   115295465.34509  21940004.720    89840619.17148
  21059728.760   110669610.21209  21059729.620    86236057.92048
  24585068.760   129195345.50708  24585071.380   100671676.60944
  22899545.940   120337945.88008  22899548.720    93769837.46547
  21048659.760   110611472.95109  21048661.580    86190768.33249
  23969414.820   125960123.58407  23969416.360    98150763.37545
  24016814.080   126209157.39008  24016815.340    98344773.38145
  22180054.720   116556959.59009  22180053.520    90823592.76448
  21985749.200   115535902.92409  21985747.780    90027970.09947
  20455649.040   107495171.44309  20455645.020    83762454.61349
  24379092.200   128112947.59607  24379093.920    99828257.35544
 15 02 15 09 02 30.0000000  0 11G01G03G04G06G09G10G11G17G20G23G32
  21955033.480   115374456.99409  21955036.380    89902171.05648
  21066146.600   110703335.32209  21066147.320    86262337.18748
  24605042.340   129300306.57208  24605045.220   100753464.30245
  22881999.580   120245739.42208  22882002.360    93697988.31847
  21037831.520   110554570.53609  21037833.300    86146428.79449
  23953530.520   125876651.20308  23953531.440    98085720.01245
  24037915.640   126320046.29008  24037916.800    98431180.19945
  22186358.700   116590087.33809  22186357.600    90849406.55048
  21973668.080   115472416.64909  21973666.760    89978500.28247
  20455767.760   107495795.12109  20455763.760    83762940.57349
  24393778.280   128190125.07807  24393780.260    99888395.55044
 15 02 15 09 03  0.0000000  0 11G01G03G04G06G09G10G11G17G20G23G32
  21970129.460   115453785.54909  21970132.200    89963985.44748
  21072598.860   110737241.86709  21072599.560    86288757.83148
  24625036.360   129405375.27808  24625039.420   100835335.87045
  22864487.760   120153714.33908  22864490.520    93626280.49247
  21027084.060   110498091.77509  21027085.700    86102419.37549
  23937659.920   125793251.21508  23937661.000    98020733.13345
  24059034.420   126431025.60708  24059035.680    98517657.39145
  22192759.960   116623726.42109  22192759.020    90875618.79148
  21961612.460   115409064.32409  21961611.160    89929134.82247
  20455970.340   107496859.37609  20455966.360    83763769.83449
  24408464.920   128267304.47808  24408467.120    99948535.23245
 15 02 15 09 03 30.0000000  0 11G01G03G04G06G09G10G11G17G20G23G32
  21985289.660   115533452.14409  21985292.400    90026063.25648
  21079085.960   110771332.20709  21079086.820    86315321.69948
  24645050.980   129510552.60308  24645054.500   100917292.04945
  22847011.400   120061875.53408  22847014.120    93554717.82147
  21016418.000   110442039.79009  21016419.320    86058742.51948
  23921803.540   125709926.12507  23921804.740    97955804.55745
  24080170.520   126542095.55908  24080171.480    98604205.28846
  22199258.680   116657877.46709  22199257.900    90902229.95348
  21949582.860   115345848.68309  21949581.600    89879875.87747
  20456257.140   107498365.98409  20456253.120    83764943.80749
  24423152.700   128344488.03208  24423155.000   100008678.14546
 15 02 15 09 04  0.0000000  0 11G01G03G04G06G09G10G11G17G20G23G32
  22000512.640   115613449.48609  22000515.460    90088398.76348
  21085606.880   110805600.26509  21085607.960    86342024.04548
  24665084.960   129615831.18808  24665088.040   100999327.22144
  22829569.860   119970219.27108  22829572.460    93483297.37547
  21005832.200   110386409.18309  21005833.120    86015394.00449
  23905960.520   125626670.25608  23905961.620    97890929.88345
  24101322.300   126653248.03508  24101323.000    98690817.46045
  22205853.420   116692532.41309  22205852.660    90929233.75048
  21937578.260   115282764.12909  21937577.060    89830719.08247
  20456626.700   107500307.67509  20456622.640    83766456.80049
  24437840.420   128421669.64408  24437842.700   100068819.53246
 15 02 15 09 04 30.0000000  0 11G01G03G04G06G09G10G11G17G20G23G32
  22015799.660   115693783.84609  22015802.540    90150996.90948
  21092163.100   110840053.57509  21092164.400    86368870.74848
  24685139.160   129721216.50208  24685142.640   101081445.43945
  22812164.960   119878755.62808  22812167.420    93412027.01648
  20995328.040   110331208.19109  20995328.720    85972380.27149
  23890132.180   125543491.27208  23890133.040    97826115.10445
  24122490.820   126764488.76008  24122491.660    98777498.36846
  22212545.120   116727697.04209  22212544.300    90956634.70648
  21925600.300   115219818.95709  21925599.040    89781670.88947
  20457080.360   107502691.43609  20457076.220    83768314.27049
  24452529.160   128498856.83008  24452531.220   100128965.27846
 15 02 15 09 05  0.0000000  0 11G01G03G04G06G09G10G11G17G20G23G32
  22031150.480   115774453.14709  22031153.360    90213856.05148
  21098754.480   110874691.35909  21098755.820    86395861.18948
  24705213.400   129826706.42808  24705216.780   101163645.24544
  22794796.960   119787486.17808  22794799.400    93340907.99847
  20984905.460   110276436.64609  20984906.040    85929701.16949
  23874318.460   125460388.95508  23874319.260    97761360.09945
  24143675.580   126875814.58208  24143676.480    98864245.61446
  22219333.300   116763368.86409  22219332.340    90984430.87848
  21913648.720   115157012.54709  21913647.460    89732730.82347
  20457617.720   107505515.31809  20457613.600    83770514.70249
  24467218.620   128576048.84708  24467220.560   100189114.78545
 15 02 15 09 05 30.0000000  0 11G01G03G04G06G09G10G11G17G20G23G32
  22046564.560   115855454.34709  22046567.360    90276973.78848
  21105380.520   110909511.83109  21105381.920    86422993.97748
  24725306.780   129932297.86808  24725310.180   101245924.09544
  22777466.000   119696411.58608  22777468.460    93269940.81147
  20974564.240   110222093.42609  20974564.940    85887355.82549
  23858519.000   125377361.89408  23858519.880    97696663.73545
  24164875.700   126987221.18908  24164876.580    98951055.77745
  22226217.320   116799544.34709  22226216.280    91012619.49848
  21901723.280   115094343.71109  21901721.940    89683897.97447
  20458238.300   107508776.70109  20458234.260    83773056.03949
  24481908.340   128653243.86807  24481910.480   100249266.59845
 15 02 15 09 06  0.0000000  0 11G01G03G04G06G09G10G11G17G20G23G32
  22062041.520   115936785.13909  22062044.140    90340348.37348
  21112041.080   110944514.05809  21112042.540    86450268.39448
  24745419.180   130037987.90108  24745422.060   101328279.86044
  22760172.360   119605533.34909  22760174.940    93199126.64147
  20964304.400   110168178.17809  20964305.320    85845343.97049
  23842733.780   125294409.65808  23842734.240    97632025.62945
  24186090.720   127098705.77308  24186091.420    99037926.76145
  22233196.700   116836220.63509  22233195.620    91041198.35848
  21889823.900   115031812.13909  21889822.480    89635172.07847
  20458941.780   107512473.78909  20458937.860    83775936.88749
  24496598.200   128730440.84607  24496600.420   100309419.93245
 15 02 15 09 06 30.0000000  0 11G01G03G04G06G09G10G11G17G20G23G32
  22077581.140   116018445.05009  22077583.580    90403979.42048
  21118736.420   110979698.79909  21118737.940    86477685.02948
  24765550.420   130143776.11608  24765553.380   101410712.04745
  22742916.740   119514854.70609  22742919.380    93128467.97947
  20954126.160   110114692.31909  20954127.380    85803666.69249
  23826963.000   125211533.24508  23826962.920    97567446.57145
  24207320.300   127210267.22808  24207321.160    99124857.58345
  22240271.080   116873396.39309  22240270.000    91070166.41648
  21877950.960   114969419.48909  21877949.540    89586554.43547
  20459728.200   107516606.52509  20459724.280    83779157.20749
  24511288.600   128807640.61408  24511290.800   100369575.46444
 15 02 15 09 07  0.0000000  0 11G01G03G04G06G09G10G11G17G20G23G32
  22093183.100   116100433.04409  22093185.480    90467866.10748
  21125466.640   111015066.35209  21125468.280    86505244.13148
  24785699.800   130249660.92708  24785702.760   101493219.48944
  22725699.640   119424378.40808  22725702.280    93057967.00047
  20944029.820   110061636.72209  20944031.260    85762324.70549
  23811206.520   125128733.02007  23811206.820    97502926.98545
  24228564.100   127321903.57808  24228565.140    99211846.81545
  22247440.180   116911070.13609  22247439.080    91099522.52648
  21866104.480   114907165.94209  21866103.120    89538045.20747
  20460597.460   107521174.19209  20460593.460    83782716.44449
  24525979.900   128884843.32608  24525982.220   100429733.30945
 15 02 15 09 07 30.0000000  0 12G01G03G04G06G07G09G10G11G17G20G23G32
  22108846.980   116182747.59709  22108849.540    90532007.25348
  21132231.640   111050616.56409  21132233.340    86532945.54448
  24805867.420   130355640.63308  24805870.160   101575800.95745
  22708521.500   119334106.70508  22708524.080    92987625.44847
  24671719.260   129650756.71008  24671722.300   101026577.59555
  20934015.460   110009011.74309  20934017.000    85721318.24249
  23795464.600   125046009.45308  23795465.480    97438467.12145
  24249821.620   127433612.46808  24249822.780    99298892.54645
  22254703.540   116949239.81309  22254702.500    91129265.05648
  21854284.540   114845051.90909  21854283.200    89489644.68247
  20461549.280   107526175.57409  20461545.160    83786613.63349
  24540671.900   128962048.92208  24540674.140   100489893.42445
 15 02 15 09 08  0.0000000  0 12G01G03G04G06G07G09G10G11G17G20G23G32
  22124573.080   116265389.59309  22124575.920    90596403.55648
  21139031.900   111086351.64609  21139033.580    86560791.02548
  24826053.080   130461715.86508  24826055.740   101658456.80244
  22691383.180   119244044.30209  22691385.700    92917446.97447
  24652391.740   129549188.09708  24652394.740   100947433.43445
  20924083.580   109956820.17109  20924085.160    85680649.50949
  23779737.660   124963365.13608  23779739.260    97374069.05745
  24271092.920   127545393.86508  24271094.280    99385994.75545
  22262061.280   116987905.64409  22262060.340    91159394.20548
  21842491.740   114783080.31909  21842490.400    89441355.14947
  20462583.840   107531611.81909  20462579.600    83790849.67649
  24555364.900   129039259.51608  24555367.320   100550057.37746
 15 02 15 09 08 30.0000000  0 12G01G03G04G06G07G09G10G11G17G20G23G32
  22140360.840   116348355.40709  22140363.740    90661052.17148
  21145866.960   111122269.39009  21145868.500    86588778.83748
  24846255.960   130567882.81608  24846259.060   101741184.11445
  22674284.700   119154191.40908  22674287.160    92847431.75848
  24633049.860   129447545.97908  24633053.060   100868232.00245
  20914234.000   109905060.30709  20914235.480    85640317.17749
  23764025.460   124880798.16608  23764027.380    97309731.16944
  24292377.220   127657243.47908  24292378.780    99473150.14345
  22269512.760   117027063.57809  22269511.840    91189906.81748
  21830725.800   114721249.53709  21830724.300    89393175.35947
  20463700.520   107537479.94409  20463696.260    83795422.24949
  24570058.280   129116472.84808  24570060.820   100610223.47345
 15 02 15 09 09  0.0000000  0 12G01G03G04G06G07G09G10G11G17G20G23G32
  22156209.560   116431640.94009  22156212.380    90725949.92848
  21152736.320   111158367.03009  21152737.660    86616906.82948
  24866475.480   130674136.84208  24866479.220   101823979.28145
  22657226.020   119064547.71408  22657228.480    92777579.55247
  24613693.720   129345829.92708  24613697.020   100788972.93445
  20904466.300   109853729.87209  20904467.520    85600319.45048
  23748327.720   124798306.22208  23748329.400    97245451.74845
  24313673.620   127769156.54608  24313675.220    99560354.96445
  22277057.000   117066708.77409  22277056.200    91220799.09848
  21818986.220   114659557.18109  21818984.620    89345103.40947
  20464898.640   107543776.22009  20464894.420    83800328.43649
  24584751.420   129193686.18808  24584754.280   100670389.51544
 15 02 15 09 09 30.0000000  0 12G01G03G04G06G07G09G10G11G17G20G23G32
  22172120.140   116515250.78309  22172122.820    90791100.39948
  21159641.060   111194650.62309  21159642.240    86645179.71348
  24886712.180   130780482.83008  24886716.140   101906846.13544
  22640208.740   118975121.71409  22640211.280    92707896.98847
  24594325.280   129244048.76308  24594328.780   100709663.13044
  20894781.580   109802835.39209  20894782.500    85560661.43049
  23732645.540   124715895.39208  23732646.480    97181235.54645
  24334982.980   127881136.89608  24334984.640    99647612.22445
  22284694.760   117106845.10009  22284694.080    91252074.09048
  21807274.160   114598009.92809  21807272.580    89297144.53947
  20466179.180   107550505.50009  20466174.980    83805572.03249
  24599445.800   129270905.48408  24599448.520   100730560.29144
 15 02 15 09 10  0.0000000  0 12G01G03G04G06G07G09G10G11G17G20G23G32
  22188091.280   116599178.68609  22188093.840    90856498.69448
  21166580.180   111231115.30309  21166581.240    86673593.71548
  24906964.920   130886914.04607  24906969.680   101989779.34545
  22623232.460   118885911.05209  22623235.100    92638382.20948
  24574944.060   129142200.15908  24574947.380   100630300.73145
  20885179.000   109752372.51109  20885179.600    85521339.71449
  23716977.940   124633561.24408  23716978.780    97117079.11445
  24356303.820   127993177.67808  24356305.560    99734916.56245
  22292424.740   117147466.00709  22292424.260    91283726.67948
  21795588.900   114536603.52209  21795587.340    89249295.42047
  20467540.980   107557661.78109  20467536.800    83811148.35049
  24614140.480   129348125.82908  24614142.780   100790731.88444
 15 02 15 09 10 30.0000000  0 12G01G03G04G06G07G09G10G11G17G20G23G32
  22204122.560   116683423.31309  22204125.120    90922143.79848
  21173553.600   111267761.11709  21173554.660    86702148.85848
  24927234.000   130993428.74308  24927238.940   102072777.62045
  22606297.720   118796918.16909  22606300.340    92569037.12248
  24555550.500   129040286.80508  24555553.840   100550887.91045
  20875658.580   109702341.69909  20875658.960    85482354.66649
  23701324.900   124551304.35508  23701325.640    97052982.92745
  24377635.660   128105276.17108  24377637.220    99822265.87645
  22300246.480   117188569.19209  22300246.120    91315755.05748
  21783930.500   114475338.30009  21783928.880    89201556.31747
  20468983.880   107565244.26709  20468979.700    83817056.76649
  24628835.340   129425347.25808  24628837.360   100850904.34845
 15 02 15 09 11  0.0000000  0 12G01G03G04G06G07G09G10G11G17G20G23G32
  22220214.060   116767984.81909  22220216.740    90988035.82348
  21180561.700   111304589.73209  21180562.940    86730846.45048
  24947519.140   131100027.36107  24947523.980   102155841.28445
  22589405.220   118708147.23509  22589407.800    92499864.98848
  24536145.400   128938312.79408  24536148.560   100471427.78945
  20866220.640   109652745.05509  20866220.980    85443707.93349
  23685686.920   124469126.48808  23685687.660    96988948.26245
  24398978.360   128217432.24708  24398980.040    99909660.02845
  22308159.900   117230154.25009  22308159.560    91348158.93548
  21772299.400   114414216.58909  21772297.680    89153929.03647
  20470507.940   107573253.46909  20470503.840    83823297.69349
  24643530.700   129502571.46308  24643532.840   100911078.93545
 15 02 15 09 11 30.0000000  0 11G01G03G06G07G09G10G11G17G20G23G32
  22236365.280   116852860.24809  22236368.120    91054172.44948
  21187604.280   111341599.57609  21187605.740    86759685.24448
  22572555.180   118619599.14409  22572557.620    92430866.50248
  24516728.960   128836279.09208  24516732.100   100391921.15145
  20856865.000   109603581.45809  20856865.420    85405398.63249
  23670063.680   124387026.52008  23670065.020    96924974.29245
  24420331.340   128329642.40408  24420333.140    99997096.37545
  22316164.300   117272217.65409  22316164.020    91380935.55248
  21760695.400   114353237.32809  21760693.680    89106412.76247
  20472112.760   107581686.87109  20472108.660    83829869.15249
  24658226.400   129579796.82108  24658228.300   100971254.41745
 15 02 15 09 12  0.0000000  0 11G01G03G06G07G09G10G11G17G20G23G32
  22252576.700   116938052.17409  22252579.700    91120555.72548
  21194682.260   111378794.75909  21194683.820    86788668.46648
  22555748.680   118531280.38809  22555751.140    92362046.73148
  24497302.380   128734192.47308  24497305.520   100312373.26445
  20847592.540   109554855.36909  20847593.160    85367430.24649
  23654456.080   124305008.82007  23654457.540    96861064.44446
  24441694.900   128441908.23908  24441696.600   100084576.02745
  22324260.120   117314761.22009  22324259.880    91414086.32348
  21749119.340   114292404.99809  21749117.680    89059010.97547
  20473798.860   107590547.41509  20473794.720    83836773.46649
  24672923.060   129657027.36608  24672924.820   101031433.92144
 15 02 15 09 12 30.0000000  0 11G01G03G06G07G09G10G11G17G20G23G32
  22268847.620   117023556.35909  22268850.660    91187182.28348
  21201795.100   111416172.46809  21201796.620    86817793.91148
  22538985.720   118443190.66708  22538988.280    92293405.41748
  24477865.680   128632052.77208  24477868.780   100232784.02346
  20838402.860   109506564.32309  20838403.760    85329800.85849
  23638863.760   124223070.83808  23638865.040    96797216.74445
  24463068.080   128554224.91608  24463069.980   100172095.32945
  22332446.420   117357779.58409  22332446.060    91447607.06548
  21737570.820   114231717.39709  21737569.280    89011721.96648
  20475565.480   107599831.06309  20475561.300    83844007.45749
  24687620.140   129734260.26708  24687621.980   101091615.29245
 15 02 15 09 13  0.0000000  0 11G01G03G06G07G09G10G11G17G20G23G32
  22285177.320   117109369.24409  22285180.340    91254049.39748
  21208942.260   111453730.63409  21208943.700    86847059.97648
  22522266.440   118355330.39209  22522269.060    92224942.89548
  24458418.900   128529859.96508  24458422.060   100153153.38445
  20829295.740   109458706.69109  20829296.840    85292509.19149
  23623286.380   124141211.25308  23623287.440    96733430.07745
  24484450.300   128666588.26308  24484452.120   100259651.04345
  22340722.340   117401269.33809  22340721.880    91481495.12348
  21726049.560   114171173.08709  21726048.100    88964544.59447
  20477411.980   107609534.55209  20477407.840    83851568.60149
  24702317.260   129811493.39708  24702319.120   101151796.84844
 15 02 15 09 13 30.0000000  0 11G01G03G06G07G09G10G11G17G20G23G32
  22301565.920   117195491.58709  22301568.940    91321157.66548
  21216124.080   111491471.57409  21216125.540    86876468.45948
  22505591.700   118267704.30709  22505594.340    92156662.86048
  24438963.120   128427619.27708  24438966.240   100073485.40145
  20820271.700   109411285.08009  20820272.900    85255557.28449
  23607724.360   124059432.60908  23607725.340    96669706.48745
  24505841.300   128778998.45608  24505843.180   100347243.18445
  22349087.780   117445230.19809  22349087.340    91515750.29048
  21714556.080   114110774.90509  21714554.720    88917481.10647
  20479338.520   107619659.06309  20479334.500    83859457.81649
  24717014.700   129888729.10508  24717016.860   101211980.40245
 15 02 15 09 14  0.0000000  0 11G01G03G06G07G09G10G11G17G20G23G32
  22318013.280   117281922.72709  22318016.340    91388506.53948
  21223340.820   111529396.11109  21223342.420    86906020.00848
  22488962.140   118180315.67409  22488964.800    92088567.85048
  24419498.880   128325334.04208  24419501.760    99993782.67845
  20811330.960   109364300.61709  20811332.160    85218946.01649
  23592178.060   123977735.75008  23592178.780    96606046.61745
  24527241.040   128891453.83508  24527243.020   100434870.61045
  22357542.520   117489660.53509  22357542.120    91550371.28348
  21703090.680   114050524.19409  21703089.360    88870532.49647
  20481345.140   107630204.50609  20481341.220    83867675.02449
  24731712.760   129965968.14708  24731715.240   101272166.58645
 15 02 15 09 14 30.0000000  0 11G01G03G06G07G09G10G11G17G20G23G32
  22334519.160   117368660.88909  22334522.160    91456094.66948
  21230592.520   111567504.04709  21230594.220    86935714.46048
  22472378.180   118093166.77208  22472380.820    92020659.64648
  24400026.340   128223006.61007  24400029.080    99914047.10445
  20802473.520   109317753.42309  20802474.560    85182675.48249
  23576647.320   123896120.87108  23576647.940    96542450.68045
  24548648.900   129003952.31508  24548651.000   100522531.52445
  22366086.320   117534558.39909  22366085.900    91585356.58248
  21691653.300   113990421.02409  21691652.120    88823698.87548
  20483431.680   107641169.36409  20483427.760    83876219.04649
  24746411.460   130043210.25508  24746414.140   101332355.11345
 15 02 15 09 15  0.0000000  0 11G01G03G06G07G09G10G11G17G20G23G32
  22351082.980   117455703.68309  22351085.960    91523920.14148
  21237878.980   111605794.49509  21237880.660    86965551.13648
  22455840.160   118006259.18008  22455842.720    91952939.47648
  24380546.120   128120638.56108  24380549.000    99834279.88045
  20793699.220   109271642.84109  20793700.000    85146745.16449
  23561132.160   123814587.66608  23561132.780    96478918.38245
  24570064.440   129116490.65708  24570066.700   100610223.54745
  22374718.460   117579920.47009  22374718.060    91620703.58948
  21680244.120   113930465.56009  21680242.940    88776980.33047
  20485597.700   107652551.59409  20485593.780    83885088.30049
  24761110.740   130120454.53408  24761113.180   101392545.33744
 15 02 15 09 15 30.0000000  0 11G01G03G06G07G09G10G11G17G20G23G32
  22367704.620   117543050.47108  22367707.500    91591982.52148
  21245200.400   111644268.38809  21245202.000    86995530.75448
  22439348.680   117919596.26909  22439351.180    91885409.95848
  24361059.160   128018233.77908  24361061.980    99754483.94446
  20785008.180   109225970.13509  20785008.780    85111156.05149
  23545632.800   123733137.53308  23545633.060    96415450.74845
  24591487.200   129229067.88408  24591489.500   100697945.84245
  22383438.700   117625745.13809  22383438.200    91656411.08248
  21668863.380   113870659.01009  21668862.120    88730377.80948
  20487843.060   107664350.97809  20487839.140    83894282.61149
  24775810.520   130197701.84508  24775812.520   101452737.97844
 15 02 15 09 16  0.0000000  0 11G01G03G06G07G09G10G11G17G20G23G32
  22384383.240   117630697.30209  22384386.120    91660278.69048
  21252556.340   111682923.31809  21252557.840    87025651.44048
  22422903.820   117833178.14609  22422906.220    91818071.17848
  24341565.160   127915792.07308  24341568.140    99674659.34845
  20776399.920   109180733.12109  20776400.460    85075906.44849
  23530148.720   123651767.93608  23530149.020    96352045.91845
  24612916.520   129341679.32708  24612918.600   100785694.86944
  22392246.120   117672027.49709  22392245.460    91692475.21248
  21657510.640   113810999.41709  21657509.280    88683889.80547
  20490167.020   107676563.78009  20490163.120    83903799.07449
  24790510.340   130274949.81308  24790512.160   101512931.07643
 15 02 15 09 16 30.0000000  0 11G01G03G06G07G09G10G11G17G20G23G32
  22401118.760   117718643.25609  22401121.700    91728807.93348
  21259946.900   111721759.99509  21259948.260    87055913.75348
  22406506.200   117747007.90909  22406508.500    91750925.55848
  24322064.840   127813317.06608  24322067.440    99594808.67545
  20767874.620   109135932.69609  20767875.140    85040997.04049
  23514680.040   123570480.08108  23514680.700    96288704.79446
  24634352.080   129454323.34308  24634354.180   100873469.23245
  22401140.500   117718766.58409  22401139.780    91728895.23548
  21646186.000   113751487.61009  21646184.560    88637516.95348
  20492569.480   107689189.32109  20492565.640    83913637.15449
  24805210.520   130352199.01308  24805212.240   101573125.23445
 15 02 15 09 17  0.0000000  0 11G01G03G06G07G09G10G11G17G20G23G32
  22417911.640   117806890.32009  22417914.580    91797571.82648
  21267372.780   111760781.98909  21267373.920    87086320.46748
  22390156.960   117661091.66309  22390159.160    91683977.84448
  24302559.180   127710814.88008  24302561.660    99514936.89944
  20759433.020   109091572.70309  20759433.580    85006430.82249
  23499227.640   123489278.11608  23499228.520    96225430.62245
  24655794.100   129567001.55808  24655796.200   100961270.21244
  22410121.980   117765963.23209  22410121.180    91765671.79348
  21634890.380   113692128.60009  21634888.900    88591263.17348
  20495051.040   107702230.33509  20495047.260    83923798.97149
  24819911.620   130429453.12108  24819913.620   101633323.05444
 15 02 15 09 17 30.0000000  0 11G01G03G06G07G09G10G11G17G20G23G32
  22434760.740   117895432.06309  22434763.620    91866565.30047
  21274832.980   111799984.48309  21274833.940    87116867.83448
  22373855.580   117575427.01209  22373857.700    91617226.18948
  24283047.920   127608282.72408  24283050.360    99435041.76445
  20751074.220   109047648.47309  20751075.020    84972204.17849
  23483790.680   123408157.32908  23483791.640    96162219.69345
  24677241.300   129679706.54808  24677243.380   101049092.12045
  22419189.080   117813610.29909  22419188.220    91802799.34348
  21623622.860   113632917.66609  21623621.460    88545124.78148
  20497610.540   107715680.57509  20497606.780    83934279.67949
  24834612.840   130506707.03508  24834614.760   101693520.86644
 15 02 15 09 18  0.0000000  0 11G01G03G06G07G09G10G11G17G20G23G32
  22451666.480   117984271.36509  22451669.320    91935790.67948
  21282328.260   111839371.96109  21282329.160    87147559.34548
  22357603.340   117490020.93009  22357605.520    91550676.01048
  24263532.480   127505728.05808  24263534.980    99355129.06646
  20742799.320   109004164.67909  20742800.320    84938320.72649
  23468370.140   123327122.66508  23468371.220    96099075.83145
  24698694.220   129792441.56608  24698696.440   101136937.36145
  22428342.140   117861709.97809  22428341.380    91840279.57348
  21612384.540   113573860.01409  21612383.200    88499105.81748
  20500248.580   107729543.17409  20500244.780    83945081.69849
  24849314.860   130583965.51508  24849317.080   101753722.09145
 15 02 15 09 18 30.0000000  0 11G01G03G06G07G09G10G11G17G20G23G32
  22468627.920   118073403.95309  22468630.800    92005244.58048
  21289858.080   111878941.77709  21289859.120    87178392.95348
  22341400.240   117404873.20209  22341402.520    91484327.16148
  24244012.840   127403151.20808  24244015.500    99275199.11246
  20734607.820   108961118.81509  20734609.020    84904778.53249
  23452965.580   123246171.51508  23452966.560    96035997.08945
  24720151.800   129905200.81707  24720154.100   101224801.51845
  22437580.300   117910257.33009  22437579.760    91878108.64848
  21601174.980   113514953.56509  21601173.700    88453204.68648
  20502964.320   107743814.12709  20502960.480    83956201.93149
  24864017.240   130661225.61708  24864019.340   101813924.70244
 15 02 15 09 19  0.0000000  0 11G01G03G06G07G09G10G11G17G20G23G32
  22485644.940   118162829.02009  22485647.940    92074926.39147
  21297422.680   111918694.77509  21297423.880    87209369.29448
  22325246.900   117319987.15309  22325249.360    91418182.21548
  24224489.420   127300554.83108  24224491.960    99195253.93846
  20726499.880   108918511.84609  20726501.180    84871578.32549
  23437577.280   123165305.13508  23437578.060    95972984.35445
  24741613.760   130017983.13508  24741616.080   101312683.63545
  22446903.160   117959250.52809  22446902.840    91916285.14148
  21589994.480   113456199.52309  21589993.200    88407422.31147
  20505757.700   107758493.25909  20505753.820    83967640.21849
  24878719.900   130738488.24908  24878722.000   101874129.21345
 15 02 15 09 19 30.0000000  0 11G01G03G06G07G09G10G11G17G20G23G32
  22502717.840   118252548.02009  22502720.940    92144837.24147
  21305022.780   111958634.12409  21305024.060    87240490.82948
  22309144.360   117235368.38309  22309147.000    91352245.52948
  24204963.380   127197945.20008  24204965.840    99115298.43345
  20718476.100   108876347.06009  20718477.440    84838722.67249
  23422205.760   123084527.13408  23422206.460    95910040.47145
  24763080.320   130130789.88008  24763082.740   101400584.75145
  22456311.000   118008690.20609  22456310.820    91954809.52347
  21578843.620   113397601.52609  21578842.340    88361761.52747
  20508629.040   107773582.36809  20508625.120    83979397.96248
  24893423.460   130815756.61207  24893425.780   101934338.14844
 15 02 15 09 20  0.0000000  0 11G01G03G06G07G09G10G11G17G20G23G32
  22519845.580   118342555.03009  22519848.700    92214972.48947
  21312657.520   111998755.48709  21312658.960    87271754.19748
  22293092.340   117151015.03709  22293095.100    91286515.66848
  24185434.400   127095320.32208  24185436.780    99035331.02245
  20710535.760   108834620.21109  20710537.080    84806208.27149
  23406850.280   123003833.61608  23406851.140    95847162.42945
  24784550.180   130243614.12808  24784552.820   101488499.51044
  22465802.600   118058569.78709  22465802.520    91993676.68947
  21567721.700   113339155.67109  21567720.440    88316219.31247
  20511577.300   107789075.56109  20511573.320    83991470.57148
  24908127.060   130893026.31408  24908129.800   101994548.17344
 15 02 15 09 20 30.0000000  0 11G01G03G06G07G09G10G11G17G20G23G32
  22537028.040   118432849.08609  22537031.080    92285331.43647
  21320327.020   112039059.61209  21320328.600    87303159.98948
  22277091.540   117066930.34709  22277094.200    91220995.15348
  24165903.200   126992683.64108  24165905.580    98955354.43945
  20702679.000   108793332.14809  20702680.220    84774035.79649
  23391511.060   122923225.71708  23391512.020    95784351.11345
  24806023.240   130356454.80108  24806025.680   101576427.10845
  22475377.740   118108887.46809  22475377.440    92032885.23247
  21556629.060   113280863.76209  21556627.860    88270797.06148
  20514602.440   107804972.50009  20514598.400    84003857.79049
  24922831.220   130970297.91608  24922834.240   102054759.69544
 15 02 15 09 21  0.0000000  0 11G01G03G06G07G09G10G11G17G20G23G32
  22554264.580   118523427.33109  22554267.540    92355911.80147
  21328031.020   112079545.33609  21328032.780    87334707.27348
  22261142.120   116983115.58709  22261144.660    91155684.95048
  24146370.140   126890036.47608  24146372.580    98875369.67846
  20694905.520   108752481.74709  20694906.640    84742204.34249
  23376188.000   122842702.65708  23376188.800    95721605.88746
  24827498.780   130469308.19308  24827500.840   101664364.58944
  22485035.640   118159639.35309  22485035.100    92072432.10547
  21545565.560   113222724.92909  21545564.440    88225494.08948
  20517703.940   107821270.58509  20517699.840    84016557.58949
  24937535.640   131047570.37508  24937538.560   102114971.86143
 15 02 15 09 21 30.0000000  0 11G01G03G06G07G09G10G11G17G20G23G32
  22571555.200   118614289.69509  22571558.160    92426713.58247
  21335769.940   112120214.24709  21335771.840    87366397.31748
  22245244.880   116899574.81709  22245247.360    91090588.27348
  24126835.880   126787383.19408  24126838.360    98795380.21046
  20687215.660   108712070.69509  20687216.600    84710715.25249
  23360881.540   122762266.25108  23360882.220    95658928.18145
  24848976.740   130582174.11808  24848978.820   101752311.85545
  22494776.100   118210824.72809  22494775.360    92112316.75848
  21534531.720   113164741.39309  21534530.580    88180312.13448
  20520881.840   107837970.14009  20520877.720    84029570.22249
  24952240.740   131124845.08808  24952243.600   102175185.86244
 15 02 15 09 22  0.0000000  0 11G01G03G06G07G09G10G11G17G20G23G32
  22588899.580   118705434.81509  22588902.560    92497735.66547
  21343543.920   112161066.81109  21343545.900    87398230.44348
  22229400.300   116816310.92909  22229402.800    91025707.32748
  24107301.020   126684726.83008  24107303.360    98715388.28645
  20679609.420   108672099.38409  20679610.220    84679568.79949
  23345591.680   122681917.35508  23345592.260    95596318.67045
  24870456.520   130695050.12308  24870458.640   101840266.95844
  22504598.680   118262441.62809  22504597.900    92152537.64748
  21523527.700   113106914.25309  21523526.380    88135252.02647
  20524135.920   107855070.13309  20524131.820    84042894.87049
  24966946.520   131202122.60308  24966949.360   102235401.89045
 15 02 15 09 22 30.0000000  0 11G01G03G06G07G09G10G11G17G20G23G32
  22606297.580   118796861.94509  22606300.720    92568977.51947
  21351353.140   112202103.90609  21351355.080    87430207.39448
  22213609.040   116733327.31909  22213611.540    90961044.79248
  24087766.180   126582070.90508  24087768.480    98635396.78145
  20672086.960   108632568.79209  20672087.760    84648765.78149
  23330318.560   122601656.96508  23330319.260    95533778.14146
  24891938.220   130807936.26007  24891940.580   101928229.98245
  22514503.120   118314488.67609  22514502.300    92193093.74848
  21512553.580   113049244.91509  21512552.160    88090314.91348
  20527466.060   107872570.21809  20527462.000    84056531.30048
  24981652.920   131279403.69608  24981655.740   102295620.78444
 15 02 15 09 23  0.0000000  0 11G01G03G06G07G09G10G11G17G20G23G32
  22623748.580   118888567.65909  22623751.860    92640436.44347
  21359197.180   112243323.90209  21359198.980    87462326.84148
  22197871.260   116650624.74809  22197873.760    90896601.24548
  24068231.540   126479416.40708  24068233.740    98555406.37745
  20664648.060   108593477.24009  20664648.780    84618304.86249
  23315062.160   122521484.12808  23315063.000    95471305.82545
  24913420.880   130920827.48307  24913423.460   102016196.94045
  22524488.480   118366961.03909  22524487.520    92233981.23547
  21501609.220   112991732.35909  21501607.780    88045499.95747
  20530871.760   107890467.41909  20530867.720    84070477.15048
  24996359.640   131356686.75908  24996362.240   102355841.21645
 15 02 15 09 23 30.0000000  0 11G01G03G06G07G09G10G11G17G20G23G32
  22641252.980   118980553.67808  22641256.380    92712113.78147
  21367076.660   112284730.17709  21367078.280    87494591.46048
  22182188.040   116568209.08309  22182190.500    90832381.25248
  24048698.320   126376769.40008  24048700.440    98475421.77646
  20657293.440   108554828.07809  20657293.980    84588188.66149
  23299823.180   122441402.55408  23299824.060    95408904.62345
  24934904.660   131033725.22008  24934907.360   102104168.94344
  22534554.960   118419859.64409  22534553.860    92275200.86548
  21490695.400   112934380.25309  21490693.960    88000810.01847
  20534353.380   107908763.56809  20534349.420    84084733.87449
  25011067.320   131433975.04108  25011070.000   102416065.69545
 15 02 15 09 24  0.0000000  0 11G01G03G06G07G09G10G11G17G20G23G32
  22658809.580   119072813.75809  22658812.960    92784004.66947
  21374990.760   112326318.33309  21374992.200    87526997.78348
  22166559.060   116486078.39709  22166561.480    90768383.32948
  24029166.020   126274127.78708  24029168.260    98395441.42146
  20650022.200   108516616.88909  20650022.640    84558413.74149
  23284600.680   122361407.84408  23284601.580    95346571.11646
  24956388.440   131146622.97208  24956391.600   102192140.93745
  22544701.100   118473177.33409  22544700.000    92316747.04748
  21479811.520   112877184.93509  21479810.000    87956242.26748
  20537909.780   107927452.82109  20537905.880    84099296.92749
  25025774.860   131511264.22407  25025777.780   102476290.89945
 15 02 15 09 24 30.0000000  0 11G01G03G06G07G09G10G11G17G20G23G32
  22676418.540   119165348.92109  22676421.840    92856109.90647
  21382939.980   112368091.14109  21382941.300    87559547.99448
  22150985.280   116404237.85909  22150987.740    90704611.49048
  24009635.840   126171496.99908  24009638.300    98315469.52245
  20642834.760   108478846.35109  20642835.220    84528982.18349
  23269395.320   122281503.30108  23269396.100    95284307.85245
  24977872.600   131259521.39808  24977875.460   102280113.53744
  22554926.900   118526914.59909  22554926.040    92358620.17748
  21468958.180   112820149.77109  21468956.540    87911799.29148
  20541541.220   107946536.62109  20541537.400    84114167.40948
  25040483.100   131588556.91208  25040486.140   102536518.85544
 15 02 15 09 25  0.0000000  0 10G01G03G06G07G09G10G11G17G20G23
  22694082.580   119258173.66308  22694085.800    92928440.79847
  21390927.400   112410064.88009  21390928.740    87592254.77948
  22135470.340   116322706.24909  22135472.860    90641080.39048
  23990111.400   126068895.82708  23990113.860    98235520.69846
  20635734.160   108441532.66109  20635734.640    84499906.62249
  23254210.320   122201705.73708  23254211.040    95222127.97546
  24999359.540   131372434.09308  24999362.300   102368097.21244
  22565234.800   118581085.00808  22565234.620    92400830.84648
  21458138.460   112763291.61909  21458136.800    87867494.27748
  20545250.580   107966029.92609  20545246.860    84129357.00349
 15 02 15 09 25 30.0000000  0 10G01G03G06G07G09G10G11G17G20G23
  22711794.200   119351248.55409  22711797.380    93000966.61447
  21398945.840   112452201.90409  21398947.220    87625088.80148
  22120007.560   116241448.35609  22120010.060    90577762.56548
  23970586.060   125966289.45708  23970588.500    98155567.80746
  20628713.280   108404638.12909  20628713.780    84471157.66349
  23239038.560   122121977.78708  23239039.380    95160002.31445
  25020841.600   131485321.83208  25020844.080   102456061.46344
  22575617.400   118635648.26209  22575617.940    92443347.61247
  21447345.220   112706573.58009  21447343.720    87823298.42148
  20549030.380   107985893.36609  20549026.800    84144835.01349
 15 02 15 09 26  0.0000000  0 10G01G03G06G07G09G10G11G17G20G23
  22729557.640   119444595.61009  22729560.800    93073704.46247
  21406999.820   112494525.95909  21407001.340    87658068.54048
  22104601.820   116160490.40609  22104604.260    90514678.44948
  23951064.720   125863704.59008  23951067.100    98075631.69746
  20621776.540   108368186.33409  20621777.180    84442753.68149
  23223884.580   122042343.28208  23223885.400    95097949.49146
  25042323.100   131598206.43908  25042325.800   102544023.23044
  22586078.920   118690625.58909  22586079.900    92486187.02448
  21436583.340   112650020.09109  21436581.960    87779230.79448
  20552884.920   108006149.38409  20552881.420    84160618.91448
 15 02 15 09 26 30.0000000  0 10G01G03G06G07G09G10G11G17G20G23
  22747371.720   119538208.46009  22747374.880    93146649.44847
  21415088.440   112537032.57709  21415090.060    87691190.57048
  22089252.700   116079830.31509  22089255.080    90451826.45248
  23931546.960   125761138.85008  23931549.340    97995710.53346
  20614923.180   108332172.71909  20614924.060    84414691.15949
  23208747.680   121962798.44608  23208748.320    95035966.56245
  25063802.640   131711080.98308  25063805.240   102631977.24645
  22596617.960   118746009.57709  22596619.240    92529343.32148
  21425852.020   112593626.88709  21425850.660    87735288.07048
  20556813.100   108026792.09809  20556809.620    84176704.16948
 15 02 15 09 27  0.0000000  0 10G01G03G06G07G09G10G11G17G20G23
  22765236.960   119632090.07809  22765240.060    93219803.87647
  21423212.820   112579726.53809  21423214.500    87724458.56048
  22073961.620   115999475.37309  22073963.900    90389212.22448
  23912034.300   125658599.51808  23912036.560    97915809.89746
  20608154.140   108296601.91509  20608155.220    84386973.67949
  23193628.780   121883348.20608  23193629.320    94974057.30845
  25085280.620   131823947.87308  25085283.420   102719925.20244
  22607235.000   118801802.16209  22607236.180    92572818.00648
  21415152.280   112537399.67609  21415150.960    87691474.70448
  20560815.540   108047824.82309  20560811.940    84193093.31448
 15 02 15 09 27 30.0000000  0 10G01G03G06G07G09G10G11G17G20G23
  22783152.400   119726235.71209  22783155.500    93293164.01647
  21431372.340   112622604.90509  21431374.040    87757870.22848
  22058728.500   115919425.04509  22058730.700    90326835.36348
  23892526.660   125556086.58308  23892528.960    97835929.84346
  20601468.840   108261470.81009  20601470.020    84359598.81949
  23178527.420   121803989.97808  23178527.900    94912219.77246
  25106756.120   131936801.87508  25106759.440   102807863.09445
  22617928.960   118857997.68509  22617929.760    92616606.65648
  21404483.620   112481335.70509  21404482.320    87647788.52148
  20564891.320   108069242.92909  20564887.560    84209782.76348
 15 02 15 09 28  0.0000000  0 10G01G03G06G07G09G10G11G17G20G23
  22801117.740   119820643.94308  22801120.880    93366728.78047
  21439567.040   112665668.08109  21439568.680    87791425.91148
  22043553.860   115839682.20509  22043556.100    90264698.09948
  23873024.580   125453603.03608  23873026.980    97756072.66946
  20594867.260   108226779.61709  20594868.420    84332566.75549
  23163443.820   121724724.76308  23163444.260    94850454.71146
  25128228.860   132049641.39408  25128232.560   102895789.71445
  22628699.440   118914594.24409  22628699.640    92660707.79248
  21393846.280   112425436.40809  21393845.000    87604230.66148
  20569040.240   108091045.41709  20569036.400    84226771.72948
 15 02 15 09 28 30.0000000  0 10G01G03G06G07G09G10G11G17G20G23
  22819132.700   119915313.31808  22819135.940    93440497.02947
  21447797.020   112708916.48509  21447798.540    87825125.92448
  22028438.380   115760249.70809  22028440.660    90202802.64948
  23853528.680   125351151.82908  23853531.040    97676240.68246
  20588349.460   108192528.57609  20588350.580    84305877.66949
  23148378.020   121645553.25808  23148378.340    94788762.65445
  25149698.560   132162464.65408  25149702.280   102983703.69544
  22639545.820   118971589.39209  22639545.300    92705119.51847
  21383240.480   112369702.68709  21383239.180    87560801.82048
  20573262.160   108113231.32809  20573258.220    84244059.46048
 15 02 15 09 29  0.0000000  0 10G01G03G06G07G09G10G11G17G20G23
  22837196.600   120010239.31909  22837199.800    93514465.22347
  21456061.740   112752347.45109  21456063.200    87858968.20048
  22013381.920   115681127.30109  22013384.300    90141148.83448
  23834038.960   125248732.98708  23834041.440    97596433.89546
  20581914.920   108158714.77709  20581915.940    84279529.29749
  23133329.500   121566472.99808  23133329.980    94727141.72446
  25171164.220   132275266.64408  25171168.140   103071601.06344
  22650466.840   119028977.28209  22650465.760    92749837.28147
  21372665.660   112314131.59609  21372664.320    87517499.69548
  20577556.260   108135796.65509  20577552.200    84261642.83848
 15 02 15 09 29 30.0000000  0  9G01G03G06G07G09G10G17G20G23
  22855310.080   120105425.85808  22855313.220    93588636.46847
  21464362.320   112795966.80209  21464363.740    87892957.27248
  21998386.000   115602323.28309  21998388.520    90079743.11648
  23814556.900   125146354.94608  23814559.540    97516658.95847
  20575564.740   108125343.84809  20575565.580    84253526.00949
  23118299.540   121487490.27808  23118300.060    94665596.79046
  22661463.000   119086761.48409  22661461.660    92794863.85647
  21362123.260   112258730.89409  21362121.860    87474330.33648
  20581923.360   108158745.64509  20581919.220    84279525.17048
 15 02 15 09 30  0.0000000  0  9G01G03G06G07G09G10G17G20G23
  22873472.240   120200867.90408  22873475.380    93663006.79547
  21472698.140   112839771.31409  21472699.480    87927090.62048
  21983450.420   115523836.82709  21983453.060    90018584.84648
  23795082.520   125044017.09808  23795085.320    97436915.31546
  20569298.260   108092412.29109  20569298.880    84227865.09249
  23103287.500   121408602.28708  23103288.060    94604125.63246
  22672533.160   119144935.74609  22672531.820    92840194.37247
  21351612.760   112203497.57809  21351611.260    87431291.40548
  20586362.480   108182073.17809  20586358.260    84297702.46848
 15 02 15 09 30 30.0000000  0  9G01G03G06G07G09G10G17G20G23
  22891682.180   120296561.24908  22891685.340    93737572.93147
  21481068.720   112883758.66409  21481070.040    87961366.44248
  21968575.300   115445668.05809  21968577.980    89957674.13648
  23775615.880   124941719.60308  23775618.500    97357203.08646
  20563114.840   108059917.53509  20563115.360    84202544.53849
  23088293.140   121329807.00608  23088293.820    94542726.76146
  22683676.420   119203494.92109  22683675.260    92885824.82047
  21341133.760   112148429.86709  21341132.240    87388381.51948
  20590872.900   108205775.64009  20590868.680    84316171.91348
 15 02 15 09 31  0.0000000  0  9G01G03G06G07G09G10G17G20G23
  22909939.920   120392505.80208  22909943.000    93812334.79647
  21489474.400   112927930.74809  21489475.840    87995786.20148
  21953761.440   115367821.26109  21953764.140    89897014.31148
  23756157.800   124839467.18608  23756160.400    97277525.99446
  20557014.720   108027861.13509  20557015.260    84177565.55849
  23073316.840   121251106.72708  23073317.500    94481401.94245
  22694892.720   119262437.98509  22694891.860    92931754.41547
  21330686.740   112093530.30109  21330685.240    87345602.65948
  20595454.700   108229853.35109  20595450.520    84334933.76548
 15 02 15 09 31 30.0000000  0  9G01G03G06G07G09G10G17G20G23
  22928244.920   120488698.64809  22928248.020    93887290.15047
  21497915.020   112972286.47909  21497916.580    88030349.07148
  21939009.160   115290297.85109  21939011.840    89836606.46848
  23736708.660   124737261.47608  23736711.100    97197885.29247
  20550997.640   107996241.78109  20550998.260    84152927.12949
  23058358.580   121172500.96608  23058359.240    94420150.68146
  22706181.300   119321761.08209  22706180.740    92977980.13347
  21320271.600   112038798.29809  21320270.080    87302954.35048
  20600107.360   108254303.53309  20600103.260    84353985.84548
 15 02 15 09 32  0.0000000  0  9G01G03G06G07G09G10G17G20G23
  22946597.420   120585140.97008  22946600.420    93962439.91347
  21506391.180   113016829.04209  21506392.920    88065057.51948
  21924319.560   115213103.36109  21924322.180    89776454.92448
  23717269.460   124635108.08208  23717271.740    97118285.36546
  20545064.260   107965062.30509  20545064.920    84128631.46049
  23043418.980   121093993.00908  23043419.700    94358975.69346
  22717542.300   119381464.50409  22717542.100    93024502.21447
  21309889.060   111984237.60009  21309887.480    87260439.52348
  20604831.220   108279127.94209  20604827.220    84373329.52248
 15 02 15 09 32 30.0000000  0  9G01G03G06G07G09G10G17G20G23
  22964997.180   120681832.00909  22965000.180    94037783.43247
  21514903.000   113061559.49709  21514905.020    88099912.37248
  21909693.240   115136241.32509  21909695.800    89716562.43748
  23697840.900   124533010.83508  23697843.100    97038729.23546
  20539214.700   107934323.45409  20539215.400    84104679.13949
  23028498.360   121015584.41108  23028499.120    94297878.12346
  22728975.440   119441546.63309  22728975.620    93071319.39647
  21299539.480   111929850.16909  21299537.900    87218059.71548
  20609626.240   108304326.12109  20609622.300    84392964.45348
 15 02 15 09 33  0.0000000  0  9G01G03G06G07G09G10G17G20G23
  22983442.920   120778764.94008  22983446.040    94113315.47447
  21523449.660   113106473.01309  21523451.860    88134909.88448
  21895129.760   115059709.31709  21895132.240    89656927.12048
  23678422.620   124430967.59209  23678424.700    96959215.17646
  20533448.040   107904020.05809  20533448.800    84081066.13249
  23013595.860   120937270.94108  23013596.500    94236854.69146
  22740479.200   119501999.48609  22740479.720    93118425.47747
  21289222.060   111875631.60609  21289220.440    87175811.49448
  20614491.180   108329891.64509  20614487.320    84412885.62448
 15 02 15 09 33 30.0000000  0  9G01G03G06G07G09G10G17G20G23
  23001934.780   120875940.28608  23001937.980    94189036.42347
  21532031.600   113151572.08309  21532033.960    88170051.97348
  21880630.040   114983512.20909  21880632.420    89597552.75948
  23659015.680   124328983.35309  23659017.360    96879747.04846
  20527764.680   107874154.23309  20527765.580    84057794.08349
  22998711.960   120859055.14208  22998712.420    94175907.31646
  22752053.580   119562822.80709  22752054.220    93165820.21748
  21278937.300   111821584.66209  21278935.600    87133696.98848
  20619426.240   108355825.36309  20619422.380    84433093.70848
 15 02 15 09 34  0.0000000  0  9G01G03G06G07G09G10G17G20G23
  23020473.200   120973360.13308  23020476.540    94264947.86747
  21540649.660   113196860.69609  21540652.000    88205341.76948
  21866195.180   114907656.44509  21866197.640    89538444.38748
  23639621.180   124227064.75408  23639622.700    96800330.12146
  20522165.280   107844729.59709  20522166.280    84034865.82049
  22983847.400   120780941.52108  22983847.880    94115039.56047
  22763698.860   119624017.65509  22763699.300    93213504.45147
  21268686.180   111767714.56309  21268684.440    87091720.29648
  20624431.880   108382129.80609  20624428.020    84453590.66648
 15 02 15 09 34 30.0000000  0  9G01G03G06G07G09G10G17G20G23
  23039056.760   121071017.10309  23039060.340    94341044.06647
  21549302.800   113242333.37709  21549305.040    88240775.00048
  21851824.720   114832138.95009  21851827.180    89479599.59648
  23620238.700   124125209.11008  23620240.040    96720962.27646
  20516648.780   107815740.27309  20516649.800    84012276.75449
  22969001.280   120702925.03808  22969001.880    94054247.53946
  22775413.420   119685575.82909  22775413.480    93261471.79247
  21258467.780   111714016.47709  21258466.040    87049877.62848
  20629506.720   108408797.73409  20629502.780    84474370.86448
 15 02 15 09 35  0.0000000  0  9G01G03G06G07G09G10G17G20G23
  23057685.540   121168911.49609  23057689.200    94417325.30847
  21557991.480   113287992.47509  21557993.640    88276353.48748
  21837519.520   114756964.49309  21837521.920    89421022.10348
  23600869.080   124023421.35708  23600870.160    96641647.38347
  20511215.580   107787188.22509  20511216.520    83990028.42649
  22954174.120   120625008.44108  22954174.840    93993533.35046
  22787196.860   119747496.37209  22787196.680    93309721.50447
  21248282.680   111660493.50709  21248280.940    87008171.42148
  20634650.820   108435829.92609  20634646.840    84495434.89948
 15 02 15 09 35 30.0000000  0  9G01G03G06G07G09G10G17G20G23
  23076359.680   121267044.33309  23076363.480    94493792.30947
  21566716.260   113333840.94609  21566718.300    88312079.53848
  21823280.620   114682138.40509  21823282.920    89362716.07648
  23581513.320   123921707.04008  23581514.440    96562389.76246
  20505866.080   107759075.94509  20505866.900    83968122.77049
  22939366.620   120547195.07008  22939367.360    93932899.57646
  22799049.160   119809779.51709  22799048.960    93358253.76347
  21238131.460   111607148.95909  21238129.860    86966604.24548
  20639864.560   108463227.96509  20639860.520    84516784.00848
 15 02 15 09 36  0.0000000  0  9G01G03G06G07G09G10G17G20G23
  23095077.480   121365406.64708  23095081.300    94570438.14147
  21575475.840   113379871.80709  21575477.660    88347947.71748
  21809107.140   114607656.14209  21809109.380    89304677.95848
  23562170.620   123820061.88409  23562172.080    96483185.97646
  20500598.860   107731396.08709  20500599.500    83946554.05949
  22924577.580   120469478.40608  22924578.440    93872341.15747
  22810968.440   119872415.38109  22810968.300    93407060.87447
  21228012.940   111553976.21709  21228011.440    86925170.93148
  20645146.080   108490982.52109  20645141.980    84538410.92148
 15 02 15 09 36 30.0000000  0  9G01G03G06G07G09G10G17G20G23
  23113839.580   121464001.82508  23113843.400    94647265.43346
  21584271.140   113426090.47409  21584272.780    88383962.24448
  21795000.580   114533525.47409  21795002.800    89246913.81848
  23542842.560   123718493.80108  23542844.180    96404042.26546
  20495414.860   107704153.52009  20495415.320    83925326.10049
  22909808.140   120391864.39108  22909809.080    93811862.76146
  22822955.180   119935406.26109  22822955.140    93456144.63247
  21217928.340   111500981.91109  21217927.020    86883876.67148
  20650496.280   108519098.16709  20650492.180    84560319.21448
 15 02 15 09 37  0.0000000  0  9G01G03G06G07G09G10G17G20G23
  23132645.380   121562826.41609  23132649.100    94724271.46746
  21593101.780   113472495.43009  21593103.400    88420121.92848
  21780961.040   114459747.27509  21780963.300    89189424.33148
  23523529.380   123617003.95008  23523531.080    96324959.48946
  20490313.720   107677346.30709  20490314.120    83904437.36449
  22895058.060   120314351.76908  22895058.880    93751463.32346
  22835008.580   119998747.54209  22835008.480    93505501.42647
  21207877.520   111448164.87409  21207876.300    86842720.54248
  20655914.520   108547571.35209  20655910.440    84582506.11648
 15 02 15 09 37 30.0000000  0  9G01G03G06G07G09G10G17G20G23
  23151494.760   121661879.78808  23151498.520    94801455.80547
  21601968.140   113519088.14309  21601969.820    88456427.90948
  21766989.260   114386325.40109  21766991.560    89132212.49548
  23504231.880   123515596.45308  23504233.640    96245940.89447
  20485295.560   107650975.42009  20485296.000    83883888.60949
  22880327.520   120236942.29608  22880328.340    93691144.32746
  22847128.540   120062438.30409  22847128.260    93555130.53547
  21197860.940   111395527.33309  21197859.720    86801704.26448
  20661400.780   108576401.99809  20661396.660    84604971.55048
 15 02 15 09 38  0.0000000  0  9G01G03G06G07G09G10G17G20G23
  23170387.440   121761160.47508  23170391.120    94878817.26047
  21610870.300   113565869.02609  21610872.000    88492880.52348
  21753085.700   114313262.68809  21753088.160    89075280.53848
  23484950.760   123414274.55908  23484952.540    96166989.00647
  20480360.400   107625040.83209  20480360.840    83863679.83949
  22865616.760   120159636.95408  22865617.440    93630906.42446
  22859314.400   120126475.46209  22859313.940    93605029.55047
  21187878.760   111343070.48909  21187877.560    86760828.80648
  20666954.840   108605588.86709  20666950.720    84627714.56548
 15 02 15 09 38 30.0000000  0  9G01G03G06G07G09G10G17G20G23
  23189322.240   121860662.88508  23189326.060    94956351.46247
  21619807.580   113612834.54209  21619809.300    88529476.99448
  21739250.340   114240557.95609  21739252.860    89018627.52048
  23465685.700   123313037.06508  23465687.420    96088102.86846
  20475507.460   107599538.43909  20475507.820    83843807.83849
  22850925.220   120082432.53408  22850925.720    93570747.19846
  22871564.880   120190852.58909  22871564.420    93655193.47647
  21177930.400   111290791.33109  21177929.140    86720091.79748
  20672575.740   108635127.02509  20672571.680    84650731.31148
 15 02 15 09 39  0.0000000  0  9G01G03G06G07G09G10G17G20G23
  23208299.200   121960387.03308  23208303.100    95034058.46647
  21628780.280   113659986.81909  21628782.000    88566218.99948
  21725484.040   114168215.69009  21725486.560    88962256.93848
  23446437.680   123211888.87008  23446439.300    96009286.27747
  20470737.000   107574469.82809  20470737.340    83824273.85449
  22836253.420   120005331.68608  22836253.760    93510668.63646
  22883879.900   120255568.63009  22883879.560    93705621.49147
  21168016.420   111238692.76709  21168015.080    86679495.51648
  20678263.480   108665016.71309  20678259.520    84674021.97748
 15 02 15 09 39 30.0000000  0  9G01G03G06G07G09G10G17G20G23
  23227318.620   122060334.18508  23227322.600    95111939.22147
  21637789.080   113707329.09509  21637790.940    88603109.06248
  21711787.820   114096241.50309  21711790.320    88906173.17648
  23427207.780   123110835.81208  23427209.300    95930543.79747
  20466049.640   107549837.71409  20466050.000    83805080.00549
  22821601.960   119928337.86508  22821602.320    93450673.54146
  22896259.520   120320624.00109  22896259.320    93756313.91547
  21158137.640   111186778.80509  21158136.140    86639043.08448
  20684018.400   108695259.41109  20684014.580    84697587.71948
 15 02 15 09 40  0.0000000  0  9G01G03G06G07G09G10G17G20G23
  23246379.220   122160497.74408  23246383.240    95189988.63547
  21646833.160   113754856.85509  21646835.220    88640143.65148
  21698161.240   114024633.26009  21698163.700    88850374.57248
  23407995.620   123009876.13708  23407997.040    95851874.08747
  20461444.380   107525637.08609  20461444.760    83786222.37849
  22806970.160   119851447.32708  22806970.420    93390758.83946
  22908702.220   120386010.95708  22908702.060    93807264.71847
  21148293.140   111135045.20909  21148291.540    86598731.20848
  20689839.320   108725848.94809  20689835.580    84721423.73148
 15 02 15 09 40 30.0000000  0  9G01G03G06G07G09G10G17G20G23
  23265481.760   122260881.79608  23265485.800    95268209.82946
  21655913.740   113802576.13909  21655915.920    88677327.46848
  21684605.880   113953399.38109  21684608.280    88794867.67948
  23388803.000   122909018.54508  23388804.220    95773283.89647
  20456922.200   107501873.34209  20456922.640    83767705.18849
  22792359.180   119774666.35808  22792359.360    93330929.58546
  22921208.500   120451732.76408  22921208.500    93858476.45247
  21138484.280   111083499.21809  21138482.680    86558565.50848
  20695727.120   108756789.73309  20695723.420    84745533.43548
 15 02 15 09 41  0.0000000  0  9G01G03G06G07G09G10G17G20G23
  23284623.960   122361474.31508  23284627.920    95346593.46547
  21665029.000   113850477.04609  21665031.160    88714652.80748
  21671120.340   113882532.28709  21671122.700    88739646.59048
  23369628.460   122808255.75708  23369629.520    95694767.52347
  20452481.140   107478536.02909  20452481.700    83749520.28549
  22777767.280   119697985.76608  22777767.540    93271178.47846
  22933775.880   120517776.35208  22933776.240    93909938.91947
  21128709.300   111032131.48009  21128707.680    86518538.71248
  20701679.600   108788070.24509  20701675.920    84769907.86248
 15 02 15 09 41 30.0000000  0  9G01G03G06G07G09G10G17G20G23
  23303807.040   122462281.19008  23303810.880    95425144.14047
  21674180.300   113898567.54409  21674182.560    88752125.87448
  21657706.560   113812042.30809  21657708.920    88684719.36248
  23350473.980   122707598.74008  23350475.000    95616333.56647
  20448122.640   107455632.50109  20448123.280    83731673.41149
  22763196.060   119621413.63008  22763196.380    93211511.91846
  22946405.440   120584146.52008  22946406.160    93961655.85547
  21118969.860   110980950.53509  21118968.240    86478657.48148
  20707697.960   108819696.74309  20707694.240    84794551.89348
 15 02 15 09 42  0.0000000  0  9G01G03G06G07G09G10G17G20G23
  23323030.900   122563302.43408  23323034.600    95503861.85347
  21683368.200   113946849.66209  21683370.460    88789748.28548
  21644365.260   113741933.81109  21644367.680    88630089.40148
  23331340.360   122607051.49008  23331341.280    95537985.15847
  20443847.060   107433164.19509  20443847.680    83714165.68349
  22748646.020   119544952.63308  22748646.340    93151931.96746
  22959097.160   120650842.34008  22959098.120    94013626.54647
  21109266.600   110929959.33609  21109264.920    86438924.10148
  20713782.280   108851669.64009  20713778.500    84819465.84948
 15 02 15 09 42 30.0000000  0  9G01G03G06G07G09G10G17G20G23
  23342294.740   122664534.20308  23342298.560    95582743.60347
  21692592.180   113995321.65209  21692594.320    88827518.61548
  21631096.660   113672207.40709  21631099.140    88575757.17148
  23312227.800   122506615.06108  23312228.720    95459723.01946
  20439653.900   107411128.71209  20439654.480    83696995.21549
  22734116.900   119468601.49508  22734117.380    93092437.59446
  22971850.080   120717858.72408  22971851.000    94065847.01747
  21099599.200   110879156.52509  21099597.440    86399337.51248
  20719931.900   108883985.63809  20719928.040    84844647.14648
 15 02 15 09 43  0.0000000  0  9G01G03G06G07G09G10G17G20G23
  23361597.140   122765969.31708  23361601.120    95661783.80747
  21701851.420   114043978.39109  21701853.320    88865432.93048
  21617900.320   113602860.33209  21617902.760    88521720.51448
  23293135.860   122406287.31908  23293137.040    95381545.58547
  20435542.020   107389520.30309  20435542.540    83680157.53749
  22719607.740   119392355.51508  22719608.320    93033025.18146
  22984662.680   120785187.87609  22984663.500    94118311.20147
  21089966.780   110828537.74809  21089964.960    86359894.33348
  20726145.440   108916637.36009  20726141.480    84870090.04848
 15 02 15 09 43 30.0000000  0  9G01G03G06G07G09G10G17G20G23
  23380938.720   122867610.12708  23380942.840    95740984.29247
  21711146.680   114092824.33209  21711148.500    88903494.66448
  21604777.520   113533899.32709  21604779.860    88467984.69348
  23274066.040   122306075.29308  23274067.380    95303458.29647
  20431512.100   107368342.76509  20431512.580    83663655.60449
  22705119.500   119316219.55008  22705120.040    92973698.48546
  22997535.080   120852831.06309  22997535.740    94171020.07747
  21080370.380   110778108.43609  21080368.520    86320598.78848
  20732423.340   108949627.58209  20732419.300    84895796.71948
 15 02 15 09 44  0.0000000  0  9G01G03G06G07G09G10G17G20G23
  23400318.860   122969453.26308  23400323.160    95820342.42547
  21720477.700   114141858.19809  21720479.280    88941702.83448
  21591728.420   113465325.47009  21591730.660    88414550.54948
  23255018.540   122205980.42508  23255020.000    95225462.30747
  20427563.720   107347594.13209  20427564.240    83647487.89449
  22690652.140   119240192.99108  22690652.560    92914457.05446
  23010466.380   120920783.61409  23010466.860    94223970.02947
  21070809.880   110727868.02209  21070808.080    86281450.45248
  20738765.120   108982953.88709  20738761.000    84921765.27448
 15 02 15 09 44 30.0000000  0  9G01G03G06G07G09G10G17G20G23
  23419737.380   123071497.78108  23419741.960    95899857.49846
  21729844.600   114191081.19509  21729846.060    88980058.36248
  21578753.560   113397142.24209  21578755.820    88361420.78748
  23235994.080   122106006.36009  23235995.680    95147560.44347
  20423697.140   107327274.90409  20423697.560    83631654.76849
  22676205.800   119164277.21208  22676206.260    92855301.90646
  23023456.160   120989043.62609  23023456.340    94277159.52847
  21061285.620   110677818.21809  21061283.900    86242450.62848
  20745170.600   109016615.46009  20745166.520    84947995.07048
 15 02 15 09 45  0.0000000  0  9G01G03G06G07G09G10G17G20G23
  23439194.340   123173744.10508  23439199.160    95979529.78647
  21739247.900   114240495.72909  21739249.380    89018563.13948
  21565853.940   113329354.39709  21565856.220    88308599.11348
  23216993.720   122006158.35008  23216995.400    95069756.78847
  20419912.600   107307386.83109  20419912.880    83616157.61549
  22661781.140   119088475.47209  22661781.620    92796235.65846
  23036504.320   121057610.41509  23036504.160    94330588.09247
  21051798.220   110627962.10709  21051796.580    86203601.73448
  20751640.040   109050613.08809  20751636.000    84974486.72248
 15 02 15 09 45 30.0000000  0  9G01G03G06G07G09G10G17G20G23
  23458688.680   123276186.89608  23458693.460    96059355.20947
  21748686.900   114290098.66509  21748688.560    89057214.72548
  21553029.420   113261961.10509  21553031.680    88256084.89048
  23198017.340   121906435.97809  23198019.020    94992051.06647
  20416209.380   107287926.05509  20416209.560    83600993.41349
  22647377.580   119012784.83708  22647378.140    92737256.01046
  23049609.680   121126477.87309  23049609.180    94384250.95047
  21042347.300   110578297.64909  21042345.800    86164902.18848
  20758172.380   109084941.73909  20758168.520    85001236.31448
 15 02 15 09 46  0.0000000  0  9G01G03G06G07G09G10G17G20G23
  23478220.240   123378825.16408  23478224.960    96139332.90846
  21758161.900   114339891.07509  21758163.800    89096013.95648
  21540280.600   113194965.75309  21540282.880    88203880.73848
  23179065.540   121806842.98708  23179067.080    94914446.12447
  20412587.540   107268892.92709  20412587.640    83586162.43949
  22632995.520   118937207.27608  22632996.180    92678364.38446
  23062771.860   121195644.09209  23062771.200    94438146.60047
  21032933.160   110528826.37209  21032931.740    86126353.16348
  20764767.680   109119600.86009  20764763.960    85028243.41348
 15 02 15 09 46 30.0000000  0  9G01G03G06G07G09G10G17G20G23
  23497788.480   123481656.06908  23497793.260    96219460.70146
  21767672.940   114389872.32209  21767674.920    89134960.34548
  21527607.840   113128369.92909  21527610.100    88151987.92148
  23160138.660   121707381.07809  23160140.160    94836943.38147
  20409046.760   107250286.01309  20409046.820    83571663.57749
  22618634.920   118861742.28709  22618635.600    92619560.57646
  23075990.040   121265105.02209  23075989.420    94492271.88147
  21023555.840   110479548.38609  21023554.420    86087954.75148
  20771425.460   109154588.19809  20771421.880    85055506.25548
 15 02 15 09 47  0.0000000  0  9G01G03G06G07G09G10G17G20G23
  23517392.680   123584675.75508  23517397.260    96299735.60847
  21777219.680   114440040.61609  21777221.760    89174052.47248
  21515011.180   113062174.17109  21515013.440    88100406.82548
  23141236.880   121608051.52509  23141238.340    94759543.76147
  20405586.520   107232102.81509  20405586.640    83557494.87449
  22604295.560   118786388.56808  22604296.180    92560843.42746
  23089263.080   121334855.42108  23089262.840    94546622.74447
  21014215.180   110430462.76809  21014213.760    86049706.24648
  20778145.100   109189900.03209  20778141.540    85083021.95748
 15 02 15 09 47 30.0000000  0  9G01G03G06G07G09G10G17G20G23
  23537033.420   123687887.33708  23537037.900    96380160.04147
  21786803.080   114490401.20809  21786805.260    89213294.45048
  21502492.080   112996386.04509  21502494.340    88049143.36948
  23122361.700   121508862.07608  23122363.140    94682253.31547
  20402207.760   107214347.83109  20402207.980    83543659.83549
  22589978.560   118711152.05408  22589979.120    92502217.57447
  23102591.380   121404897.73708  23102591.720    94601201.04947
  21004912.320   110381575.62509  21004910.880    86011612.37548
  20784927.320   109225540.10009  20784923.660    85110793.41748
 15 02 15 09 48  0.0000000  0  9G01G03G06G07G09G10G17G20G23
  23556709.720   123791285.84608  23556714.200    96460730.13446
  21796422.580   114540951.25709  21796424.660    89252684.05648
  21490050.460   112931004.97509  21490052.760    87998197.09948
  23103513.140   121409812.65609  23103514.520    94605072.04847
  20398909.800   107197017.45709  20398910.100    83530155.66049
  22575683.340   118636030.23209  22575683.940    92443681.17146
  23115974.080   121475226.06508  23115974.980    94656002.23847
  20995646.760   110332884.58409  20995645.260    85973671.32448
  20791771.060   109261503.63109  20791767.280    85138816.92948
 15 02 15 09 48 30.0000000  0  9G01G03G06G07G09G10G17G20G23
  23576421.160   123894869.59408  23576425.600    96541444.57746
  21806078.240   114591691.18409  21806080.200    89292221.63648
  21477686.820   112866033.65009  21477689.160    87947570.11948
  23084691.780   121310906.33009  23084693.080    94528002.26647
  20395692.580   107180111.34109  20395692.940    83516982.07049
  22561410.120   118561024.19109  22561410.680    92385234.99746
  23129410.880   121545837.59908  23129411.980    94711024.11447
  20986418.700   110284390.85709  20986417.160    85935884.02148
  20798676.100   109297789.41009  20798672.220    85167091.54148
 15 02 15 09 49  0.0000000  0  9G01G03G06G07G09G10G17G20G23
  23596167.160   123998635.04908  23596171.740    96622300.62047
  21815769.780   114642619.69009  21815771.660    89331906.15648
  21465401.340   112801473.02209  21465403.660    87897263.15548
  23065897.940   121212144.28108  23065899.140    94451044.91847
  20392555.720   107163627.35609  20392556.160    83504137.40549
  22547158.820   118486133.13008  22547159.200    92326878.34146
  23142900.920   121616727.75408  23142901.900    94766263.08347
  20977228.080   110236094.12509  20977226.560    85898250.22048
  20805641.760   109334394.14709  20805637.880    85195614.68748
 15 02 15 09 49 30.0000000  0  9G01G03G06G07G09G10G17G20G23
  23615947.820   124102582.76408  23615952.760    96703298.63546
  21825497.700   114693739.37909  21825499.320    89371739.66248
  21453195.000   112737327.99409  21453197.160    87847280.04148
  23047132.640   121113532.17709  23047133.760    94374204.45047
  20389499.580   107147567.30309  20389500.060    83491623.08049
  22532930.060   118411360.10508  22532930.320    92268613.70047
  23156443.840   121687895.98708  23156444.780    94821718.74947
  20968075.620   110187997.81009  20968074.100    85860772.59248
  20812668.280   109371319.00109  20812664.460    85224387.27148
 15 02 15 09 50  0.0000000  0  9G01G03G06G07G09G10G17G20G23
  23635762.880   124206711.47108  23635768.020    96784437.69447
  21835262.060   114745051.12809  21835263.500    89411722.81648
  21441068.300   112673601.64309  21441070.340    87797623.16648
  23028396.480   121015073.24909  23028397.500    94297483.35347
  20386524.160   107131931.24709  20386524.580    83479439.12849
  22518723.940   118336706.47008  22518724.240    92210442.12646
  23170039.080   121759339.80008  23170040.100    94877389.13847
  20958961.540   110140103.35309  20958960.060    85823452.25348
  20819755.540   109408563.06409  20819751.800    85253408.58648
 15 02 15 09 50 30.0000000  0  9G01G03G06G07G09G10G17G20G23
  23655612.120   124311019.18208  23655617.320    96865716.26346
  21845062.960   114796555.24109  21845064.480    89451855.87348
  21429021.680   112610296.54309  21429023.680    87748294.54148
  23009690.000   120916770.38808  23009690.980    94220883.84447
  20383629.320   107116718.67109  20383629.720    83467585.16249
  22504540.720   118262173.28509  22504541.040    92152364.39346
  23183686.080   121831056.53308  23183687.320    94933272.21247
  20949886.060   110092411.94909  20949884.700    85786290.15248
  20826903.300   109446125.00109  20826899.640    85282677.59748
 15 02 15 09 51  0.0000000  0  9G01G03G06G07G09G10G17G20G23
  23675494.260   124415499.59508  23675499.520    96947129.35246
  21854899.580   114848247.42009  21854901.360    89492135.47048
  21417054.740   112547410.61309  21417056.900    87699292.54748
  22991012.900   120818622.06409  22991013.840    94144404.80847
  20380814.100   107101924.40609  20380814.460    83456057.15349
  22490379.700   118187756.75909  22490379.940    92094377.57046
  23197383.700   121903038.73708  23197385.040    94989362.10847
  20940848.660   110044920.16509  20940847.320    85749283.58848
  20834110.400   109483998.56709  20834106.760    85312189.43248
 15 02 15 09 51 30.0000000  0  9G01G03G06G07G09G10G17G20G23
  23695409.800   124520155.54208  23695414.920    97028679.23246
  21864772.980   114900132.72909  21864774.840    89532565.55448
  21405168.960   112484951.13209  21405171.320    87650622.84048
  22972366.700   120720636.04709  22972367.640    94068052.22447
  20378079.300   107087552.66209  20378079.700    83444858.37949
  22476241.900   118113462.38708  22476242.120    92036485.92546
  23211132.400   121975288.01508  23211133.560    95045660.13247
  20931850.400   109997633.85609  20931848.980    85712437.12348
  20841377.500   109522187.05709  20841373.800    85341946.65848
 15 02 15 09 52  0.0000000  0  9G01G03G06G07G09G10G17G20G23
  23715357.620   124624981.05808  23715362.560    97110361.29146
  21874682.380   114952207.42709  21874684.260    89573143.22148
  21393364.160   112422916.60009  21393366.620    87602284.27048
  22953751.140   120622811.26809  22953752.140    93991825.27347
  20375423.980   107073598.85609  20375424.420    83433985.27649
  22462126.740   118039286.94909  22462127.020    91978686.94447
  23224930.740   122047797.34108  23224931.600    95102160.78747
  20922890.720   109950550.08609  20922889.160    85675748.49248
  20848703.480   109560684.94809  20848699.760    85371944.98248
 15 02 15 09 52 30.0000000  0  9G01G03G06G07G09G10G17G20G23
  23735337.680   124729976.58808  23735342.580    97192175.73346
  21884628.260   115004473.97809  21884630.220    89613870.37948
  21381641.180   112361311.69809  21381643.600    87554280.45448
  22935167.240   120525152.73709  22935168.100    93915727.83747
  20372848.460   107060064.59109  20372848.920    83423439.08149
  22448034.860   117965233.73308  22448035.140    91920983.18247
  23238778.500   122120566.49708  23238779.140    95158863.90547
  20913970.160   109903671.94009  20913968.480    85639220.07748
  20856088.480   109599493.10109  20856084.760    85402185.06848
 15 02 15 09 53  0.0000000  0  9G01G03G06G07G09G10G17G20G23
  23755349.720   124835139.87208  23755354.620    97274120.99846
  21894610.700   115056932.48509  21894612.720    89654747.10748
  21370000.380   112300138.70809  21370002.760    87506613.20248
  22916615.480   120427663.26609  22916616.220    93839762.18547
  20370352.640   107046949.04709  20370353.080    83413219.16049
  22433966.220   117891303.19809  22433966.480    91863375.07546
  23252674.980   122193591.90708  23252675.580    95215766.71247
  20905088.860   109857000.21509  20905087.060    85602852.51148
  20863532.200   109638609.69309  20863528.440    85432665.49548
 15 02 15 09 53 30.0000000  0  9G01G03G06G07G09G10G17G20G23
  23775393.020   124940467.78508  23775397.980    97356194.44746
  21904629.500   115109581.83709  21904631.580    89695772.54748
  21358441.920   112239398.76109  21358444.280    87459283.38548
  22898096.140   120330344.33209  22898096.680    93763929.39147
  20367936.120   107034250.25609  20367936.560    83403323.98649
  22419920.860   117817494.86609  22419921.020    91805862.14946
  23266619.400   122266869.44408  23266620.060    95272865.97647
  20896246.840   109810535.03109  20896245.020    85566645.88948
  20871034.120   109678032.10209  20871030.300    85463384.22348
 15 02 15 09 54  0.0000000  0  9G01G03G06G07G09G10G17G20G23
  23795467.040   125045956.51108  23795472.160    97438393.23446
  21914684.400   115162420.45609  21914686.440    89736945.47148
  21346965.920   112179092.45009  21346968.300    87412291.47348
  22879609.540   120233197.57609  22879609.980    93688230.75947
  20365598.460   107021965.71509  20365598.880    83393751.60449
  22405898.620   117743807.72909  22405898.680    91748443.66446
  23280610.960   122340394.47608  23280611.520    95330158.09047
  20887443.980   109764275.51609  20887442.140    85530599.52048
  20878593.480   109717756.78309  20878589.660    85494338.48548
 15 02 15 09 54 30.0000000  0  9G01G03G06G07G09G10G17G20G23
  23815572.400   125151609.52708  23815577.300    97520720.07046
  21924776.360   115215453.99809  21924778.480    89778270.28848
  21335574.040   112119227.64309  21335576.360    87365643.58649
  22861157.180   120136230.60509  22861157.600    93612672.19747
  20363340.580   107010100.18109  20363340.960    83384505.74249
  22391900.660   117670248.12108  22391900.780    91691124.51747
  23294650.040   122414169.12308  23294650.420    95387644.68947
  20878681.460   109718228.04709  20878679.640    85494718.39548
  20886211.160   109757787.76509  20886207.340    85525531.43748
 15 02 15 09 55  0.0000000  0  9G01G03G06G07G09G10G17G20G23
  23835707.560   125257418.96708  23835712.340    97603168.77146
  21934904.360   115268676.77209  21934906.720    89819742.56148
  21324265.500   112059800.79909  21324267.760    87319336.97648
  22842738.600   120039440.74709  22842738.900    93537251.65047
  20361161.100   106998647.01509  20361161.520    83375581.20949
  22377925.980   117596810.75509  22377926.140    91633900.64146
  23308734.920   122488184.47208  23308735.220    95445318.87247
  20869958.340   109672387.79209  20869956.540    85458998.73748
  20893885.740   109798117.59809  20893881.860    85556957.27548
 15 02 15 09 55 30.0000000  0  9G01G03G06G07G09G10G17G20G23
  23855872.760   125363386.31308  23855877.720    97685740.51846
  21945069.160   115322092.49709  21945071.480    89861365.17148
  21313041.380   112000817.79409  21313043.680    87273376.20648
  22824354.900   119942834.28509  22824355.160    93461973.99147
  20359060.540   106987608.96309  20359061.060    83366980.14049
  22363975.400   117523499.89709  22363975.480    91576775.33047
  23322865.680   122562441.03408  23322865.960    95503181.00747
  20861275.540   109626759.37809  20861273.760    85423444.13848
  20901617.520   109838748.07409  20901613.560    85588617.36348
 15 02 15 09 56  0.0000000  0  9G01G03G06G07G09G10G17G20G23
  23876067.380   125469508.29708  23876072.560    97768432.74246
  21955270.480   115375700.15909  21955272.620    89903137.33948
  21301901.940   111942279.75009  21301904.240    87227762.17248
  22806006.460   119846412.80309  22806006.780    93386840.49047
  20357038.560   106976984.05909  20357039.220    83358701.01249
  22350048.860   117450315.43009  22350048.880    91519748.51747
  23337041.420   122636934.58008  23337041.900    95561227.80147
  20852632.980   109581342.51609  20852631.240    85388054.38848
  20909405.920   109879676.40209  20909401.940    85620509.55148
 15 02 15 09 56 30.0000000  0  9G01G03G06G07G09G10G17G20G23
  23896290.940   125575782.53708  23896296.060    97851243.64546
  21965508.180   115429499.41809  21965510.300    89945058.81848
  21290847.520   111884188.52009  21290849.800    87182496.29348
  22787693.720   119750178.65509  22787694.080    93311852.94647
  20355095.000   106966771.03209  20355095.760    83350742.81749
  22336146.380   117377257.60709  22336146.480    91462820.38646
  23351261.580   122711661.47908  23351262.200    95619456.42747
  20844030.780   109536137.90709  20844029.060    85352830.03848
  20917250.580   109920900.75509  20917246.660    85652632.40748
 15 02 15 09 57  0.0000000  0  9G01G03G06G07G09G10G17G20G23
  23916543.860   125682211.63308  23916549.100    97934175.19546
  21975783.100   115483495.09909  21975785.480    89987133.32248
  21279879.480   111826551.00409  21279881.660    87137583.95748
  22769418.020   119654139.49209  22769418.400    93237017.31347
  20353230.580   106956973.70109  20353231.340    83343108.54649
  22322269.080   117304331.83509  22322269.100    91405995.13646
  23365526.480   122786623.39308  23365527.040    95677868.17547
  20835470.060   109491151.38309  20835468.380    85317775.62448
  20925152.140   109962424.09309  20925148.260    85684988.25548
 15 02 15 09 57 30.0000000  0  9G01G03G06G07G09G10G17G20G23
  23936825.220   125788790.31808  23936830.380    98017223.33546
  21986094.800   115537684.26309  21986097.460    90029358.58948
  21268997.660   111769366.39409  21268999.780    87093024.53148
  22751179.260   119558294.81109  22751179.820    93162333.23147
  20351444.560   106947588.12409  20351445.260    83335795.12549
  22308416.380   117231535.59208  22308416.320    91349270.83447
  23379834.920   122861814.13808  23379835.500    95736458.24347
  20826950.400   109446380.34609  20826948.700    85282889.12048
  20933109.760   110004241.63209  20933105.920    85717573.35248
 15 02 15 09 58  0.0000000  0  9G01G03G06G07G09G10G17G20G23
  23957134.560   125895516.74408  23957140.060    98100386.53846
  21996443.420   115592067.13809  21996446.180    90071734.82248
  21258202.480   111712637.10709  21258204.560    87048819.90148
  22732978.100   119462647.64209  22732978.840    93087803.03347
  20349736.820   106938613.60009  20349737.460    83328801.99949
  22294588.460   117158870.02308  22294588.620    91292648.34547
  23394186.220   122937230.65008  23394186.960    95795224.24747
  20818472.020   109401826.19209  20818470.300    85248171.61848
  20941123.060   110046352.09609  20941119.360    85750386.69948
 15 02 15 09 58 30.0000000  0  9G01G03G06G07G09G10G17G20G23
  23977471.260   126002387.00508  23977477.140    98183661.83546
  22006828.660   115646642.08909  22006831.280    90114260.69548
  21247494.040   111656363.57209  21247496.120    87004970.40048
  22714814.740   119367199.04009  22714815.540    93013427.54747
  20348106.800   106930047.43309  20348107.340    83322127.06549
  22280785.180   117086334.26109  22280785.520    91236127.02647
  23408579.480   123012868.24908  23408580.580    95854162.50747
  20810034.720   109357488.05509  20810033.000    85213622.43748
  20949191.400   110088751.98509  20949187.860    85783425.57148
 15 02 15 09 59  0.0000000  0  9G01G03G06G07G09G10G17G20G23
  23997834.900   126109398.49208  23997840.860    98267047.16646
  22017250.380   115701408.66909  22017252.920    90156935.89748
  21236872.600   111600547.46309  21236874.740    86961477.33649
  22696689.600   119271951.20709  22696690.420    92939208.49947
  20346554.200   106921888.22309  20346554.660    83315769.24149
  22267006.620   117013928.11708  22267006.980    91179706.67947
  23423014.080   123088722.94608  23423015.600    95913269.92447
  20801638.580   109313366.57509  20801636.960    85179242.08348
  20957314.360   110131438.77709  20957310.980    85816687.99648
 15 02 15 09 59 30.0000000  0  9G01G03G06G07G09G10G17G20G23
  24018225.160   126216549.49108  24018231.240    98350541.23346
  22027708.780   115756367.44509  22027711.260    90199760.86648
  21226338.620   111545191.42609  21226340.820    86918342.77949
  22678603.280   119176907.18009  22678604.060    92865148.26547
  20345078.920   106914135.46909  20345079.380    83309728.15149
  22253253.020   116941652.75008  22253253.380    91123388.25647
  23437489.660   123164792.06808  23437491.240    95972544.42947
  20793283.880   109269462.79809  20793282.300    85145031.37748
  20965491.760   110174411.50409  20965488.460    85850173.22848
 15 02 15 10 00  0.0000000  0 10G01G02G03G06G07G09G10G17G20G23
  24038641.700   126323838.63608  24038647.860    98434142.91946
  24856825.360   130623495.57107  24856824.040   101784546.98345
  22038203.980   115811519.17909  22038206.460    90242736.17848
  21215892.700   111490298.29509  21215894.980    86875568.92748
  22660556.440   119082070.48509  22660557.140    92791249.57647
  20343680.960   106906788.93209  20343681.460    83304003.57049
  22239524.640   116869509.77409  22239524.920    91067173.00146
  23452005.740   123241073.45308  23452007.040    96031984.33146
  20784971.000   109225778.57609  20784969.400    85110991.74848
  20973723.520   110217669.30109  20973720.140    85883880.59448
 15 02 15 10 00 30.0000000  0 10G01G02G03G06G07G09G10G17G20G23
  24059083.980   126431262.28408  24059089.880    98517849.43246
  24837264.700   130520704.05107  24837263.740   101704449.80045
  22048735.680   115866862.53309  22048737.920    90285860.82248
  21205535.080   111435868.81609  21205537.360    86833156.35648
  22642549.360   118987442.77709  22642549.980    92717513.73147
  20342359.780   106899846.19709  20342360.340    83298593.64349
  22225821.380   116797498.55708  22225821.520    91011060.38047
  23466561.280   123317562.08108  23466562.300    96091585.73246
  20776699.820   109182313.81009  20776698.300    85077123.12148
  20982009.000   110261208.85409  20982005.420    85917807.50848
 15 02 15 10 01  0.0000000  0 10G01G02G03G06G07G09G10G17G20G23
  24079551.940   126538820.69708  24079557.840    98601660.93746
  24817721.780   130418004.69508  24817720.640   101624424.38245
  22059304.340   115922399.94209  22059306.440    90329136.67648
  21195266.560   111381907.44509  21195268.760    86791108.54448
  22624582.920   118893028.65009  22624583.540    92643944.31847
  20341115.660   106893308.68109  20341116.300    83293499.47449
  22212143.780   116725622.24109  22212143.900    90955052.91947
  23481156.040   123394257.31108  23481156.920    96151348.12847
  20768470.940   109139071.25809  20768469.500    85043427.65148
  20990348.180   110305030.88609  20990344.480    85951954.53448
 15 02 15 10 01 30.0000000  0 10G01G02G03G06G07G09G10G17G20G23
  24100045.400   126646513.00108  24100051.180    98685576.76246
  24798196.840   130315400.72908  24798195.560   101544473.32245
  22069910.120   115978132.76209  22069912.200    90372564.79648
  21185087.800   111328417.59809  21185089.920    86749428.15248
  22606657.880   118798832.21809  22606658.500    92570544.52647
  20339948.720   106887176.63309  20339949.360    83288721.24349
  22198492.260   116653882.56808  22198492.340    90899151.87547
  23495789.660   123471157.17508  23495790.700    96211269.97547
  20760284.880   109096053.35109  20760283.460    85009907.22048
  20998741.040   110349134.95109  20998737.200    85986321.33048
 15 02 15 10 02  0.0000000  0 10G01G02G03G06G07G09G10G17G20G23
  24120564.000   126754337.11108  24120569.900    98769595.29845
  24778690.500   130212894.68308  24778689.320   101464598.61845
  22080553.020   116034061.12109  22080555.180    90416145.27948
  21174999.160   111275401.48709  21175001.260    86708116.91148
  22588774.840   118704856.51909  22588775.480    92497316.73547
  20338858.800   106881449.19309  20338859.460    83284258.30149
  22184866.880   116582280.88609  22184867.020    90843358.42446
  23510461.620   123548258.61408  23510462.860    96271348.89646
  20752141.820   109053261.31909  20752140.400    84976562.80048
  21007187.260   110393519.74009  21007183.340    86020906.86948
 15 02 15 10 02 30.0000000  0 10G01G02G03G06G07G09G10G17G20G23
  24141106.660   126862288.07308  24141112.460    98853712.70746
  24759202.640   130110486.05208  24759201.520   101384799.80545
  22091232.580   116090182.28309  22091234.900    90459876.00548
  21165000.600   111222858.39409  21165002.660    86667174.25649
  22570933.800   118611101.47109  22570934.420    92424260.87548
  20337845.200   106876122.51309  20337845.780    83280107.63749
  22171267.280   116510814.92309  22171267.420    90787670.68847
  23525170.860   123625555.78708  23525172.320    96331580.32247
  20744041.360   109010692.80209  20744039.780    84943392.54148
  21015685.900   110438180.69409  21015682.060    86055707.58248
 15 02 15 10 03  0.0000000  0 10G01G02G03G06G07G09G10G17G20G23
  24161673.740   126970367.86708  24161679.700    98937930.45646
  24739734.440   130008180.79908  24739733.240   101305081.50045
  22101949.540   116146500.37509  22101951.880    90503760.18948
  21155093.280   111170794.45909  21155095.280    86626604.97849
  22553136.020   118517573.66609  22553136.640    92351382.09348
  20336908.500   106871199.67509  20336908.920    83276271.65549
  22157694.340   116439489.40709  22157694.620    90732092.42347
  23539917.560   123703049.36508  23539919.160    96391964.79946
  20735984.500   108968353.36709  20735982.780    84910400.78448
  21024237.480   110483120.00809  21024233.760    86090725.21448
 15 02 15 10 03 30.0000000  0 10G01G02G03G06G07G09G10G17G20G23
  24182264.360   127078571.52008  24182270.640    99022244.71946
  24720285.800   129905978.57208  24720284.740   101225443.51645
  22112703.440   116203012.75309  22112705.680    90547795.76748
  21145277.000   111119209.05009  21145278.940    86586408.58049
  22535381.420   118424273.03909  22535382.080    92278680.35148
  20336047.920   106866676.93609  20336048.240    83272747.43949
  22144147.880   116368302.36809  22144148.200    90676622.04447
  23554700.460   123780733.40608  23554701.980    96452497.69146
  20727970.920   108926241.47009  20727969.160    84877586.33448
  21032841.160   110528333.28509  21032837.560    86125956.32148
 15 02 15 10 04  0.0000000  0 10G01G02G03G06G07G09G10G17G20G23
  24202877.740   127186894.49608  24202884.000    99106651.97046
  24700856.840   129803879.47908  24700855.740   101145885.85046
  22123493.880   116259717.12409  22123496.180    90591980.92048
  21135551.600   111068101.79609  21135553.520    86546584.76949
  22517670.180   118331199.96009  22517670.840    92206155.91348
  20335262.740   106862550.82709  20335263.080    83269532.28349
  22130627.420   116297251.96609  22130627.640    90621258.15047
  23569518.440   123858602.26908  23569519.920    96513174.56646
  20720000.280   108884355.15909  20719998.500    84844947.65048
  21041496.220   110573816.57309  21041492.780    86161397.80748
 15 02 15 10 04 30.0000000  0 10G01G02G03G06G07G09G10G17G20G23
  24223514.220   127295338.64808  24223520.540    99191153.62946
  24681448.720   129701889.25908  24681447.480   101066412.98945
  22134321.620   116316617.48709  22134323.840    90636318.81648
  21125918.280   111017478.78609  21125920.220    86507138.28048
  22500003.620   118238361.22209  22500004.260    92133814.06548
  20334553.600   106858824.34209  20334553.980    83266628.52249
  22117133.920   116226343.29009  22117134.080    90566004.69547
  23584371.780   123936657.03708  23584373.220    96573996.33047
  20712073.540   108842699.77809  20712071.760    84812488.91948
  21050203.140   110619571.91509  21050199.760    86197051.29248
 15 02 15 10 05  0.0000000  0 10G01G02G03G06G07G09G10G17G20G23
  24244172.480   127403897.38608  24244178.800    99275744.58946
  24662060.960   129600006.12407  24662059.440   100987023.62745
  22145185.880   116373709.50809  22145187.980    90680806.04848
  21116376.660   110967337.59209  21116378.600    86468067.24049
  22482381.360   118145755.06609  22482381.900    92061653.48448
  20333919.460   106855491.98509  20333919.880    83264031.88849
  22103666.780   116155572.92609  22103666.920    90510859.00647
  23599259.060   124014889.73008  23599260.500    96634956.73746
  20704190.080   108801271.76909  20704188.220    84780207.35648
  21058960.780   110665593.53709  21058957.420    86232912.26948
 15 02 15 10 05 30.0000000  0 11G01G02G03G06G07G09G10G17G20G23G30
  24264853.160   127512574.41508  24264859.640    99360427.68946
  24642695.100   129498238.10508  24642693.500   100907723.98144
  22156087.800   116430999.04309  22156089.860    90725447.20748
  21106928.240   110917686.10109  21106930.200    86429377.78548
  22464805.000   118053390.34709  22464805.460    91989681.02948
  20333361.220   106852558.59009  20333361.660    83261746.13249
  22090227.140   116084947.39809  22090227.280    90455826.20347
  23614180.860   124093303.46508  23614182.260    96696058.22346
  20696351.180   108760078.05809  20696349.360    84748108.36948
  21067770.020   110711885.63009  21067766.520    86268984.00448
  24729011.380   129951836.39208  24729019.620   101261173.12545
 15 02 15 10 06  0.0000000  0 11G01G02G03G06G07G09G10G17G20G23G30
  24285555.320   127621364.12008  24285561.940    99445198.61246
  24623351.020   129396584.30308  24623349.260   100828513.31745
  22167026.660   116488482.79908  22167028.800    90770239.69748
  21097572.720   110868522.94009  21097574.760    86391068.84749
  22447274.220   117961265.72109  22447274.660    91917895.67648
  20332878.080   106850019.64309  20332878.520    83259767.74649
  22076814.600   116014463.88509  22076814.620    90400904.04347
  23629135.780   124171891.27708  23629137.200    96757295.33446
  20688556.380   108719116.30209  20688554.680    84716190.12348
  21076629.780   110758442.96909  21076626.120    86305262.42948
  24708023.340   129841545.78608  24708031.320   101175232.80545
 15 02 15 10 06 30.0000000  0 11G01G02G03G06G07G09G10G17G20G23G30
  24306278.860   127730265.91508  24306285.340    99530056.88546
  24604029.500   129295048.34108  24604027.420   100749394.42145
  22178002.740   116546162.40409  22178005.100    90815184.79148
  21088310.760   110819851.63509  21088312.960    86353143.16649
  22429789.940   117869385.86909  22429790.420    91846301.04948
  20332470.140   106847875.64909  20332470.560    83258097.10849
  22063429.440   115944124.74208  22063429.380    90346094.39247
  23644123.540   124250651.79208  23644124.900    96818667.02246
  20680806.180   108678388.78409  20680804.600    84684454.39948
  21085539.900   110805265.44309  21085536.160    86341747.45148
  24687028.620   129731218.58707  24687036.000   101089263.84746
 15 02 15 10 07  0.0000000  0 11G01G02G03G06G07G09G10G17G20G23G30
  24327022.480   127839273.03408  24327029.020    99614997.22045
  24584729.960   129193628.07707  24584727.800   100670365.72246
  22189015.340   116604033.29909  22189017.660    90860278.92948
  21079141.960   110771669.56009  21079144.260    86315598.70249
  22412351.820   117777748.63909  22412352.340    91774895.48747
  20332136.300   106846120.89309  20332136.620    83256729.77349
  22050071.060   115873926.55909  22050071.000    90291394.59147
  23659142.660   124329576.88508  23659143.820    96880166.96946
  20673099.980   108637892.15909  20673098.400    84652898.59348
  21094499.120   110852346.82409  21094495.440    86378434.21148
  24666026.340   129620852.45008  24666033.940   101003264.68045
 15 02 15 10 07 30.0000000  0 11G01G02G03G06G07G09G10G17G20G23G30
  24347787.340   127948391.88508  24347793.880    99700024.60446
  24565454.380   129092334.18908  24565452.400   100591435.51845
  22200066.080   116662104.10209  22200068.200    90905528.86348
  21070068.320   110723987.31709  21070070.660    86278443.71549
  22394962.120   117686365.63809  22394962.680    91703688.01748
  20331877.960   106844762.86809  20331878.160    83255671.58149
  22036741.360   115803878.61309  22036741.240    90236811.83347
  23674194.080   124408672.13708  23674195.340    96941799.48146
  20665439.580   108597636.02309  20665437.880    84621530.16748
  21103508.900   110899694.15009  21103505.360    86415328.20548
  24645018.780   129510458.53507  24645026.360   100917243.73845
 15 02 15 10 08  0.0000000  0 11G01G02G03G06G07G09G10G17G20G23G30
  24368572.080   128057614.95708  24368578.620    99785133.20145
  24546202.160   128991163.78108  24546200.320   100512601.50346
  22211153.800   116720369.54709  22211155.740    90950930.47148
  21061089.220   110676801.47909  21061091.480    86241675.55149
  22377620.420   117595234.30009  22377620.980    91632676.66748
  20331693.860   106843795.17709  20331694.020    83254917.56249
  22023439.380   115733976.29109  22023439.200    90182342.55147
  23689276.180   124487928.94808  23689277.600    97003557.90946
  20657824.120   108557615.99509  20657822.300    84590345.74548
  21112567.900   110947300.17609  21112564.540    86452423.79148
  24624005.600   129400034.09908  24624012.860   100831198.98944
 15 02 15 10 08 30.0000000  0 11G01G02G03G06G07G09G10G17G20G23G30
  24389376.020   128166939.01508  24389382.660    99870320.44245
  24526973.540   128890117.98107  24526971.700   100433864.57346
  22222278.180   116778828.67709  22222280.260    90996482.97448
  21052204.760   110630113.01609  21052206.860    86205294.92749
  22360326.840   117504355.85309  22360327.360    91561862.35848
  20331583.560   106843215.68109  20331583.740    83254466.01149
  22010165.080   115664219.32709  22010164.840    90127986.52247
  23704388.280   124567343.28308  23704389.960    97065439.05847
  20650253.520   108517832.05309  20650251.640    84559345.26448
  21121675.640   110995162.32409  21121672.400    86489718.93848
  24602987.000   129289580.54508  24602993.760   100745131.44445
 15 02 15 10 09  0.0000000  0 11G01G02G03G06G07G09G10G17G20G23G30
  24410199.860   128276367.97408  24410206.580    99955589.44845
  24507770.320   128789205.48808  24507768.640   100355231.55445
  22233440.520   116837487.52209  22233442.860    91042191.11848
  21043416.380   110583929.84909  21043418.420    86169308.05249
  22343083.040   117413739.08309  22343083.440    91491251.96848
  20331548.020   106843029.24009  20331548.260    83254320.74649
  21996919.760   115594614.60609  21996919.420    90073749.13047
  23719530.900   124646917.77808  23719532.780    97127444.99246
  20642729.160   108478291.54509  20642727.280    84528534.47948
  21130833.060   111043285.06209  21130829.840    86527217.14948
  24581964.540   129179106.46208  24581971.240   100659047.91145
 15 02 15 10 09 30.0000000  0 11G01G02G03G06G07G09G10G17G20G23G30
  24431042.060   128385893.44408  24431048.740   100040933.64246
  24488591.800   128688422.08408  24488590.260   100276699.09146
  22244639.740   116896340.02009  22244642.060    91088050.16248
  21034723.300   110538247.72109  21034725.400    86133711.60749
  22325888.280   117323380.62609  22325888.600    91420842.87148
  20331585.900   106843228.61909  20331586.200    83254476.12349
  21983702.380   115525156.83609  21983702.020    90019626.24847
  23734702.340   124726643.09008  23734704.220    97189568.47746
  20635250.040   108438989.07409  20635248.280    84497909.18548
  21140038.540   111091660.22809  21140035.360    86564912.06348
  24560937.260   129068608.08808  24560944.240   100572945.50145
 15 02 15 10 10  0.0000000  0 11G01G02G03G06G07G09G10G17G20G23G30
  24451902.300   128495513.72308  24451909.180   100126351.71646
  24469438.440   128587770.63208  24469437.020   100198269.46646
  22255875.940   116955386.64109  22255878.260    91134060.46548
  21026126.040   110493069.00609  21026128.220    86098507.41849
  22308743.220   117233283.62409  22308743.520    91350637.50348
  20331697.060   106843813.10509  20331697.420    83254931.56949
  21970513.220   115455847.50109  21970512.880    89965619.03347
  23749901.940   124806516.53708  23749903.680    97251807.36346
  20627816.500   108399926.10709  20627814.860    84467470.49748
  21149291.960   111140287.05209  21149288.760    86602803.06248
  24539905.780   128958088.43108  24539913.120   100486826.44345
 15 02 15 10 10 30.0000000  0 11G01G02G03G06G07G09G10G17G20G23G30
  24472780.620   128605228.58808  24472787.360   100211843.50545
  24450311.140   128487255.47408  24450309.480   100119946.00146
  22267149.460   117014629.36209  22267151.980    91180223.57448
  21017625.340   110448397.58409  21017627.600    86063698.52349
  22291648.800   117143452.72109  22291649.120    91280639.47648
  20331881.720   106844783.55209  20331882.080    83255687.77449
  21957352.800   115386689.51809  21957352.520    89911729.75447
  23765129.440   124886536.79608  23765130.860    97314160.66846
  20620429.120   108361105.77809  20620427.560    84437220.90248
  21158593.320   111189165.72109  21158590.060    86640890.30448
  24518871.420   128847552.09608  24518878.740   100400694.34945
 15 02 15 10 11  0.0000000  0 11G01G02G03G06G07G09G10G17G20G23G30
  24493676.480   128715035.40708  24493683.240   100297406.91645
  24431210.100   128386878.49008  24431208.300   100041730.22546
  22278460.300   117074067.79409  22278462.880    91226539.17548
  21009221.520   110404234.80509  21009223.720    86029285.96249
  22274605.560   117053890.19509  22274605.860    91210850.57548
  20332139.560   106846138.32909  20332139.840    83256743.45049
  21944221.240   115317682.93609  21944221.060    89857958.44447
  23780384.200   124966700.37308  23780385.320    97376625.65646
  20613088.000   108322528.50209  20613086.520    84407160.68748
  21167942.160   111238293.95209  21167938.840    86679172.00448
  24497834.460   128737001.14808  24497841.340   100314550.79845
 15 02 15 10 11 30.0000000  0 11G01G02G03G06G07G09G10G17G20G23G30
  24514589.680   128824933.35208  24514596.520   100383041.34345
  24412135.980   128286643.47308  24412134.280    99963625.13945
  22289808.620   117133703.36309  22289811.100    91273008.41148
  21000915.120   110360583.94209  21000917.220    85995272.31749
  22257614.080   116964599.64809  22257614.420    91141273.61848
  20332470.600   106847877.67009  20332470.840    83258098.79949
  21931118.980   115248830.19209  21931118.860    89804307.01947
  23795665.780   125047005.51008  23795666.900    97439200.95646
  20605793.700   108284196.88409  20605792.260    84377291.90648
  21177338.520   111287671.51109  21177335.140    86717647.99948
  24476795.400   128626439.42208  24476801.820   100228398.88545
 15 02 15 10 12  0.0000000  0 11G01G02G03G06G07G09G10G17G20G23G30
  24535520.060   128934921.78508  24535527.000   100468746.26345
  24393089.560   128186554.26008  24393087.980    99885633.63145
  22301194.680   117193537.59909  22301197.120    91319632.44647
  20992706.700   110317448.32509  20992708.700    85961660.15049
  22240675.240   116875585.61409  22240675.600    91071912.13348
  20332874.800   106850001.91309  20332875.100    83259754.05949
  21918046.400   115180133.50709  21918046.200    89750777.18847
  23810973.820   125127450.40508  23810975.360    97501885.12446
  20598546.760   108246113.54209  20598545.240    84347616.58348
  21186782.360   111337298.43909  21186778.880    86756318.29248
  24455754.880   128515870.95008  24455761.440   100142241.75045
 15 02 15 10 12 30.0000000  0 11G01G02G03G06G07G09G10G17G20G23G30
  24556466.560   129044995.52708  24556473.620   100554517.65046
  24374070.700   128086610.28008  24374069.120    99807755.29545
  22312617.900   117253567.56709  22312620.380    91366408.97547
  20984596.020   110274826.76909  20984598.000    85928448.54549
  22223788.920   116786847.63009  22223789.280    91002765.73148
  20333351.420   106852506.90209  20333351.780    83261706.00149
  21905003.100   115111590.86809  21905002.860    89697367.37847
  23826307.320   125208028.90708  23826309.400    97564673.38746
  20591346.700   108208276.38809  20591345.060    84318133.09248
  21196272.740   111387170.11609  21196269.160    86795179.29448
  24434712.880   128405295.31408  24434719.480   100056079.00445
 15 02 15 10 13  0.0000000  0 11G01G02G03G06G07G09G10G17G20G23G30
  24577428.640   129155150.87608  24577435.960   100640352.62045
  24355079.620   127986812.11208  24355078.000    99729990.53846
  22324078.220   117313791.82109  22324080.620    91413336.90947
  20976583.220   110232719.65909  20976585.220    85895637.80749
  22206955.300   116698387.09509  22206955.740    90933835.55748
  20333899.980   106855389.96409  20333900.400    83263952.54549
  21891989.060   115043201.95209  21891988.800    89644077.35547
  23841665.560   125288736.24608  23841667.800    97627562.06946
  20584193.360   108170684.98809  20584191.640    84288841.10548
  21205809.080   111437283.30409  21205805.400    86834228.49048
  24413669.820   128294713.68408  24413676.540    99969911.60146
 15 02 15 10 13 30.0000000  0 11G01G02G03G06G07G09G10G17G20G23G30
  24598406.200   129265387.65708  24598413.520   100726251.03445
  24336117.220   127887164.58908  24336115.500    99652343.19146
  22335575.940   117374212.36409  22335578.240    91460417.78847
  20968669.160   110191130.73809  20968671.160    85863230.84149
  22190175.320   116610208.35409  22190175.700    90865124.94848
  20334520.600   106858651.93509  20334521.140    83266494.34049
  21879004.700   114974969.39209  21879004.520    89590909.17947
  23857048.220   125369571.54508  23857050.300    97690550.47546
  20577087.320   108133342.64009  20577085.660    84259743.18448
  21215391.340   111487638.18609  21215387.620    86873466.00948
  24392626.600   128184130.53808  24392633.340    99883742.98345
 15 02 15 10 14  0.0000000  0 11G01G02G03G06G07G09G10G17G20G23G30
  24619399.300   129375706.06508  24619406.880   100812213.03345
  24317184.300   127787672.21408  24317182.720    99574816.74746
  22347111.400   117434831.62609  22347113.960    91507653.52247
  20960854.580   110150064.18609  20960856.540    85831230.91649
  22173449.940   116522316.39409  22173450.260    90796637.79248
  20335213.560   106862294.00009  20335214.180    83269332.31649
  21866050.720   114906896.67209  21866050.700    89537865.54447
  23872454.940   125450533.29108  23872456.860    97753637.42146
  20570029.260   108096252.32409  20570027.620    84230841.65348
  21225019.760   111538235.81709  21225016.080    86912892.68948
  24371583.980   128073550.81008  24371590.580    99797577.04745
 15 02 15 10 14 30.0000000  0 11G01G02G03G06G07G09G10G17G20G23G30
  24640406.940   129486101.05708  24640414.520   100898234.73245
  24298280.860   127688334.42608  24298279.460    99497410.80146
  22358684.020   117495646.78708  22358686.860    91555041.91647
  20953139.160   110109518.93909  20953141.060    85799637.21349
  22156779.200   116434711.37909  22156779.400    90728374.24548
  20335978.160   106866312.16909  20335978.720    83272463.36449
  21853126.860   114838981.73409  21853126.840    89484944.85647
  23887884.640   125531616.17608  23887886.620    97816818.73846
  20563018.900   108059412.78909  20563017.300    84202135.54448
  21234693.480   111589071.45109  21234689.840    86952504.83148
  24350541.760   127962974.28807  24350548.420    99711413.62645
 15 02 15 10 15  0.0000000  0 11G01G02G03G06G07G09G10G17G20G23G30
  24661429.040   129596571.64308  24661436.660   100984315.29045
  24279407.640   127589155.15708  24279406.280    99420128.34045
  22370294.080   117556659.03108  22370297.280    91602583.86347
  20945523.440   110069497.89809  20945525.280    85768451.98249
  22140163.700   116347396.75509  22140163.800    90660336.97048
  20336814.380   106870706.35109  20336814.860    83275887.40849
  21840233.560   114771226.79809  21840233.500    89432148.83747
  23903336.980   125612818.28508  23903339.180    97880092.91046
  20556056.640   108022825.96309  20556055.020    84173626.34748
  21244412.400   111640144.65409  21244408.860    86992302.08948
  24329500.680   127852404.56608  24329507.260    99625255.53645
 15 02 15 10 15 30.0000000  0 11G01G02G03G06G07G09G10G17G20G23G30
  24682465.520   129707117.87807  24682473.260   101070454.83045
  24260565.340   127490138.40908  24260563.980    99342972.49446
  22381942.160   117617870.59109  22381945.520    91650281.10547
  20938008.220   110030004.96309  20938010.020    85737678.25849
  22123604.280   116260377.25409  22123604.440    90592529.66648
  20337722.360   106875477.51009  20337722.760    83279605.20349
  21827371.300   114703634.94009  21827371.160    89379479.89747
  23918811.740   125694138.77108  23918814.120    97943459.36746
  20549143.120   107986495.19909  20549141.440    84145316.67848
  21254176.660   111691456.28909  21254173.220    87032285.14348
  24308461.940   127741846.61008  24308468.640    99539106.61746
 15 02 15 10 16  0.0000000  0 11G01G02G03G06G07G09G10G17G20G23G30
  24703514.620   129817730.02908  24703522.520   101156645.68145
  24241753.020   127391279.29008  24241751.420    99265939.48346
  22393627.000   117679273.99109  22393630.240    91698127.86347
  20930592.460   109991034.45909  20930594.220    85707311.61349
  22107100.220   116173648.28709  22107100.400    90524948.74648
  20338700.480   106880617.04509  20338700.780    83283610.03549
  21814538.760   114636199.37909  21814538.540    89326932.74247
  23934306.840   125775566.12108  23934309.520    98006909.07446
  20542277.120   107950414.03609  20542275.360    84117201.49648
  21263984.520   111742997.08909  21263981.140    87072446.75548
  24287424.620   127631295.47308  24287431.560    99452963.08246
 15 02 15 10 16 30.0000000  0 11G01G02G03G06G07G09G10G17G20G23G30
  24724577.220   129928412.95208  24724585.200   101242891.71545
  24222972.580   127292587.61108  24222970.880    99189036.95645
  22405349.800   117740876.33609  22405352.800    91746129.62747
  20923277.720   109952595.03809  20923279.440    85677358.81449
  22090653.280   116087219.28109  22090653.480    90457601.55048
  20339749.800   106886130.70709  20339750.020    83287906.40649
  21801737.540   114568928.30909  21801737.280    89274513.77347
  23949823.200   125857104.60508  23949825.940    98070445.40346
  20535460.160   107914590.73209  20535458.360    84089287.25248
  21273837.020   111794772.37009  21273833.620    87112791.09448
  24266390.440   127520760.75408  24266397.420    99366832.35446
 15 02 15 10 17  0.0000000  0 11G01G02G03G06G07G09G10G17G20G23G30
  24745652.180   130039160.56008  24745660.300   101329188.09045
  24204223.740   127194061.74408  24204221.900    99112263.62246
  22417109.780   117802673.68209  22417112.600    91794283.34648
  20916063.560   109914684.52609  20916065.260    85647818.14349
  22074263.220   116001089.02709  22074263.380    90390487.14648
  20340869.320   106892013.37509  20340869.500    83292490.29949
  21788966.920   114501818.55309  21788966.680    89222220.49247
  23965359.480   125938747.09908  23965362.060    98134062.77546
  20528691.660   107879022.13509  20528689.820    84061571.47448
  21283733.120   111846776.84009  21283729.760    87153314.02248
  24245359.000   127410241.18407  24245365.960    99280713.49945
 15 02 15 10 17 30.0000000  0 11G01G02G03G06G07G09G10G17G20G23G30
  24766739.380   130149972.21608  24766747.700   101415534.36445
  24185507.140   127095705.47108  24185505.240    99035622.43546
  22428907.200   117864667.63809  22428909.860    91842590.30248
  20908950.640   109877306.14009  20908952.380    85618692.12749
  22057930.880   115915261.79309  22057930.920    90323608.85648
  20342059.120   106898265.40109  20342059.200    83297362.01349
  21776227.460   114434872.64309  21776227.200    89170054.88947
  23980915.320   126020491.95008  23980917.640    98197759.89646
  20521972.260   107843711.50009  20521970.380    84034056.70148
  21293672.760   111899010.35009  21293669.520    87194015.41248
  24224331.260   127299740.87808  24224337.960    99194609.71545
 15 02 15 10 18  0.0000000  0 11G01G02G03G06G07G09G10G17G20G23G30
  24787839.180   130260849.82008  24787847.360   101501932.03445
  24166823.960   126997525.13608  24166821.980    98959118.32546
  22440742.560   117926862.23909  22440745.120    91891053.54347
  20901940.080   109840465.51909  20901941.900    85589985.14649
  22041657.320   115829743.85809  22041657.320    90256971.58648
  20343319.620   106904889.53109  20343319.720    83302523.66549
  21763520.140   114368095.67509  21763519.920    89118020.91247
  23996490.940   126102340.19708  23996492.900    98261537.55846
  20515302.880   107808663.49009  20515300.960    84006746.56848
  21303656.560   111951475.42309  21303653.400    87234897.24648
  24203308.580   127189266.47508  24203314.900    99108526.06145
 15 02 15 10 18 30.0000000  0 11G01G02G03G06G07G09G10G17G20G23G30
  24808950.360   130371787.55208  24808958.740   101588376.52245
  24148174.080   126899519.78908  24148172.140    98882750.60446
  22452615.280   117989253.86109  22452617.600    91939670.34247
  20895031.540   109804160.73609  20895033.340    85561695.71749
  22025442.520   115744534.51409  22025442.400    90190574.76648
  20344649.940   106911880.97009  20344650.140    83307971.54949
  21750844.500   114301485.13709  21750844.300    89066116.64647
  24012085.020   126184285.08908  24012086.620    98325390.56746
  20508682.980   107773875.67509  20508681.080    83979639.19948
  21313683.440   112004166.62109  21313680.260    87275955.30348
  24182290.700   127078817.00908  24182296.820    99022461.94545
 15 02 15 10 19  0.0000000  0 10G02G03G06G07G09G10G17G20G23G30
  24129557.160   126801687.51608  24129555.080    98806517.70146
  22464524.680   118051838.13609  22464526.800    91988437.24447
  20888224.420   109768388.96109  20888226.160    85533821.61249
  22009286.040   115659631.82509  22009285.860    90124416.89248
  20346049.060   106919234.02309  20346049.340    83313701.19749
  21738199.860   114235037.52609  21738199.700    89014339.31347
  24027695.860   126266319.12708  24027697.300    98389313.03546
  20502111.920   107739344.65309  20502110.080    83952731.92148
  21323752.160   112057078.00709  21323749.000    87317184.92848
  24161277.100   126968390.58908  24161283.220    98936415.84146
 15 02 15 10 19 30.0000000  0 10G02G03G06G07G09G10G17G20G23G30
  24110975.500   126704040.66508  24110973.480    98730429.31346
  22476472.620   118114625.00809  22476474.660    92037362.00647
  20881520.900   109733161.74109  20881522.560    85506371.83148
  21993190.240   115575048.19609  21993190.080    90058507.62248
  20347518.700   106926957.37209  20347519.020    83319719.37749
  21725588.360   114168763.69809  21725588.100    88962697.39047
  24043324.580   126348448.91308  24043326.160    98453310.10546
  20495591.900   107705081.61509  20495590.120    83926033.45348
  21333864.380   112110217.97909  21333861.240    87358592.67248
  24140270.140   126857999.71408  24140276.220    98850397.42246
 15 02 15 10 20  0.0000000  0 10G02G03G06G07G09G10G17G20G23G30
  24092428.640   126606576.49408  24092426.540    98654483.28246
  22488458.120   118177609.59808  22488460.360    92086440.82347
  20874920.380   109698475.79809  20874922.000    85479343.81749
  21977154.800   115490781.41309  21977154.620    89992845.24348
  20349057.720   106935044.90109  20349058.020    83326021.33749
  21713009.120   114102659.68509  21713008.860    88911187.80447
  24058969.700   126430666.69908  24058971.840    98517375.70746
  20489122.200   107671082.79609  20489120.400    83899540.87048
  21344018.920   112163580.17409  21344015.760    87400173.57748
  24119269.560   126747642.17208  24119275.440    98764404.95445
 15 02 15 10 20 30.0000000  0 10G02G03G06G07G09G10G17G20G23G30
  24073916.660   126509295.47208  24073914.580    98578679.95546
  22500480.920   118240789.63108  22500483.300    92135671.94847
  20868422.620   109664330.38309  20868424.400    85452737.02149
  21961179.700   115406831.72309  21961179.540    89927429.95348
  20350665.380   106943493.05909  20350665.700    83332604.30749
  21700462.080   114036724.58909  21700461.760    88859809.83447
  24074630.660   126512966.86308  24074633.300    98581505.51946
  20482702.580   107637347.08709  20482700.680    83873253.31448
  21354214.960   112217160.51609  21354211.800    87441924.47848
  24098275.380   126637318.27608  24098280.960    98678438.68645
 15 02 15 10 21  0.0000000  0 10G02G03G06G07G09G10G17G20G23G30
  24055440.180   126412201.06708  24055438.080    98503022.04346
  22512541.140   118304166.16009  22512543.780    92185056.17347
  20862028.140   109630728.10409  20862030.200    85426553.44749
  21945265.700   115323202.93009  21945265.440    89862264.70748
  20352341.700   106952301.66209  20352341.960    83339468.14349
  21687947.600   113970960.16209  21687947.240    88808564.85647
  24090307.200   126595347.30108  24090310.100    98645697.91446
  20476333.360   107603876.52109  20476331.380    83847172.36248
  21364452.380   112270958.39509  21364449.200    87483844.88948
  24077288.220   126527031.65808  24077293.680    98592501.46246
 15 02 15 10 21 30.0000000  0 10G02G03G06G07G09G10G17G20G23G30
  24037000.080   126315297.51608  24036997.900    98427512.82646
  22524639.100   118367741.10909  22524641.940    92234595.04147
  20855737.760   109597672.44409  20855740.000    85400795.80449
  21929413.560   115239899.39109  21929413.200    89797352.89348
  20354086.720   106961471.31809  20354086.900    83346613.31349
  21675466.140   113905369.47809  21675465.700    88757455.25447
  24105999.040   126677806.89708  24106001.820    98709951.98146
  20470015.080   107570674.27909  20470013.180    83821300.50648
  21374731.320   112324974.46309  21374728.160    87525935.31148
  24056308.840   126416786.81608  24056314.600    98506596.80146
 15 02 15 10 22  0.0000000  0 10G02G03G06G07G09G10G17G20G23G30
  24018596.740   126218587.42008  24018594.440    98352154.34446
  22536774.820   118431514.63009  22536777.560    92284288.61947
  20849551.720   109565165.01809  20849554.060    85375465.35749
  21913623.720   115156923.63409  21913623.360    89732696.49048
  20355900.240   106971000.95409  20355900.380    83354038.98449
  21663017.920   113839953.54909  21663017.480    88706481.83147
  24121705.280   126760342.43208  24121708.000    98774265.20746
  20463748.060   107537741.55309  20463746.260    83795638.64748
  21385051.520   112379207.29809  21385048.320    87568194.65348
  24035337.960   126306586.58308  24035343.820    98420726.82845
 15 02 15 10 22 30.0000000  0 10G02G03G06G07G09G10G17G20G23G30
  24000230.340   126122071.83308  24000228.000    98276947.45646
  22548948.080   118495485.23009  22548950.560    92334135.77147
  20843470.000   109533205.86509  20843472.340    85350562.13149
  21897896.520   115074276.88709  21897896.240    89668296.44848
  20357781.640   106980887.79609  20357781.780    83361742.99049
  21650602.860   113774711.97109  21650602.460    88655644.26847
  24137424.900   126842949.23008  24137427.800    98838633.94246
  20457532.300   107505077.95009  20457530.560    83770186.49948
  21395412.380   112433653.72809  21395409.120    87610620.42448
  24014375.920   126196432.15608  24014381.720    98334892.50446
 15 02 15 10 23  0.0000000  0 10G02G03G06G07G09G10G17G20G23G30
  23981901.600   126025753.79308  23981899.280    98201894.48346
  22561158.900   118559653.40409  22561161.440    92384136.86247
  20837492.980   109501796.89909  20837495.280    85326087.62749
  21882232.480   114991961.98509  21882232.260    89604154.99548
  20359730.800   106991131.01909  20359730.980    83369724.69549
  21638221.260   113709646.14509  21638220.860    88604943.65747
  24153157.640   126925625.15308  24153160.600    98903056.55646
  20451368.060   107472685.03109  20451366.360    83744945.27048
  21405813.640   112488312.71309  21405810.360    87653211.82248
  23993423.240   126086326.60608  23993428.860    98249096.23846
 15 02 15 10 23 30.0000000  0 10G02G03G06G07G09G10G17G20G23G30
  23963610.200   125929632.09508  23963608.020    98126994.52446
  22573406.760   118624015.56009  22573409.400    92434289.12347
  20831620.360   109470936.09909  20831622.620    85302040.25449
  21866631.420   114909977.83609  21866631.220    89540271.27448
  20361746.820   107001725.81709  20361747.100    83377980.36449
  21625872.640   113644753.56709  21625872.200    88554378.04547
  24168902.380   127008363.72608  24168905.440    98967527.99246
  20445254.860   107440560.40009  20445253.240    83719913.10448
  21416254.400   112543179.15909  21416251.020    87695964.88748
  23972479.720   125976269.03208  23972485.400    98163337.34946
 15 02 15 10 24  0.0000000  0 10G02G03G06G07G09G10G17G20G23G30
  23945357.820   125833715.30408  23945355.760    98052254.23746
  22585692.700   118688577.75709  22585695.320    92484597.25447
  20825853.520   109440630.92709  20825855.740    85278425.85149
  21851095.060   114828333.43209  21851094.800    89476652.27548
  20363830.760   107012676.98009  20363831.020    83386513.71749
  21613558.360   113580041.43409  21613557.820    88503953.03547
  24184659.700   127091167.45408  24184662.560    99032050.20146
  20439194.140   107408711.44309  20439192.540    83695095.74748
  21426735.460   112598257.28509  21426732.040    87738882.88948
  23951547.060   125866268.15208  23951552.780    98077622.59546
 15 02 15 10 24 30.0000000  0 10G02G03G06G07G09G10G17G20G23G30
  23927144.860   125738005.42408  23927142.700    97977675.13946
  22598016.400   118753339.16109  22598019.060    92535060.59247
  20820192.480   109410881.91709  20820194.740    85255244.82049
  21835623.580   114747030.08209  21835623.220    89413299.03448
  20365982.160   107023982.33009  20365982.360    83395323.06649
  21601278.360   113515509.85309  21601277.800    88453668.72347
  24200428.640   127174032.23208  24200431.340    99096619.98845
  20433186.020   107377138.43309  20433184.400    83670493.41448
  21437256.400   112653545.17709  21437253.000    87781964.34748
  23930625.600   125756325.80508  23930631.220    97991953.41346
 15 02 15 10 25  0.0000000  0 10G02G03G06G07G09G10G17G20G23G30
  23908971.320   125642502.68208  23908969.020    97903257.45946
  22610377.660   118818298.04409  22610380.380    92585677.84347
  20814637.240   109381688.85409  20814639.460    85232496.99149
  21820217.160   114666069.16609  21820216.820    89350212.63448
  20368200.440   107035638.98609  20368200.600    83404406.15849
  21589032.600   113451158.37509  21589032.060    88403524.75347
  24216208.300   127256953.62008  24216210.960    99161233.86745
  20427230.280   107345840.79809  20427228.640    83646105.66348
  21447816.600   112709039.47609  21447813.260    87825206.62548
  23909715.520   125646443.00308  23909721.000    97906330.61045
 15 02 15 10 25 30.0000000  0 10G02G03G06G07G09G10G17G20G23G30
  23890837.340   125547208.02408  23890834.920    97829001.93446
  22622776.240   118883452.89608  22622778.880    92636447.78147
  20809187.800   109353051.53609  20809189.920    85210182.19649
  21804875.900   114585450.87909  21804875.660    89287393.22048
  20370484.960   107047644.01209  20370485.120    83413760.71849
  21576820.980   113386986.43109  21576820.400    88353520.69247
  24231997.840   127339926.95208  24232000.320    99225888.21845
  20421326.860   107314817.83009  20421325.140    83621931.94248
  21458415.480   112764737.14309  21458412.240    87868607.37648
  23888816.940   125536620.80708  23888822.360    97820755.00446
 15 02 15 10 26  0.0000000  0 10G02G03G06G07G09G10G17G20G23G30
  23872744.520   125452129.92908  23872742.140    97754915.13146
  22635213.100   118948809.32308  22635215.640    92687374.77947
  20803845.440   109324976.96409  20803847.480    85188305.90849
  21789601.400   114505183.44709  21789601.200    89224847.20648
  20372836.560   107060001.78809  20372836.760    83423390.15449
  21564644.920   113323000.89809  21564644.260    88303661.87248
  24247797.740   127422954.89608  24247800.120    99290585.13646
  20415476.960   107284076.46609  20415475.220    83597977.65348
  21469053.800   112820642.05709  21469050.620    87912169.62648
  23867931.520   125426867.60708  23867936.900    97735233.15346
 15 02 15 10 26 30.0000000  0 10G02G03G06G07G09G10G17G20G23G30
  23854691.840   125357263.33308  23854689.460    97680993.17246
  22647686.840   119014359.67908  22647689.540    92738452.90347
  20798608.880   109297458.91509  20798610.940    85166863.28349
  21774392.780   114425261.94809  21774392.620    89162570.75148
  20375253.620   107072703.39809  20375253.820    83433287.52849
  21552503.160   113259195.38209  21552502.520    88253943.34047
  24263605.940   127506026.49208  24263608.180    99355316.06545
  20409679.380   107253610.24309  20409677.680    83574237.76148
  21479729.880   112876745.34409  21479726.700    87955886.45048
  23847058.280   125317178.44508  23847063.540    97649761.17946
 15 02 15 10 27  0.0000000  0 10G02G03G06G07G09G10G17G20G23G30
  23836681.280   125262618.15208  23836678.960    97607243.73446
  22660198.920   119080111.66008  22660201.880    92789688.12547
  20793479.900   109270506.36609  20793482.020    85145861.30549
  21759252.000   114345696.62509  21759251.840    89100571.83148
  20377737.240   107085755.25609  20377737.480    83443457.81849
  21540397.240   113195578.34609  21540396.620    88204371.66647
  24279423.320   127589146.57008  24279425.540    99420084.77945
  20403935.960   107223428.42509  20403934.280    83550719.49048
  21490444.980   112933052.99109  21490441.640    87999762.51948
  23826199.120   125207563.71508  23826204.540    97564347.23146
 15 02 15 10 27 30.0000000  0 10G02G03G06G07G09G10G17G20G23G30
  23818712.240   125168190.47808  23818709.840    97533663.75646
  22672748.260   119146058.73708  22672751.300    92841075.38647
  20788457.660   109244114.18009  20788459.800    85125295.96349
  21744178.200   114266483.37709  21744177.980    89038847.25448
  20380286.020   107099149.56109  20380286.340    83453894.95349
  21528326.160   113132144.54009  21528325.540    88154942.77348
  24295248.060   127672305.55908  24295250.460    99484883.80146
  20398245.580   107193525.29509  20398243.920    83527418.37249
  21501197.400   112989556.81709  21501193.920    88043791.44348
  23805353.380   125098019.67908  23805359.040    97478988.34946
 15 02 15 10 28  0.0000000  0 10G02G03G06G07G09G10G17G20G23G30
  23800785.360   125073984.27908  23800782.900    97460256.39646
  22685335.140   119212202.30809  22685338.160    92892615.74247
  20783542.600   109218285.05809  20783544.720    85105169.36649
  21729172.180   114187626.08609  21729171.880    88977400.03948
  20382900.000   107112886.41809  20382900.360    83464599.01649
  21516290.460   113068896.50909  21516289.800    88105658.62048
  24311079.760   127755501.62508  24311082.560    99549711.71645
  20392608.720   107163903.33509  20392607.060    83504336.34648
  21511987.220   113046257.48309  21511983.660    88087973.74148
  23784522.000   124988550.41108  23784527.680    97393687.71546
 15 02 15 10 28 30.0000000  0 10G02G03G06G07G09G10G17G20G23G30
  23782901.660   124980004.58608  23782899.300    97387025.49146
  22697959.920   119278544.72609  22697962.820    92944311.08047
  20778735.400   109193022.62909  20778737.460    85085484.35649
  21714234.740   114109129.53209  21714234.500    88916233.95148
  20385579.380   107126966.89109  20385579.800    83475570.83849
  21504290.680   113005837.51009  21504290.080    88056521.77748
  24326918.340   127838734.39808  24326921.760    99614568.21945
  20387026.100   107134566.39809  20387024.400    83481476.42048
  21522814.480   113103155.36209  21522810.920    88132309.71348
  23763705.860   124879161.00208  23763711.460    97308449.32046
 15 02 15 10 29  0.0000000  0 10G02G03G06G07G09G10G17G20G23G30
  23765061.380   124886253.56508  23765059.160    97313972.83646
  22710622.380   119345085.43808  22710625.480    92996160.90647
  20774036.100   109168327.62809  20774038.160    85066241.48649
  21699366.240   114030995.56009  21699366.120    88855350.38148
  20388323.820   107141389.15809  20388324.240    83486808.99449
  21492326.920   112942968.15009  21492326.400    88007532.70148
  24342763.280   127921999.99108  24342767.160    99679450.30745
  20381497.900   107105515.06409  20381496.080    83458839.03348
  21533678.980   113160248.65109  21533675.380    88176797.95448
  23742905.420   124769853.61508  23742910.880    97223274.84246
 15 02 15 10 29 30.0000000  0 10G02G03G06G07G09G10G17G20G23G30
  23747264.820   124792732.31608  23747262.600    97241099.17646
  22723322.320   119411823.40109  22723325.480    93048164.40347
  20769444.760   109144200.24109  20769446.840    85047440.92749
  21684567.020   113953225.68609  21684567.060    88794750.53248
  20391132.840   107156150.81509  20391133.240    83498311.61149
  21480399.300   112880288.68509  21480398.860    87958691.60148
  24358613.840   128005294.49508  24358617.780    99744354.93546
  20376024.080   107076749.27809  20376022.080    83436424.15448
  21544580.180   113217534.55909  21544576.640    88221436.28648
  23722120.840   124660629.94208  23722126.280    97138165.58846
 15 02 15 10 30  0.0000000  0 10G02G03G06G07G09G10G17G20G23G30
  23729512.540   124699443.78608  23729510.380    97168406.87146
  22736059.840   119478758.96809  22736062.720    93100321.91247
  20764961.740   109120642.17709  20764963.880    85029083.98449
  21669837.700   113875822.74509  21669837.820    88734436.58948
  20394006.260   107171251.07309  20394006.680    83510078.06649
  21468508.240   112817800.62009  21468507.740    87909999.62548
  24374469.500   128088615.32308  24374473.380    99809280.04945
  20370604.860   107048270.65209  20370602.720    83414233.03948
  21555517.880   113275012.21909  21555514.380    88266224.01848
  23701352.640   124551493.11308  23701358.060    97053124.03046
 15 02 15 10 30 30.0000000  0 10G02G03G06G07G09G10G17G20G23G30
  23711805.080   124606390.60608  23711802.920    97095897.94646
  22748834.800   119545892.01808  22748837.740    93152633.29147
  20760587.240   109097654.42609  20760589.460    85011171.44349
  21655178.700   113798788.97709  21655178.700    88674410.32448
  20396943.880   107186688.40709  20396944.260    83522107.18849
  21456653.900   112755504.94109  21456653.240    87861457.56248
  24390329.540   128171959.27708  24390333.000    99874223.20545
  20365240.420   107020080.36109  20365238.280    83392266.59748
  21566491.780   113332680.09609  21566488.280    88311159.97848
  23680601.400   124442445.74108  23680606.800    96968152.16046
 15 02 15 10 31  0.0000000  0 10G02G03G06G07G09G10G17G20G23G30
  23694142.900   124513575.10208  23694140.460    97023574.21246
  22761647.260   119613222.46708  22761650.660    93205098.47247
  20756321.580   109075238.14309  20756323.840    84993704.20249
  21640590.460   113722126.88809  21640590.300    88614673.67648
  20399945.420   107202461.48009  20399945.720    83534397.91949
  21444836.340   112693402.89709  21444835.600    87813066.37747
  24406193.340   128255323.47208  24406196.520    99939182.11845
  20359930.940   106992179.62209  20359928.920    83370525.77648
  21577501.620   113390536.57809  21577498.040    88356242.90648
  23659867.680   124333490.48908  23659873.060    96883252.10446
 15 02 15 10 31 30.0000000  0 10G02G03G06G07G09G10G17G20G23G30
  23676526.460   124420999.72508  23676523.920    96951437.60846
  22774497.360   119680750.10108  22774500.740    93257717.32147
  20752164.940   109053394.38209  20752167.140    84976683.08449
  21626073.220   113645838.60309  21626073.040    88555228.30648
  20403010.580   107218568.87509  20403010.800    83546949.15549
  21433055.700   112631495.45609  21433054.900    87764826.84347
  24422060.320   128338704.58708  24422063.460   100004154.20645
  20354676.800   106964569.52709  20354674.880    83349011.43248
  21588547.020   113448579.93709  21588543.460    88401471.45748
  23639152.060   124224629.94608  23639157.300    96798425.83846
 15 02 15 10 32  0.0000000  0 10G02G03G06G07G09G10G17G20G23G30
  23658956.280   124328667.56208  23658953.660    96879490.50846
  22787385.240   119748475.54809  22787388.360    93310490.29047
  20748117.560   109032124.82809  20748119.700    84960109.39749
  21611627.540   113569927.08509  21611627.500    88496076.53248
  20406139.160   107235009.76909  20406139.380    83559760.25749
  21421312.380   112569784.40509  21421311.560    87716740.32848
  24437930.060   128422100.26308  24437933.500   100069137.62746
  20349478.280   106937251.48709  20349476.440    83327724.65248
  21599627.900   113506809.71109  21599624.340    88446845.26148
  23618455.120   124115867.40208  23618460.260    96713675.93046
 15 02 15 10 32 30.0000000  0 10G02G03G06G07G09G10G17G20G23G30
  23641432.460   124236579.16908  23641429.900    96807733.36246
  22800310.440   119816396.44509  22800313.220    93363415.56447
  20744179.140   109011428.29909  20744181.260    84943982.23049
  21597253.600   113494392.51109  21597253.720    88437218.45348
  20409330.560   107251780.66009  20409330.780    83572828.48649
  21409606.220   112508268.63109  21409605.500    87668805.97048
  24453801.620   128505505.55308  24453805.460   100134128.51846
  20344335.180   106910224.53309  20344333.420    83306664.67949
  21610743.440   113565222.12609  21610739.960    88492361.37448
  23597776.920   124007203.34308  23597782.020    96629002.78746
 15 02 15 10 33  0.0000000  0 10G02G03G06G07G09G10G17G20G23G30
  23623956.200   124144740.72908  23623953.600    96736170.96846
  22813273.560   119884516.76009  22813276.200    93416496.23747
  20740350.780   108991309.96809  20740352.800    84928305.59449
  21582952.680   113419241.17909  21582952.860    88378659.01248
  20412585.300   107268884.21409  20412585.480    83586155.93849
  21397938.180   112446953.35009  21397937.580    87621027.84748
  24469675.080   128588921.05608  24469679.240   100199127.38245
  20339248.540   106883494.03009  20339246.760    83285835.71448
  21621894.180   113623819.50509  21621890.760    88538021.61848
  23577118.800   123898644.53908  23577123.700    96544411.66846
 15 02 15 10 33 30.0000000  0 10G02G03G06G07G09G10G17G20G23G30
  23606528.220   124053156.09708  23606525.540    96664806.34646
  22826274.580   119952837.44209  22826277.340    93469733.04847
  20736632.920   108971771.85209  20736634.780    84913081.09049
  21568725.520   113344476.61009  21568725.620    88320400.95348
  20415903.220   107286320.11109  20415903.480    83599742.35849
  21386308.780   112385840.58809  21386308.200    87573407.52347
  24485550.280   128672345.06808  24485554.480   100264132.90345
  20334218.680   106857061.86609  20334216.900    83265239.22348
  21633080.040   113682601.57809  21633076.640    88583825.80048
  23556481.420   123790194.66108  23556486.180    96459905.41846
 15 02 15 10 34  0.0000000  0 10G02G03G06G07G09G10G17G20G23G30
  23589147.740   123961821.37108  23589145.200    96593636.47946
  22839312.440   120021352.27208  22839315.520    93523121.12947
  20733024.440   108952808.80109  20733026.240    84898304.68149
  21554571.260   113270095.08509  21554571.260    88262441.37348
  20419282.880   107304080.79609  20419283.260    83613581.85149
  21374716.960   112324925.32609  21374716.420    87525941.09547
  24501425.400   128755768.27508  24501429.280   100329137.79245
  20329244.700   106830923.21809  20329242.900    83244871.43248
  21644299.640   113741560.89709  21644296.280    88629768.09048
  23535864.120   123681850.26508  23535868.800    96375481.38546
 15 02 15 10 34 30.0000000  0 10G02G03G06G07G09G10G17G20G23G30
  23571816.220   123870743.85808  23571813.640    96522667.02146
  22852388.060   120090065.79409  22852391.080    93576664.03147
  20729526.440   108934426.56409  20729528.240    84883980.84949
  21540491.140   113196103.18509  21540490.980    88204785.38548
  20422725.020   107322169.61909  20422725.500    83627677.03149
  21363163.800   112264213.41709  21363163.320    87478633.13547
  24517300.900   128839192.34708  24517304.560   100394143.31946
  20324327.680   106805083.99809  20324325.860    83224736.95948
  21655553.580   113800700.67809  21655550.280    88675850.99548
  23515268.320   123573618.83408  23515272.980    96291145.36346
 15 02 15 10 35  0.0000000  0 10G02G03G06G07G09G10G17G20G23G30
  23554533.040   123779920.62008  23554530.560    96451895.70246
  22865500.660   120158972.38108  22865503.760    93630357.36247
  20726138.060   108916620.45409  20726139.840    84870105.95249
  21526484.520   113122497.70509  21526484.220    88147430.50348
  20426228.280   107340579.66409  20426228.820    83642022.50649
  21351648.580   112203700.67009  21351648.100    87431480.35748
  24533175.060   128922608.80108  24533178.480   100459142.89645
  20319466.780   106779539.89809  20319464.920    83204832.46048
  21666840.540   113860013.87409  21666837.260    88722069.03748
  23494693.440   123465497.40208  23494698.040    96206895.05246
 15 02 15 10 35 30.0000000  0  9G02G03G06G07G09G10G20G23G30
  23537300.540   123689363.91508  23537298.280    96381332.07646
  22878651.920   120228081.72309  22878655.080    93684208.69747
  20722861.400   108899401.28209  20722863.100    84856688.41449
  21512553.740   113049290.97809  21512553.440    88090386.34348
  20429794.300   107359319.37809  20429794.900    83656624.86649
  21340173.400   112143397.86609  21340172.780    87384491.17448
  20314664.060   106754301.55009  20314662.180    83185166.20048
  21678162.020   113919508.64809  21678158.780    88768428.56448
  23474141.820   123357498.56708  23474146.480    96122740.28946
 15 02 15 10 36  0.0000000  0  9G02G03G06G07G09G10G20G23G30
  23520117.560   123599067.38408  23520115.360    96310971.19646
  22891840.100   120297384.99908  22891843.280    93738211.11547
  20719694.920   108882761.19609  20719696.580    84843722.10149
  21498697.520   112976476.40009  21498697.300    88033647.74248
  20433421.160   107378378.48709  20433421.700    83671476.10249
  21328736.720   112083297.43109  21328736.040    87337659.67248
  20309918.100   106729361.46209  20309916.240    83165732.35148
  21689516.040   113979174.82009  21689512.940    88814921.63448
  23453612.280   123249616.18908  23453617.000    96038676.25246
 15 02 15 10 36 30.0000000  0  9G02G03G06G07G09G10G20G23G30
  23502985.520   123509038.06408  23502983.300    96240818.50046
  22905065.860   120366886.40608  22905068.860    93792367.95147
  20716639.600   108866705.45509  20716641.320    84831211.13049
  21484917.200   112904060.80009  21484917.020    87977220.03648
  20437109.440   107397760.20409  20437109.900    83686578.71849
  21317339.500   112023405.02709  21317338.880    87290990.28948
  20305230.000   106704725.47709  20305228.240    83146535.46548
  21700903.220   114039015.37009  21700900.280    88861550.58948
  23433106.260   123141857.41708  23433110.980    95954708.52946
 15 02 15 10 37  0.0000000  0  9G02G03G06G07G09G10G20G23G30
  23485904.560   123419276.94808  23485902.260    96170874.82246
  22918328.960   120436584.44608  22918332.000    93846677.98147
  20713695.280   108851233.48809  20713697.180    84819155.04949
  21471212.860   112832044.49909  21471212.640    87921103.46848
  20440858.560   107417461.62909  20440858.920    83701930.45749
  21305981.840   111963720.41509  21305981.260    87244482.81648
  20300599.660   106680393.03909  20300598.040    83127575.10849
  21712323.160   114099027.49609  21712320.300    88908313.24048
  23412624.020   123034223.47308  23412628.780    95870838.12446
 15 02 15 10 37 30.0000000  0  9G02G03G06G07G09G10G20G23G30
  23468874.380   123329782.75608  23468871.920    96101139.09647
  22931628.860   120506475.03008  22931631.740    93901138.09347
  20710861.540   108836342.27509  20710863.540    84807551.49949
  21457584.280   112760426.09309  21457584.040    87865296.94748
  20444667.500   107437477.51209  20444667.820    83717527.22149
  21294663.220   111904240.85209  21294662.680    87198135.12348
  20296026.600   106656361.42809  20296025.060    83108849.16749
  21723774.840   114159206.09509  21723771.940    88955205.61548
  23392165.380   122926713.24508  23392170.080    95787064.07146
 15 02 15 10 38  0.0000000  0  9G02G03G06G07G09G10G20G23G30
  23451897.520   123240568.95908  23451895.040    96031621.88746
  22944967.340   120576569.13408  22944970.560    93955756.71847
  20708140.600   108822043.63409  20708142.560    84796409.69849
  21444034.000   112689218.85909  21444033.800    87809810.81348
  20448538.080   107457817.45509  20448538.420    83733376.50149
  21283385.980   111844978.63209  21283385.480    87151956.78448
  20291513.140   106632642.72609  20291511.560    83090367.04749
  21735260.000   114219560.66309  21735257.020    89002235.09248
  23371732.920   122819340.37208  23371737.540    95703397.06447
