     2.11           OBSERVATION DATA    G                   RINEX VERSION / TYPE
SPIDER V4,0,0,3554                      2015 04 16 07:38    PGM / RUN BY / DATE 
CABS                                                        MARKER NAME         
CABS                                                        MARKER NUMBER       
                                                            OBSERVER / AGENCY   
462287              LEICA GRX1200PRO    8.10/2.127          REC # / TYPE / VERS 
103298              LEIAT504                                ANT # / TYPE        
  5116912.3402   671231.6412  3737143.4301                  APPROX POSITION XYZ 
        0.0600        0.0000        0.0000                  ANTENNA: DELTA H/E/N
     1     1                                                WAVELENGTH FACT L1/2
     4    C1    L1    P2    L2                              # / TYPES OF OBSERV 
    30.000                                                  INTERVAL            
  2015    02    16    00    00    0.0000000     GPS         TIME OF FIRST OBS   
  2015    02    16    23    59   30.0000000     GPS         TIME OF LAST OBS    
    16                                                      LEAP SECONDS        
    30                                                      # OF SATELLITES     
   G 1   802   802   802   802                              PRN / # OF OBS      
   G 2   942   942   942   942                              PRN / # OF OBS      
   G 3   847   847   847   847                              PRN / # OF OBS      
   G 4   831   831   831   831                              PRN / # OF OBS      
   G 5   645   645   645   645                              PRN / # OF OBS      
   G 6   837   837   837   837                              PRN / # OF OBS      
   G 7   673   673   672   672                              PRN / # OF OBS      
   G 9   808   808   808   808                              PRN / # OF OBS      
   G10   752   752   752   752                              PRN / # OF OBS      
   G11   769   769   769   769                              PRN / # OF OBS      
   G12   830   830   830   830                              PRN / # OF OBS      
   G13   791   791   791   791                              PRN / # OF OBS      
   G14   940   940   940   940                              PRN / # OF OBS      
   G15   686   686   685   685                              PRN / # OF OBS      
   G16   665   665   665   665                              PRN / # OF OBS      
   G17   942   942   942   942                              PRN / # OF OBS      
   G18   907   907   907   907                              PRN / # OF OBS      
   G19   750   750   750   750                              PRN / # OF OBS      
   G20   789   789   789   789                              PRN / # OF OBS      
   G21   731   731   731   731                              PRN / # OF OBS      
   G22   657   657   657   657                              PRN / # OF OBS      
   G23   756   756   755   755                              PRN / # OF OBS      
   G24   814   814   814   814                              PRN / # OF OBS      
   G25   855   855   855   855                              PRN / # OF OBS      
   G27   801   801   801   801                              PRN / # OF OBS      
   G28   872   872   872   872                              PRN / # OF OBS      
   G29   782   782   782   782                              PRN / # OF OBS      
   G30   719   719   719   719                              PRN / # OF OBS      
   G31   871   871   870   870                              PRN / # OF OBS      
   G32   769   769   769   769                              PRN / # OF OBS      
BIT 2 OF LLI FLAGS DATA COLLECTED UNDER A/S CONDITION       COMMENT             
SNR is mapped to RINEX snr flag value [2-9]                 COMMENT             
Lx:     = 25dBHz -> 1; 26-27dBHz -> 2; 28-31dBHz -> 3       COMMENT             
       32-35dBHz -> 4; 36-38dBHz -> 5; 39-41dBHz -> 6       COMMENT             
       42-44dBHz -> 7; 45-48dBHz -> 8; >=49dBHz -> 9        COMMENT             
                                                            END OF HEADER       
 15 02 16 00 00  0.0000000  0  7G16G18G21G25G27G29G31
  23258477.700   122224133.36407  23258479.700    95239602.18145
  23818515.060   125167187.68006  23818517.720    97532892.03843
  20898311.560   109821518.78308  20898312.820    85575284.25249
  23155599.040   121683688.76907  23155604.140    94818567.00546
  24422180.520   128339434.41105  24422186.180   100004777.36845
  22349961.080   117450321.52308  22349963.200    91519955.89447
  21679177.300   113924866.70608  21679178.920    88772639.63948
 15 02 16 00 00 30.0000000  0  7G16G18G21G25G27G29G31
  23241525.940   122135051.40407  23241528.060    95170187.69045
  23803352.100   125087506.19006  23803354.920    97470802.67745
  20897551.400   109817524.22808  20897552.700    85572171.62849
  23171999.040   121769871.96807  23172004.160    94885722.71046
  24407615.980   128262897.13705  24407621.560    99945138.01544
  22362765.000   117517606.12008  22362767.020    91572385.42947
  21690882.940   113986380.16208  21690884.540    88820572.18248
 15 02 16 00 01  0.0000000  0  7G16G18G21G25G27G29G31
  23224590.780   122046056.98107  23224593.000    95100841.42645
  23788199.340   125007878.27406  23788202.300    97408755.05744
  20896875.760   109813973.81108  20896877.080    85569405.07749
  23188445.380   121856298.73006  23188450.460    94953068.21046
  24393068.140   128186447.50705  24393073.480    99885566.94044
  22375583.280   117584966.33608  22375585.260    91624873.89347
  21702670.600   114048324.67008  21702672.220    88868840.61548
 15 02 16 00 01 30.0000000  0  7G16G18G21G25G27G29G31
  23207672.120   121957149.25407  23207674.360    95031562.70045
  23773056.700   124928303.84706  23773059.820    97346749.09645
  20896284.040   109810864.36108  20896285.380    85566982.14049
  23204937.460   121942965.63406  23204942.500    95020600.84546
  24378536.420   128110082.99205  24378541.700    99826062.18545
  22388415.260   117652398.82508  22388417.240    91677418.67247
  21714539.320   114110695.14108  21714540.980    88917440.97248
 15 02 16 00 02  0.0000000  0  7G16G18G21G25G27G29G31
  23190770.280   121868329.63207  23190772.440    94962352.63445
  23757924.940   124848785.52306  23757927.940    97284786.85645
  20895776.100   109808194.94808  20895777.400    85564902.08449
  23221475.080   122029871.50107  23221480.160    95088319.67146
  24364020.840   128033803.43805  24364026.020    99766623.64144
  22401260.780   117719902.69908  22401262.860    91730019.07647
  21726488.540   114173488.80008  21726490.240    88966371.08848
 15 02 16 00 02 30.0000000  0  7G16G18G21G25G27G29G31
  23173885.780   121779600.93307  23173887.780    94893213.40645
  23742804.480   124769327.01906  23742807.480    97222871.24544
  20895351.940   109805965.84308  20895353.240    85563165.12549
  23238058.220   122117016.28707  23238063.320    95156224.68146
  24349521.660   127957609.80605  24349526.700    99707252.05644
  22414119.960   117787478.31908  22414122.160    91782675.38747
  21738518.080   114236704.65408  21738519.860    89015630.18548
 15 02 16 00 03  0.0000000  0  7G16G18G21G25G27G29G31
  23157018.840   121690964.36307  23157020.680    94824145.97845
  23727695.760   124689930.14406  23727698.620    97161003.64045
  20895011.300   109804175.74708  20895012.580    85561770.25349
  23254686.580   122204398.13407  23254691.660    95224314.42346
  24335038.620   127881501.07005  24335043.660    99647946.59444
  22426992.540   117855124.06508  22426994.780    91835386.34247
  21750627.360   114300339.48708  21750629.180    89065215.75648
 15 02 16 00 03 30.0000000  0  7G16G18G21G25G27G29G31
  23140169.760   121602421.93707  23140171.520    94755151.90845
  23712599.460   124610598.19406  23712602.200    97099186.65145
  20894754.220   109802824.84608  20894755.520    85560717.60749
  23271360.040   122292016.92507  23271365.080    95292588.78346
  24320571.920   127805478.22405  24320577.080    99588708.05445
  22439878.640   117922840.98608  22439880.940    91888152.75547
  21762816.140   114364391.94208  21762817.920    89115126.74648
 15 02 16 00 04  0.0000000  0  7G16G18G21G25G27G29G31
  23123338.960   121513975.61707  23123340.700    94686232.71645
  23697515.940   124531334.00306  23697518.580    97037422.41645
  20894580.520   109801912.14108  20894581.820    85560006.41449
  23288078.360   122379871.53007  23288083.360    95361046.90346
  24306121.460   127729541.07505  24306126.840    99529536.29045
  22452778.080   117990628.00308  22452780.460    91940973.79347
  21775083.780   114428858.77508  21775085.520    89165360.62848
 15 02 16 00 04 30.0000000  0  7G16G18G21G25G27G29G31
  23106526.880   121425627.65607  23106528.640    94617390.17046
  23682445.740   124452140.69306  23682448.460    96975713.43344
  20894490.200   109801437.55808  20894491.480    85559636.62049
  23304841.460   122467961.58407  23304846.520    95429688.47546
  24291687.440   127653690.27905  24291693.060    99470431.82745
  22465690.840   118058485.05708  22465693.240    91993849.39947
  21787430.020   114493738.62608  21787431.760    89215916.34148
 15 02 16 00 05  0.0000000  0  7G16G18G21G25G27G29G31
  23089733.940   121337380.26607  23089735.720    94548625.98246
  23667389.420   124373021.04106  23667392.380    96914061.85945
  20894483.260   109801400.83308  20894484.480    85559608.00949
  23321649.080   122556286.30006  23321654.220    95498512.90246
  24277269.920   127577926.03905  24277275.740    99411394.80046
  22478616.980   118126412.48408  22478619.360    92046779.83947
  21799854.500   114559029.51208  21799856.220    89266792.34248
 15 02 16 00 05 30.0000000  0  7G16G18G21G25G27G29G31
  23072960.040   121249232.75307  23072961.760    94479939.62045
  23652347.140   124293975.50706  23652350.400    96852467.99245
  20894558.920   109801798.30908  20894560.100    85559917.74349
  23338500.680   122644842.19206  23338505.860    95567517.47946
  24262868.420   127502245.91905  24262874.360    99352423.30946
  22491555.900   118194406.96208  22491558.320    92099762.53547
  21812356.260   114624726.42508  21812358.000    89317984.73048
 15 02 16 00 06  0.0000000  0  7G16G18G21G25G27G29G31
  23056205.720   121161188.41207  23056207.500    94411333.66346
  23637320.000   124215008.33906  23637323.160    96790935.17844
  20894717.480   109802631.37108  20894718.620    85560566.89049
  23355396.280   122733629.87906  23355401.580    95636702.66346
  24248483.220   127426651.50905  24248489.140    99293518.63345
  22504507.740   118262468.97808  22504510.080    92152797.84147
  21824935.100   114690828.55508  21824936.880    89369492.86648
 15 02 16 00 06 30.0000000  0  7G16G18G21G25G27G29G31
  23039471.320   121073248.68007  23039473.220    94342809.21546
  23622308.220   124136121.58106  23622311.380    96729465.04345
  20894958.640   109803898.69408  20894959.800    85561554.42749
  23372335.700   122822647.83306  23372341.000    95706067.28046
  24234114.180   127351142.32205  24234119.980    99234680.33845
  22517472.460   118330598.25608  22517474.660    92205885.57247
  21837590.480   114757332.73908  21837592.220    89421314.29648
 15 02 16 00 07  0.0000000  0  7G16G18G21G25G27G29G31
  23022757.040   120985414.61407  23022759.020    94274367.10846
  23607312.100   124057316.80306  23607315.100    96668058.81144
  20895282.120   109805598.55608  20895283.280    85562879.00549
  23389318.700   122911894.21606  23389323.900    95775609.86945
  24219761.320   127275717.56205  24219766.920    99175907.83745
  22530449.820   118398793.83408  22530451.820    92259024.96347
  21850321.780   114824235.95208  21850323.500    89473446.65948
 15 02 16 00 07 30.0000000  0  7G16G18G21G25G27G29G31
  23006063.320   120897688.87807  23006065.420    94206009.41046
  23592332.460   123978598.39206  23592335.340    96606719.84944
  20895687.800   109807730.57908  20895688.980    85564540.33649
  23406345.220   123001368.90406  23406350.200    95845330.39746
  24205424.560   127200378.12105  24205430.220    99117201.84245
  22543439.720   118467055.14908  22543441.540    92312215.57447
  21863128.700   114891536.76308  21863130.420    89525888.83348
 15 02 16 00 08  0.0000000  0  7G16G18G21G25G27G29G31
  22989390.580   120810073.29807  22989392.760    94137737.55046
  23577369.680   123899968.28206  23577372.440    96545449.71545
  20896175.760   109810294.91008  20896176.940    85566538.52249
  23423415.060   123091070.73106  23423419.800    95915227.89945
  24191104.080   127125123.91905  24191109.680    99058562.26844
  22556442.100   118535382.26408  22556443.780    92365457.45647
  21876010.720   114959232.47408  21876012.480    89578638.72448
 15 02 16 00 08 30.0000000  0  7G16G18G21G25G27G29G31
  22972739.080   120722568.79207  22972741.220    94069552.23746
  23562424.140   123821428.66906  23562426.820    96484250.08644
  20896745.560   109813289.38708  20896746.740    85568871.88949
  23440527.800   123180997.82206  23440532.340    95985300.94545
  24176799.780   127049954.12905  24176805.220    98999988.43444
  22569456.700   118603774.07508  22569458.400    92418749.75047
  21888967.220   115027319.74508  21888969.060    89631693.72448
 15 02 16 00 09  0.0000000  0  7G16G18G21G25G27G29G31
  22956109.400   120635178.78907  22956111.460    94001456.15646
  23547496.640   123742983.40406  23547499.180    96423123.97544
  20897397.280   109816714.44308  20897398.480    85571540.77449
  23457683.440   123271150.62807  23457687.960    96055549.86246
  24162511.880   126974870.25305  24162517.120    98941481.58345
  22582483.560   118672231.07308  22582485.360    92472092.84147
  21901998.020   115095797.47408  21901999.940    89685052.98348
 15 02 16 00 09 30.0000000  0  7G16G18G21G25G27G29G31
  22939501.840   120547905.29407  22939503.860    93933450.85746
  23532587.660   123664635.39706  23532590.000    96362073.63545
  20898130.840   109820569.41608  20898132.060    85574544.65949
  23474881.700   123361527.94707  23474886.280    96125973.73145
  24148240.260   126899872.16505  24148245.340    98883041.57945
  22595522.760   118740752.86508  22595524.640    92525486.42747
  21915102.680   115164663.12708  21915104.620    89738714.51848
 15 02 16 00 10  0.0000000  0  7G16G18G21G25G27G29G31
  22922916.800   120460750.47507  22922918.780    93865538.02846
  23517697.780   123586388.05806  23517700.060    96301101.73845
  20898946.240   109824854.41708  20898947.480    85577883.62549
  23492122.560   123452129.52706  23492127.340    96196572.34346
  24133985.120   126824960.70705  24133990.200    98824669.08444
  22608574.380   118809340.06608  22608576.340    92578930.98347
  21928280.900   115233915.10908  21928282.840    89792677.09048
 15 02 16 00 10 30.0000000  0  7G16G18G21G25G27G29G31
  22906354.380   120373714.76807  22906356.380    93797718.01646
  23502827.080   123508241.97306  23502829.340    96240208.74445
  20899842.800   109829565.71108  20899844.000    85581554.77449
  23509405.380   123542952.20006  23509410.480    96267343.23246
  24119746.060   126750133.71605  24119751.200    98766362.38446
  22621637.940   118877989.95008  22621639.920    92632424.37647
  21941531.740   115303548.63308  21941533.660    89846936.96448
 15 02 16 00 11  0.0000000  0  7G16G18G21G25G27G29G31
  22889815.260   120286801.68607  22889817.300    93729993.56646
  23487976.440   123430201.68606  23487978.880    96179398.19845
  20900820.800   109834705.11508  20900822.000    85585559.51249
  23526730.420   123633996.88806  23526735.860    96338287.12445
  24105523.420   126675393.35705  24105528.620    98708123.22745
  22634713.800   118946704.25807  22634715.780    92685967.97047
  21954855.180   115373563.30408  21954857.020    89901493.83748
 15 02 16 00 11 30.0000000  0  7G16G18G21G25G27G29G31
  22873299.700   120200011.90307  22873301.700    93662365.19046
  23473146.200   123352269.05006  23473148.900    96118671.53445
  20901879.940   109840270.82808  20901881.140    85589896.43849
  23544097.280   123725261.29906  23544102.960    96409402.22946
  24091316.880   126600738.32305  24091322.320    98649950.50046
  22647801.620   119015481.53408  22647803.680    92739560.62747
  21968250.420   115443955.25608  21968252.160    89956344.68748
 15 02 16 00 12  0.0000000  0  7G16G18G21G25G27G29G31
  22856807.820   120113346.25307  22856809.660    93594833.52546
  23458336.600   123274445.24306  23458339.460    96058029.64045
  20903019.700   109846260.44608  20903020.940    85594563.67549
  23561505.620   123816743.01406  23561511.440    96480686.65145
  24077126.380   126526167.33405  24077131.940    98591843.25846
  22660901.160   119084319.87908  22660903.180    92793200.87147
  21981716.740   115514720.84808  21981718.400    90011486.68948
 15 02 16 00 12 30.0000000  0  7G16G18G21G25G27G29G31
  22840340.220   120026808.29907  22840342.000    93527401.37046
  23443548.500   123196734.66706  23443551.520    95997476.01045
  20904240.260   109852674.49608  20904241.500    85599561.63949
  23578955.540   123908442.67606  23578961.400    96552140.90146
  24062952.160   126451682.11705  24062957.840    98533802.90146
  22674012.500   119153220.54908  22674014.540    92846889.68247
  21995253.940   115585859.15208  21995255.580    90066919.11548
 15 02 16 00 13  0.0000000  0  7G16G18G21G25G27G29G31
  22823896.960   119940398.29307  22823898.720    93460068.92846
  23428782.020   123119138.11106  23428785.280    95937011.21245
  20905541.080   109859510.34308  20905542.320    85604888.28049
  23596446.580   124000357.34806  23596452.260    96623762.69446
  24048793.980   126377280.90105  24048799.640    98475827.95546
  22687135.340   119222181.45408  22687137.420    92900625.42247
  22008861.180   115657365.69408  22008862.880    90122638.48248
 15 02 16 00 13 30.0000000  0  7G16G18G21G25G27G29G31
  22807478.640   119854119.59407  22807480.420    93392838.79946
  23414038.280   123041660.17806  23414041.580    95876638.85245
  20906922.280   109866768.69508  20906923.540    85610544.14749
  23613978.580   124092487.46806  23613984.120    96695552.37646
  24034652.120   126302965.20905  24034657.680    98417919.67646
  22700269.880   119291203.73608  22700272.000    92954408.99747
  22022538.220   115729239.58608  22022540.100    90178644.10048
 15 02 16 00 14  0.0000000  0  7G16G18G21G25G27G29G31
  22791085.420   119767972.94607  22791087.260    93325711.57846
  23399317.420   122964301.86506  23399320.700    95816359.71345
  20908383.460   109874447.22408  20908384.700    85616527.41849
  23631550.980   124184830.69106  23631556.460    96767508.10345
  24020526.420   126228733.87405  24020531.940    98360077.12045
  22713415.640   119360285.21907  22713417.840    93008238.70347
  22036284.400   115801476.88308  22036286.500    90234932.89448
 15 02 16 00 14 30.0000000  0  7G16G18G21G25G27G29G31
  22774717.900   119681961.11607  22774719.740    93258689.39646
  23384620.200   122887067.07406  23384623.280    95756176.79645
  20909924.520   109882545.64108  20909925.760    85622837.88149
  23649163.760   124277386.63206  23649169.140    96839629.58145
  24006416.960   126154587.67706  24006422.400    98302300.90946
  22726572.880   119429427.08107  22726575.200    93062115.44747
  22050099.420   115874075.74208  22050101.680    90291503.42248
 15 02 16 00 15  0.0000000  0  7G16G18G21G25G27G29G31
  22758376.600   119596087.00507  22758378.400    93191774.52446
  23369947.380   122809959.75807  23369950.100    95696093.22144
  20911545.620   109891064.65008  20911546.860    85629476.07649
  23666816.900   124370155.23906  23666822.160    96911916.81245
  23992323.840   126080527.61406  23992329.200    98244591.84045
  22739741.680   119498629.70007  22739744.060    93116039.54147
  22063983.040   115947034.50708  22063985.340    90348354.39648
 15 02 16 00 15 30.0000000  0  7G16G18G21G25G27G29G31
  22742061.620   119510351.33007  22742063.420    93124967.51947
  23355299.080   122732980.96107  23355301.460    95636109.78244
  20913246.200   109900001.45508  20913247.460    85636439.82549
  23684509.940   124463133.91106  23684515.140    96984367.70145
  23978246.880   126006552.33806  23978252.220    98186948.82745
  22752921.760   119567891.60607  22752924.200    93170009.84147
  22077934.540   116020349.42308  22077936.700    90405482.88548
 15 02 16 00 16  0.0000000  0  7G16G18G21G25G27G29G31
  22725773.420   119424756.58207  22725775.280    93058270.32946
  23340675.600   122656133.29306  23340677.740    95576228.52144
  20915026.240   109909355.72608  20915027.500    85643728.87349
  23702242.920   124556321.90706  23702248.080    97056981.70744
  23964186.100   125932662.30306  23964191.400    98129372.20146
  22766113.100   119637212.37107  22766115.560    93224026.00147
  22091953.300   116094017.93408  22091955.300    90462886.89748
 15 02 16 00 16 30.0000000  0  7G16G18G21G25G27G29G31
  22709512.460   119339305.33307  22709514.400    92991684.97546
  23326077.620   122579420.62106  23326079.720    95516452.45544
  20916885.580   109919126.55808  20916886.820    85651342.51049
  23720015.720   124649718.68106  23720020.760    97129758.39944
  23950141.560   125858857.96805  23950146.700    98071862.39146
  22779315.700   119706592.57907  22779318.200    93278088.48247
  22106038.980   116168038.25608  22106040.780    90520565.05348
 15 02 16 00 17  0.0000000  0  7G16G18G21G25G27G29G31
  22693278.980   119253998.18507  22693280.980    92925211.89946
  23311505.440   122502844.32806  23311507.600    95456782.65345
  20918823.720   109929311.59408  20918824.960    85659278.91449
  23737827.820   124743321.72406  23737832.740    97202695.80145
  23936113.140   125785138.22605  23936118.080    98014418.49246
  22792529.260   119776030.39207  22792531.840    93332195.84447
  22120190.780   116242406.37008  22120192.420    90578514.21448
 15 02 16 00 17 30.0000000  0  7G16G18G21G25G27G29G31
  22677073.360   119168836.99807  22677075.340    92858852.55647
  23296959.660   122426406.81906  23296961.980    95397221.00645
  20920840.540   109939910.10508  20920841.780    85667537.49849
  23755678.940   124837129.56206  23755683.760    97275792.80145
  23922100.680   125711502.69605  23922105.460    97957040.20546
  22805753.780   119845525.56707  22805756.360    93386347.89547
  22134408.160   116317119.31908  22134409.740    90636732.07948
 15 02 16 00 18  0.0000000  0  7G16G18G21G25G27G29G31
  22660896.220   119083825.30407  22660898.160    92792609.69646
  23282441.000   122350111.92806  23282443.400    95337770.47045
  20922936.120   109950922.60508  20922937.380    85676118.67349
  23773569.140   124931142.85906  23773574.040    97349049.88945
  23908104.600   125637953.13805  23908109.360    97899728.91346
  22818989.440   119915079.38707  22818992.040    93440545.65147
  22148691.020   116392176.29908  22148692.640    90695218.02148
 15 02 16 00 18 30.0000000  0  7G16G18G21G25G27G29G31
  22644747.540   118998962.99007  22644749.360    92726483.22147
  23267949.960   122273961.43707  23267952.440    95278432.46345
  20925109.880   109962345.74308  20925111.100    85685019.83249
  23791497.840   125025358.39506  23791502.900    97422464.55246
  23894124.440   125564487.68705  23894129.340    97842483.16647
  22832235.880   119984689.42407  22832238.440    93494787.21147
  22163038.440   116467572.37208  22163040.160    90753968.18548
 15 02 16 00 19  0.0000000  0  7G16G18G21G25G27G29G31
  22628627.820   118914253.32607  22628629.620    92660475.69747
  23253487.020   122197958.02707  23253489.560    95219209.07645
  20927361.820   109974179.65008  20927362.980    85694241.06449
  23809464.960   125119775.72806  23809470.180    97496036.48145
  23880160.500   125491106.91305  23880165.500    97785303.38746
  22845493.160   120054356.20407  22845495.640    93549072.98647
  22177450.120   116543305.76208  22177451.900    90812981.20248
 15 02 16 00 19 30.0000000  0  7G16G18G21G25G27G29G31
  22612537.660   118829699.46107  22612539.540    92594589.58147
  23239052.960   122122106.00507  23239055.460    95160103.64045
  20929691.960   109986424.56008  20929693.100    85703782.55549
  23827470.580   125214394.91706  23827475.920    97569765.69445
  23866212.900   125417812.40605  23866218.140    97728190.83546
  22858761.340   120124080.52207  22858763.720    93603403.59246
  22191925.720   116619375.22008  22191927.600    90872256.09048
 15 02 16 00 20  0.0000000  0  7G16G18G21G25G27G29G31
  22596476.960   118745300.23907  22596478.900    92528823.95947
  23224647.740   122046405.08807  23224650.160    95101115.95646
  20932099.420   109999075.72708  20932100.520    85713640.61549
  23845513.840   125309211.50606  23845519.120    97643648.72245
  23852281.120   125344600.77005  23852286.560    97671142.84946
  22872039.700   120193858.87707  22872042.120    93657776.30047
  22206464.020   116695774.53308  22206466.000    90931788.01048
 15 02 16 00 20 30.0000000  0  7G16G18G21G25G27G29G31
  22580446.820   118661061.15808  22580448.740    92463183.11747
  23210272.360   121970861.28107  23210274.760    95042250.67846
  20934584.680   110012135.80408  20934585.760    85723817.30749
  23863595.040   125404227.72106  23863600.300    97717687.30345
  23838365.780   125271475.43005  23838371.320    97614162.10747
  22885328.940   120263694.68007  22885331.480    93712193.78647
  22221065.260   116772504.74308  22221067.320    90991577.77048
 15 02 16 00 21  0.0000000  0  7G16G18G21G25G27G29G31
  22564447.280   118576982.61408  22564449.080    92397667.37547
  23195926.900   121895475.08307  23195929.360    94983508.21945
  20937147.140   110025601.61108  20937148.180    85734310.15249
  23881713.520   125499440.55606  23881718.740    97791879.08145
  23824466.560   125198434.68106  23824472.060    97557247.28746
  22898628.640   120333585.70607  22898631.380    93766654.28947
  22235728.480   116849560.84208  22235730.600    91051621.46948
 15 02 16 00 21 30.0000000  0  7G16G18G21G25G27G29G31
  22548478.580   118493066.47108  22548480.380    92332278.17747
  23181611.860   121820249.24207  23181614.400    94924890.72245
  20939786.620   110039472.21708  20939787.640    85745118.42449
  23899869.160   125594848.79606  23899874.340    97866223.14445
  23810583.500   125125478.46906  23810588.920    97500398.33146
  22911938.860   120403531.72607  22911941.740    93821157.65847
  22250453.320   116926940.66108  22250455.440    91111917.41348
 15 02 16 00 22  0.0000000  0  7G16G18G21G25G27G29G31
  22532541.340   118409315.78108  22532543.160    92267017.90946
  23167328.020   121745187.70807  23167330.620    94866401.25245
  20942503.080   110053747.52908  20942504.140    85756242.05249
  23918061.760   125690452.16705  23918066.940    97940719.24445
  23796716.820   125052607.87206  23796722.080    97443616.08346
  22925259.760   120473533.49107  22925262.720    93875704.46647
  22265239.480   117004642.40708  22265241.500    91172464.20147
 15 02 16 00 22 30.0000000  0  7G16G18G21G25G27G29G31
  22516635.980   118325732.54208  22516637.820    92201888.11247
  23153075.980   121670293.24507  23153078.600    94808041.95846
  20945296.380   110068426.43008  20945297.440    85767680.16749
  23936291.020   125786249.52906  23936296.360    98015366.49744
  23782866.440   124979822.99306  23782871.500    97386900.63646
  22938591.180   120543590.93607  22938594.240    93930294.65247
  22280086.420   117082663.30608  22280088.380    91233259.68347
 15 02 16 00 23  0.0000000  0  7G16G18G21G25G27G29G31
  22500762.660   118242317.49908  22500764.460    92136889.39147
  23138855.880   121595566.70907  23138858.440    94749813.53845
  20948165.920   110083506.20408  20948167.020    85779430.64849
  23954556.720   125882237.96005  23954562.200    98090162.66445
  23769031.980   124907122.18106  23769036.860    97330250.68546
  22951932.780   120613701.66207  22951935.880    93984926.35247
  22294993.200   117160998.82408  22294995.160    91294300.33048
 15 02 16 00 23 30.0000000  0  7G16G18G21G25G27G29G31
  22484921.820   118159073.28808  22484923.620    92072023.78147
  23124668.460   121521011.63707  23124670.920    94691718.71145
  20951111.660   110098986.33708  20951112.800    85791493.09249
  23972858.820   125978416.75706  23972864.200    98165107.15644
  23755213.540   124834505.98106  23755218.380    97273666.67446
  22965284.640   120683866.08307  22965287.720    94039599.90046
  22309959.420   117239646.63408  22309961.380    91355584.32148
 15 02 16 00 24  0.0000000  0  7G16G18G21G25G27G29G31
  22469113.840   118076001.73808  22469115.580    92007292.70947
  23110514.100   121446630.12007  23110516.360    94633759.11646
  20954133.280   110114865.01008  20954134.420    85803866.08649
  23991197.040   126074784.21006  23991202.160    98240198.66245
  23741411.100   124761974.05806  23741415.860    97217148.33145
  22978646.800   120754083.99107  22978649.740    94094315.13046
  22324984.500   117318603.61308  22324986.440    91417109.22547
 15 02 16 00 24 30.0000000  0  7G16G18G21G25G27G29G31
  22453338.940   117993104.42808  22453340.700    91942697.42147
  23096393.300   121372424.60007  23096395.340    94575936.67645
  20957230.480   110131140.84608  20957231.600    85816548.56749
  24009571.020   126171338.65706  24009575.840    98315435.85544
  23727624.580   124689525.94705  23727629.280    97160695.28545
  22992018.940   120824354.57207  22992021.760    94149071.39546
  22340067.820   117397866.87608  22340069.760    91478872.79047
 15 02 16 00 25  0.0000000  0  7G16G18G21G25G27G29G31
  22437597.840   117910384.89908  22437599.620    91878240.65347
  23082306.760   121298399.26707  23082308.720    94518254.61545
  20960403.280   110147814.00108  20960404.400    85829540.63949
  24027980.760   126268080.41806  24027985.320    98390819.01845
  23713854.340   124617163.36006  23713858.900    97104308.87645
  23005401.220   120894678.91807  23005403.960    94203869.54946
  22355209.200   117477435.09908  22355211.080    91540873.98547
 15 02 16 00 25 30.0000000  0  7G16G18G21G25G27G29G31
  22421890.960   117827844.94208  22421892.700    91813923.81447
  23068254.940   121224556.46507  23068256.920    94460714.80645
  20963651.480   110164883.25508  20963652.560    85842841.36649
  24046425.820   126365007.98406  24046430.320    98466346.96145
  23700100.300   124544886.02005  23700104.840    97047988.91646
  23018793.720   120965056.62507  23018796.340    94258709.29547
  22370408.020   117557305.20908  22370409.820    91603110.41247
 15 02 16 00 26  0.0000000  0  7G16G18G21G25G27G29G31
  22406218.760   117745486.71508  22406220.400    91749748.58547
  23054238.140   121150897.58407  23054240.280    94403318.31645
  20966974.680   110182346.75208  20966975.740    85856449.29049
  24064905.760   126462119.56606  24064910.340    98542018.29045
  23686362.500   124472693.48805  23686367.000    96991735.01145
  23032196.200   121035487.06707  23032198.840    94313590.12246
  22385663.720   117637474.17208  22385665.400    91665579.70947
 15 02 16 00 26 30.0000000  0  7G16G18G21G25G27G29G31
  22390581.440   117663312.16208  22390583.140    91685716.48047
  23040257.200   121077427.32907  23040259.480    94346068.78645
  20970372.720   110200203.64108  20970373.780    85870363.75349
  24083420.320   126559414.19306  24083425.140    98617832.24145
  23672640.880   124400586.13606  23672645.460    96935547.47846
  23045608.840   121105970.50407  23045611.420    94368512.26046
  22400975.720   117717939.36508  22400977.380    91728279.82947
 15 02 16 00 27  0.0000000  0  7G16G18G21G25G27G29G31
  22374979.420   117581322.95408  22374981.160    91621828.80647
  23026312.380   121004146.80607  23026314.760    94288967.10445
  20973845.260   110218452.02808  20973846.320    85884583.28349
  24101969.120   126656889.75906  24101974.260    98693787.20745
  23658935.400   124328563.16506  23658939.960    96879425.72045
  23059031.420   121176505.72407  23059033.840    94423474.74046
  22416343.400   117798697.10308  22416345.080    91791207.91347
 15 02 16 00 27 30.0000000  0  7G16G18G21G25G27G29G31
  22359413.380   117499523.06508  22359415.160    91558088.64447
  23012404.540   120931060.52707  23012407.000    94232016.78145
  20977392.400   110237092.33008  20977393.460    85899108.19849
  24120552.280   126754546.84205  24120557.940    98769883.59446
  23645246.340   124256626.55406  23645250.920    96823371.25246
  23072464.040   121247094.33207  23072466.460    94478478.80146
  22431766.580   117879746.48108  22431768.340    91854363.25547
 15 02 16 00 28  0.0000000  0  7G16G18G21G25G27G29G31
  22343883.440   117417912.74708  22343885.260    91494496.21447
  22998533.860   120858169.35907  22998536.340    94175218.49145
  20981013.520   110256121.60408  20981014.620    85913936.20849
  24139169.340   126852382.26505  24139175.560    98846118.94644
  23631573.300   124184774.43606  23631578.040    96767382.61346
  23085906.420   121317734.54407  23085908.880    94533523.08846
  22447244.440   117961083.00608  22447246.280    91917742.34948
 15 02 16 00 28 30.0000000  0  7G16G18G21G25G27G29G31
  22328390.000   117336494.01808  22328391.780    91431053.05447
  22984700.680   120785475.56307  22984703.240    94118573.98546
  20984708.260   110275537.84808  20984709.400    85929065.74949
  24157820.120   126950394.29205  24157826.720    98922491.93145
  23617916.260   124113006.43706  23617921.120    96711459.51646
  23099358.420   121388425.48407  23099360.920    94588606.89846
  22462776.320   118042703.42608  22462778.240    91981342.65847
 15 02 16 00 29  0.0000000  0  7G16G18G21G25G27G29G31
  22312933.400   117255268.95808  22312935.100    91367760.82047
  22970905.660   120712982.29607  22970908.180    94062085.75346
  20988476.600   110295340.79308  20988477.780    85944496.61349
  24176504.600   127048582.13905  24176511.180    98999001.90145
  23604275.320   124041323.13706  23604280.300    96655602.42146
  23112820.100   121459167.43107  23112822.680    94643730.44846
  22478361.680   118124605.00908  22478363.700    92045162.04447
 15 02 16 00 29 30.0000000  0  7G16G18G21G25G27G29G31
  22297513.900   117174238.86008  22297515.580    91304620.50447
  22957148.980   120640690.98507  22957151.440    94005754.89145
  20992318.000   110315527.82208  20992319.280    85960226.76449
  24195222.180   127146943.21805  24195228.540    99075646.83445
  23590650.260   123969723.28706  23590655.360    96599810.35346
  23126291.340   121529959.26507  23126293.980    94698892.87546
  22493999.800   118206783.98408  22494001.860    92109197.59147
 15 02 16 00 30  0.0000000  0  7G16G18G21G25G27G29G31
  22282131.920   117093406.07008  22282133.620    91241633.94347
  22943431.160   120568604.21907  22943433.620    93949583.41146
  20996232.320   110336097.82808  20996233.660    85976255.34249
  24213972.620   127245476.31005  24213978.460    99152425.84244
  23577041.160   123898207.17506  23577046.320    96544083.52746
  23139772.220   121600801.12607  23139774.840    94754094.28846
  22509690.240   118289237.88208  22509692.260    92173447.35947
 15 02 16 00 30 30.0000000  0  7G16G18G21G25G27G29G31
  22266788.300   117012774.98408  22266790.060    91178804.54447
  22929753.300   120496727.38607  22929755.720    93893575.52046
  21000219.700   110357051.66708  21000221.040    85992583.00949
  24232756.020   127344182.39505  24232761.420    99229339.62845
  23563448.460   123826777.02806  23563453.540    96488423.69346
  23153262.980   121671694.61607  23153265.460    94809335.94246
  22525432.860   118371966.16008  22525434.840    92237910.92647
 15 02 16 00 31  0.0000000  0  7G16G18G21G25G27G29G31
  22251483.300   116932346.69508  22251485.020    91116133.16647
  22916115.580   120425061.41707  22916117.960    93837731.92645
  21004279.680   110378386.82208  21004280.980    86009207.80549
  24251571.860   127443058.74405  24251576.720    99306386.12344
  23549871.900   123755431.64306  23549876.900    96432829.90846
  23166763.180   121742638.51907  23166765.620    94864616.85346
  22541226.860   118454964.35908  22541228.800    92302584.82247
 15 02 16 00 31 30.0000000  0  7G16G18G21G25G27G29G31
  22236217.280   116852123.23108  22236218.940    91053621.39347
  22902518.500   120353608.87607  22902520.820    93782054.66046
  21008411.800   110400101.13308  21008413.060    86026128.05149
  24270419.820   127542103.95006  24270424.260    99383564.17744
  23536311.400   123684170.84406  23536316.280    96377302.03646
  23180272.840   121813632.03307  23180275.220    94919936.44346
  22557071.720   118538229.63408  22557073.620    92367466.82647
 15 02 16 00 32  0.0000000  0  8G16G18G21G22G25G27G29G31
  22220991.320   116772110.34808  22220992.880    90991273.70447
  22888963.420   120282376.65707  22888965.660    93726549.06846
  21012616.700   110422197.91408  21012617.940    86043346.32249
  24553137.980   129027609.20205  24553140.600   100541006.97445
  24289300.200   127641320.39106  24289304.540    99460875.66344
  23522767.820   123612998.60206  23522772.500    96321843.15046
  23193792.660   121884679.29007  23193795.000    94975297.91146
  22572967.580   118621762.68908  22572969.440    92432557.49447
 15 02 16 00 32 30.0000000  0  8G16G18G21G22G25G27G29G31
  22205803.020   116692295.57608  22205804.520    90929080.39647
  22875447.940   120211352.28007  22875450.160    93671205.43146
  21016891.380   110444661.50108  21016892.600    86060850.41849
  24535039.940   128932504.95006  24535042.820   100466900.54644
  24308209.920   127740691.99205  24308214.600    99538308.00646
  23509238.260   123541900.14706  23509242.820    96266441.80645
  23207319.920   121955765.75807  23207322.200    95030689.93346
  22588911.120   118705546.45808  22588913.000    92497843.52747
 15 02 16 00 33  0.0000000  0  8G16G18G21G22G25G27G29G31
  22190656.460   116612699.94308  22190657.940    90867057.84346
  22861976.220   120140557.06507  22861978.340    93616040.32845
  21021238.960   110467508.09108  21021240.140    86078652.95349
  24516929.220   128837335.20405  24516932.600   100392743.10545
  24327152.440   127840235.93805  24327157.400    99615874.69045
  23495726.280   123470894.15806  23495730.720    96211112.48246
  23220858.100   122026909.58207  23220860.380    95086126.65046
  22604905.300   118789596.47508  22604907.260    92563337.02647
 15 02 16 00 33 30.0000000  0  8G16G18G21G22G25G27G29G31
  22175550.600   116533318.08908  22175552.100    90805201.86747
  22848547.260   120069986.37707  22848549.300    93561050.20646
  21025657.820   110490729.27008  21025658.960    86096747.38349
  24498805.080   128742094.80106  24498808.760   100318530.47044
  24346126.080   127939943.46205  24346131.240    99693568.80744
  23482230.440   123399973.22406  23482234.840    96155849.44346
  23234405.740   122098102.91007  23234408.160    95141601.93946
  22620948.180   118873902.27608  22620950.180    92629029.82647
 15 02 16 00 34  0.0000000  0  8G16G18G21G22G25G27G29G31
  22160486.080   116454153.59108  22160487.620    90743515.26247
  22835161.660   119999643.86207  22835163.700    93506237.87346
  21030148.000   110514325.33308  21030149.140    86115133.92949
  24480668.060   128646787.42906  24480671.720   100244265.58545
  24365130.900   128039814.47305  24365136.100    99771390.30945
  23468751.100   123329138.76706  23468755.440    96100653.78946
  23247963.080   122169347.10007  23247965.640    95197116.84746
  22637039.480   118958462.38708  22637041.500    92694920.80447
 15 02 16 00 34 30.0000000  0  8G16G18G21G22G25G27G29G31
  22145462.720   116375205.45108  22145464.300    90681997.25747
  22821819.320   119929528.91908  22821821.460    93451602.86146
  21034708.620   110538291.55008  21034709.740    86133808.90649
  24462518.320   128551412.73605  24462522.040   100169948.18545
  24384166.020   128139844.33105  24384171.440    99849335.60745
  23455287.620   123258387.61306  23455291.900    96045523.05246
  23261529.480   122240638.60007  23261532.140    95252668.62846
  22653178.100   119043270.83708  22653180.060    92761005.28247
 15 02 16 00 35  0.0000000  0  8G16G18G21G22G25G27G29G31
  22130481.540   116296479.08408  22130483.140    90620652.05347
  22808521.360   119859647.57607  22808523.580    93397149.87446
  21039340.000   110562629.59308  21039341.100    86152773.61949
  24444356.600   128455975.86105  24444360.400   100095582.35244
  24403231.700   128240034.66106  24403237.200    99927405.93445
  23441840.560   123187722.83306  23441844.780    95990459.62045
  23275105.380   122311980.41307  23275108.100    95308259.62846
  22669364.000   119128327.69508  22669365.820    92827283.32747
 15 02 16 00 35 30.0000000  0  8G16G18G21G22G25G27G29G31
  22115542.780   116217975.83908  22115544.440    90559480.70947
  22795268.120   119790001.55807  22795270.380    93342880.25446
  21044041.760   110587337.36408  21044042.820    86172026.43349
  24426183.440   128360478.79205  24426187.700   100021169.56945
  24422327.360   128340383.49705  24422333.140   100005599.79545
  23428409.760   123117143.83306  23428414.080    95935463.03046
  23288690.680   122383371.93307  23288693.560    95363889.34746
  22685596.420   119213629.39708  22685598.180    92893752.16147
 15 02 16 00 36  0.0000000  0  8G16G18G21G22G25G27G29G31
  22100646.540   116139695.98108  22100648.240    90498483.44447
  22782059.700   119720591.55507  22782062.000    93288794.54946
  21048813.200   110612411.66308  21048814.300    86191564.85249
  24407999.120   128264922.43805  24408003.300    99946710.54445
  24441452.560   128440887.36705  24441458.460   100083914.44744
  23414994.860   123046648.83306  23414999.380    95880531.89846
  23302285.080   122454811.15807  23302288.060    95419556.23946
  22701874.480   119299171.12108  22701876.180    92960408.02247
 15 02 16 00 36 30.0000000  0  8G16G18G21G22G25G27G29G31
  22085793.500   116061642.88708  22085795.240    90437662.86847
  22768896.900   119651421.39307  22768899.200    93234895.74346
  21053654.240   110637851.66308  21053655.360    86211388.22949
  24389804.180   128169309.97406  24389808.560    99872207.82744
  24460607.200   128541545.86905  24460613.260   100162349.61145
  23401596.160   122976238.72306  23401600.800    95825666.90346
  23315888.580   122526298.79706  23315891.760    95475260.85046
  22718197.800   119384951.10408  22718199.560    93027249.53047
 15 02 16 00 37  0.0000000  0  8G16G18G21G22G25G27G29G31
  22070983.920   115983818.07708  22070985.700    90377020.17547
  22755780.100   119582492.66407  22755782.300    93181185.06845
  21058564.520   110663655.54808  21058565.660    86231495.15449
  24371599.120   128073643.16705  24371603.220    99797662.67444
  24479790.960   128642356.93705  24479797.060   100240903.68245
  23388213.580   122905913.01606  23388218.280    95770867.67246
  23329501.100   122597833.94206  23329504.380    95531002.47346
  22734565.660   119470965.50908  22734567.620    93094273.72547
 15 02 16 00 37 30.0000000  0  8G16G18G21G22G25G27G29G31
  22056218.440   115906224.65108  22056220.200    90316557.77547
  22742710.040   119513808.90707  22742712.040    93127665.29746
  21063543.900   110689822.72608  21063545.080    86251885.16349
  24353384.420   127977925.33706  24353388.440    99723077.80544
  24499003.640   128743319.93705  24499009.700   100319576.10045
  23374847.260   122835672.55906  23374852.000    95716134.86346
  23343122.860   122669417.62806  23343126.240    95586781.91146
  22750977.800   119557212.53108  22750979.960    93161479.17247
 15 02 16 00 38  0.0000000  0  8G16G18G21G22G25G27G29G31
  22041497.320   115828864.56408  22041499.100    90256277.20947
  22729687.020   119445372.32208  22729688.820    93074338.11146
  21068592.180   110716351.69308  21068593.380    86272557.08549
  24335160.400   127882159.00806  24335164.220    99648455.09244
  24518245.060   128844433.12205  24518250.920   100398365.55245
  23361497.180   122765517.09206  23361501.840    95661468.28346
  23356753.640   122741049.18706  23356757.260    95642598.65946
  22767433.700   119643688.95808  22767435.920    93228863.37246
 15 02 16 00 38 30.0000000  0  8G16G18G21G22G25G27G29G31
  22026820.920   115751739.63008  22026822.720    90196179.87247
  22716711.420   119377184.95807  22716713.100    93021205.12145
  21073708.860   110743240.29108  21073710.100    86293509.24149
  24316927.580   127786346.18206  24316931.240    99573796.09845
  24537514.720   128945694.46405  24537520.240   100477270.44645
  23348163.120   122695446.09206  23348167.740    95606867.51246
  23370393.540   122812728.06806  23370397.320    95698452.27546
  22783932.680   119730391.20008  22783934.840    93296423.53647
 15 02 16 00 39  0.0000000  0  8G16G18G21G22G25G27G29G31
  22012189.660   115674851.84008  22012191.420    90136267.32047
  22703783.660   119309249.40207  22703785.260    92968268.32445
  21078893.600   110770486.38008  21078894.860    86314739.95949
  24298686.200   127690488.79106  24298689.800    99499102.36044
  24556812.240   129047102.24905  24556817.460   100556289.42844
  23334845.100   122625459.41106  23334849.680    95552332.46346
  23384042.580   122884453.84806  23384046.260    95754342.45446
  22800474.040   119817315.80308  22800476.040    93364156.96246
 15 02 16 00 39 30.0000000  0  8G16G18G21G22G25G27G29G31
  21997604.180   115598204.44408  21997605.860    90076542.08447
  22690904.500   119241569.29607  22690906.160    92915530.58246
  21084146.540   110798090.64308  21084147.800    86336249.78249
  24280436.920   127594590.55306  24280440.680    99424376.82145
  24576137.500   129148656.40405  24576142.420   100635422.47045
  23321543.380   122555558.38007  23321547.860    95497864.15346
  23397700.980   122956227.73406  23397704.520    95810270.11946
  22817057.520   119904461.62508  22817059.360    93432062.75946
 15 02 16 00 40  0.0000000  0  8G16G18G21G22G25G27G29G31
  21983065.000   115521800.39508  21983066.600    90017006.46247
  22678074.480   119174147.55807  22678076.360    92862994.15646
  21089467.360   110826051.64108  21089468.580    86358037.57549
  24262180.400   127498654.87506  24262184.100    99349622.06944
  24595490.440   129250355.82505  24595495.180   100714668.71844
  23308258.020   122485743.64207  23308262.480    95443463.07746
  23411368.580   123028050.14107  23411372.140    95866235.57146
  22833682.500   119991825.98508  22833684.280    93500138.85546
 15 02 16 00 40 30.0000000  0  8G16G18G21G22G25G27G29G31
  21968572.120   115445639.81808  21968573.700    89957660.56447
  22665293.760   119106984.70007  22665295.900    92810659.47946
  21094855.420   110854366.05808  21094856.640    86380100.75949
  24243916.940   127402681.96006  24243920.840    99274838.30245
  24614870.220   129352196.99905  24614874.980   100794025.38044
  23294988.740   122416013.05507  23294993.160    95389127.58746
  23425045.060   123099918.60007  23425048.460    95922236.93546
  22850348.060   120079403.91808  22850349.840    93568381.36946
 15 02 16 00 41  0.0000000  0  8G16G18G21G22G25G27G29G31
  21954126.460   115369727.42508  21954128.020    89898508.04447
  22652563.260   119040085.88908  22652565.660    92758530.55046
  21100310.940   110883034.80508  21100312.120    86402440.05049
  24225647.380   127306676.87306  24225651.360    99200029.42946
  24634277.040   129454180.86005  24634282.020   100873493.27544
  23281735.940   122346369.24407  23281740.420    95334859.72246
  23438730.760   123171835.57307  23438733.860    95978276.09646
  22867054.080   120167195.01908  22867055.920    93636789.99146
 15 02 16 00 41 30.0000000  0  8G16G18G21G22G25G27G29G31
  21939728.400   115294065.38808  21939730.020    89839550.62547
  22639883.540   118973453.26908  22639885.940    92706609.04046
  21105833.520   110912055.86708  21105834.640    86425053.86349
  24207372.220   127210642.23005  24207376.260    99125197.53245
  24653710.620   129556305.78805  24653715.900   100953071.06844
  23268499.580   122276812.04707  23268504.180    95280659.33746
  23452425.580   123243801.29507  23452428.540    96034353.24946
  22883800.020   120255196.15507  22883802.000    93705362.27646
 15 02 16 00 42  0.0000000  0  8G16G18G21G22G25G27G29G31
  21925377.900   115218653.26408  21925379.540    89780787.92947
  22627254.580   118907086.99208  22627256.780    92654895.07346
  21111422.380   110941425.26408  21111423.480    86447939.10349
  24189091.700   127114577.88305  24189095.620    99050342.49145
  24673170.260   129658567.61605  24673175.740   101032755.55344
  23255279.260   122207338.91507  23255283.940    95226524.46046
  23466128.980   123315812.73506  23466131.940    96090466.02946
  22900584.920   120343401.70208  22900586.980    93774093.84946
 15 02 16 00 42 30.0000000  0  8G16G18G21G22G25G27G29G31
  21911075.760   115143495.24508  21911077.440    89722223.24147
  22614677.060   118840991.15308  22614679.040    92603391.83646
  21117077.480   110971142.86508  21117078.560    86471095.67849
  24170806.420   127018487.81406  24170809.940    98975467.35745
  24692655.960   129760966.42805  24692661.580   101112546.79444
  23242075.320   122137951.50307  23242080.080    95172456.35947
  23479841.260   123387871.27406  23479844.200    96146615.50346
  22917408.560   120431810.45908  22917410.620    93842983.75846
 15 02 16 00 43  0.0000000  0  8G16G18G21G22G25G27G29G31
  21896822.520   115068593.85308  21896824.180    89663858.50747
  22602151.520   118775168.75708  22602153.320    92552101.68146
  21122798.780   111001208.36908  21122799.840    86494523.34049
  24152516.880   126922375.05206  24152520.060    98900574.56045
  24712167.480   129863501.46104  24712173.360   101192444.14545
  23228887.740   122068650.60707  23228892.620    95118455.67546
  23493562.560   123459977.80406  23493565.400    96202802.35046
  22934270.480   120520420.09708  22934272.460    93912030.18546
 15 02 16 00 43 30.0000000  0  8G16G18G21G22G25G27G29G31
  21882618.160   114993949.39308  21882619.820    89605694.00147
  22589677.960   118709620.04807  22589679.740    92501024.78846
  21128585.600   111031618.41508  21128586.680    86518219.47949
  24134223.080   126826240.59706  24134226.140    98825664.83445
  24731704.300   129966169.11805  24731710.300   101272444.84445
  23215716.240   121999434.25707  23215721.200    95064520.86946
  23507292.720   123532130.05407  23507295.320    96259024.83745
  22951169.680   120609225.62708  22951171.540    93981229.26046
 15 02 16 00 44  0.0000000  0  8G16G18G21G22G25G27G29G31
  21868463.060   114919563.50908  21868464.680    89547730.97547
  22577256.860   118644347.37107  22577258.780    92450162.98646
  21134437.500   111062370.36008  21134438.580    86542182.02949
  24115925.460   126730085.89206  24115928.220    98750739.31545
  24751266.040   130068967.17905  24751272.120   101352547.12945
  23202560.720   121930301.87706  23202565.760    95010651.48647
  23521031.520   123604327.18107  23521033.840    96315282.29846
  22968105.460   120698223.36007  22968107.200    94050578.11046
 15 02 16 00 44 30.0000000  0  8G16G18G21G22G25G27G29G31
  21854358.040   114845440.87608  21854359.640    89489973.08547
  22564889.140   118579355.18108  22564891.200    92399519.72646
  21140354.620   111093464.99608  21140355.660    86566411.61549
  24097624.840   126633915.96306  24097627.600    98675801.95445
  24770852.860   130171896.35805  24770858.980   101432751.62745
  23189421.640   121861255.71306  23189426.680    94956849.27147
  23534779.340   123676571.45907  23534781.400    96371576.46745
  22985077.620   120787412.60007  22985079.360    94120076.18646
 15 02 16 00 45  0.0000000  0  8G16G18G21G22G25G27G29G31
  21840303.660   114771584.52408  21840305.240    89432422.67947
  22552575.560   118514647.18608  22552577.760    92349097.92446
  21146336.880   111124901.99208  21146337.900    86590907.97848
  24079321.900   126537734.54406  24079324.580    98600855.56645
  24790464.820   130274956.15305  24790470.660   101513057.90144
  23176299.140   121792296.96807  23176304.180    94903115.19346
  23548536.120   123748863.40807  23548538.020    96427907.81345
  23002085.880   120876791.51807  23002087.660    94189722.06146
 15 02 16 00 45 30.0000000  0  8G16G18G21G22G25G27G29G31
  21826299.960   114697994.75508  21826301.600    89375080.00847
  22540316.100   118450223.16308  22540318.380    92298897.38446
  21152383.380   111156676.54108  21152384.400    86615667.36949
  24061016.820   126441541.87106  24061019.540    98525900.44545
  24810100.880   130378142.83905  24810106.460   101593463.02645
  23163192.900   121723423.39507  23163197.840    94849447.48346
  23562301.660   123821201.32007  23562303.520    96484274.98046
  23019129.200   120966354.92407  23019131.120    94259511.69646
 15 02 16 00 46  0.0000000  0  7G16G18G21G22G27G29G31
  21812347.500   114624674.31908  21812349.200    89317947.20347
  22528111.380   118386086.34908  22528113.660    92248920.64746
  21158494.180   111188788.87508  21158495.200    86640689.96749
  24042710.060   126345340.76206  24042712.980    98450938.75845
  23150103.080   121654635.73807  23150107.880    94795846.72146
  23576075.980   123893585.77906  23576078.120    96540678.40945
  23036207.200   121056100.25707  23036209.200    94329443.09146
 15 02 16 00 46 30.0000000  0  7G16G18G21G22G27G29G31
  21798447.860   114551631.17808  21798449.540    89261030.47847
  22515962.960   118322245.21108  22515965.160    92199174.31546
  21164670.040   111221243.09408  21164671.020    86665978.96849
  24024403.520   126249139.83306  24024406.160    98375977.17045
  23137030.680   121585939.58407  23137035.320    94742317.26246
  23589859.960   123966022.02806  23589862.520    96597122.20346
  23053320.380   121146030.20707  23053322.420    94399518.33846
 15 02 16 00 47  0.0000000  0  7G16G18G21G22G27G29G31
  21784599.600   114478857.95808  21784601.240    89204324.08047
  22503869.400   118258692.38608  22503871.480    92149652.64546
  21170908.700   111254027.37908  21170909.660    86691525.16649
  24006095.740   126152932.17806  24006098.240    98301010.35445
  23123973.920   121517325.61807  23123978.440    94688851.85147
  23603651.860   124038500.34506  23603654.760    96653598.79946
  23070466.440   121236132.76907  23070468.520    94469728.09846
 15 02 16 00 47 30.0000000  0  7G16G18G21G22G27G29G31
  21770803.680   114406359.81408  21770805.260    89147832.02848
  22491831.500   118195432.77408  22491833.480    92100359.45146
  21177210.320   111287142.82508  21177211.340    86717329.41148
  23987787.760   126056722.96306  23987789.880    98226042.31745
  23110933.340   121448796.52907  23110937.720    94635452.59446
  23617452.320   124111023.29706  23617455.560    96710110.17246
  23087645.220   121326407.27607  23087647.300    94540071.82946
 15 02 16 00 48  0.0000000  0  7G16G18G21G22G27G29G31
  21757060.740   114334140.10108  21757062.300    89091556.93147
  22479850.040   118132470.06008  22479851.940    92051297.61346
  21183575.060   111320589.84908  21183576.080    86743392.02548
  23969480.240   125960516.10106  23969482.080    98151076.13245
  23097909.160   121380353.64707  23097913.500    94582120.49046
  23631261.680   124183592.40006  23631265.200    96766657.49446
  23104856.340   121416851.82807  23104858.360    94610548.07046
 15 02 16 00 48 30.0000000  0  7G16G18G21G22G27G29G31
  21743371.380   114262202.16208  21743372.960    89035501.40547
  22467925.600   118069807.68308  22467927.560    92002469.80446
  21190002.760   111354367.59608  21190003.760    86769712.34348
  23951173.800   125864314.96506  23951175.220    98076114.36345
  23084901.560   121311998.10007  23084905.880    94528856.45446
  23645080.040   124256208.29806  23645083.740    96823241.25245
  23122099.440   121507464.72307  23122101.360    94681155.47446
 15 02 16 00 49  0.0000000  0  7G16G18G21G22G27G29G31
  21729735.620   114190545.72608  21729737.220    88979665.22747
  22456058.400   118007445.83008  22456060.340    91953876.16546
  21196492.580   111388471.82008  21196493.560    86796287.06548
  23932868.360   125768119.70707  23932869.460    98001157.19545
  23071910.100   121243727.39407  23071914.440    94475658.52846
  23658907.040   124328868.79607  23658910.680    96879859.78446
  23139373.420   121598240.16107  23139375.280    94751889.54446
 15 02 16 00 49 30.0000000  0  7G16G18G21G22G27G29G31
  21716154.440   114119176.20608  21716156.060    88924052.62248
  22444249.460   117945389.99608  22444251.440    91905520.97246
  21203044.780   111422903.70808  21203045.680    86823117.10548
  23914565.000   125671936.10406  23914565.980    97926209.10544
  23058935.420   121175544.87707  23058939.720    94422529.31947
  23672743.100   124401576.66207  23672746.520    96936515.22846
  23156678.420   121689178.49207  23156680.180    94822750.54346
 15 02 16 00 50  0.0000000  0  7G16G18G21G22G27G29G31
  21702627.960   114048094.14808  21702629.580    88868664.01648
  22432498.880   117883640.63908  22432501.000    91857404.59846
  21209658.840   111457660.72308  21209659.720    86850200.49648
  23896263.960   125575765.25306  23896265.020    97851270.93144
  23045977.180   121107448.99807  23045981.520    94369467.61946
  23686587.880   124474330.31607  23686591.020    96993206.35246
  23174013.520   121780275.18607  23174015.280    94893734.93046
 15 02 16 00 50 30.0000000  0  7G16G18G21G22G27G29G31
  21689157.180   113977304.75808  21689158.780    88813503.45847
  22420807.720   117822202.78908  22420809.900    91809530.96646
  21216334.960   111492743.69208  21216335.780    86877537.87648
  23877966.080   125479611.93506  23877967.280    97776346.43045
  23033035.880   121039442.49307  23033040.300    94316475.55846
  23700441.740   124547131.65207  23700444.740    97049934.58846
  23191378.620   121871529.98607  23191380.560    94964842.51746
 15 02 16 00 51  0.0000000  0  7G16G18G21G22G27G29G31
  21675742.000   113906807.34008  21675743.540    88758570.40848
  22409175.880   117761076.43808  22409178.140    91761900.05446
  21223072.160   111528147.89308  21223073.000    86905125.56348
  23859671.580   125383476.53206  23859673.020    97701435.87145
  23020111.020   120971522.57307  23020115.500    94263550.96647
  23714304.320   124619979.25007  23714307.200    97106698.90346
  23208772.760   121962936.95007  23208774.840    95036068.68946
 15 02 16 00 51 30.0000000  0  7G16G18G21G22G27G29G31
  21662382.960   113836605.04808  21662384.480    88703867.32948
  22397603.860   117700264.42608  22397606.160    91714514.08046
  21229870.480   111563873.13308  21229871.300    86932963.41448
  23841381.100   125287362.20105  23841382.680    97626541.70445
  23007202.880   120903690.27607  23007207.380    94210694.64047
  23728175.640   124692873.40806  23728178.460    97163499.51645
  23226195.460   122054493.99607  23226197.700    95107411.80446
 15 02 16 00 52  0.0000000  0  7G16G18G21G22G27G29G31
  21649080.260   113766698.92508  21649081.760    88649395.02548
  22386091.840   117639768.08208  22386094.120    91667374.08346
  21236729.360   111599916.70908  21236730.200    86961049.31848
  23823095.140   125191270.79806  23823096.940    97551665.41945
  22994311.260   120835944.70507  22994315.760    94157905.90246
  23742055.480   124765813.16306  23742058.460    97220335.61846
  23243646.060   122146197.30507  23243648.420    95178868.89646
 15 02 16 00 52 30.0000000  0  7G16G18G21G22G27G29G31
  21635834.540   113697092.41708  21635836.080    88595156.19448
  22374640.420   117579590.52408  22374642.600    91620482.48246
  21243648.540   111636277.37408  21243649.420    86989382.30148
  23804814.340   125095205.32406  23804816.040    97476809.31846
  22981436.320   120768286.61007  22981440.840    94105185.33946
  23755943.860   124838798.67206  23755947.280    97277207.41246
  23261124.040   122238044.28707  23261126.500    95250437.92946
 15 02 16 00 53  0.0000000  0  7G16G18G21G22G27G29G31
  21622646.060   113627786.65508  21622647.640    88541151.70848
  22363249.820   117519732.92708  22363251.900    91573840.19746
  21250627.440   111672952.02508  21250628.400    87017959.95148
  23786538.980   124999167.21706  23786540.600    97401974.56745
  22968577.840   120700714.70407  22968582.380    94052531.93347
  23769840.640   124911828.60706  23769844.400    97334113.81045
  23278628.580   122330030.70807  23278631.040    95322115.61546
 15 02 16 00 53 30.0000000  0  7G16G18G21G22G27G29G31
  21609514.920   113558782.02008  21609516.520    88487381.87348
  22351920.240   117460195.89008  22351922.200    91527447.71446
  21257665.520   111709937.69208  21257666.540    87046779.95448
  23768269.220   124903157.71706  23768270.600    97327162.09645
  22955735.600   120633228.02007  22955740.140    93999944.93547
  23783745.980   124984901.86906  23783749.720    97391053.99245
  23296158.920   122422152.58907  23296161.360    95393898.86247
 15 02 16 00 54  0.0000000  0  7G16G18G21G22G27G29G31
  21596441.980   113490083.29308  21596443.600    88433850.40448
  22340652.660   117400984.23608  22340654.460    91481308.77246
  21264763.020   111747235.50308  21264764.060    87075843.18048
  23750005.900   124807182.02206  23750006.960    97252375.93745
  22942909.980   120565828.90107  22942914.540    93947426.16947
  23797660.220   125058020.36206  23797663.640    97448029.40446
  23313714.860   122514409.18507  23313717.220    95465787.06546
 15 02 16 00 54 30.0000000  0  7G16G18G21G22G27G29G31
  21583427.760   113421693.23108  21583429.380    88380559.45348
  22329447.660   117342100.94908  22329449.280    91435425.70746
  21271919.680   111784844.16108  21271920.760    87105148.62748
  23731749.520   124711243.10406  23731750.340    97177618.44546
  22930101.120   120498517.85307  22930105.680    93894976.01947
  23811583.340   125131184.95106  23811586.520    97505040.70545
  23331295.840   122606797.70607  23331298.180    95537778.06446
 15 02 16 00 55  0.0000000  0  7G16G18G21G22G27G29G31
  21570473.000   113353615.74208  21570474.660    88327512.07148
  22318305.860   117283549.85908  22318307.420    91389801.49746
  21279135.500   111822763.72708  21279136.620    87134696.33248
  23713500.960   124615345.32006  23713501.680    97102893.00545
  22917309.320   120431296.78507  22917313.920    93842595.99647
  23825515.520   125204397.20406  23825518.500    97562089.18745
  23348901.580   122699316.69907  23348903.860    95609870.74746
 15 02 16 00 55 30.0000000  0  7G16G18G21G22G27G29G31
  21557577.560   113285849.86008  21557579.220    88274707.49648
  22307227.000   117225329.75508  22307228.540    91344435.20147
  21286409.540   111860989.00208  21286410.660    87164482.25548
  23695259.900   124519487.84006  23695260.760    97028198.95745
  22904534.080   120364162.48207  22904538.640    93790283.57347
  23839456.160   125277653.84107  23839458.780    97619172.20545
  23366531.120   122791960.78607  23366533.300    95682060.88945
 15 02 16 00 56  0.0000000  0  7G16G18G21G22G27G29G31
  21544742.580   113218401.74308  21544744.240    88222150.52948
  22296212.200   117167446.97908  22296213.900    91299331.75146
  21293742.260   111899522.53708  21293743.340    87194508.39348
  23677027.680   124423677.32607  23677028.800    96953541.52545
  22891776.160   120297119.09707  22891780.660    93738041.99347
  23853405.760   125350958.86406  23853408.280    97676292.95945
  23384184.600   122884730.39407  23384186.660    95754348.85646
 15 02 16 00 56 30.0000000  0  7G16G18G21G22G27G29G31
  21531968.220   113151271.89108  21531969.840    88169841.55848
  22285261.480   117109901.48708  22285263.440    91254491.11947
  21301132.900   111938360.60708  21301134.000    87224771.82448
  23658804.520   124327914.45206  23658805.840    96878921.18746
  22879035.140   120230164.63507  22879039.600    93685869.71747
  23867363.880   125424309.87306  23867366.660    97733449.51245
  23401861.020   122977620.42407  23401863.060    95826730.64146
 15 02 16 00 57  0.0000000  0  7G16G18G21G22G27G29G31
  21519254.660   113084461.50908  21519256.200    88117781.52848
  22274375.280   117052695.37308  22274377.520    91209914.93647
  21308580.960   111977500.34508  21308582.040    87255270.31548
  23640590.860   124232201.01306  23640592.220    96804339.36846
  22866310.940   120163298.59407  22866315.360    93633766.32747
  23881330.540   125497706.42606  23881333.660    97790641.62046
  23419559.640   123070627.23707  23419561.780    95899203.43546
 15 02 16 00 57 30.0000000  0  7G16G18G21G22G27G29G31
  21506602.700   113017974.76108  21506604.200    88065973.68748
  22263554.360   116995832.31108  22263556.860    91165606.07346
  21316086.500   112016942.29308  21316087.600    87286004.29448
  23622387.520   124136541.52106  23622388.800    96729799.58446
  22853603.860   120096522.64507  22853608.280    93581733.14147
  23895306.100   125571150.01806  23895309.520    97847870.33645
  23437280.180   123163749.34807  23437282.420    95971766.06346
 15 02 16 00 58  0.0000000  0  7G16G18G21G22G27G29G31
  21494012.200   112951811.33208  21494013.740    88014417.78048
  22252798.740   116939311.75008  22252801.260    91121564.08846
  21323648.720   112056682.01908  21323649.860    87316970.30448
  23604194.360   124040935.89607  23604195.640    96655301.78345
  22840913.460   120029834.44307  22840917.900    93529768.33447
  23909290.200   125644638.11906  23909293.800    97905133.74646
  23455021.720   123256981.57807  23455024.100    96044414.49346
 15 02 16 00 58 30.0000000  0  7G16G18G21G22G27G29G31
  21481483.580   112885972.95508  21481485.160    87963115.16148
  22242108.800   116883135.32908  22242111.080    91077790.26446
  21331267.260   112096717.56708  21331268.400    87348166.83148
  23586011.840   123945386.26606  23586013.080    96580847.61046
  22828239.640   119963233.62407  22828244.120    93477871.61747
  23923283.060   125718170.31606  23923286.480    97962431.53445
  23472783.520   123350320.15907  23472785.960    96117145.81046
 15 02 16 00 59  0.0000000  0  7G16G18G21G22G27G29G31
  21469017.480   112820463.29108  21469019.120    87912068.68048
  22231485.100   116827306.59408  22231487.040    91034287.37046
  21338942.000   112137048.42708  21338943.140    87379593.47348
  23567840.660   123849896.60907  23567841.820    96506440.17546
  22815582.720   119896721.55707  22815587.200    93426044.06147
  23937284.700   125791747.50507  23937287.920    98019764.36745
  23490565.360   123443763.51307  23490567.740    96189958.76246
 15 02 16 00 59 30.0000000  0  7G16G18G21G22G27G29G31
  21456614.560   112755285.43608  21456616.180    87861280.74948
  22220928.300   116771829.11908  22220929.940    90991058.17646
  21346672.800   112177673.86908  21346673.940    87411249.65548
  23549681.500   123754470.75407  23549682.680    96432082.44346
  22802942.960   119830299.64007  22802947.480    93374286.76047
  23951295.320   125865371.20406  23951298.240    98077133.41246
  23508366.740   123537309.85507  23508369.100    96262851.96046
 15 02 16 01 00  0.0000000  0  7G16G18G21G22G27G29G31
  21444275.260   112690442.09008  21444276.880    87810753.47948
  22210438.660   116716704.98808  22210440.160    90948104.32246
  21354459.400   112218592.42108  21354460.500    87443134.24348
  23531534.980   123659111.48506  23531536.240    96357776.59545
  22790320.420   119763968.16507  22790324.960    93322599.92947
  23965314.660   125939041.28607  23965317.280    98134538.60745
  23526187.160   123630956.46907  23526189.540    96335823.29046
 15 02 16 01 00 30.0000000  0  7G16G18G21G22G27G29G31
  21432000.120   112625935.92508  21432001.720    87760488.94148
  22200016.680   116661936.84808  22200018.180    90905427.86147
  21362301.580   112259803.21308  21362302.680    87475246.54748
  23513401.660   123563821.67706  23513402.980    96283524.85946
  22777715.260   119697727.77507  22777719.800    93270984.07447
  23979342.780   126012758.57907  23979345.220    98191980.61345
  23544026.020   123724700.40807  23544028.480    96408870.45646
 15 02 16 01 01  0.0000000  0  7G16G18G21G22G27G29G31
  21419789.400   112561768.31608  21419791.020    87710488.21348
  22189662.560   116607526.10508  22189664.220    90863029.89347
  21370198.820   112301303.44708  21370199.920    87507584.38948
  23495282.000   123468603.53006  23495283.260    96209328.96145
  22765127.340   119631577.71207  22765131.880    93219438.59347
  23993379.400   126086522.08506  23993382.060    98249458.62846
  23561882.700   123818538.33307  23561885.260    96481990.86046
 15 02 16 01 01 30.0000000  0  7G16G18G21G22G27G29G31
  21407643.580   112497941.67709  21407645.200    87660753.17648
  22179376.860   116553474.95208  22179378.680    90820912.12146
  21378150.820   112343091.62308  21378151.920    87540146.59848
  23477176.720   123373459.98607  23477177.800    96135191.19646
  22752556.740   119565518.22507  22752561.180    93167963.69447
  24007424.660   126160331.70706  24007427.740    98306972.54645
  23579756.740   123912467.36807  23579759.320    96555182.24246
 15 02 16 01 02  0.0000000  0  7G16G18G21G22G27G29G31
  21395563.000   112434457.68309  21395564.580    87611285.13448
  22169159.920   116499784.72008  22169161.780    90779075.58746
  21386157.160   112385165.55008  21386158.300    87572931.47848
  23459086.100   123278392.85507  23459086.900    96061112.96145
  22740003.300   119499549.01607  22740007.680    93116559.14247
  24021478.560   126234186.46405  24021481.960    98364521.70746
  23597647.440   124006483.84906  23597649.980    96628441.78646
 15 02 16 01 02 30.0000000  0  7G16G18G21G22G27G29G31
  21383548.000   112371318.12909  21383549.520    87562085.48248
  22159012.120   116446457.40508  22159013.920    90737521.84847
  21394217.420   112427522.87208  21394218.620    87605937.18248
  23441010.560   123183404.33407  23441011.040    95987095.98546
  22727466.980   119433669.94207  22727471.340    93065224.81347
  24035541.060   126308086.84305  24035544.620    98422106.34646
  23615554.220   124100584.37706  23615556.660    96701766.80946
 15 02 16 01 03  0.0000000  0  7G16G18G21G22G27G29G31
  21371599.160   112308526.60409  21371600.640    87513157.02348
  22148934.080   116393496.45108  22148935.760    90696253.58647
  21402331.580   112470163.52808  21402332.840    87639163.66748
  23422950.860   123088498.67407  23422950.940    95913143.57646
  22714948.080   119367882.43107  22714952.380    93013961.82647
  24049612.440   126382033.87106  24049616.180    98479727.32145
  23633476.840   124194767.43506  23633479.120    96775156.14346
 15 02 16 01 03 30.0000000  0  7G16G18G21G22G27G29G31
  21359717.100   112246085.98109  21359718.540    87464501.99648
  22138926.160   116340904.31908  22138927.740    90655272.71647
  21410499.420   112513086.14508  21410500.720    87672609.86048
  23404907.340   122993678.54907  23404907.220    95839257.82346
  22702446.660   119302186.93907  22702450.960    92962770.55047
  24063692.800   126456027.72106  24063696.760    98537384.87245
  23651414.700   124289030.37407  23651416.800    96848607.70546
 15 02 16 01 04  0.0000000  0  7G16G18G21G22G27G29G31
  21347901.300   112183993.58009  21347902.740    87416118.30748
  22128987.840   116288678.22108  22128989.420    90614577.06547
  21418719.640   112556283.70608  21418720.920    87706270.29548
  23386879.580   122898941.98007  23386879.480    95765437.18046
  22689961.920   119236579.06907  22689966.240    92911647.53247
  24077781.480   126530064.19506  24077785.300    98595075.63344
  23669366.360   124383365.75507  23669368.320    96922115.71846
 15 02 16 01 04 30.0000000  0  7G16G18G21G22G27G29G31
  21336153.060   112122256.31409  21336154.540    87368011.34748
  22119120.380   116236824.86008  22119122.080    90574171.86347
  21426992.880   112599759.66008  21426994.100    87740147.66448
  23368868.980   122804296.53206  23368869.080    95691687.53546
  22677494.720   119171063.57507  22677499.080    92860596.50847
  24091879.200   126604147.59606  24091882.740    98652802.87744
  23687331.960   124477775.03106  23687333.960    96995681.32246
 15 02 16 01 05  0.0000000  0  7G16G18G21G22G27G29G31
  21324472.780   112060876.12109  21324474.300    87320182.62048
  22109324.220   116185346.19108  22109326.060    90534058.62147
  21435318.740   112643512.17708  21435319.920    87774240.53048
  23350876.160   122709744.97006  23350876.500    95618011.04946
  22665045.120   119105640.58007  22665049.500    92809617.55547
  24105985.920   126678277.59607  24105989.040    98710566.50745
  23705310.960   124572255.00707  23705313.060    97069302.00046
 15 02 16 01 05 30.0000000  0  7G16G18G21G22G27G29G31
  21312860.600   111999853.56909  21312862.120    87272632.58048
  22099599.460   116134242.44008  22099601.420    90494237.53047
  21443696.640   112687538.18108  21443697.780    87808546.50348
  23332901.360   122615287.56807  23332901.840    95544407.92846
  22652612.800   119040308.47107  22652617.180    92758709.42447
  24120101.320   126752452.40307  24120103.940    98768365.06044
  23723302.440   124666800.80407  23723304.660    97142973.99346
 15 02 16 01 06  0.0000000  0  7G16G18G21G22G27G29G31
  21301317.400   111939193.62209  21301318.920    87225365.09148
  22089947.020   116083518.34908  22089948.960    90454712.27347
  21452126.660   112731838.11408  21452127.800    87843065.92748
  23314945.520   122520929.69607  23314946.160    95470882.35446
  22640198.320   118975070.15907  22640202.660    92707874.38847
  24134225.760   126826675.09406  24134228.340    98826200.87945
  23741306.480   124761412.65706  23741308.800    97216697.43346
 15 02 16 01 06 30.0000000  0  7G16G18G21G22G27G29G31
  21289843.240   111878896.72509  21289844.800    87178380.49448
  22080366.920   116033174.31808  22080368.760    90415483.17547
  21460608.100   112776408.40008  21460609.260    87877796.01548
  23297009.020   122426673.05207  23297009.700    95397435.66746
  22627801.400   118909924.15707  22627805.720    92657111.27847
  24148358.800   126900943.93506  24148361.420    98884072.66045
  23759322.220   124856086.02806  23759324.660    97290468.80946
 15 02 16 01 07  0.0000000  0  7G16G18G21G22G27G29G31
  21278438.660   111818965.63409  21278440.280    87131680.94548
  22070859.600   115983212.89108  22070861.340    90376552.20747
  21469140.840   112821248.21708  21469142.020    87912736.13048
  23279092.400   122332520.66507  23279093.060    95324070.19846
  22615422.260   118844871.44807  22615426.540    92606420.86347
  24162500.520   126975259.45905  24162503.380    98941980.79546
  23777349.260   124950818.54506  23777351.720    97364286.26646
 15 02 16 01 07 30.0000000  0  7G16G18G21G22G27G29G31
  21267104.700   111759405.43509  21267106.340    87085270.40048
  22061425.940   115933638.57608  22061427.640    90337922.88547
  21477725.180   112866359.31308  21477726.400    87947887.62648
  23261196.560   122238477.67507  23261197.300    95250789.98546
  22603061.380   118779914.62707  22603065.680    92555805.17347
  24176651.380   127049623.91305  24176654.580    98999927.06946
  23795387.440   125045609.71006  23795389.920    97438149.44446
 15 02 16 01 08  0.0000000  0  7G16G18G21G22G27G29G31
  21255841.180   111700215.24309  21255842.820    87039148.17348
  22052065.660   115884450.24108  22052067.400    90299594.33247
  21486360.060   112911735.83708  21486361.260    87983245.95348
  23243321.320   122144543.36906  23243322.300    95177594.47146
  22590718.200   118715050.75208  22590722.520    92505261.91047
  24190811.060   127124034.42906  24190814.900    99057909.21646
  23813435.400   125140453.05506  23813438.100    97512053.27846
 15 02 16 01 08 30.0000000  0  7G16G18G21G22G27G29G31
  21244647.900   111641394.14708  21244649.560    86993313.55848
  22042778.680   115835647.27508  22042780.500    90261566.05247
  21495044.480   112957372.80908  21495045.700    88018807.23048
  23225466.720   122050717.94306  23225468.080    95104483.79646
  22578392.240   118650277.41108  22578396.560    92454789.19147
  24204979.160   127198488.38706  24204983.080    99115925.31945
  23831492.280   125235343.14606  23831495.200    97585993.52146
 15 02 16 01 09  0.0000000  0  7G16G18G21G22G27G29G31
  21233526.120   111582948.84009  21233527.780    86947771.76148
  22033566.120   115787235.39208  22033568.040    90223842.51947
  21503779.180   113003273.97308  21503780.380    88054574.36448
  23207634.220   121957008.32906  23207635.740    95031463.36346
  22566084.360   118585599.00408  22566088.700    92404390.44747
  24219156.380   127272989.93106  24219160.460    99173978.35445
  23849558.440   125330281.40006  23849561.480    97659971.29546
 15 02 16 01 09 30.0000000  0  7G16G18G21G22G27G29G31
  21222475.760   111524878.85408  21222477.440    86902522.42348
  22024427.900   115739213.91908  22024429.860    90186423.19347
  21512563.280   113049434.61108  21512564.460    88090543.68948
  23189823.840   121863414.28507  23189825.400    94958532.99646
  22553794.080   118521013.10508  22553798.400    92354063.78547
  24233342.260   127347536.45807  24233345.900    99232066.59645
  23867632.800   125425262.24306  23867635.800    97733982.24545
 15 02 16 01 10  0.0000000  0  7G16G18G21G22G27G29G31
  21211497.140   111467185.75908  21211498.840    86857566.76448
  22015364.400   115691584.59808  22015366.340    90149309.44647
  21521396.180   113095851.91408  21521397.380    88126713.00848
  23172036.100   121769938.30007  23172037.480    94885694.60746
  22541521.400   118456519.56308  22541525.680    92303809.08947
  24247536.780   127422127.86907  24247540.320    99290189.63844
  23885714.740   125520282.45506  23885717.540    97808023.88746
 15 02 16 01 10 30.0000000  0  7G16G18G21G22G27G29G31
  21200591.740   111409877.41908  21200593.480    86812910.92348
  22006376.980   115644354.93808  22006378.880    90112507.12047
  21530278.760   113142530.19508  21530279.940    88163085.69448
  23154272.500   121676588.66207  23154273.580    94812954.66446
  22529267.380   118392124.24808  22529271.620    92253630.93847
  24261740.780   127496769.37106  24261743.780    99348351.90045
  23903804.720   125615344.56206  23903807.260    97882098.16446
 15 02 16 01 11  0.0000000  0  7G16G18G21G22G27G29G31
  21189759.560   111352953.85208  21189761.280    86768554.89948
  21997465.520   115597524.52608  21997467.360    90076015.89647
  21539210.240   113189465.63608  21539211.460    88199658.74948
  23136533.000   121583365.80107  23136533.760    94740313.51946
  22517031.620   118327825.09708  22517035.860    92203527.71647
  24275953.720   127571458.35207  24275956.380    99406551.07245
  23921901.620   125710443.33106  23921903.900    97956201.00046
 15 02 16 01 11 30.0000000  0  7G16G18G21G22G27G29G31
  21179000.580   111296414.98908  21179002.260    86724498.64648
  21988629.880   115551092.88008  21988631.640    90039835.39347
  21548189.900   113236654.14408  21548191.140    88236429.00948
  23118817.660   121490270.13407  23118818.220    94667771.48046
  22504813.760   118263620.09308  22504818.020    92153497.85947
  24290175.180   127646193.16407  24290177.940    99464785.82944
  23940004.460   125805573.60106  23940006.680    98030328.37946
 15 02 16 01 12  0.0000000  0  7G16G18G21G22G27G29G31
  21168315.080   111240262.32608  21168316.740    86680743.33248
  21979870.420   115505061.55208  21979872.100    90003966.83647
  21557217.320   113284093.63508  21557218.580    88273394.84048
  23101126.860   121397303.83207  23101127.260    94595330.24546
  22492613.740   118199509.00707  22492618.080    92103541.18147
  24304405.300   127720973.24905  24304407.920    99523056.13145
  23958112.600   125900732.17706  23958114.940    98104477.82546
 15 02 16 01 12 30.0000000  0  7G16G18G21G22G27G29G31
  21157704.580   111184503.82708  21157706.240    86637295.15648
  21971188.420   115459437.63908  21971190.160    89968415.75147
  21566293.280   113331788.09308  21566294.560    88310559.34448
  23083462.060   121304474.95507  23083462.500    94522996.10446
  22480432.740   118135497.77308  22480437.140    92053662.31547
  24318645.280   127795804.18206  24318647.660    99581366.05345
  23976226.460   125995921.73506  23976229.040    98178651.39546
 15 02 16 01 13  0.0000000  0  7G16G18G21G22G27G29G31
  21147169.100   111129139.50908  21147170.740    86594154.13248
  21962583.880   115414220.90908  21962585.680    89933181.95047
  21575417.000   113379733.33408  21575418.280    88347919.26848
  23065823.480   121211784.47107  23065824.060    94450769.80046
  22468270.460   118071584.46308  22468274.820    92003859.75647
  24332894.180   127870684.11506  24332897.180    99639713.92845
  23994345.220   126091136.93106  23994348.040    98252844.95546
 15 02 16 01 13 30.0000000  0  7G16G18G21G22G27G29G31
  21136707.460   111074163.14009  21136709.100    86551315.40648
  21954055.660   115369405.22608  21954057.500    89898260.65147
  21584586.580   113427919.47608  21584587.840    88385466.90348
  23048210.180   121119226.85407  23048210.820    94378647.01646
  22456125.380   118007761.20808  22456129.680    91954127.37747
  24347150.940   127945604.19405  24347154.180    99698093.27645
  24012466.840   126186366.99506  24012469.880    98327050.08046
 15 02 16 01 14  0.0000000  0  7G16G18G21G22G27G29G31
  21126322.060   111019587.31409  21126323.680    86508788.79248
  21945605.960   115325001.91608  21945607.760    89863660.68547
  21593803.600   113476354.86708  21593804.800    88423208.75648
  23030624.620   121026814.81407  23030625.180    94306637.66746
  22443999.360   117944038.39608  22444003.640    91904473.25647
  24361417.460   128020575.28107  24361420.520    99756512.27644
  24030592.740   126281619.07906  24030595.900    98401272.38546
 15 02 16 01 14 30.0000000  0  7G16G18G21G22G27G29G31
  21116011.680   110965405.85409  21116013.260    86466569.47348
  21937233.760   115281005.52108  21937235.520    89829377.79547
  21603066.280   113525030.40608  21603067.440    88461137.75148
  23013065.780   120934542.94107  23013066.260    94234737.55246
  22431891.000   117880408.31608  22431895.220    91854891.40047
  24375692.280   128095589.16505  24375695.200    99814964.68445
  24048720.860   126376882.51706  24048724.140    98475503.53845
 15 02 16 01 15  0.0000000  0  7G16G18G21G22G27G29G31
  21105778.400   110911629.66809  21105779.980    86424665.95148
  21928940.880   115237426.00608  21928942.640    89795419.74147
  21612375.900   113573952.69208  21612377.040    88499259.00948
  22995535.740   120842422.37507  22995536.120    94162955.32946
  22419801.900   117816879.71708  22419806.100    91805388.61647
  24389976.980   128170654.16506  24389979.780    99873456.91645
  24066852.200   126472162.79806  24066855.520    98549747.78146
 15 02 16 01 15 30.0000000  0  7G16G18G21G22G27G29G31
  21095622.020   110858257.64609  21095623.640    86383077.36548
  21920727.080   115194262.28208  21920728.880    89761785.68347
  21621731.480   113623116.53408  21621732.600    88537568.49648
  22978034.500   120750452.85807  22978034.780    94091290.81446
  22407731.540   117753449.80508  22407735.720    91755962.73347
  24404270.460   128245767.47906  24404273.500    99931986.69044
  24084985.520   126567453.79606  24084988.900    98624000.38846
 15 02 16 01 16  0.0000000  0  7G16G18G21G22G27G29G31
  21085542.340   110805288.68809  21085544.000    86341802.85648
  21912592.000   115151512.46108  21912593.880    89728474.14447
  21631132.120   113672517.14108  21631133.200    88576062.47248
  22960561.900   120658633.84107  22960562.260    94019743.56246
  22395679.420   117690115.80408  22395683.580    91706611.58947
  24418572.620   128320925.62205  24418575.660    99990551.50144
  24103119.860   126662749.58606  24103123.240    98698256.71546
 15 02 16 01 16 30.0000000  0  7G16G18G21G22G27G29G31
  21075540.500   110752728.75109  21075542.180    86300847.06148
  21904536.700   115109181.93408  21904538.680    89695489.32247
  21640578.180   113722156.43508  21640579.240    88614742.44148
  22943119.120   120566971.70507  22943119.660    93948318.54046
  22383646.320   117626881.71008  22383650.500    91657338.29147
  24432884.040   128396132.70506  24432886.800   100049154.42345
  24121255.340   126758050.97906  24121258.600    98772517.41546
 15 02 16 01 17  0.0000000  0  7G16G18G21G22G27G29G31
  21065616.460   110700577.63209  21065618.140    86260209.82948
  21896561.200   115067270.73708  21896563.300    89662831.25747
  21650068.920   113772030.36008  21650069.940    88653605.23848
  22925706.380   120475467.16307  22925707.060    93877016.33847
  22371631.840   117563745.57608  22371636.040    91608141.32347
  24447204.340   128471386.40005  24447207.100   100107793.71745
  24139390.980   126853352.75206  24139394.080    98846778.41546
 15 02 16 01 17 30.0000000  0  7G16G18G21G22G27G29G31
  21055771.480   110648841.84709  21055773.140    86219896.23548
  21888666.540   115025784.32108  21888668.740    89630504.19047
  21659604.880   113822142.21808  21659605.920    88692653.43748
  22908324.900   120384126.99007  22908325.780    93805842.20846
  22359636.880   117500712.00808  22359641.140    91559024.27948
  24461533.960   128546691.15006  24461537.260   100166472.61645
  24157526.980   126948656.48106  24157529.880    98921040.92346
 15 02 16 01 18  0.0000000  0  7G16G18G21G22G27G29G31
  21046002.500   110597505.49009  21046004.160    86179893.88348
  21880849.680   114984706.52408  21880851.900    89598495.52847
  21669182.260   113872471.66908  21669183.320    88731871.18648
  22890971.760   120292935.72307  22890972.800    93734784.10347
  22347658.060   117437763.30008  22347662.380    91509973.35148
  24475870.700   128621559.66105  24475872.900   100224618.23545
  24175659.360   127043941.66906  24175662.100    98995288.98346
 15 02 16 01 18 30.0000000  0  7G16G18G21G22G27G29G31
  21036318.900   110546617.64409  21036320.560    86140241.01848
  21873119.940   114944086.41008  21873122.120    89566843.50247
  21678809.760   113923064.65408  21678810.880    88771294.28048
  22873656.500   120201943.34707  22873657.560    93663880.98147
  22335704.500   117374947.20708  22335708.860    91461025.76347
  24490221.060   128696977.42106  24490224.540   100283385.23644
  24193796.480   127139252.66006  24193799.260    99069557.14245
 15 02 16 01 19  0.0000000  0  8G16G18G19G21G22G27G29G31
  21026712.680   110496136.47809  21026714.300    86100905.04148
  21865469.200   114903881.38508  21865471.340    89535514.91947
  24544229.140   128980795.14405  24544230.020   100504518.57245
  21688478.760   113973875.52608  21688479.900    88810887.16148
  22856371.340   120111108.92607  22856372.260    93593100.94246
  22323767.860   117312219.82408  22323772.220    91412147.30147
  24504579.220   128772431.42504  24504583.140   100342180.63645
  24211929.500   127234542.30206  24211932.380    99143808.66845
 15 02 16 01 19 30.0000000  0  8G16G18G19G21G22G27G29G31
  21017180.100   110446042.38009  21017181.660    86061870.67848
  21857893.540   114864071.08108  21857895.660    89504493.91547
  24528898.600   128900233.35405  24528899.800   100441743.18145
  21698184.640   114024880.23908  21698185.800    88850631.08448
  22839112.480   120020412.74807  22839113.140    93522428.62546
  22311844.000   117249559.50408  22311848.340    91363321.10048
  24518940.340   128847899.81206  24518944.520   100400987.06045
  24230053.680   127329785.77606  24230056.680    99218024.20446
 15 02 16 01 20  0.0000000  0  8G16G18G19G21G22G27G29G31
  21007733.120   110396398.27309  21007734.640    86023186.96048
  21850404.980   114824718.38008  21850407.040    89473829.48547
  24513582.620   128819747.72505  24513583.980   100379027.18645
  21707938.680   114076138.19108  21707939.880    88890572.34248
  22821892.000   119929918.66407  22821892.400    93451913.78346
  22299944.580   117187027.73808  22299948.960    91314595.07347
  24533315.980   128923443.41905  24533320.140   100459852.22745
  24248180.040   127425041.09306  24248183.180    99292248.97146
 15 02 16 01 20 30.0000000  0  8G16G18G19G21G22G27G29G31
  20998366.320   110347175.59009  20998367.860    85984831.62548
  21842997.880   114785794.05108  21842999.960    89443498.84647
  24498275.360   128739307.51505  24498276.660   100316346.51345
  21717734.760   114127617.05708  21717736.000    88930685.73848
  22804704.500   119839598.62207  22804704.780    93381534.55746
  22288063.880   117124594.13008  22288068.240    91265945.52947
  24547700.220   128999031.69706  24547704.280   100518752.16145
  24266302.460   127520275.12106  24266305.660    99366457.16546
 15 02 16 01 21  0.0000000  0  7G16G18G19G21G22G27G31
  20989075.000   110298349.31409  20989076.560    85946785.18248
  21835667.500   114747272.53908  21835669.540    89413482.08747
  24482971.620   128658886.16805  24482972.880   100253680.58444
  21727567.360   114179288.04708  21727568.680    88970948.83748
  22787545.420   119749428.35407  22787545.680    93311272.03546
  22276196.800   117062232.20608  22276201.160    91217351.84548
  24284415.200   127615457.89106  24284418.380    99440625.40445
 15 02 16 01 21 30.0000000  0  7G16G18G19G21G22G27G31
  20979873.440   110249994.65809  20979875.000    85909106.23048
  21828428.100   114709229.06908  21828430.120    89383837.83747
  24467685.340   128578556.66805  24467686.580   100191086.19145
  21737450.220   114231222.92708  21737451.560    89011417.57248
  22770429.360   119659484.00807  22770429.660    93241185.56846
  22264357.380   117000015.58408  22264361.740    91168871.39148
  24302531.740   127710660.27406  24302534.980    99514808.91545
 15 02 16 01 22  0.0000000  0  7G16G18G19G21G22G27G31
  20970751.780   110202059.90909  20970753.360    85871754.48348
  21821269.640   114671610.68508  21821271.620    89354524.82347
  24452406.280   128498265.17605  24452407.540   100128521.42344
  21747372.720   114283366.15608  21747374.080    89052048.64748
  22753346.560   119569714.16507  22753346.980    93171235.07047
  22252535.420   116937890.68108  22252539.760    91120462.39448
  24320641.260   127805825.30906  24320644.560    99588963.30346
 15 02 16 01 22 30.0000000  0  7G16G18G19G21G22G27G31
  20961712.700   110154559.20209  20961714.260    85834740.94948
  21814194.780   114634431.65108  21814196.740    89325554.15947
  24437136.760   128418024.08706  24437138.180   100065995.94444
  21757336.920   114335728.15908  21757338.240    89092850.20048
  22736299.920   119480133.62507  22736300.440    93101432.08247
  22240733.240   116875869.86708  22240737.540    91072134.51148
  24338745.480   127900962.29506  24338748.780    99663095.84145
 15 02 16 01 23  0.0000000  0  7G16G18G19G21G22G27G31
  20952756.140   110107492.06409  20952757.620    85798065.26248
  21807203.300   114597691.08408  21807205.260    89296925.15247
  24421876.440   128337830.99806  24421877.940   100003507.86944
  21767341.940   114388304.80808  21767343.280    89133819.01548
  22719289.500   119390742.62607  22719290.060    93031776.77747
  22228950.520   116813951.32608  22228954.820    91023886.32248
  24356843.400   127996066.16906  24356846.780    99737202.58046
 15 02 16 01 23 30.0000000  0  7G16G18G19G21G22G27G31
  20943883.000   110060863.27809  20943884.460    85761731.14348
  21800295.900   114561392.81408  21800297.940    89268640.78847
  24406625.860   128257688.84506  24406627.320    99941059.49045
  21777387.920   114441096.69908  21777389.280    89174955.55048
  22702316.260   119301546.52608  22702316.760    92962273.33947
  22217187.820   116752138.00208  22217192.120    90975720.12048
  24374934.980   128091136.59506  24374938.360    99811283.24345
 15 02 16 01 24  0.0000000  0  7G16G18G19G21G22G27G31
  20935093.380   110014673.55209  20935094.860    85725739.15549
  21793472.620   114525536.90608  21793474.780    89240701.13047
  24391384.760   128177596.23806  24391386.140    99878649.72745
  21787474.420   114494101.42808  21787475.760    89216257.92648
  22685380.280   119212546.51808  22685380.780    92892922.69147
  22205444.980   116690428.80608  22205449.240    90927635.04948
  24393019.420   128186169.43906  24393022.800    99885334.63046
 15 02 16 01 24 30.0000000  0  7G16G18G19G21G22G27G31
  20926387.300   109968922.87209  20926388.820    85690089.27848
  21786733.420   114490122.89308  21786735.700    89213105.80347
  24376152.900   128097551.63206  24376154.040    99816277.36345
  21797600.720   114547315.38108  21797602.060    89257723.33748
  22668481.720   119123743.58608  22668482.280    92823725.62247
  22193721.700   116628822.58108  22193725.960    90879630.21648
  24411095.860   128281160.11406  24411099.200    99959353.15246
 15 02 16 01 25  0.0000000  0  7G16G18G19G21G22G27G31
  20917765.340   109923614.38509  20917766.900    85654783.96749
  21780079.000   114455153.83808  21780081.260    89185857.19947
  24360930.340   128017556.05806  24360931.300    99753943.18245
  21807766.700   114600737.86408  21807768.040    89299351.24048
  22651621.360   119035141.82507  22651622.060    92754685.30747
  22182018.300   116567320.63008  22182022.520    90831706.63348
  24429164.000   128376107.24106  24429167.240   100033337.74846
 15 02 16 01 25 30.0000000  0  7G16G18G19G21G22G27G31
  20909228.480   109878753.10609  20909230.060    85619827.13348
  21773510.140   114420633.95108  21773512.260    89158958.59847
  24345717.640   127937612.76406  24345718.540    99691649.76845
  21817972.600   114654370.20708  21817973.940    89341142.67248
  22634800.260   118946746.85307  22634801.080    92685806.12647
  22170335.440   116505926.59008  22170339.620    90783867.13348
  24447223.840   128471011.01706  24447227.020   100107288.55146
 15 02 16 01 26  0.0000000  0  7G16G18G19G21G22G27G31
  20900776.660   109834338.62909  20900778.220    85585218.45349
  21767026.640   114386562.40308  21767028.600    89132409.35447
  24330514.500   127857719.77206  24330515.440    99629395.53545
  21828217.700   114708208.48108  21828219.020    89383094.56448
  22618018.540   118858558.87807  22618019.420    92617088.24347
  22158672.720   116444638.56408  22158676.920    90736110.24048
  24465274.360   128565866.42206  24465277.620   100181201.66645
 15 02 16 01 26 30.0000000  0  7G16G18G19G21G22G27G31
  20892410.520   109790374.31109  20892412.100    85550960.54849
  21760628.940   114352941.69008  21760630.760    89106211.41247
  24315321.140   127777878.24706  24315322.120    99567181.39745
  21838501.860   114762252.01508  21838503.160    89425206.40248
  22601276.880   118770581.31108  22601277.760    92548534.31847
  22147030.440   116383458.01408  22147034.640    90688437.10748
  24483315.200   128660671.60306  24483318.680   100255075.65045
 15 02 16 01 27  0.0000000  0  7G16G18G19G21G22G27G31
  20884130.420   109746862.05209  20884131.960    85517054.88748
  21754317.200   114319773.04408  21754318.980    89080365.73147
  24300137.520   127698088.14306  24300138.580    99505007.32646
  21848824.780   114816499.28908  21848826.100    89467477.00148
  22584575.900   118682817.43408  22584576.680    92480146.90247
  22135408.740   116322385.48708  22135412.900    90640848.13548
  24501345.900   128755423.94106  24501349.680   100328908.46745
 15 02 16 01 27 30.0000000  0  7G16G18G19G21G22G27G31
  20875936.620   109703803.50309  20875938.180    85483502.77348
  21748091.760   114287058.24908  21748093.580    89054873.69147
  24284963.660   127618349.81106  24284964.880    99442873.59445
  21859186.220   114870948.79008  21859187.480    89509905.18048
  22567916.120   118595269.79908  22567916.720    92411927.99047
  22123807.600   116261421.45308  22123811.820    90593343.70548
  24519366.020   128850120.95506  24519370.040   100402698.13945
 15 02 16 01 28  0.0000000  0  7G16G18G19G21G22G27G31
  20867829.500   109661200.40509  20867831.060    85450305.55649
  21741952.700   114254797.64908  21741954.580    89029735.56747
  24269799.620   127538662.88706  24269801.020    99380779.92646
  21869585.720   114925598.46508  21869586.960    89552489.33448
  22551297.920   118507940.60808  22551298.340    92343879.28947
  22112227.120   116200565.79608  22112231.320    90545923.72748
  24537374.840   128944758.95706  24537379.120   100476441.84345
 15 02 16 01 28 30.0000000  0  7G16G18G19G21G22G27G31
  20859809.240   109619053.74109  20859810.840    85417464.00449
  21735900.280   114222992.39308  21735902.260    89004952.26347
  24254645.260   127459026.79406  24254646.840    99318725.88546
  21880022.860   114980445.97208  21880024.080    89595227.64748
  22534721.640   118420831.32908  22534721.940    92276001.95747
  22100667.160   116139818.21108  22100671.400    90498587.96148
  24555371.860   129039334.77606  24555376.320   100550137.05745
 15 02 16 01 29  0.0000000  0  7G16G18G19G21G22G27G31
  20851876.100   109577364.89809  20851877.760    85384979.19149
  21729934.600   114191642.84808  21729936.680    88980524.05347
  24239500.520   127379441.01406  24239502.120    99256711.02645
  21890497.220   115035488.93408  21890498.420    89638118.25948
  22518187.680   118333944.55208  22518187.940    92208298.00047
  22089127.760   116079178.53108  22089132.020    90451336.28248
  24573356.620   129133845.27306  24573361.200   100623781.39546
 15 02 16 01 29 30.0000000  0  7G16G18G19G21G22G27G31
  20844030.940   109536138.33809  20844032.640    85352854.60549
  21724056.400   114160752.78608  21724058.480    88956453.88447
  24224365.880   127299908.23006  24224367.440    99194737.48446
  21901008.760   115090727.50508  21901009.960    89681161.29548
  22501697.040   118247285.20708  22501697.340    92140771.25447
  22077609.500   116018649.87108  22077613.800    90404171.11148
  24591329.000   129228290.03406  24591333.500   100697374.45945
 15 02 16 01 30  0.0000000  0  7G16G18G19G21G22G27G31
  20836273.460   109495372.39509  20836275.120    85321088.93549
  21718265.200   114130319.78208  21718267.260    88932739.86647
  24209240.800   127220425.18506  24209242.160    99132802.68745
  21911556.740   115146157.45908  21911557.880    89724353.46148
  22485249.480   118160852.57008  22485249.880    92073421.16747
  22066111.820   115958229.29608  22066116.140    90357090.16948
  24609287.900   129322663.00906  24609292.120   100770911.59745
 15 02 16 01 30 30.0000000  0  7G16G18G19G21G22G27G31
  20828604.840   109455073.34609  20828606.440    85289687.07949
  21712562.160   114100349.98108  21712564.180    88909386.78848
  24194125.980   127140996.04706  24194127.180    99070909.90545
  21922141.600   115201781.31808  21922142.720    89767696.71748
  22468846.240   118074653.26108  22468846.820    92006252.89147
  22054635.640   115897921.29008  22054639.860    90310096.92748
  24627233.540   129416965.60306  24627237.320   100844393.86345
 15 02 16 01 31  0.0000000  0  7G16G18G19G21G22G27G31
  20821024.940   109415240.63209  20821026.520    85258648.60249
  21706946.980   114070842.08208  21706949.040    88886393.63948
  24179021.020   127061619.04106  24179022.100    99009057.75245
  21932762.560   115257594.90808  21932763.700    89811187.82248
  22452487.400   117988687.65508  22452488.180    91939266.71747
  22043180.560   115837724.21208  22043184.700    90263190.13048
  24645164.980   129511193.15006  24645168.420   100917817.69245
 15 02 16 01 31 30.0000000  0  7G16G18G19G21G22G27G31
  20813534.100   109375875.91309  20813535.660    85227974.79349
  21701419.880   114041797.16508  21701422.020    88863761.25247
  24163925.940   126982293.91006  24163926.880    98947246.02745
  21943419.320   115313596.48608  21943420.460    89854825.40548
  22436173.580   117902958.68508  22436174.520    91872464.92447
  22031746.620   115777638.39208  22031750.720    90216370.02248
  24663081.500   129605342.73306  24663084.660   100991180.74445
 15 02 16 01 32  0.0000000  0  7G16G18G19G21G22G27G31
  20806133.060   109336983.10609  20806134.600    85197668.71249
  21695981.480   114013218.39008  21695983.680    88841492.09147
  24148841.140   126903022.90906  24148842.060    98885476.47745
  21954111.960   115369786.77308  21954113.140    89898610.03248
  22419905.760   117817471.16908  22419906.700    91805851.27747
  22020334.340   115717666.46608  22020338.440    90169638.66848
  24680982.980   129699413.78006  24680986.080   101064482.60244
 15 02 16 01 32 30.0000000  0  7G16G18G19G21G22G27G31
  20798821.620   109298561.11409  20798823.120    85167729.49849
  21690631.500   113985104.16808  21690633.700    88819584.91347
  24133766.260   126823803.97206  24133767.180    98823747.48245
  21964839.660   115426161.42508  21964840.880    89942538.32448
  22403683.800   117732224.31208  22403684.600    91739425.16547
  22008943.280   115657806.18908  22008947.400    90122994.31248
  24698868.380   129793400.80106  24698871.440   101137718.97445
 15 02 16 01 33  0.0000000  0  6G16G18G19G21G22G27
  20791600.020   109260611.20609  20791601.460    85138158.13849
  21685369.920   113957454.57108  21685372.120    88798039.78747
  24118700.980   126744635.74806  24118701.960    98762058.01745
  21975601.920   115482717.51708  21975603.160    89986608.00648
  22387508.120   117647219.97508  22387508.680    91673188.04447
  21997573.380   115598056.97708  21997577.520    90076436.49548
 15 02 16 01 33 30.0000000  0  6G16G18G19G21G22G27
  20784469.700   109223141.22609  20784471.160    85108960.75049
  21680198.240   113930277.24008  21680200.420    88776862.66148
  24103646.600   126665524.83106  24103647.580    98700413.19346
  21986399.520   115539459.44008  21986400.800    90030822.47948
  22371380.380   117562467.22808  22371380.640    91607146.97147
  21986225.900   115538425.64108  21986230.060    90029970.52948
 15 02 16 01 34  0.0000000  0  6G16G18G19G21G22G27
  20777430.200   109186148.48809  20777431.720    85080135.24349
  21675115.800   113903568.83008  21675117.940    88756050.92048
  24088602.320   126586467.02606  24088603.360    98638809.74245
  21997231.460   115596381.73708  21997232.760    90075177.50648
  22355300.160   117477964.23408  22355300.140    91541300.51347
  21974900.080   115478908.21208  21974904.280    89983593.32048
 15 02 16 01 34 30.0000000  0  6G16G18G19G21G22G27
  20770481.960   109149635.33509  20770483.520    85051683.43649
  21670122.940   113877331.05308  21670125.020    88735605.91148
  24073568.280   126507463.02306  24073569.420    98577248.21145
  22008097.500   115653483.17608  22008098.800    90119672.13248
  22339268.000   117393714.23908  22339267.780    91475651.19347
  21963596.140   115419505.84908  21963600.360    89937305.77648
 15 02 16 01 35  0.0000000  0  6G16G18G19G21G22G27
  20763625.320   109113603.49309  20763626.900    85023606.67249
  21665219.820   113851564.94408  21665221.860    88715528.43648
  24058544.520   126428513.10906  24058545.760    98515728.81946
  22018997.380   115710762.15908  22018998.620    90164305.09948
  22323284.280   117309719.55208  22323284.100    91410200.81247
  21952314.200   115360219.05308  21952318.420    89891108.29048
 15 02 16 01 35 30.0000000  0  6G16G18G19G21G22G27
  20756860.500   109078054.05109  20756862.060    84995905.81249
  21660406.520   113826271.12908  21660408.560    88695818.97848
  24043531.080   126349617.17006  24043532.340    98454251.48646
  22029930.680   115768216.81508  22029931.880    90209074.95348
  22307349.380   117225982.20708  22307349.500    91344950.94347
  21941054.280   115301047.88508  21941058.480    89845000.89048
 15 02 16 01 36  0.0000000  0  6G16G18G19G21G22G27
  20750187.940   109042989.45308  20750189.480    84968582.75149
  21655683.400   113801451.19108  21655685.420    88676478.78247
  24028528.000   126270775.37906  24028529.200    98392816.35746
  22040897.180   115825846.01708  22040898.320    90253980.82648
  22291464.120   117142505.85308  22291464.620    91279904.44547
  21929816.560   115241993.53008  21929820.780    89798984.52448
 15 02 16 01 36 30.0000000  0  6G16G18G19G21G22G27
  20743607.760   109008410.37409  20743609.320    84941638.01049
  21651050.460   113777105.07508  21651052.440    88657507.79047
  24013535.160   126191987.23706  24013536.260    98331423.03446
  22051896.440   115883647.13508  22051897.480    90299020.65248
  22275628.920   117059292.06908  22275629.720    91215062.54047
  21918601.000   115183055.59108  21918605.240    89753058.87648
 15 02 16 01 37  0.0000000  0  6G16G18G19G21G22G27
  20737120.580   108974320.10809  20737122.180    84915074.17049
  21646508.240   113753235.61808  21646510.160    88638908.23047
  23998552.900   126113254.83706  23998554.000    98270073.15346
  22062928.400   115941620.25008  22062929.380    90344194.50248
  22259844.600   116976344.90008  22259845.520    91150428.39347
  21907408.020   115124236.32608  21907412.240    89707225.69448
 15 02 16 01 37 30.0000000  0  6G16G18G19G21G22G27
  20730726.800   108940720.51209  20730728.360    84888892.66949
  21642056.800   113729842.93008  21642058.620    88620680.17147
  23983581.220   126034577.68906  23983582.240    98208766.30546
  22073992.580   115999762.87108  22073993.540    90389500.43748
  22244111.480   116893666.36808  22244112.340    91086003.57147
  21896237.620   115065535.70608  21896241.820    89661484.97048
 15 02 16 01 38  0.0000000  0  6G16G18G19G21G22G27
  20724426.740   108907613.49909  20724428.300    84863094.99749
  21637696.500   113706929.30508  21637698.300    88602825.40847
  23968620.200   125955956.73006  23968621.120    98147503.25546
  22085088.940   116058074.95508  22085089.980    90434938.41648
  22228430.100   116811259.57608  22228430.800    91021790.50547
  21885090.100   115006954.92008  21885094.240    89615837.61648
 15 02 16 01 38 30.0000000  0  6G16G18G19G21G22G27
  20718220.840   108875001.17009  20718222.360    84837682.78649
  21633427.580   113684495.86008  21633429.400    88585344.81747
  23953669.960   125877392.54906  23953670.860    98086284.46246
  22096217.260   116116555.04408  22096218.400    90480507.30848
  22212801.040   116729127.94108  22212801.500    90957791.85747
  21873965.600   114948495.13608  21873969.740    89570284.55248
 15 02 16 01 39  0.0000000  0  6G16G18G19G21G22G27
  20712109.220   108842884.18509  20712110.720    84812656.56449
  21629250.060   113662542.70808  21629251.920    88568238.47748
  23938730.360   125798884.44506  23938731.300    98025109.36546
  22107376.900   116175199.64008  22107378.140    90526204.39048
  22197224.440   116647272.27708  22197224.640    90894008.24147
  21862864.020   114890156.02008  21862868.180    89524825.52048
 15 02 16 01 39 30.0000000  0  6G16G18G19G21G22G27
  20706092.480   108811265.83209  20706093.960    84788018.88249
  21625164.360   113641072.12508  21625166.220    88551508.15948
  23923801.660   125720434.23306  23923802.700    97963979.37346
  22118568.040   116234009.57708  22118569.340    90572030.30948
  22181701.300   116565697.92008  22181701.360    90830443.83147
  21851785.780   114831939.65808  21851790.020    89479462.13748
 15 02 16 01 40  0.0000000  0  6G16G18G19G21G22G27
  20700170.260   108780144.18509  20700171.700    84763768.24649
  21621170.000   113620081.75108  21621171.920    88535152.03148
  23908883.400   125642038.76806  23908884.560    97902892.03246
  22129789.900   116292980.72308  22129791.200    90617981.84547
  22166231.380   116484403.48808  22166231.500    90767097.54747
  21840730.360   114773843.24108  21840734.700    89434192.23048
 15 02 16 01 40 30.0000000  0  6G16G18G19G21G22G27
  20694343.320   108749523.57408  20694344.780    84739908.03049
  21617267.620   113599574.73208  21617269.580    88519172.54848
  23893976.060   125563700.99806  23893977.360    97841849.66346
  22141042.500   116352113.50108  22141043.820    90664059.32447
  22150815.680   116403394.17608  22150816.000    90703973.42947
  21829698.440   114715869.94708  21829702.780    89389018.24948
 15 02 16 01 41  0.0000000  0  6G16G18G19G21G22G27
  20688611.800   108719404.62008  20688613.320    84716438.71249
  21613457.360   113579551.49108  21613459.280    88503570.03348
  23879079.600   125485420.15806  23879080.940    97780851.67345
  22152325.280   116411405.00508  22152326.640    90710260.49447
  22135454.600   116322671.48208  22135455.100    90641072.64447
  21818689.900   114658019.54208  21818694.180    89343940.03048
 15 02 16 01 41 30.0000000  0  6G16G18G19G21G22G27
  20682975.860   108689787.87008  20682977.460    84693360.72649
  21609739.120   113560011.78708  21609741.000    88488344.30248
  23864193.880   125407195.62106  23864195.260    97719897.54846
  22163637.660   116470852.24208  22163639.080    90756583.00648
  22120148.420   116242237.02608  22120149.040    90578396.45947
  21807704.660   114600291.73808  21807708.880    89298957.34448
 15 02 16 01 42  0.0000000  0  6G16G18G19G21G22G27
  20677436.080   108660676.36408  20677437.720    84670676.43149
  21606113.320   113540957.72208  21606115.080    88473496.99548
  23849319.220   125329028.97506  23849320.560    97658988.50746
  22174979.960   116530456.68308  22174981.400    90803028.01447
  22104897.880   116162094.74508  22104898.560    90515947.94147
  21796743.120   114542688.50308  21796747.300    89254071.72348
 15 02 16 01 42 30.0000000  0  6G16G18G19G21G22G27
  20671992.800   108632071.81608  20671994.440    84648387.17549
  21602580.080   113522390.24208  21602581.740    88459028.84348
  23834455.660   125250920.60306  23834456.940    97598124.89746
  22186351.700   116590215.49808  22186353.100    90849593.32147
  22089703.460   116082247.30008  22089704.180    90453729.16547
  21785805.480   114485210.78308  21785809.620    89209283.90748
 15 02 16 01 43  0.0000000  0  6G16G18G19G21G22G27
  20666646.420   108603976.25508  20666648.060    84626494.52649
  21599139.660   113504310.82108  21599141.280    88444940.99848
  23819603.400   125172871.34006  23819604.520    97537307.33946
  22197752.840   116650128.69608  22197754.200    90896278.92047
  22074565.720   116002697.93508  22074566.440    90391742.66747
  21774891.900   114427859.54108  21774896.020    89164594.64648
 15 02 16 01 43 30.0000000  0  6G16G18G19G21G22G27
  20661396.580   108576388.18608  20661398.260    84604997.32349
  21595791.760   113486717.92908  21595793.400    88431232.25548
  23804761.980   125094879.19406  23804763.040    97476534.27846
  22209182.580   116710192.31708  22209183.920    90943081.73347
  22059484.740   115923446.79708  22059485.400    90329988.55247
  21764002.100   114370633.19008  21764006.180    89120002.69948
 15 02 16 01 44  0.0000000  0  6G16G18G19G21G22G27
  20656244.360   108549313.12608  20656246.060    84583899.87449
  21592537.020   113469614.81408  21592538.760    88417905.16548
  23789931.940   125016946.79706  23789932.980    97415807.77046
  22220641.180   116770407.40608  22220642.480    90990002.58047
  22044461.480   115844499.08308  22044462.020    90268470.87547
  21753136.720   114313535.16208  21753140.780    89075510.75148
 15 02 16 01 44 30.0000000  0  6G16G18G19G21G22G27
  20651190.120   108522752.75808  20651191.800    84563203.47949
  21589375.800   113453003.03208  21589377.640    88404960.92848
  23775113.480   124939075.31106  23775114.480    97355128.73246
  22232128.420   116830772.78208  22232129.640    91037040.52447
  22029496.460   115765857.65308  22029496.900    90207191.86247
  21742295.940   114256566.59908  21742300.060    89031119.67448
 15 02 16 01 45  0.0000000  0  6G16G18G19G21G22G27
  20646233.380   108496704.79308  20646235.060    84542906.35549
  21586307.560   113436879.58508  21586309.480    88392397.21748
  23760306.040   124861261.66006  23760306.980    97294494.74246
  22243643.340   116891283.56108  22243644.500    91084191.77947
  22014589.600   115687521.68808  22014589.920    90146150.87547
  21731479.300   114199724.77808  21731483.460    88986827.36048
 15 02 16 01 45 30.0000000  0  6G16G18G19G21G22G27
  20641375.120   108471174.21408  20641376.760    84523012.39849
  21583333.080   113421248.70008  21583335.040    88380217.31748
  23745510.220   124783509.39006  23745511.260    97233908.60945
  22255186.380   116951942.14708  22255187.460    91131458.20947
  21999742.040   115609497.20808  21999742.300    90085352.58647
  21720687.560   114143013.85108  21720691.720    88942637.04648
 15 02 16 01 46  0.0000000  0  6G16G18G19G21G22G27
  20636614.660   108446157.63908  20636616.280    84503518.95749
  21580451.640   113406106.68108  21580453.640    88368418.35348
  23730725.360   124705814.24506  23730726.400    97173366.97445
  22266756.360   117012742.54208  22266757.420    91178835.13247
  21984953.400   115531782.13308  21984953.700    90024795.39548
  21709920.040   114086430.07508  21709924.140    88898545.80648
 15 02 16 01 46 30.0000000  0  6G16G18G19G21G22G27
  20631953.120   108421661.17308  20631954.740    84484430.80349
  21577664.100   113391458.02508  21577666.120    88357003.82848
  23715952.220   124628180.63906  23715953.240    97112873.27646
  22278353.720   117073686.89308  22278354.780    91226324.23147
  21970224.940   115454383.07508  21970225.300    89964484.46047
  21699177.620   114029978.08508  21699181.660    88854557.25748
 15 02 16 01 47  0.0000000  0  6G16G18G19G21G22G27
  20627390.700   108397685.66008  20627392.360    84465748.58549
  21574970.540   113377303.27708  21574972.540    88345974.16948
  23701190.780   124550608.64106  23701191.760    97052427.59646
  22289978.080   117134773.29908  22289979.200    91273924.02447
  21955557.040   115377302.31708  21955557.420    89904421.54448
  21688460.340   113973658.33308  21688464.320    88810671.74248
 15 02 16 01 47 30.0000000  0  6G16G18G19G21G22G27
  20622927.760   108374232.94108  20622929.480    84447473.74349
  21572371.160   113363643.48208  21572373.140    88335330.18748
  23686441.160   124473099.16106  23686442.160    96992030.63646
  22301629.220   117196000.59008  22301630.400    91321633.59147
  21940950.200   115300542.47908  21940950.580    89844608.69148
  21677768.360   113917471.91208  21677772.340    88766890.12548
 15 02 16 01 48  0.0000000  0  6G16G18G19G21G22G27
  20618564.540   108351303.82808  20618566.200    84429606.90049
  21569866.000   113350478.67508  21569867.960    88325071.90848
  23671703.320   124395652.05906  23671704.360    96931682.30446
  22313307.000   117257368.06908  22313308.280    91369452.40647
  21926404.840   115224105.93608  21926405.200    89785047.77148
  21667101.860   113861419.39908  21667105.900    88723212.85748
 15 02 16 01 48 30.0000000  0  6G16G18G19G21G22G27
  20614300.980   108328898.34408  20614302.560    84412148.07549
  21567454.800   113337807.67008  21567456.760    88315198.40948
  23656977.100   124318265.86006  23656978.160    96871381.40846
  22325010.800   117318871.97408  22325012.120    91417377.52347
  21911921.040   115147993.30808  21911921.340    89725739.24447
  21656460.660   113805499.72108  21656464.720    88679639.09648
 15 02 16 01 49  0.0000000  0  6G16G18G19G21G22G27
  20610137.540   108307019.12708  20610139.040    84395099.33149
  21565138.020   113325633.03808  21565140.020    88305711.69048
  23642262.840   124240942.32006  23642263.980    96811129.32846
  22336740.560   117380512.41008  22336741.880    91465409.01947
  21897499.580   115072208.55308  21897499.820    89666686.20847
  21645845.160   113749715.09408  21645849.260    88636170.56048
 15 02 16 01 49 30.0000000  0  6G16G18G19G21G22G27
  20606074.220   108285665.90208  20606075.660    84378460.45049
  21562915.480   113313953.53508  21562917.500    88296610.79148
  23627560.360   124163680.55506  23627561.460    96750925.38246
  22348495.600   117442285.75708  22348496.920    91513544.09047
  21883140.660   114996752.33708  21883140.840    89607889.17147
  21635255.220   113694064.68108  21635259.320    88592806.60348
 15 02 16 01 50  0.0000000  0  6G16G18G19G21G22G27
  20602111.540   108264841.83108  20602112.980    84362233.89549
  21560787.580   113302771.28708  21560789.600    88287897.36048
  23612870.020   124086482.44706  23612871.100    96690771.05945
  22360276.140   117504193.21508  22360277.500    91561783.65147
  21868845.100   114921628.97408  21868845.260    89549351.50747
  21624691.320   113638551.02208  21624695.420    88549549.21148
 15 02 16 01 50 30.0000000  0  6G16G18G19G21G22G27
  20598249.280   108244545.49708  20598250.720    84346418.56649
  21558753.940   113292084.28508  21558755.900    88279569.83748
  23598191.400   124009345.78406  23598192.420    96630664.61346
  22372081.360   117566230.17708  22372082.720    91610124.14047
  21854612.940   114846838.42108  21854613.060    89491073.17048
  21614153.100   113583172.34708  21614157.180    88506396.99548
 15 02 16 01 51  0.0000000  0  6G16G18G19G21G22G27
  20594487.780   108224778.82808  20594489.240    84331015.96049
  21556814.740   113281893.58308  21556816.660    88271629.04148
  23583524.700   123932271.39806  23583525.540    96570606.67246
  22383911.180   117628396.44308  22383912.520    91658565.38147
  21840444.760   114772383.96008  21840444.880    89433056.72548
  21603640.800   113527929.98708  21603644.920    88463351.00448
 15 02 16 01 51 30.0000000  0  6G16G18G19G21G22G27
  20590828.260   108205548.17308  20590829.800    84316031.03849
  21554971.020   113272204.75608  21554972.960    88264079.32048
  23568870.800   123855264.63106  23568871.620    96510601.43046
  22395766.200   117690695.00708  22395767.560    91707109.70947
  21826341.780   114698272.41008  21826341.980    89375307.48248
  21593155.600   113472829.72908  21593159.760    88420415.74448
 15 02 16 01 52  0.0000000  0  6G16G18G19G21G22G27
  20587270.220   108186850.63108  20587271.800    84301461.52549
  21553222.100   113263014.18208  21553224.060    88256917.84748
  23554229.040   123778322.01706  23554229.940    96450646.18646
  22407645.460   117753121.01308  22407646.860    91755753.34247
  21812303.800   114624502.58508  21812304.120    89317824.51348
  21582696.820   113417868.34608  21582700.980    88377588.69848
 15 02 16 01 52 30.0000000  0  6G16G18G19G21G22G27
  20583813.880   108168687.45208  20583815.500    84287308.39949
  21551568.040   113254322.21708  21551570.040    88250144.89548
  23539599.580   123701443.93306  23539600.580    96390741.22046
  22419548.680   117815672.71908  22419550.080    91804494.92347
  21798331.280   114551076.94308  21798331.740    89260609.73648
  21572264.640   113363046.69108  21572268.780    88334870.53648
 15 02 16 01 53  0.0000000  0  6G16G18G19G21G22G27
  20580459.300   108151058.93608  20580460.920    84273571.88749
  21550008.840   113246128.56108  21550010.820    88243760.23648
  23524982.380   123624629.99506  23524983.340    96330886.23046
  22431475.380   117878347.76408  22431476.760    91853332.61247
  21784424.480   114477996.80208  21784425.080    89203664.18348
  21561859.000   113308364.57108  21561863.120    88292261.09848
 15 02 16 01 53 30.0000000  0  6G16G18G19G21G22G27
  20577207.180   108133968.76208  20577208.760    84260254.86449
  21548544.920   113238435.54608  21548546.860    88237765.68548
  23510377.820   123547882.56607  23510378.740    96271083.09246
  22443425.680   117941146.83408  22443427.020    91902266.94247
  21770584.360   114405266.82208  21770584.980    89146991.48648
  21551480.460   113253825.02808  21551484.580    88249762.75748
 15 02 16 01 54  0.0000000  0  6G16G18G19G21G22G27
  20574057.460   108117416.70908  20574059.000    84247357.15249
  21547176.120   113231242.63008  21547178.080    88232160.82548
  23495785.800   123471201.08607  23495786.680    96211331.31646
  22455399.000   118004067.00508  22455400.280    91951295.64047
  21756811.160   114332888.08308  21756811.640    89090592.48348
  21541129.000   113199427.79408  21541133.120    88207375.31048
 15 02 16 01 54 30.0000000  0  6G16G18G19G21G22G27
  20571010.380   108101404.10308  20571011.880    84234879.79349
  21545902.580   113224550.27408  21545904.560    88226946.01548
  23481206.420   123394585.83007  23481207.180    96151631.16146
  22467395.400   118067108.62508  22467396.660    92000418.96547
  21743105.320   114260863.00308  21743105.560    89034469.06548
  21530804.780   113145173.97708  21530808.980    88165099.61948
 15 02 16 01 55  0.0000000  0  6G16G18G19G21G22G27
  20568065.900   108085930.72008  20568067.400    84222822.60949
  21544724.100   113218357.51608  21544726.120    88222120.50248
  23466639.520   123318035.93607  23466640.140    96091981.92846
  22479414.240   118130268.37108  22479415.560    92049634.34547
  21729467.040   114189192.83508  21729467.060    88978622.19548
  21520507.700   113091062.76408  21520511.940    88122935.04548
 15 02 16 01 55 30.0000000  0  6G16G18G19G21G22G27
  20565224.900   108071001.27408  20565226.420    84211189.26949
  21543641.360   113212667.86608  21543643.400    88217687.02448
  23452085.780   123241555.58707  23452086.360    96032386.88646
  22491455.880   118193547.92408  22491457.220    92098943.07547
  21715897.380   114117883.30708  21715897.260    88923056.35448
  21510238.680   113037098.75508  21510242.920    88080885.17448
 15 02 16 01 56  0.0000000  0  6G16G18G19G21G22G27
  20562487.120   108056614.07208  20562488.660    84199978.46049
  21542653.960   113207479.19108  21542655.980    88213643.91348
  23437544.760   123165142.05807  23437545.340    95972843.91146
  22503519.640   118256943.44208  22503520.960    92148342.17447
  21702396.200   114046933.90708  21702396.060    88867771.11548
  21499997.300   112983279.87108  21500001.480    88038948.39848
 15 02 16 01 56 30.0000000  0  6G16G18G19G21G22G27
  20559852.820   108042770.91408  20559854.400    84189191.57749
  21541762.080   113202792.39008  21541764.080    88209991.86948
  23423016.720   123088796.90807  23423017.380    95913354.22946
  22515605.380   118320454.36608  22515606.700    92197831.19547
  21688964.120   113976348.06308  21688964.080    88812769.17148
  21489783.860   112929607.84208  21489788.000    87997126.04648
 15 02 16 01 57  0.0000000  0  6G16G18G19G21G22G27
  20557322.180   108029472.56308  20557323.800    84178829.22149
  21540965.800   113198607.61108  21540967.720    88206731.01448
  23408501.760   123012520.37807  23408502.460    95853918.00546
  22527712.760   118384078.98008  22527714.120    92247408.80947
  21675601.600   113906127.77208  21675601.700    88758052.05948
  21479598.520   112876083.52508  21479602.660    87955418.79248
 15 02 16 01 57 30.0000000  0  6G16G18G19G21G22G27
  20554895.560   108016720.74708  20554897.220    84168892.73749
  21540265.180   113194925.71808  21540267.080    88203862.01348
  23393999.960   122936313.26507  23394000.720    95794535.87146
  22539841.620   118447816.49108  22539843.060    92297074.38547
  21662309.160   113836275.83608  21662309.360    88703621.98348
  21469441.520   112822708.16908  21469445.660    87913827.62448
 15 02 16 01 58  0.0000000  0  6G16G18G19G21G22G27
  20552573.100   108004516.29208  20552574.780    84159382.76649
  21539660.180   113191746.22208  21539662.060    88201384.49348
  23379511.320   122860175.48407  23379512.080    95735207.75946
  22551991.660   118511665.10608  22551993.100    92346826.54947
  21649087.180   113766793.85708  21649087.420    88649480.19348
  21459312.940   112769482.14508  21459317.060    87872352.81748
 15 02 16 01 58 30.0000000  0  6G16G18G19G21G22G27
  20550355.120   107992860.74108  20550356.820    84150300.51549
  21539150.980   113189070.23408  21539152.840    88199299.31248
  23365036.160   122784108.44607  23365036.880    95675934.78346
  22564162.820   118575624.74508  22564164.220    92396665.21147
  21635936.220   113697685.04308  21635936.480    88595629.18048
  21449213.080   112716407.03108  21449217.160    87830995.59148
 15 02 16 01 59  0.0000000  0  6G16G18G19G21G22G27
  20548241.580   107981753.81208  20548243.220    84141645.75649
  21538737.380   113186896.63908  21538739.220    88197605.60648
  23350574.340   122708111.36107  23350574.960    95616716.28346
  22576354.700   118639692.99408  22576356.020    92446588.52347
  21622856.560   113628950.86108  21622856.760    88542070.09748
  21439141.880   112663482.71208  21439145.960    87789755.88048
 15 02 16 01 59 30.0000000  0  6G16G18G19G21G22G27
  20546233.020   107971198.36908  20546234.580    84133420.73249
  21538419.780   113185227.45508  21538421.560    88196304.95248
  23336126.180   122632186.33807  23336126.820    95557553.95246
  22588567.260   118703870.09408  22588568.480    92496596.63647
  21609848.880   113560595.13508  21609849.020    88488805.90848
  21429099.920   112610711.96408  21429104.000    87748635.83148
 15 02 16 02 00  0.0000000  0  6G16G18G19G21G22G27
  20544329.260   107961193.98708  20544330.820    84125625.09949
  21538197.920   113184061.74408  21538199.700    88195396.61348
  23321691.620   122556332.71707  23321692.300    95498447.25446
  22600799.860   118768152.65908  22600801.040    92546686.93447
  21596913.300   113492618.66608  21596913.460    88435837.24548
  21419087.100   112558094.21008  21419091.180    87707635.00548
 15 02 16 02 00 30.0000000  0  6G16G18G19G21G22G27
  20542530.960   107951743.74408  20542532.500    84118261.26349
  21538072.240   113183401.60608  21538074.060    88194882.22948
  23307271.180   122480553.06407  23307271.880    95439398.20645
  22613052.940   118832542.88208  22613054.100    92596861.13247
  21584050.720   113425025.90108  21584050.960    88383167.57048
  21409103.980   112505632.60808  21409108.060    87666755.84648
 15 02 16 02 01  0.0000000  0  6G16G18G19G21G22G27
  20540836.920   107942841.64308  20540838.500    84111324.55949
  21538041.460   113183240.04308  21538043.320    88194756.34948
  23292863.640   122404840.82807  23292864.380    95380401.68746
  22625324.820   118897031.99908  22625326.020    92647112.38847
  21571260.300   113357812.10108  21571260.620    88330793.19548
  21399149.440   112453320.99808  21399153.460    87625993.56548
 15 02 16 02 01 30.0000000  0  6G16G18G19G21G22G27
  20539248.260   107934493.32308  20539249.900    84104819.36649
  21538106.580   113183582.30608  21538108.460    88195023.05648
  23278470.040   122329201.76607  23278470.780    95321462.18246
  22637616.040   118961623.06207  22637617.300    92697443.07847
  21558543.460   113290984.54008  21558543.760    88278719.77348
  21389224.600   112401165.32808  21389228.540    87585352.79548
 15 02 16 02 02  0.0000000  0  6G16G18G19G21G22G27
  20537764.940   107926698.61308  20537766.640    84098745.56449
  21538267.360   113184427.26108  21538269.260    88195681.46848
  23264090.280   122253635.45407  23264091.000    95262579.37747
  22649926.400   119026314.77407  22649927.760    92747852.19447
  21545900.400   113224544.63508  21545900.680    88226948.42648
  21379329.440   112349165.84508  21379333.360    87544833.72849
 15 02 16 02 02 30.0000000  0  6G16G18G19G21G22G27
  20536387.520   107919460.29308  20536389.240    84093105.30949
  21538524.080   113185776.39408  21538525.980    88196732.75548
  23249724.640   122178143.12307  23249725.320    95203754.22047
  22662255.860   119091107.23607  22662257.360    92798339.81847
  21533331.740   113158495.42408  21533331.940    88175481.52148
  21369464.340   112297324.50508  21369468.280    87504437.89349
 15 02 16 02 03  0.0000000  0  6G16G18G19G21G22G27
  20535115.920   107912777.94708  20535117.640    84087898.27649
  21538876.620   113187628.96708  21538878.520    88198176.32348
  23235373.080   122102724.90307  23235373.700    95144986.80746
  22674604.080   119155998.09307  22674605.680    92848904.11447
  21520837.740   113092838.62208  21520837.900    88124320.39548
  21359629.360   112245641.51808  21359633.320    87464165.44649
 15 02 16 02 03 30.0000000  0  6G16G18G19G21G22G27
  20533950.660   107906654.28608  20533952.380    84083126.58449
  21539325.340   113189987.00108  21539327.220    88200013.76548
  23221036.060   122027383.42807  23221036.680    95086279.19747
  22686971.260   119220988.08807  22686972.880    92899545.65947
  21508419.140   113027578.11008  21508419.240    88073468.06048
  21349825.080   112194119.91008  21349829.060    87424018.75349
 15 02 16 02 04  0.0000000  0  6G16G18G19G21G22G27
  20532891.540   107901088.20308  20532893.220    84078789.37249
  21539869.780   113192848.19008  21539871.700    88202243.26848
  23206713.280   121952116.72407  23206713.860    95027629.85547
  22699356.640   119286073.39208  22699358.200    92950261.47447
  21496075.940   112962714.23208  21496076.040    88022924.79348
  21340051.300   112142758.36208  21340055.260    87383996.78248
 15 02 16 02 04 30.0000000  0  6G16G18G19G21G22G27
  20531938.620   107896080.30908  20531940.260    84074887.10749
  21540509.960   113196212.40308  21540511.900    88204864.73748
  23192404.860   121876925.38007  23192405.420    94969039.23646
  22711760.080   119351253.42308  22711761.540    93001051.09747
  21483808.600   112898249.10408  21483808.660    87972692.24048
  21330308.160   112091557.90808  21330312.140    87344100.33449
 15 02 16 02 05  0.0000000  0  6G16G18G19G21G22G27
  20531092.140   107891631.85308  20531093.740    84071420.76749
  21541246.000   113200080.42208  21541247.940    88207878.78448
  23178110.980   121801810.66007  23178111.540    94910508.30747
  22724181.440   119416527.47008  22724182.820    93051913.97747
  21471617.600   112834185.31108  21471617.660    87922772.41448
  21320596.020   112040520.21808  21320600.000    87304330.71248
 15 02 16 02 05 30.0000000  0  6G16G18G19G21G22G27
  20530352.280   107887743.98108  20530353.900    84068391.25249
  21542077.920   113204452.11508  21542079.800    88211285.30048
  23163831.760   121726773.15707  23163832.320    94852037.53846
  22736620.420   119481894.08608  22736621.740    93102848.98947
  21459503.420   112770525.32008  21459503.560    87873167.23648
  21310915.080   111989646.34808  21310919.020    87264688.75048
 15 02 16 02 06  0.0000000  0  6G16G18G19G21G22G27
  20529719.020   107884416.31608  20529720.680    84065798.25949
  21543005.600   113209326.96408  21543007.420    88215083.89448
  23149567.260   121651813.03007  23149567.800    94793627.08246
  22749076.680   119547351.49308  22749077.980    93153854.74147
  21447466.280   112707270.09008  21447466.500    87823877.45948
  21301265.420   111938936.86709  21301269.300    87225174.87448
 15 02 16 02 06 30.0000000  0  6G16G18G19G21G22G27
  20529192.620   107881650.28408  20529194.320    84063642.90349
  21544029.020   113214705.19108  21544030.840    88219274.72848
  23135317.620   121576931.00807  23135318.200    94735277.49146
  22761550.060   119612899.23008  22761551.360    93204930.88646
  21435506.740   112644422.67508  21435507.080    87774905.45748
  21291647.240   111888392.96308  21291651.060    87185790.02748
 15 02 16 02 07  0.0000000  0  6G16G18G19G21G22G27
  20528773.080   107879445.57508  20528774.780    84061924.93649
  21545147.980   113220585.58608  21545149.800    88223856.85648
  23121082.780   121502126.78907  23121083.360    94676988.49847
  22774040.220   119678535.51608  22774041.560    93256076.03047
  21423625.140   112581984.38208  21423625.480    87726252.25248
  21282060.540   111838014.65908  21282064.380    87146534.21649
 15 02 16 02 07 30.0000000  0  6G16G18G19G21G22G27
  20528460.660   107877803.72608  20528462.340    84060645.56549
  21546362.640   113226968.89608  21546364.460    88228830.87848
  23106863.020   121427401.68507  23106863.600    94618761.16347
  22786547.080   119744259.43808  22786548.360    93307289.46847
  21411821.900   112519957.67508  21411822.180    87677919.76148
  21272505.760   111787803.93108  21272509.620    87107408.98349
 15 02 16 02 08  0.0000000  0  6G16G18G19G21G22G27
  20528255.420   107876724.96508  20528257.060    84059804.96549
  21547673.000   113233854.85308  21547674.780    88234196.56548
  23092658.380   121352756.04507  23092658.980    94560595.74546
  22799070.340   119810069.81107  22799071.600    93358570.26547
  21400097.400   112458344.65408  21400097.580    87629909.62748
  21262982.960   111737761.54208  21262986.880    87068414.91949
 15 02 16 02 08 30.0000000  0  6G16G18G19G21G22G27
  20528157.420   107876209.95308  20528159.040    84059403.64549
  21549078.940   113241243.10708  21549080.700    88239953.65048
  23078469.000   121278190.48407  23078469.640    94502492.72947
  22811609.720   119875965.15707  22811611.020    93409917.27646
  21388451.960   112397147.28508  21388452.060    87582223.38348
  21253492.380   111687888.52508  21253496.360    87029552.84349
 15 02 16 02 09  0.0000000  0  6G16G18G19G21G22G27
  20528166.720   107876258.85408  20528168.360    84059441.74149
  21550580.320   113249132.93008  21550582.100    88246101.57148
  23064294.960   121203705.24807  23064295.600    94444452.30247
  22824165.120   119941944.49207  22824166.460    93461329.73347
  21376885.900   112336367.19308  21376885.960    87534862.28448
  21244034.180   111638185.47208  21244038.140    86990823.20149
 15 02 16 02 09 30.0000000  0  6G16G18G19G21G22G27
  20528283.900   107876874.68908  20528285.560    84059921.60949
  21552177.640   113257526.83008  21552179.420    88252642.28048
  23050136.780   121129303.42607  23050137.400    94386476.86946
  22836736.700   120008008.77507  22836738.080    93512808.37647
  21365400.000   112276008.50208  21365400.020    87487829.55048
  21234609.040   111588656.04808  21234613.000    86952228.85349
 15 02 16 02 10  0.0000000  0  6G16G18G19G21G22G27
  20528508.360   107878054.16008  20528510.020    84060840.66549
  21553870.120   113266420.91208  21553871.900    88259572.74048
  23035993.880   121054982.26107  23035994.580    94328564.29147
  22849323.600   120074153.52007  22849325.000    93564349.71847
  21353994.080   112216070.26108  21353994.080    87441124.43848
  21225216.420   111539297.64408  21225220.400    86913767.76549
 15 02 16 02 10 30.0000000  0  6G16G18G19G21G22G27
  20528840.520   107879799.55708  20528842.200    84062200.70749
  21555657.940   113275816.00108  21555659.700    88266893.59048
  23021866.680   120980743.39807  23021867.380    94270715.85947
  22861925.800   120140378.69407  22861927.200    93615953.73946
  21342668.840   112156555.99708  21342668.860    87394749.70048
  21215856.800   111490112.79308  21215860.820    86875441.91949
 15 02 16 02 11  0.0000000  0  6G16G18G19G21G22G27
  20529280.560   107882111.81508  20529282.200    84064002.45649
  21557541.280   113285713.06108  21557543.080    88274605.58848
  23007755.380   120906587.97407  23007756.100    94212932.43247
  22874543.180   120206683.74107  22874544.680    93667619.99146
  21331424.660   112097467.72308  21331424.720    87348706.90048
  21206530.520   111441102.96808  21206534.520    86837252.45249
 15 02 16 02 11 30.0000000  0  6G16G18G19G21G22G27
  20529828.440   107884990.78608  20529830.040    84066245.80649
  21559519.900   113296110.82708  21559521.780    88282707.75148
  22993660.040   120832516.24607  22993660.800    94155214.21747
  22887175.460   120273066.81007  22887177.020    93719347.04346
  21320261.860   112038806.90308  21320261.960    87302997.18048
  21197237.680   111392268.70108  21197241.640    86799199.78749
 15 02 16 02 12  0.0000000  0  6G16G18G19G21G22G27
  20530484.360   107888437.46908  20530485.920    84068931.52349
  21561593.860   113307009.62808  21561595.800    88291200.33248
  22979580.840   120758529.55407  22979581.680    94097562.28447
  22899822.640   120339528.17907  22899824.180    93771135.10346
  21309180.860   111980576.11008  21309181.040    87257622.54648
  21187978.600   111343611.92608  21187982.520    86761285.42449
 15 02 16 02 12 30.0000000  0  6G16G18G19G21G22G27
  20531248.080   107892450.64508  20531249.620    84072058.66449
  21563762.740   113318407.19108  21563764.720    88300081.55548
  22965517.620   120684626.71607  22965518.480    94039975.68147
  22912484.180   120406064.66307  22912485.620    93822981.68946
  21298181.840   111922775.92508  21298182.040    87212583.44748
  21178753.140   111295131.83009  21178757.060    86723508.73349
 15 02 16 02 13  0.0000000  0  6G16G18G19G21G22G27
  20532119.860   107897031.76208  20532121.420    84075628.35549
  21566026.600   113330303.90508  21566028.580    88309351.72448
  22951470.640   120610809.31607  22951471.480    93982455.64447
  22925159.960   120472675.93807  22925161.320    93874886.56046
  21287265.240   111865408.92508  21287265.460    87167881.89848
  21169561.660   111246830.32409  21169565.580    86685871.21049
 15 02 16 02 13 30.0000000  0  6G16G18G19G21G22G27
  20533100.020   107902182.52408  20533101.600    84079641.92449
  21568385.780   113342701.51108  21568387.720    88319012.20348
  22937440.300   120537079.51307  22937441.100    93925003.87047
  22937850.180   120539362.86807  22937851.360    93926850.37846
  21276431.680   111808478.49308  21276431.920    87123520.53248
  21160404.740   111198710.27109  21160408.640    86648375.07349
 15 02 16 02 14  0.0000000  0  7G04G16G18G19G21G22G27
  24563742.120   129083339.89706  24563747.060   100584434.26945
  20534188.840   107907904.32808  20534190.440    84084100.46849
  21570840.220   113355599.71708  21570842.120    88329062.76548
  22923426.900   120463438.71507  22923427.660    93867621.46247
  22950554.620   120606124.73907  22950555.700    93978872.60246
  21265681.820   111751987.63708  21265682.020    87079501.70248
  21151282.660   111150773.43609  21151286.580    86611021.70349
 15 02 16 02 14 30.0000000  0  7G04G16G18G19G21G22G27
  24545474.300   128987342.28506  24545479.080   100509631.03445
  20535390.220   107914217.81408  20535391.860    84089020.05849
  21573393.960   113369019.58608  21573395.780    88339519.81248
  22909434.480   120389908.33007  22909435.240    93810325.07547
  22963277.120   120672981.63307  22963278.180    94030968.86146
  21255019.940   111695959.01408  21255020.060    87035843.04348
  21142199.640   111103041.87809  21142203.580    86573828.29149
 15 02 16 02 15  0.0000000  0  7G04G16G18G19G21G22G27
  24527227.980   128891457.47106  24527232.720   100434915.67845
  20536694.460   107921071.82508  20536696.160    84094360.83449
  21576037.120   113382909.08608  21576038.800    88350342.80548
  22895453.340   120316437.29307  22895454.100    93753074.92947
  22976007.600   120739880.27907  22976008.620    94083097.66346
  21244436.440   111640342.17508  21244436.500    86992505.25848
  21133145.980   111055464.76509  21133149.960    86536755.22149
 15 02 16 02 15 30.0000000  0  7G04G16G18G19G21G22G27
  24509009.280   128795717.29406  24509013.880   100360313.00845
  20538107.600   107928497.95308  20538109.320    84100147.42049
  21578775.360   113397298.44008  21578776.940    88361555.30348
  22881489.580   120243057.66507  22881490.360    93695896.02047
  22988751.720   120806850.84007  22988752.780    94135282.50046
  21233937.640   111585170.52208  21233937.660    86949514.36848
  21124127.860   111008074.36109  21124131.880    86499827.64149
 15 02 16 02 16  0.0000000  0  7G04G16G18G19G21G22G27
  24490817.840   128700120.09006  24490822.360   100285821.75645
  20539629.180   107936493.77508  20539630.880    84106377.92149
  21581608.060   113412184.40508  21581609.600    88373154.76448
  22867542.860   120169767.45307  22867543.620    93638786.77947
  23001508.860   120873889.89207  23001509.960    94187520.70246
  21223523.420   111530443.36608  21223523.460    86906869.83948
  21115145.040   110960869.40209  21115149.080    86463044.56549
 15 02 16 02 16 30.0000000  0  7G04G16G18G19G21G22G27
  24472654.020   128604667.66006  24472658.340   100211443.31744
  20541259.300   107945059.92708  20541260.940    84113052.83449
  21584535.240   113427567.12608  21584536.820    88385141.30648
  22853613.400   120096567.87807  22853614.120    93581748.15947
  23014278.880   120940996.94507  23014280.060    94239811.89946
  21213194.260   111476163.25608  21213194.340    86864573.66048
  21106197.800   110913851.49909  21106201.840    86426407.24849
 15 02 16 02 17  0.0000000  0  7G04G16G18G19G21G22G27
  24454517.680   128509360.08707  24454521.840   100137177.75844
  20542997.900   107954196.15308  20542999.460    84120171.96349
  21587556.760   113443445.79408  21587558.460    88397514.29448
  22839701.220   120023459.08907  22839701.920    93524780.28546
  23027061.600   121008170.60007  23027062.800    94292154.99146
  21202950.320   111422330.92008  21202950.440    86822626.39748
  21097286.280   110867021.26409  21097290.300    86389916.15549
 15 02 16 02 17 30.0000000  0  7G04G16G18G19G21G22G27
  24436408.980   128414197.66207  24436413.000   100063025.28244
  20544845.000   107963902.49808  20544846.480    84127735.33749
  21590672.540   113459819.50208  21590674.360    88410273.03248
  22825806.400   119950441.36707  22825807.100    93467883.39646
  23039856.640   121075409.23607  23039857.900    94344548.71446
  21192791.880   111368948.02008  21192792.060    86781029.34348
  21088410.620   110820379.36909  21088414.620    86353571.82449
 15 02 16 02 18  0.0000000  0  7G04G16G18G19G21G22G27
  24418328.320   128319183.16006  24418332.300    99988988.07744
  20546800.860   107974180.50408  20546802.300    84135744.16049
  21593882.720   113476689.00408  21593884.600    88423418.11148
  22811929.360   119877517.15007  22811930.060    93411059.35247
  23052664.140   121142713.35207  23052665.420    94396993.46646
  21182719.640   111316018.32808  21182719.880    86739785.43748
  21079571.360   110773928.69909  21079575.320    86317376.50749
 15 02 16 02 18 30.0000000  0  7G04G16G18G19G21G22G27
  24400275.720   128224316.64506  24400279.740    99915066.20645
  20548865.320   107985029.33808  20548866.780    84144197.78549
  21597187.060   113494053.40408  21597188.980    88436948.81448
  22798070.120   119804686.56807  22798070.820    93354308.26347
  23065483.680   121210081.46907  23065485.140    94449488.08546
  21172733.820   111263542.80808  21172734.100    86698895.42548
  21070768.600   110727669.81809  21070772.540    86281330.63149
 15 02 16 02 19  0.0000000  0  7G04G16G18G19G21G22G27
  24382251.380   128129599.35006  24382255.480    99841260.56645
  20551038.580   107996449.92808  20551040.060    84153096.93649
  21600585.480   113511912.14808  21600587.420    88450864.72948
  22784228.960   119731950.49507  22784229.580    93297630.82647
  23078315.360   121277512.94707  23078316.920    94502032.07146
  21162834.780   111211523.03108  21162835.000    86658360.54248
  21062002.600   110681604.07709  21062006.520    86245435.25549
 15 02 16 02 19 30.0000000  0  7G04G16G18G19G21G22G27
  24364255.240   128035030.74306  24364259.440    99767570.81745
  20553320.400   108008441.05708  20553321.940    84162440.66049
  21604077.640   113530263.52308  21604079.540    88465164.50948
  22770405.620   119659308.04307  22770406.160    93241026.33647
  23091158.660   121345005.25407  23091160.320    94554623.46046
  21153022.680   111159959.78408  21153022.800    86618181.39948
  21053273.320   110635731.22209  21053277.240    86209690.18649
 15 02 16 02 20  0.0000000  0  7G04G16G18G19G21G22G27
  24346287.460   127940610.72806  24346291.720    99693996.84245
  20555710.640   108021001.60408  20555712.180    84172228.08549
  21607663.300   113549106.05108  21607665.080    88479847.00848
  22756600.180   119586759.52208  22756600.580    93184495.04647
  23104013.240   121412556.43607  23104014.880    94607260.72246
  21143297.660   111108853.81809  21143297.660    86578358.58148
  21044580.820   110590051.64009  21044584.720    86174095.70449
 15 02 16 02 20 30.0000000  0  7G04G16G18G19G21G22G27
  24328348.360   127846341.17506  24328352.740    99620540.10745
  20558209.420   108034132.65208  20558210.960    84182460.06149
  21611342.360   113568439.53208  21611344.040    88494912.06348
  22742812.900   119514306.56908  22742813.220    93128038.22847
  23116879.080   121480166.65007  23116880.660    94659943.98446
  21133660.100   111058207.62808  21133660.020    86538894.03248
  21035925.460   110544567.44009  21035929.360    86138653.47649
 15 02 16 02 21  0.0000000  0  7G04G16G18G19G21G22G27
  24310438.360   127752223.87106  24310442.680    99547202.03045
  20560816.980   108047835.28608  20560818.520    84193137.42749
  21615114.940   113588264.62108  21615116.520    88510360.19148
  22729044.020   119441950.66108  22729044.360    93071657.02847
  23129756.140   121547835.84707  23129757.720    94712673.19546
  21124110.500   111008023.90508  21124110.400    86499789.83448
  21027307.660   110499280.69709  21027311.580    86103365.11249
 15 02 16 02 21 30.0000000  0  7G04G16G18G19G21G22G27
  24292557.140   127658257.30706  24292561.340    99473981.40045
  20563532.840   108062107.31908  20563534.420    84204258.47749
  21618980.520   113608578.54108  21618982.020    88526189.22448
  22715293.340   119369690.50008  22715293.740    93015350.43347
  23142643.920   121615561.08107  23142645.440    94765446.07846
  21114648.760   110958302.17808  21114648.680    86461045.63748
  21018727.300   110454190.58009  21018731.220    86068229.96249
 15 02 16 02 22  0.0000000  0  7G04G16G18G19G21G22G27
  24274705.080   127564443.47807  24274709.220    99400879.78145
  20566357.120   108076949.06508  20566358.720    84215823.46549
  21622939.160   113629381.48208  21622940.620    88542399.30748
  22701561.120   119297527.77708  22701561.640    92959119.77147
  23155542.360   121683342.19907  23155543.800    94818262.51646
  21105275.320   110909045.10208  21105275.400    86422663.50448
  21010184.740   110409299.20609  21010188.680    86033249.67249
 15 02 16 02 22 30.0000000  0  7G04G16G18G19G21G22G27
  24256882.400   127470783.72007  24256886.400    99327898.20645
  20569290.120   108092362.26808  20569291.720    84227833.74249
  21626990.780   113650673.03108  21626992.220    88558990.12948
  22687847.760   119225463.97008  22687848.360    92902966.18647
  23168451.360   121751178.77707  23168452.680    94871122.16846
  21095990.700   110860254.73008  21095990.900    86384645.04748
  21001680.340   110364608.38209  21001684.280    85998425.65849
 15 02 16 02 23  0.0000000  0  7G04G16G18G19G21G22G27
  24239089.180   127377279.32906  24239093.160    99255037.68945
  20572331.760   108108346.42008  20572333.380    84240288.91149
  21631135.360   113672453.21408  21631136.860    88575961.69848
  22674153.480   119153500.25608  22674154.120    92846890.59147
  23181370.820   121819070.34307  23181372.040    94924024.66146
  21086795.340   110811933.27308  21086795.580    86346991.96648
  20993214.420   110320119.75409  20993218.340    85963759.20049
 15 02 16 02 23 30.0000000  0  7G04G16G18G19G21G22G27
  24221325.640   127283931.04906  24221329.660    99182298.82945
  20575482.120   108124901.92608  20575483.800    84253189.29349
  21635372.840   113694721.31608  21635374.380    88593313.46848
  22660478.440   119081637.57508  22660479.080    92790893.72547
  23194300.540   121887016.11007  23194301.700    94976969.40046
  21077689.620   110764082.52308  21077689.820    86309705.67348
  20984787.220   110275834.57909  20984791.160    85929251.27449
 15 02 16 02 24  0.0000000  0  7G04G16G18G19G21G22G27
  24203591.880   127190739.54306  24203596.060    99109682.12445
  20578741.180   108142028.31808  20578742.860    84266534.52549
  21639703.020   113717476.47108  21639704.640    88611044.75748
  22646822.680   119009876.26407  22646823.360    92734975.83147
  23207240.280   121955015.02307  23207241.480    95029955.55046
  21068673.740   110716703.76208  21068673.900    86272787.17448
  20976398.880   110231753.82009  20976402.860    85894902.64149
 15 02 16 02 24 30.0000000  0  7G04G16G18G19G21G22G27
  24185888.100   127097706.27106  24185892.440    99037188.72145
  20582109.000   108159726.17708  20582110.680    84280325.05049
  21644125.900   113740718.41808  21644127.540    88629155.37048
  22633186.500   118938217.88807  22633187.180    92679138.16247
  23220190.020   122023066.87607  23220191.340    95082982.94546
  21059748.100   110669799.09908  21059748.240    86236238.09948
  20968049.800   110187879.46409  20968053.820    85860714.83249
 15 02 16 02 25  0.0000000  0  7G04G16G18G19G21G22G27
  24168214.260   127004830.85006  24168218.780    98964818.28945
  20585585.260   108177993.60508  20585586.860    84294559.39549
  21648640.900   113764444.81908  21648642.600    88647643.47548
  22619569.920   118866662.47707  22619570.560    92623380.71747
  23233149.340   122091168.84107  23233150.760    95136049.38246
  21050912.720   110623368.78508  21050912.840    86200058.64148
  20959739.980   110144211.38009  20959744.080    85826687.76249
 15 02 16 02 25 30.0000000  0  7G04G16G18G19G21G22G27
  24150570.820   126912115.37106  24150575.440    98892572.51344
  20589170.180   108196832.38708  20589171.760    84309238.95149
  21653248.220   113788656.52508  21653249.960    88666509.74148
  22605973.180   118795211.48107  22605973.800    92567704.63247
  23246118.340   122159321.77207  23246119.880    95189155.56046
  21042168.200   110577415.96208  21042168.340    86164251.25348
  20951469.960   110100752.24209  20951474.080    85792823.50549
 15 02 16 02 26  0.0000000  0  7G04G16G18G19G21G22G27
  24132957.320   126819556.89706  24132961.940    98820449.08245
  20592863.000   108216238.22908  20592864.580    84324360.37349
  21657947.020   113813348.79408  21657948.720    88685750.47048
  22592395.860   118723862.35607  22592396.420    92512107.91647
  23259096.280   122227521.40107  23259097.820    95242298.10446
  21033514.080   110531938.12108  21033514.220    86128813.98248
  20943239.240   110057499.57409  20943243.400    85759120.13049
 15 02 16 02 26 30.0000000  0  7G04G16G18G19G21G22G27
  24115374.300   126727157.83106  24115378.800    98748449.86345
  20596663.980   108236212.64508  20596665.600    84339924.83849
  21662737.480   113838522.77308  21662739.120    88705366.56048
  22578838.360   118652617.33607  22578838.900    92456592.32847
  23272083.100   122295767.78007  23272084.660    95295477.07546
  21024950.960   110486938.46109  21024951.060    86093749.31848
  20935048.400   110014456.18609  20935052.500    85725579.83549
 15 02 16 02 27  0.0000000  0  7G04G16G18G19G21G22G27
  24097821.980   126634919.57806  24097826.220    98676575.95145
  20600573.340   108256756.42608  20600574.980    84355932.97149
  21667619.500   113864177.93308  21667621.040    88725357.59147
  22565301.080   118581478.25007  22565301.560    92401159.29047
  23285078.880   122364061.40607  23285080.500    95348692.86246
  21016479.260   110442419.19609  21016479.320    86059058.99048
  20926897.760   109971624.03409  20926901.800    85692204.13249
 15 02 16 02 27 30.0000000  0  7G04G16G18G19G21G22G27
  24080300.360   126542842.60206  24080304.460    98604827.71344
  20604590.840   108277868.41508  20604592.480    84372383.85649
  21672592.800   113890312.97408  21672594.280    88745722.55847
  22551784.040   118510445.41508  22551784.440    92345809.03447
  23298083.560   122432400.82507  23298085.100    95401944.32445
  21008099.180   110398381.29409  21008099.200    86024743.74648
  20918787.460   109929004.08609  20918791.520    85658993.78749
 15 02 16 02 28  0.0000000  0  7G04G16G18G19G21G22G27
  24062809.720   126450928.30807  24062813.700    98533206.24145
  20608716.560   108299549.18908  20608718.200    84389277.95249
  21677657.440   113916927.95508  21677658.860    88766461.51548
  22538287.440   118439520.31908  22538287.880    92290542.74047
  23311096.860   122500785.48207  23311098.280    95455231.05146
  20999811.080   110354826.90909  20999811.100    85990805.27648
  20910717.920   109886598.20109  20910721.940    85625950.24549
 15 02 16 02 28 30.0000000  0  7G04G16G18G19G21G22G27
  24045349.940   126359175.95907  24045353.820    98461710.95745
  20612950.180   108321796.85208  20612951.780    84406613.77949
  21682812.960   113944020.38808  21682814.360    88787572.50348
  22524811.200   118368702.34408  22524811.700    92235359.91247
  23324118.420   122569213.40307  23324119.640    95508551.48345
  20991614.940   110311755.95808  20991614.920    85957243.50448
  20902689.020   109844406.21209  20902693.060    85593073.37549
 15 02 16 02 29  0.0000000  0  7G04G16G18G19G21G22G27
  24027921.760   126267590.26306  24027925.580    98390345.52745
  20617292.420   108344615.16108  20617293.960    84424394.27049
  21688059.840   113971593.03108  21688061.280    88809057.68647
  22511356.320   118297996.60208  22511356.880    92180264.53247
  23337148.820   122637687.87607  23337149.860    95561908.19146
  20983511.820   110269174.04308  20983511.800    85924062.79348
  20894701.800   109802433.31109  20894705.840    85560367.21849
 15 02 16 02 29 30.0000000  0  7G04G16G18G19G21G22G27
  24010524.740   126176168.61306  24010528.640    98319107.91245
  20621742.500   108368000.29808  20621744.020    84442616.44049
  21693397.260   113999641.50108  21693398.780    88830913.63748
  22497922.240   118227400.10308  22497922.880    92125254.29447
  23350187.080   122706204.40607  23350188.160    95615297.66746
  20975501.300   110227078.94608  20975501.340    85891261.42548
  20886755.860   109760677.22009  20886759.900    85527830.00449
 15 02 16 02 30  0.0000000  0  7G04G16G18G19G21G22G27
  23993159.020   126084911.32006  23993163.060    98247998.38945
  20626300.240   108391951.25408  20626301.740    84461279.50949
  21698825.000   114028164.56508  21698826.600    88853139.40148
  22484509.080   118156913.67608  22484509.800    92070329.82447
  23363233.140   122774761.77707  23363234.260    95668718.96146
  20967583.680   110185471.66208  20967583.720    85858840.17549
  20878851.420   109719139.07809  20878855.440    85495462.61749
 15 02 16 02 30 30.0000000  0  7G04G16G18G19G21G22G27
  23975825.180   125993821.93506  23975829.440    98177019.66845
  20630966.100   108416470.50608  20630967.620    84480385.40949
  21704343.400   114057163.97108  21704345.040    88875736.34348
  22471117.560   118086540.79008  22471118.280    92015493.83847
  23376287.180   122843361.75107  23376288.460    95722173.46446
  20959759.620   110144355.80208  20959759.660    85826801.85348
  20870989.200   109677822.70509  20870993.180    85463268.04649
 15 02 16 02 31  0.0000000  0  7G04G16G18G19G21G22G27
  23958523.020   125902899.46406  23958527.460    98106171.01445
  20635739.780   108441556.36108  20635741.340    84499932.81549
  21709951.940   114086637.39408  21709953.700    88898702.64548
  22457747.540   118016280.90508  22457748.220    91960745.90047
  23389348.940   122912002.11307  23389350.340    95775659.43346
  20952029.180   110103731.77909  20952029.160    85795146.77648
  20863169.140   109636727.96709  20863173.100    85431246.17749
 15 02 16 02 31 30.0000000  0  7G04G16G18G19G21G22G27
  23941252.380   125812142.26906  23941256.940    98035451.15045
  20640620.560   108467205.10708  20640622.180    84519918.84049
  21715649.920   114116580.88608  21715651.800    88922035.24048
  22444398.660   117946132.02608  22444399.280    91906084.45647
  23402417.760   122980679.34907  23402419.260    95829174.15645
  20944392.080   110063598.31109  20944392.000    85763873.95248
  20855390.960   109595853.54509  20855394.960    85399395.98249
 15 02 16 02 32  0.0000000  0  7G04G16G18G19G21G22G27
  23924013.900   125721553.81606  23924018.520    97964862.76745
  20645608.960   108493419.41508  20645610.620    84540345.56349
  21721437.740   114146996.34008  21721439.720    88945735.58948
  22431071.660   117876098.12608  22431072.200    91851512.60447
  23415494.040   123049395.71407  23415495.540    95882719.35346
  20936849.020   110023959.22609  20936848.920    85732986.36048
  20847655.520   109555203.54609  20847659.520    85367720.66649
 15 02 16 02 32 30.0000000  0  7G04G16G18G19G21G22G27
  23906807.580   125631133.59706  23906812.100    97894405.48145
  20650704.720   108520197.96708  20650706.440    84561211.95749
  21727315.020   114177881.65808  21727316.980    88969802.07347
  22417766.500   117806178.87808  22417766.920    91797030.10047
  23428577.360   123118148.95607  23428578.880    95936293.29646
  20929400.020   109984814.64308  20929399.960    85702484.09648
  20839962.860   109514778.20609  20839966.820    85336220.40949
 15 02 16 02 33  0.0000000  0  7G04G16G18G19G21G22G27
  23889633.240   125540880.76406  23889637.440    97824078.63545
  20655907.380   108547538.36108  20655909.160    84582516.15249
  21733281.180   114209233.91908  21733283.000    88994232.40447
  22404483.000   117736373.66408  22404483.360    91742636.44647
  23441667.340   123186937.12607  23441668.800    95989894.43546
  20922045.040   109946164.29108  20922045.040    85672366.95048
  20832312.860   109474577.08709  20832316.820    85304894.86049
 15 02 16 02 33 30.0000000  0  7G04G16G18G19G21G22G27
  23872491.460   125450798.84907  23872495.340    97753884.97845
  20661217.380   108575442.55808  20661219.180    84604259.66549
  21739336.560   114241054.88508  21739338.240    89019027.96447
  22391221.920   117666686.38908  22391222.280    91688334.69147
  23454764.340   123255762.03406  23454765.720    96043524.21945
  20914784.840   109908012.03408  20914784.880    85642637.92748
  20824706.320   109434604.36109  20824710.260    85273747.28549
 15 02 16 02 34  0.0000000  0  7G04G16G18G19G21G22G27
  23855382.280   125360888.67407  23855385.980    97683825.13845
  20666634.660   108603910.69808  20666636.480    84626442.61849
  21745481.000   114273343.66508  21745482.560    89044188.05747
  22377983.460   117597118.03008  22377983.880    91634125.61147
  23467868.140   123324622.68406  23467869.480    96097181.84346
  20907619.760   109870359.46109  20907619.820    85613298.27648
  20817143.520   109394861.44709  20817147.420    85242778.78749
 15 02 16 02 34 30.0000000  0  7G04G16G18G19G21G22G27
  23838305.680   125271150.14607  23838309.200    97613899.05345
  20672158.860   108632940.47308  20672160.640    84649063.20949
  21751714.060   114306098.38308  21751715.560    89069711.21747
  22364767.680   117527668.65608  22364768.120    91580009.23047
  23480978.440   123393517.77306  23480979.860    96150866.29846
  20900549.800   109833206.57309  20900549.840    85584347.98049
  20809624.540   109355348.84309  20809628.420    85211989.74749
 15 02 16 02 35  0.0000000  0  7G04G16G18G19G21G22G27
  23821262.200   125181586.17306  23821265.580    97544108.99145
  20677790.360   108662534.00808  20677792.080    84672123.09249
  21758035.900   114339320.13908  21758037.440    89095598.29447
  22351575.100   117458341.33008  22351575.580    91525987.94947
  23494095.580   123462448.85906  23494097.020    96204578.81046
  20893575.660   109796557.14609  20893575.660    85555789.99349
  20802150.080   109316070.21209  20802153.940    85181383.02449
 15 02 16 02 35 30.0000000  0  7G04G16G18G19G21G22G27
  23804251.320   125092194.15706  23804254.720    97474452.89945
  20683528.500   108692687.83808  20683530.160    84695619.57549
  21764445.740   114373004.37808  21764447.380    89121845.75047
  22338405.280   117389133.71108  22338405.780    91472059.95547
  23507218.840   123531412.02906  23507220.280    96258316.31046
  20886696.900   109760408.97109  20886696.900    85527622.59549
  20794719.740   109277023.55909  20794723.620    85150957.06449
 15 02 16 02 36  0.0000000  0  7G04G16G18G19G21G22G27
  23787273.380   125002975.41306  23787276.860    97404931.82945
  20689373.180   108723401.52608  20689374.780    84719552.30649
  21770943.580   114407150.79908  21770945.260    89148453.35247
  22325258.600   117320047.64108  22325259.120    91418226.66647
  23520348.120   123600407.15606  23520349.680    96312078.72046
  20879913.840   109724763.62209  20879913.820    85499847.00848
  20787333.900   109238210.84709  20787337.820    85120713.39349
 15 02 16 02 36 30.0000000  0  7G04G16G18G19G21G22G27
  23770328.680   124913931.51706  23770332.360    97335547.00845
  20695324.260   108754674.48608  20695325.840    84743920.83349
  21777529.160   114441758.49208  21777530.920    89175420.38148
  22312135.360   117251084.72508  22312135.880    91364489.33948
  23533483.460   123669433.95907  23533485.160    96365865.81346
  20873226.840   109689623.23409  20873226.820    85472464.89948
  20779992.940   109199634.05509  20779996.920    85090653.55949
 15 02 16 02 37  0.0000000  0  7G04G16G18G19G21G22G27
  23753417.020   124825061.05306  23753420.920    97266297.32045
  20701381.420   108786504.97208  20701382.980    84768723.79449
  21784202.060   114476824.93908  21784203.840    89202744.87747
  22299035.380   117182244.03908  22299035.920    91310847.26348
  23546624.420   123738489.90206  23546626.160    96419675.61645
  20866635.760   109654986.94509  20866635.740    85445475.59048
  20772696.820   109161292.74309  20772700.840    85060777.21449
 15 02 16 02 37 30.0000000  0  7G04G16G18G19G21G22G27
  23736538.660   124736364.81706  23736542.540    97197183.39845
  20707544.540   108818892.39708  20707546.120    84793960.73249
  21790962.040   114512348.67208  21790963.800    89230425.70548
  22285958.860   117113526.63608  22285959.440    91257301.25547
  23559770.820   123807574.31906  23559772.540    96473507.60145
  20860140.840   109620856.02309  20860140.820    85418880.07748
  20765445.780   109123188.28609  20765449.780    85031085.42149
 15 02 16 02 38  0.0000000  0  7G04G16G18G19G21G22G27
  23719693.960   124647845.32107  23719697.840    97128207.19645
  20713813.780   108851837.32808  20713815.340    84819632.09549
  21797809.160   114548330.43808  21797810.940    89258463.44447
  22272906.300   117044935.04408  22272906.900    91203853.27748
  23572922.780   123876688.06507  23572924.460    96527362.42545
  20853742.600   109587233.14809  20853742.600    85392680.43949
  20758240.420   109085323.82709  20758244.420    85001580.65049
 15 02 16 02 38 30.0000000  0  7G04G16G18G19G21G22G27
  23702883.020   124559502.90407  23702886.860    97059368.97245
  20720188.880   108885338.57908  20720190.440    84845736.95149
  21804743.140   114584768.71708  21804744.920    89286856.90847
  22259877.900   116976470.51108  22259878.520    91150504.30348
  23586080.180   123945830.55807  23586081.820    96581239.66545
  20847441.200   109554119.17209  20847441.220    85366877.35049
  20751080.960   109047700.64309  20751084.960    84972263.88549
 15 02 16 02 39  0.0000000  0  7G04G16G18G19G21G22G27
  23686105.640   124471336.80406  23686109.400    96990668.15045
  20726669.440   108919394.02808  20726671.020    84872273.65549
  21811763.400   114621660.53008  21811765.200    89315603.77747
  22246873.560   116908132.26408  22246874.180    91097253.73348
  23599242.640   124014999.50806  23599244.160    96635137.53045
  20841236.480   109521513.34108  20841236.540    85341470.21449
  20743967.320   109010318.35409  20743971.360    84943134.82949
 15 02 16 02 39 30.0000000  0  7G04G16G18G19G21G22G27
  23669362.540   124383350.74107  23669366.200    96922107.61645
  20733255.940   108954006.29508  20733257.540    84899244.23449
  21818870.320   114659007.62808  21818872.120    89344705.41047
  22233894.080   116839924.57008  22233894.660    91044104.89348
  23612410.480   124084059.26106  23612412.100    96688877.83845
  20835129.240   109489419.83508  20835129.380    85316462.29849
  20736900.420   108973181.45209  20736904.460    84914196.98749
 15 02 16 02 40  0.0000000  0  7G04G16G18G19G21G22G27
  23652653.380   124295543.54406  23652657.060    96853686.44646
  20739947.800   108989172.47508  20739949.500    84926646.43849
  21826063.360   114696807.08808  21826065.080    89374159.53647
  22220939.320   116771846.61108  22220939.840    90991057.13848
  23625583.260   124153283.32006  23625585.140    96742818.63445
  20829119.320   109457837.73908  20829119.540    85291852.87949
  20729880.160   108936289.52909  20729884.140    84885450.03449
 15 02 16 02 40 30.0000000  0  7G04G16G18G19G21G22G27
  23635978.000   124207914.43006  23635981.860    96785404.04446
  20746744.620   109024890.28908  20746746.440    84954478.48849
  21833342.020   114735056.48408  21833343.700    89403964.25647
  22208009.120   116703897.78308  22208009.580    90938110.01048
  23638760.740   124222531.70006  23638762.800    96796778.38445
  20823206.740   109426767.03708  20823207.000    85267641.94949
  20722906.540   108899642.61409  20722910.460    84856893.99949
 15 02 16 02 41  0.0000000  0  7G04G16G18G19G21G22G27
  23619337.020   124120466.70606  23619341.040    96717262.99245
  20753646.760   109061161.64708  20753648.680    84982741.87049
  21840706.500   114773757.08708  21840708.220    89434120.57547
  22195104.240   116636082.12308  22195104.700    90885266.65548
  23651943.380   124291806.63306  23651945.380    96850758.83746
  20817392.160   109396211.11909  20817392.420    85243832.15249
  20715980.260   108863244.70209  20715984.180    84828531.98749
 15 02 16 02 41 30.0000000  0  7G04G16G18G19G21G22G27
  23602730.060   124033197.33906  23602734.140    96649260.93445
  20760653.240   109097981.35508  20760655.240    85011432.54049
  21848155.880   114812903.74108  21848157.600    89464624.46547
  22182224.160   116568396.85608  22182224.640    90832524.90148
  23665130.220   124361103.48806  23665132.200    96904756.37446
  20811675.020   109366167.10609  20811675.240    85220421.23349
  20709100.880   108827093.38909  20709104.820    84800362.13549
 15 02 16 02 42  0.0000000  0  7G04G16G18G19G21G22G27
  23586157.500   123946108.44506  23586161.480    96581399.47045
  20767764.220   109135350.02608  20767766.240    85040550.96749
  21855690.080   114852496.36308  21855691.840    89495475.85747
  22169369.360   116500844.31108  22169369.820    90779886.56048
  23678321.460   124430423.13406  23678323.280    96958771.65446
  20806055.760   109336637.61109  20806055.920    85197411.24649
  20702268.960   108791191.63109  20702272.960    84772386.73949
 15 02 16 02 42 30.0000000  0  7G04G16G18G19G21G22G27
  23569619.560   123859200.76806  23569623.380    96513679.23645
  20774979.680   109173267.50308  20774981.660    85070097.03949
  21863309.000   114892534.20008  21863310.780    89526674.16747
  22156540.020   116433425.81108  22156540.480    90727352.67048
  23691516.880   124499765.03006  23691518.700    97012804.27545
  20800534.520   109307623.33909  20800534.660    85174802.72849
  20695484.820   108755540.93709  20695488.840    84744606.97949
 15 02 16 02 43  0.0000000  0  7G04G16G18G19G21G22G27
  23553116.400   123772475.63507  23553120.160    96446101.24544
  20782299.520   109211733.11408  20782301.440    85100070.23349
  21871012.460   114933016.24208  21871014.260    89558218.61547
  22143736.560   116366143.39808  22143737.020    90674924.82048
  23704716.560   124569129.33506  23704718.340    97066854.35146
  20795111.640   109279126.11408  20795111.780    85152597.10449
  20688748.920   108720143.46209  20688752.920    84717024.53349
 15 02 16 02 43 30.0000000  0  7G04G16G18G19G21G22G27
  23536648.140   123685933.69607  23536651.680    96378666.00045
  20789723.480   109250745.88508  20789725.340    85130469.77649
  21878800.200   114973941.32308  21878802.000    89590108.28947
  22130959.180   116298997.94608  22130959.640    90622603.68947
  23717920.340   124638515.39706  23717922.080    97120921.38945
  20789787.260   109251146.46609  20789787.420    85130794.78349
  20682061.420   108685000.41509  20682065.380    84689640.33749
 15 02 16 02 44  0.0000000  0  7G04G16G18G19G21G22G27
  23520214.740   123599575.14407  23520218.160    96311373.66146
  20797251.260   109290304.22908  20797253.080    85161294.44349
  21886671.880   115015307.54908  21886673.700    89622341.71047
  22118208.020   116231990.09608  22118208.460    90570389.78648
  23731127.980   124707922.06306  23731129.720    97175004.46945
  20784561.520   109223685.06509  20784561.660    85109396.29649
  20675422.520   108650112.81809  20675426.440    84662455.19449
 15 02 16 02 44 30.0000000  0  7G04G16G18G19G21G22G27
  23503816.180   123513399.95607  23503819.600    96244224.19745
  20804882.580   109330406.85508  20804884.380    85192543.22649
  21894627.200   115057113.14508  21894629.000    89654917.50147
  22105483.140   116165120.31108  22105483.520    90518283.46848
  23744339.380   124777348.12406  23744340.960    97229102.68445
  20779434.420   109196741.88009  20779434.540    85088401.61849
  20668832.400   108615481.53209  20668836.280    84635469.77749
 15 02 16 02 45  0.0000000  0  7G04G16G18G19G21G22G27
  23487452.660   123427408.92907  23487456.180    96177218.22046
  20812617.260   109371052.90208  20812619.060    85224215.45449
  21902665.920   115099356.77308  21902667.720    89687834.61147
  22092784.820   116098389.92908  22092785.120    90466285.77448
  23757554.560   124846793.75606  23757555.980    97283216.13345
  20774406.180   109170318.06409  20774406.240    85067811.63949
  20662291.340   108581108.22209  20662295.240    84608685.37949
 15 02 16 02 45 30.0000000  0  7G04G16G18G19G21G22G27
  23471124.440   123341603.63707  23471128.120    96110356.97646
  20820455.300   109412242.09008  20820457.120    85256310.91449
  21910787.880   115142037.77908  21910789.680    89721092.53847
  22080113.380   116031801.08308  22080113.660    90414398.37048
  23770773.380   124916258.71206  23770774.660    97337344.64144
  20769477.080   109144415.42209  20769477.140    85047627.76649
  20655799.840   108546995.22709  20655803.740    84582103.83149
 15 02 16 02 46  0.0000000  0  7G04G16G18G19G21G22G27
  23454831.760   123255985.08906  23454835.540    96043641.25545
  20828396.600   109453973.83008  20828398.420    85288829.13849
  21918992.800   115185154.73608  21918994.600    89754690.16147
  22067469.120   115965355.20608  22067469.440    90362622.36848
  23783995.720   124985742.50106  23783996.900    97391487.83745
  20764647.340   109119034.93009  20764647.380    85027850.77049
  20649358.260   108513144.24609  20649362.140    84555726.44949
 15 02 16 02 46 30.0000000  0  7G04G16G18G19G21G22G27
  23438574.560   123170553.40706  23438578.480    95977071.12646
  20836440.660   109496245.64308  20836442.500    85321768.20049
  21927280.420   115228706.53108  21927282.240    89788626.62447
  22054852.100   115899052.56008  22054852.480    90310957.97448
  23797221.520   125055244.58106  23797222.800    97445645.26545
  20759916.880   109094176.43909  20759916.940    85008480.52749
  20642966.720   108479556.22709  20642970.540    84529553.96949
 15 02 16 02 47  0.0000000  0  7G04G16G18G19G21G22G27
  23422352.660   123085307.21806  23422356.660    95910645.54445
  20844587.180   109539055.66308  20844588.980    85355126.64449
  21935650.120   115272689.63208  21935651.940    89822899.16747
  22042262.280   115832893.02508  22042262.780    90259405.10648
  23810450.300   125124762.38906  23810451.620    97499814.96145
  20755285.620   109069839.20609  20755285.680    84989516.45649
  20636625.100   108446230.65009  20636628.900    84503585.99149
 15 02 16 02 47 30.0000000  0  7G04G16G18G19G21G22G27
  23406166.580   123000249.30806  23406170.580    95844366.68245
  20852836.180   109582404.52208  20852837.980    85388904.96349
  21944102.040   115317104.57708  21944103.780    89857508.21347
  22029700.380   115766879.88608  22029700.940    90207966.30548
  23823682.260   125194297.17106  23823683.640    97553997.87145
  20750754.140   109046026.41709  20750754.200    84970961.04649
  20630334.140   108413171.26409  20630337.920    84477825.42849
 15 02 16 02 48  0.0000000  0  7G04G16G18G19G21G22G27
  23390016.140   122915378.52306  23390020.040    95778233.61345
  20861187.080   109626288.75508  20861188.860    85423100.45549
  21952635.500   115361947.93908  21952637.100    89892451.09047
  22017166.180   115701012.21008  22017166.700    90156640.84748
  23836917.120   125263847.22106  23836918.640    97608192.67445
  20746322.180   109022736.33109  20746322.220    84952812.93649
  20624093.680   108380377.44909  20624097.480    84452271.80649
 15 02 16 02 48 30.0000000  0  7G04G16G18G19G21G22G27
  23373901.200   122830694.20207  23373905.000    95712245.86945
  20869639.460   109670706.27508  20869641.240    85457711.49949
  21961250.060   115407217.21108  21961251.500    89927725.85047
  22004659.680   115635289.86808  22004660.120    90105428.64548
  23850154.600   125333410.89206  23850156.240    97662398.11645
  20741989.620   108999968.45409  20741989.600    84935071.74749
  20617903.780   108347849.43609  20617907.620    84426925.30349
 15 02 16 02 49  0.0000000  0  7G04G16G18G19G21G22G27
  23357822.100   122746197.72707  23357825.700    95646404.47946
  20878193.280   109715656.97608  20878195.060    85492738.00349
  21969945.540   115452911.80408  21969946.840    89963332.02447
  21992181.300   115569715.18108  21992181.620    90054331.49648
  23863394.720   125402988.10006  23863396.400    97716614.09645
  20737756.760   108977724.57709  20737756.700    84917738.86049
  20611764.920   108315589.76709  20611768.840    84401787.89849
 15 02 16 02 49 30.0000000  0  7G04G16G18G19G21G22G27
  23341779.380   122661892.18407  23341782.760    95580711.87245
  20886848.740   109761141.63108  20886850.500    85528180.57549
  21978722.000   115499032.28708  21978723.260    89999270.05647
  21979731.640   115504291.58708  21979731.880    90003352.07448
  23876637.840   125472580.61906  23876639.460    97770841.98845
  20733624.200   108956007.48609  20733624.020    84900816.46049
  20605677.860   108283602.24009  20605681.820    84376862.55249
 15 02 16 02 50  0.0000000  0  7G04G16G18G19G21G22G27
  23325772.780   122577776.77007  23325776.040    95515167.41445
  20895605.340   109807157.61209  20895607.040    85564037.16949
  21987579.020   115545576.34108  21987580.280    90035538.14647
  21967310.740   115439019.03308  21967310.940    89952490.34848
  23889883.480   125542186.61706  23889885.100    97825080.40345
  20729591.780   108934816.72109  20729591.540    84884304.18549
  20599642.600   108251886.85809  20599646.620    84352149.27049
 15 02 16 02 50 30.0000000  0  7G04G16G18G19G21G22G27
  23309802.460   122493851.67507  23309805.660    95449771.26345
  20904462.800   109853703.87308  20904464.540    85600306.97149
  21996516.200   115592541.76708  21996517.480    90072134.57447
  21954918.680   115373898.09508  21954918.840    89901746.77448
  23903131.500   125611805.00106  23903133.160    97879328.46245
  20725659.420   108914152.01909  20725659.180    84868201.83349
  20593659.360   108220444.75909  20593663.400    84327648.93549
 15 02 16 02 51  0.0000000  0  7G04G16G18G19G21G22G27
  23293868.460   122410117.93007  23293871.740    95384524.20145
  20913420.900   109900779.16708  20913422.740    85636989.00749
  22005533.300   115639927.35508  22005534.680    90109058.40147
  21942555.680   115308930.18108  21942555.860    89851122.43848
  23916381.940   125681436.39406  23916383.680    97933586.65345
  20721827.340   108894014.32409  20721827.140    84852510.12849
  20587728.460   108189277.71109  20587732.500    84303362.92649
 15 02 16 02 51 30.0000000  0  7G04G16G18G19G21G22G27
  23277970.800   122326575.49307  23277974.220    95319426.21345
  20922479.320   109948381.46708  20922481.200    85674081.69849
  22014630.000   115687731.29808  22014631.540    90146308.22347
  21930222.080   115244116.70708  21930222.260    89800618.44548
  23929634.640   125751079.69206  23929636.480    97987854.12145
  20718095.580   108874404.11409  20718095.460    84837229.45749
  20581850.100   108158386.77809  20581854.140    84279292.07349
 15 02 16 02 52  0.0000000  0  7G04G16G18G19G21G22G27
  23262109.700   122243225.18707  23262113.280    95254477.91846
  20931637.840   109996509.80608  20931639.780    85711584.29048
  22023806.120   115735952.20308  22023807.740    90183882.95147
  21917918.100   115179458.94708  21917918.300    89750235.78548
  23942889.640   125820734.85406  23942891.500    98042130.84045
  20714464.340   108855321.92909  20714464.260    84822360.23249
  20576024.620   108127773.57709  20576028.660    84255437.63349
 15 02 16 02 52 30.0000000  0  7G04G16G18G19G21G22G27
  23246285.000   122160066.23407  23246288.680    95189678.75145
  20940895.860   110045161.23408  20940897.840    85749494.48248
  22033061.040   115784586.96808  22033062.680    90221780.16947
  21905643.640   115114956.50008  21905643.880    89699974.14748
  23956146.440   125890399.59806  23956148.240    98096415.03145
  20710933.400   108836766.77709  20710933.360    84807901.67949
  20570251.980   108097438.08609  20570256.000    84231799.58849
 15 02 16 02 53  0.0000000  0  7G04G16G18G19G21G22G27
  23230497.240   122077101.34007  23230501.000    95125030.80146
  20950253.620   110094336.75308  20950255.640    85787813.05148
  22042394.880   115833636.51208  22042396.500    90260000.58547
  21893399.380   115050612.77908  21893399.620    89649836.19448
  23969405.180   125960075.18806  23969406.980    98150707.68345
  20707503.300   108818741.39109  20707503.260    84793855.93349
  20564532.860   108067383.99209  20564536.900    84208380.81349
 15 02 16 02 53 30.0000000  0  7G04G16G18G19G21G22G27
  23214746.260   121994329.58607  23214750.020    95060533.35345
  20959710.660   110144033.64708  20959712.640    85826537.89448
  22051807.020   115883097.53108  22051808.580    90298541.63547
  21881185.340   114986427.95008  21881185.620    89599822.05148
  23982665.720   126029760.29506  23982667.640    98205007.73245
  20704173.800   108801244.84709  20704173.740    84780222.26949
  20558867.300   108037611.31809  20558871.340    84185181.32749
 15 02 16 02 54  0.0000000  0  7G04G16G18G19G21G22G27
  23199032.100   121911751.42807  23199035.880    94996186.74546
  20969266.560   110194250.02808  20969268.500    85865667.53148
  22061297.080   115932968.16708  22061298.620    90337401.86847
  21869001.740   114922402.90408  21869002.040    89549932.41648
  23995928.000   126099454.28906  23995930.040    98259314.72345
  20700945.020   108784277.48309  20700944.860    84767000.95949
  20553255.540   108008121.29409  20553259.600    84162202.09149
 15 02 16 02 54 30.0000000  0  7G04G16G18G19G21G22G27
  23183354.880   121829367.35407  23183358.620    94931991.40645
  20978921.060   110244984.70708  20978922.980    85905201.03548
  22070864.740   115983246.89108  22070866.320    90376580.09147
  21856848.780   114858538.74008  21856849.080    89500168.15248
  24009191.940   126169156.69806  24009194.040    98313628.27345
  20697816.920   108767839.23609  20697816.680    84754191.94149
  20547697.880   107978915.55409  20547701.940    84139444.36849
 15 02 16 02 55  0.0000000  0  7G04G16G18G19G21G22G27
  23167714.600   121747176.95707  23167718.160    94867946.96345
  20988673.700   110296235.07108  20988675.580    85945136.37548
  22080509.640   116033931.25908  22080511.240    90416074.39347
  21844726.500   114794835.53908  21844726.720    89450529.30348
  24022457.140   126238865.51906  24022459.100    98367946.79144
  20694789.420   108751929.83709  20694789.200    84741795.01149
  20542194.340   107949994.32709  20542198.400    84116908.34549
 15 02 16 02 55 30.0000000  0  7G04G16G18G19G21G22G27
  23152111.400   121665181.22807  23152114.760    94804054.20345
  20998524.300   110348000.06308  20998526.120    85985472.72148
  22090231.520   116085020.08108  22090233.180    90455883.85847
  21832635.200   114731295.30208  21832635.400    89401017.43648
  24035723.860   126308582.01506  24035725.580    98422271.30944
  20691862.680   108736550.00809  20691862.520    84729810.73949
  20536745.360   107921359.76209  20536749.420    84094595.69549
 15 02 16 02 56  0.0000000  0  7G04G16G18G19G21G22G27
  23136545.780   121583383.00907  23136548.980    94740315.35845
  21008473.040   110400280.92108  21008474.840    86026211.03948
  22100030.540   116136514.10008  22100032.260    90496009.06447
  21820575.660   114667921.75308  21820575.860    89351635.46048
  24048992.140   126378307.20506  24048993.700    98476602.61745
  20689037.200   108721702.37909  20689037.140    84718241.16149
  20531351.680   107893015.62209  20531355.700    84072509.35649
 15 02 16 02 56 30.0000000  0  7G04G16G18G19G21G22G27
  23121017.260   121501780.14607  23121020.460    94676728.74046
  21018519.120   110453073.39109  21018520.880    86067348.01448
  22109905.820   116188408.82008  22109907.560    90536446.51247
  21808547.500   114604713.37708  21808547.720    89302382.19848
  24062261.560   126448038.39606  24062263.100    98530938.56844
  20686312.620   108707384.80809  20686312.640    84707084.61549
  20526013.020   107864960.63809  20526017.000    84050648.32949
 15 02 16 02 57  0.0000000  0  7G04G16G18G19G21G22G27
  23105526.240   121420374.98307  23105529.640    94613296.16246
  21028662.520   110506377.26008  21028664.280    86108883.48248
  22119857.360   116240704.30608  22119859.100    90577196.23347
  21796551.300   114541672.86508  21796551.480    89253259.73048
  24075532.280   126517776.30606  24075533.860    98585279.75345
  20683689.300   108693599.08509  20683689.340    84696342.49949
  20520729.920   107837197.88109  20520733.920    84029015.01249
 15 02 16 02 57 30.0000000  0  7G04G16G18G19G21G22G27
  23090072.640   121339166.64107  23090076.320    94550016.94945
  21038902.680   110560189.63508  21038904.460    86150815.19548
  22129884.580   116293397.76308  22129886.340    90618256.06447
  21784587.140   114478800.77708  21784587.300    89204268.50348
  24088804.200   126587520.49006  24088805.940    98639625.85045
  20681167.100   108680344.40309  20681167.120    84686014.18249
  20515502.520   107809727.80509  20515506.520    84007609.75949
 15 02 16 02 58  0.0000000  0  7G04G16G18G19G21G22G27
  23074656.720   121258155.89807  23074660.560    94486891.70746
  21049239.420   110614509.49209  21049241.220    86193142.34448
  22139987.180   116346487.47608  22139988.920    90659624.66347
  21772655.240   114416098.41408  21772655.440    89155409.52748
  24102076.980   126657269.39106  24102078.960    98693975.61644
  20678746.000   108667621.07409  20678745.980    84676099.90849
  20510331.100   107782551.92009  20510335.100    83986433.74449
 15 02 16 02 58 30.0000000  0  7G04G16G18G19G21G22G27
  23059278.180   121177341.21107  23059282.100    94423919.24245
  21059672.060   110669333.26209  21059673.900    86235862.15848
  22150164.460   116399969.81908  22150166.200    90701299.20447
  21760755.500   114353565.07108  21760755.760    89106682.25548
  24115350.400   126727021.42406  24115352.460    98748327.82944
  20676425.520   108655426.83509  20676425.480    84666597.91649
  20505215.560   107755669.66609  20505219.580    83965486.53149
 15 02 16 02 59  0.0000000  0  7G04G16G18G19G21G22G27
  23043937.680   121096726.17107  23043941.520    94361102.33045
  21070200.800   110724662.15109  21070202.660    86278975.56648
  22160416.820   116453846.35308  22160418.540    90743280.91347
  21748888.760   114291205.08708  21748889.080    89058090.07348
  24128624.840   126796778.89306  24128627.000    98802684.27845
  20674206.540   108643766.09609  20674206.500    84657511.63649
  20500156.820   107729085.59709  20500160.780    83944771.66249
 15 02 16 02 59 30.0000000  0  7G04G16G18G19G21G22G27
  23028634.880   121016308.94707  23028638.580    94298439.57045
  21080824.960   110780492.40709  21080826.840    86322479.65148
  22170743.440   116508113.12608  22170745.140    90785566.70747
  21737054.820   114229017.46508  21737055.160    89009632.20448
  24141899.860   126866539.19206  24141902.060    98857042.93244
  20672088.620   108632636.41109  20672088.520    84648839.16249
  20495154.660   107702798.86709  20495158.560    83924288.49149
 15 02 16 03 00  0.0000000  0  7G04G16G18G19G21G22G27
  23013369.960   120936091.09607  23013373.580    94235932.18046
  21091544.420   110836823.71008  21091546.340    86366374.16548
  22181144.220   116562769.42008  22181145.880    90828156.02047
  21725254.180   114167004.80608  21725254.520    88961310.66148
  24155175.560   126936303.18506  24155177.820    98911404.45745
  20670071.900   108622038.71509  20670071.800    84640581.22449
  20490209.580   107676812.13609  20490213.420    83904039.08449
 15 02 16 03 00 30.0000000  0  7G04G16G18G19G21G22G27
  22998143.140   120856073.49607  22998146.700    94173580.81645
  21102358.860   110893654.12508  21102360.820    86410657.59548
  22191618.720   116617813.39208  22191620.400    90871047.43047
  21713487.140   114105168.55408  21713487.460    88913126.57748
  24168451.920   127006070.98306  24168454.280    98965768.95045
  20668156.480   108611973.50909  20668156.400    84632738.22249
  20485321.840   107651126.93609  20485325.680    83884024.63749
 15 02 16 03 01  0.0000000  0  7G04G16G18G19G21G22G27
  22982954.460   120776256.33307  22982957.920    94111385.64545
  21113267.920   110950981.87708  21113269.920    86455328.56348
  22202166.680   116673243.56608  22202168.400    90914239.76247
  21701753.900   114043509.92808  21701754.160    88865080.90448
  24181728.820   127075841.75806  24181731.180    99020135.76345
  20666342.360   108602440.69109  20666342.340    84625310.05649
  20480491.760   107625744.71509  20480495.640    83864246.27949
 15 02 16 03 01 30.0000000  0  8G04G11G16G18G19G21G22G27
  22967804.340   120696642.11207  22967807.800    94049348.60245
  24633318.960   129448954.44605  24633321.840   100869340.11944
  21124271.720   111008807.17908  21124273.720    86500387.22348
  22212788.160   116729060.05908  22212789.840    90957733.12346
  21690055.060   113982032.15608  21690055.320    88817176.15948
  24195006.480   127145616.79405  24195008.920    99074505.90344
  20664629.980   108593442.11309  20664629.980    84618298.18849
  20475719.940   107600668.74009  20475723.860    83844706.56049
 15 02 16 03 02  0.0000000  0  9G04G11G16G18G19G21G22G27G32
  22952691.860   120617226.14807  22952695.400    93987466.04746
  24616112.900   129358535.87305  24616115.800   100798884.12944
  21135369.000   111067123.51609  21135370.940    86545828.51848
  22223481.900   116785256.12608  22223483.560    91001522.26047
  21678389.860   113920731.50808  21678390.220    88769409.43048
  24208284.040   127215391.39005  24208286.500    99128875.67445
  20663018.320   108584972.81109  20663018.320    84611698.74249
  20471005.720   107575895.47009  20471009.660    83825402.71349
  24487491.320   128682628.91505  24487496.220   100272197.19544
 15 02 16 03 02 30.0000000  0  9G04G11G16G18G19G21G22G27G32
  22937617.040   120538007.93107  22937620.660    93925737.57646
  24598917.680   129268185.08905  24598919.500   100728465.58344
  21146559.260   111125928.29609  21146561.140    86591650.41048
  22234247.340   116841828.71708  22234248.920    91045604.79447
  21666758.480   113859608.43808  21666758.920    88721781.06848
  24221561.160   127285163.65405  24221563.640    99183243.63845
  20661507.320   108577032.22709  20661507.280    84605511.28649
  20466349.200   107551425.30209  20466353.140    83806335.04649
  24464799.680   128563383.94605  24464804.960   100179279.21844
 15 02 16 03 03  0.0000000  0  9G04G11G16G18G19G21G22G27G32
  22922581.020   120458993.68507  22922584.800    93864168.05046
  24581733.560   129177883.99905  24581736.020   100658101.11044
  21157843.060   111185224.82808  21157844.900    86637855.49548
  22245085.240   116898782.02908  22245086.800    91089983.99447
  21655162.180   113798669.69108  21655162.660    88674296.34248
  24234838.840   127354939.07205  24234841.360    99237614.06544
  20660097.980   108569625.82209  20660097.880    84599740.06749
  20461751.740   107527265.39809  20461755.680    83787509.13849
  24442117.060   128444186.34706  24442122.340   100086398.10545
 15 02 16 03 03 30.0000000  0  9G04G11G16G18G19G21G22G27G32
  22907583.480   120380181.13107  22907587.300    93802755.68246
  24564561.000   129087642.64905  24564563.920   100587783.25344
  21169219.600   111245009.09108  21169221.460    86684440.62248
  22255994.700   116956111.48908  22255996.320    91134656.29647
  21643600.840   113737914.46808  21643601.280    88626954.62448
  24248116.800   127424715.10205  24248119.300    99291984.98144
  20658789.780   108562751.08709  20658789.640    84594383.14149
  20457213.080   107503414.53909  20457217.020    83768924.05049
  24419443.540   128325036.24706  24419448.780    99993554.09945
 15 02 16 03 04  0.0000000  0  9G04G11G16G18G19G21G22G27G32
  22892624.480   120301570.81307  22892628.280    93741500.91046
  24547400.000   128997461.66805  24547403.120   100517512.37545
  21180688.500   111305278.88308  21180690.400    86731404.08648
  22266975.460   117013815.38908  22266977.120    91179620.36047
  21632074.620   113677343.92008  21632075.040    88579756.80548
  24261394.820   127494491.12606  24261397.060    99346355.85644
  20657582.720   108556408.24609  20657582.640    84589440.67449
  20452733.520   107479874.31109  20452737.460    83750581.01349
  24396779.560   128205936.57306  24396784.740    99900749.49144
 15 02 16 03 04 30.0000000  0  9G04G11G16G18G19G21G22G27G32
  22877704.020   120223163.06207  22877707.740    93680403.97546
  24530250.620   128907341.56505  24530253.920   100447288.95545
  21192249.560   111366032.82108  21192251.480    86778744.80748
  22278027.120   117071891.98108  22278028.780    91224874.83547
  21620583.820   113616959.35308  21620584.220    88532703.91048
  24274672.880   127564266.81205  24274674.900    99400726.48744
  20656476.780   108550596.76809  20656476.780    84584912.25649
  20448313.300   107456646.08209  20448317.280    83732481.08649
  24374125.640   128086889.52506  24374130.580    99807985.80345
 15 02 16 03 05  0.0000000  0  9G04G11G16G18G19G21G22G27G32
  22862822.360   120144959.20107  22862826.000    93619465.91846
  24513113.080   128817283.31805  24513116.360   100377113.71043
  21203902.600   111427270.01508  21203904.540    86826462.08848
  22289149.540   117130340.18308  22289151.140    91270418.88647
  21609128.820   113556762.95608  21609129.180    88485797.63148
  24287950.880   127634042.94705  24287952.820    99455097.47945
  20655472.140   108545317.62009  20655472.180    84580798.64049
  20443952.880   107433732.15109  20443956.900    83714626.07149
  24351482.420   127967898.72106  24351487.260    99715265.92244
 15 02 16 03 05 30.0000000  0  9G04G11G16G18G19G21G22G27G32
  22847979.600   120066959.86307  22847983.220    93558687.22946
  24495987.500   128727287.72505  24495990.680   100306987.32244
  21215647.180   111488988.25408  21215649.160    86874554.21548
  22300342.260   117189158.08208  22300343.820    91316251.01147
  21597709.880   113496756.09808  21597710.260    88439039.05248
  24301228.780   127703818.81405  24301230.660    99509468.21544
  20654568.840   108540570.93609  20654568.900    84577099.93749
  20439652.580   107411133.92509  20439656.600    83697017.07349
  24328850.400   127848966.95606  24328855.240    99622592.10845
 15 02 16 03 06  0.0000000  0  9G04G11G16G18G19G21G22G27G32
  22833175.460   119989163.36107  22833179.020    93498066.60546
  24478873.580   128637353.12105  24478876.400   100236908.47444
  21227482.620   111551184.11108  21227484.660    86923018.51148
  22311604.640   117248342.18008  22311606.160    91362368.48647
  21586327.000   113436938.50708  21586327.360    88392427.95548
  24314506.400   127773592.76005  24314508.340    99563837.49745
  20653766.520   108536354.68409  20653766.540    84573814.55749
  20435412.320   107388851.17109  20435416.340    83679653.89149
  24306229.820   127730095.10306  24306234.460    99529964.88044
 15 02 16 03 06 30.0000000  0  9G04G11G16G18G19G21G22G27G32
  22818410.240   119911571.84507  22818413.800    93437605.68846
  24461771.680   128547481.74105  24461774.480   100166878.87244
  21239408.880   111613856.96508  21239410.920    86971854.49248
  22322936.680   117307892.44708  22322938.160    91408771.29046
  21574980.660   113377313.02008  21574981.040    88345966.54648
  24327783.680   127843365.38205  24327785.720    99618205.71445
  20653065.420   108532670.32409  20653065.400    84570943.63249
  20431232.640   107366886.75009  20431236.660    83662538.74949
  24283621.480   127611287.41606  24283625.860    99437387.70245
 15 02 16 03 07  0.0000000  0  9G04G11G16G18G19G21G22G27G32
  22803683.920   119834184.86407  22803687.520    93377304.16846
  24444681.720   128457673.07506  24444684.400   100096898.15543
  21251425.440   111677004.36608  21251427.500    87021060.25448
  22334337.860   117367805.97408  22334339.320    91455457.14847
  21563671.000   113317880.42308  21563671.400    88299655.43748
  24341060.700   127913136.42305  24341062.880    99672572.72044
  20652465.340   108529516.80109  20652465.300    84568486.35049
  20427113.680   107345241.34509  20427117.680    83645672.19049
  24261025.620   127492545.72806  24261029.840    99344861.87945
 15 02 16 03 07 30.0000000  0  9G04G11G16G18G19G21G22G27G32
  22788996.620   119757002.83907  22789000.260    93317162.34546
  24427603.840   128367927.80005  24427606.340   100026966.81943
  21263531.960   111740624.43508  21263534.040    87070634.31948
  22345807.820   117428080.98308  22345809.320    91502424.68447
  21552398.300   113258641.84808  21552398.700    88253495.52248
  24354337.280   127982904.98005  24354339.400    99726937.79344
  20651966.240   108526893.87609  20651966.160    84566442.51449
  20423055.660   107323916.27509  20423059.660    83629055.24149
  24238442.760   127373872.69106  24238446.920    99252389.52445
 15 02 16 03 08  0.0000000  0  9G04G11G16G18G19G21G22G27G32
  22774348.440   119680026.28007  22774352.040    93257180.62445
  24410538.140   128278246.54706  24410540.380    99957085.40342
  21275727.940   111804714.54308  21275730.000    87120574.65048
  22357346.200   117488715.71408  22357347.780    91549672.51847
  21541162.860   113199599.17608  21541163.240    88207488.24948
  24367613.420   128052670.98005  24367615.460    99781300.86344
  20651568.100   108524801.62009  20651568.000    84564812.19449
  20419058.880   107302913.09909  20419062.900    83612689.13049
  24215873.440   127255271.11006  24215877.620    99159972.88944
 15 02 16 03 08 30.0000000  0  9G04G11G16G18G19G21G22G27G32
  22759739.440   119603255.25707  22759742.940    93197359.07446
  24393484.540   128188629.07705  24393486.560    99887253.64544
  21288013.120   111869273.21608  21288015.120    87170880.09948
  22368952.540   117549707.45008  22368954.140    91597198.53847
  21529964.800   113140753.02108  21529965.180    88161634.11348
  24380889.000   128122433.73306  24380890.820    99835661.40544
  20651270.800   108523239.27209  20651270.700    84563594.78149
  20415123.540   107282232.79209  20415127.600    83596574.60249
  24193318.120   127136743.28306  24193322.260    99067613.69545
 15 02 16 03 09  0.0000000  0  9G04G11G16G18G19G21G22G27G32
  22745169.900   119526691.52107  22745173.300    93137699.03446
  24376443.420   128099077.53605  24376445.440    99817473.30042
  21300387.240   111934299.34309  21300389.180    87221549.79648
  22380626.800   117611056.05808  22380628.380    91645002.64847
  21518804.580   113082105.86908  21518804.980    88115935.03948
  24394164.220   128192194.38406  24394165.820    99890020.32143
  20651074.580   108522208.10809  20651074.500    84562791.28949
  20411250.200   107261878.29209  20411254.280    83580713.94849
  24170777.500   127018293.25706  24170781.680    98975315.09045
 15 02 16 03 09 30.0000000  0  9G04G11G16G18G19G21G22G27G32
  22730639.560   119450333.84107  22730642.880    93078199.56346
  24359414.520   128009590.69905  24359416.740    99747743.32344
  21312849.760   111999790.16908  21312851.680    87272581.59748
  22392368.380   117672758.39308  22392369.940    91693082.38446
  21507682.320   113023658.29208  21507682.740    88070391.48548
  24407438.700   128261951.46505  24407440.120    99944376.46944
  20650979.160   108521706.61209  20650979.100    84562400.52349
  20407438.860   107241849.59209  20407442.960    83565107.16549
  24148252.020   126899922.37706  24148256.300    98883078.15445
 15 02 16 03 10  0.0000000  0  9G04G11G16G18G19G21G22G27G32
  22716148.580   119374183.15007  22716151.880    93018861.37746
  24342398.080   127920169.43105  24342400.380    99678064.45843
  21325400.300   112065743.59708  21325402.220    87323973.86648
  22404177.000   117734813.01108  22404178.560    91741436.62547
  21496598.360   112965411.91208  21496598.800    88025004.70048
  24420712.400   128331705.26605  24420713.780    99998730.05344
  20650984.500   108521734.61109  20650984.440    84562422.34149
  20403689.840   107222148.44009  20403693.960    83549755.61049
  24125742.220   126781633.81706  24125746.640    98790905.36945
 15 02 16 03 10 30.0000000  0  9G04G11G16G18G19G21G22G27G32
  22701696.960   119298239.41207  22701700.300    92959684.45246
  24325394.120   127830813.72706  24325396.540    99608436.69844
  21338038.260   112132156.65108  21338040.200    87375724.29048
  22416052.120   117797217.13008  22416053.660    91790063.20346
  21485552.900   112907367.59408  21485553.300    87979775.36548
  24433985.200   128401454.34305  24433986.480   100053079.95143
  20651090.460   108522291.37109  20651090.400    84562856.19249
  20400003.320   107202775.61009  20400007.440    83534659.89849
  24103248.540   126663429.56906  24103253.000    98698798.26145
 15 02 16 03 11  0.0000000  0  9G04G11G16G18G19G21G22G27G32
  22687284.860   119222503.55107  22687288.260    92900669.50946
  24308402.880   127741524.82105  24308405.720    99538860.92944
  21350763.500   112199028.46808  21350765.500    87427832.18848
  22427993.520   117859969.59208  22427995.020    91838961.21146
  21474546.380   112849527.83608  21474546.720    87934705.42848
  24447257.280   128471199.65205  24447258.360   100107426.91843
  20651297.100   108523377.12209  20651297.000    84563702.24249
  20396379.740   107183733.43209  20396383.840    83519821.83549
  24080771.600   126545313.31406  24080776.000    98606759.72545
 15 02 16 03 11 30.0000000  0  9G04G11G16G18G19G21G22G27G32
  22672912.020   119146973.93807  22672915.520    92841815.27946
  24291424.120   127652301.18906  24291427.100    99469336.04844
  21363575.200   112266354.65208  21363577.220    87480294.13648
  22440000.540   117923066.88108  22440002.060    91888127.92846
  21463578.580   112791891.51908  21463578.840    87889794.02048
  24460528.340   128540938.87505  24460529.220   100161769.09244
  20651604.000   108524989.92609  20651603.920    84564958.97949
  20392818.920   107165021.11809  20392823.000    83505240.81349
  24058311.520   126427285.36706  24058315.740    98514790.00545
 15 02 16 03 12  0.0000000  0  9G04G11G16G18G19G21G22G27G32
  22658578.780   119071652.46907  22658582.360    92783123.22546
  24274458.180   127563144.71206  24274461.180    99399863.49344
  21376473.340   112334135.07208  21376475.400    87533110.04248
  22452072.900   117986507.87908  22452074.500    91937562.46847
  21452650.080   112734461.71708  21452650.300    87845043.52548
  24473798.500   128610673.14305  24473799.260   100216107.44244
  20652011.340   108527130.62009  20652011.260    84566627.06049
  20389321.400   107146641.48709  20389325.480    83490919.02349
  24035869.040   126309350.07706  24035873.200    98422892.46044
 15 02 16 03 12 30.0000000  0  9G04G11G16G18G19G21G22G27G32
  22644285.440   118996540.61007  22644289.060    92724594.51846
  24257505.240   127474056.97605  24257508.320    99330444.51945
  21389457.700   112402368.48108  21389459.800    87586278.91748
  22464210.580   118050292.09408  22464212.240    91987264.44946
  21441761.340   112677241.10708  21441761.600    87800456.03948
  24487067.800   128680403.37605  24487068.540   100270442.65343
  20652519.280   108529799.97309  20652519.180    84568707.07649
  20385887.720   107128597.27909  20385891.780    83476858.59949
  24013444.940   126191511.27206  24013449.040    98331070.07245
 15 02 16 03 13  0.0000000  0  9G04G11G16G18G19G21G22G27G32
  22630031.700   118921636.83507  22630035.360    92666227.95246
  24240565.120   127385036.46505  24240568.180    99261077.90745
  21402527.500   112471050.81708  21402529.620    87639797.61748
  22476412.940   118114416.09708  22476414.660    92037231.19646
  21430912.340   112620229.29808  21430912.660    87756031.26348
  24500335.940   128750127.66406  24500336.640   100324773.22744
  20653127.400   108532995.84209  20653127.280    84571197.36949
  20382517.740   107110887.93809  20382521.800    83463059.10749
  23991039.340   126073769.83506  23991043.480    98239323.56944
 15 02 16 03 13 30.0000000  0  9G04G11G16G18G19G21G22G27G32
  22615817.620   118846941.35907  22615821.220    92608023.70646
  24223638.000   127296083.81206  24223641.000    99191764.17944
  21415682.340   112540179.76008  21415684.440    87693664.31248
  22488679.460   118178877.41508  22488681.260    92087460.78546
  21420103.320   112563427.40908  21420103.600    87711770.05948
  24513602.960   128819845.62305  24513603.720   100379098.87745
  20653835.540   108536717.42409  20653835.480    84574097.30949
  20379211.700   107093514.62309  20379215.760    83449521.45049
  23968652.760   125956128.31006  23968656.880    98147654.94645
 15 02 16 03 14  0.0000000  0  9G04G11G16G18G19G21G22G27G32
  22601643.560   118772456.11808  22601647.020    92549983.28146
  24206724.220   127207200.90206  24206727.080    99122504.82344
  21428922.140   112609755.05608  21428924.200    87747878.81948
  22501010.160   118243675.92808  22501012.020    92137953.12446
  21409334.900   112506838.74608  21409335.120    87667674.99548
  24526868.900   128889558.20105  24526869.760   100433420.31945
  20654643.960   108540966.02209  20654643.960    84577407.90849
  20375970.220   107076480.46009  20375974.260    83436248.07449
  23946286.060   125838591.04406  23946290.200    98056067.53844
 15 02 16 03 14 30.0000000  0  9G04G11G16G18G19G21G22G27G32
  22587509.360   118698180.40107  22587512.700    92492106.11146
  24189823.640   127118387.22605  24189826.320    99053299.37045
  21442246.260   112679773.32408  21442248.260    87802438.49748
  22513404.360   118308808.05708  22513406.280    92188705.42247
  21398607.120   112450463.58508  21398607.320    87623746.30448
  24540133.460   128959264.32405  24540134.480   100487736.71844
  20655552.360   108545739.99109  20655552.440    84581127.88549
  20372793.300   107059785.57209  20372797.300    83423239.06749
  23923939.560   125721159.47506  23923943.620    97964562.48545
 15 02 16 03 15  0.0000000  0  9G04G11G16G18G19G21G22G27G32
  22573415.100   118624114.72507  22573418.360    92434392.61646
  24172936.280   127029643.35306  24172938.800    98984148.35144
  21455654.300   112750232.74808  21455656.260    87857341.93648
  22525861.900   118374272.90008  22525863.860    92239716.97047
  21387920.220   112394303.37308  21387920.440    87579985.11048
  24553396.860   129028964.40805  24553398.100   100542048.41744
  20656560.760   108551039.08509  20656560.820    84585257.05549
  20369681.260   107043431.57609  20369685.240    83410495.68549
  23901613.780   125603836.66706  23901617.780    97873142.16445
 15 02 16 03 15 30.0000000  0  9G04G11G16G18G19G21G22G27G32
  22559360.580   118550258.00807  22559363.840    92376841.94346
  24156062.080   126940968.42706  24156064.440    98915051.05144
  21469145.480   112821129.33508  21469147.420    87912586.01948
  22538382.020   118440066.64308  22538384.080    92290984.82246
  21377274.240   112338358.34408  21377274.480    87536391.59248
  24566658.680   129098656.26805  24566660.240   100596353.70344
  20657668.760   108556861.54009  20657668.780    84589794.04849
  20366634.060   107027418.46609  20366638.040    83398017.92649
  23879309.040   125486623.83706  23879312.840    97781807.56944
 15 02 16 03 16  0.0000000  0  9G04G11G16G18G19G21G22G27G32
  22545346.360   118476612.91907  22545349.620    92319456.17446
  24139201.460   126852365.01305  24139203.700    98846009.47745
  21482719.840   112892463.00508  21482721.760    87968170.68948
  22550964.860   118506189.64608  22550966.900    92342509.22146
  21366669.900   112282632.43708  21366670.160    87492968.81348
  24579919.260   129168342.27105  24579921.040   100650654.43544
  20658876.680   108563208.92209  20658876.640    84594740.06849
  20363652.440   107011749.99409  20363656.420    83385808.71849
  23857026.260   125369526.13606  23857029.860    97690562.68145
 15 02 16 03 16 30.0000000  0  9G04G11G16G18G19G21G22G27G32
  22531372.220   118403178.47508  22531375.520    92262234.55046
  24122354.260   126763832.46605  24122356.440    98777023.10344
  21496376.820   112964230.85608  21496378.720    88024093.67848
  22563609.640   118572638.27108  22563611.680    92394287.35846
  21356107.220   112227125.49008  21356107.480    87449716.65248
  24593178.480   129238020.84605  24593180.380   100704949.38044
  20660184.120   108570079.37909  20660184.020    84600093.67549
  20360736.400   106996426.10609  20360740.400    83373868.02549
  23834765.600   125252544.81406  23834769.020    97599408.44145
 15 02 16 03 17  0.0000000  0  9G04G11G16G18G19G21G22G27G32
  22517438.420   118329955.75108  22517441.720    92205177.89346
  24105520.740   126675372.06605  24105522.980    98708092.96645
  21510116.060   113036430.97608  21510117.920    88080353.50148
  22576316.200   118639411.64208  22576318.240    92446318.54646
  21345586.660   112171839.74208  21345586.940    87406636.86348
  24606436.400   129307692.64204  24606438.420   100759239.09144
  20661591.180   108577473.34209  20661591.040    84605855.20749
  20357886.340   106981448.95309  20357890.360    83362197.51849
  23812527.700   125135683.40906  23812530.980    97508347.65945
 15 02 16 03 17 30.0000000  0  9G04G11G16G18G19G21G22G27G32
  22503544.700   118256943.47408  22503548.000    92148285.23146
  24088700.760   126586983.00005  24088703.140    98639218.37744
  21523936.920   113109059.99608  21523938.740    88136947.53248
  22589083.940   118706506.49808  22589085.960    92498600.23846
  21335108.240   112116775.40708  21335108.560    87363729.58948
  24619692.800   129377356.27005  24619695.000   100813522.38043
  20663097.360   108585388.40309  20663097.220    84612022.79149
  20355102.260   106966818.43709  20355106.300    83350797.11549
  23790312.780   125018943.17406  23790316.020    97417381.29844
 15 02 16 03 18  0.0000000  0  9G04G11G16G18G19G21G22G27G32
  22489691.540   118184144.48708  22489694.880    92091558.76546
  24071894.820   126498667.80406  24071897.440    98570401.38145
  21537839.300   113182117.71208  21537841.180    88193875.61448
  22601912.840   118773923.01108  22601914.880    92551132.57246
  21324672.700   112061936.25608  21324673.020    87320997.78948
  24632948.060   129447013.42504  24632950.680   100867800.67144
  20664703.060   108593826.39009  20664702.920    84618597.85449
  20352384.820   106952538.23609  20352388.880    83339669.68149
  23768121.820   124902329.12406  23768125.100    97326513.26845
 15 02 16 03 18 30.0000000  0  9G04G11G16G18G19G21G22G27G32
  22475878.400   118111555.71808  22475881.680    92034996.10846
  24055102.420   126410423.46706  24055105.080    98501639.56244
  21551822.240   113255598.85208  21551824.240    88251133.63948
  22614801.920   118841655.71508  22614803.920    92603911.29446
  21314279.640   112007320.42008  21314279.940    87278440.01348
  24646201.500   129516660.83805  24646204.340   100922071.31744
  20666407.540   108602783.49609  20666407.400    84625577.42649
  20349733.680   106938606.25909  20349737.720    83328813.58949
  23745954.700   124785840.52406  23745958.020    97235743.00045
 15 02 16 03 19  0.0000000  0  9G04G11G16G18G19G21G22G27G32
  22462105.720   118039179.46208  22462108.980    91978599.05446
  24038324.000   126322252.82106  24038326.620    98432935.18944
  21565885.680   113329502.79908  21565887.780    88308721.12648
  22627751.240   118909704.52508  22627753.140    92656936.33446
  21303929.720   111952931.39908  21303930.000    87236058.97548
  24659453.500   129586300.45004  24659456.540   100976335.92144
  20668211.020   108612261.03609  20668210.900    84632962.52749
  20347149.440   106925025.95009  20347153.480    83318231.52149
  23723812.340   124669482.22806  23723815.660    97145074.25544
 15 02 16 03 19 30.0000000  0  9G04G11G16G18G19G21G22G27G32
  22448376.440   117967031.33308  22448379.680    91922379.74946
  24021562.680   126234171.88906  24021565.260    98364300.74645
  21580032.160   113403842.83008  21580034.240    88366648.41548
  22640763.260   118978083.20708  22640765.140    92710218.40646
  21293626.200   111898786.19908  21293626.520    87193867.91848
  24672707.020   129655947.48504  24672710.140   101030606.31044
  20670116.320   108622273.74909  20670116.240    84640764.64849
  20344635.320   106911814.14409  20344639.340    83307936.60449
  23701698.200   124553272.40206  23701701.780    97054521.20445
 15 02 16 03 20  0.0000000  0 10G04G11G14G16G18G19G21G22G27G32
  22434681.880   117895066.07108  22434685.140    91866302.95046
  24004809.800   126146134.99206  24004812.380    98295700.58344
  24671745.500   129650897.40905  24671748.660   101026673.68044
  21594252.440   113478570.58008  21594254.440    88424877.82048
  22653828.940   119046743.86908  22653830.840    92763720.21246
  21283360.620   111844840.38008  21283360.960    87151832.22748
  24685953.660   129725561.78804  24685954.940   101084852.49245
  20672114.660   108632775.24709  20672114.560    84648947.63949
  20342182.840   106898926.24609  20342186.860    83297894.08449
  23679604.060   124437167.81406  23679607.800    96964050.14146
 15 02 16 03 20 30.0000000  0 10G04G11G14G16G18G19G21G22G27G32
  22421030.300   117823326.89908  22421033.540    91810402.33046
  23988073.680   126058185.89406  23988076.200    98227168.86944
  24657115.680   129574016.38705  24657118.780   100966766.41744
  21608554.320   113553726.93608  21608556.200    88483441.20448
  22666956.160   119115727.59408  22666958.020    92817473.75046
  21273141.480   111791138.61308  21273141.820    87109986.70648
  24699200.380   129795174.53405  24699202.280   101139096.15543
  20674214.060   108643807.65509  20674213.940    84657544.32749
  20339800.440   106886406.64709  20339804.460    83288138.54849
  23657538.660   124321214.34306  23657542.500    96873696.85045
 15 02 16 03 21  0.0000000  0 10G04G11G14G16G18G19G21G22G27G32
  22407419.340   117751801.24008  22407422.580    91754668.07446
  23971351.980   125970312.30206  23971354.480    98158695.98744
  24642489.360   129497155.05105  24642492.740   100906874.49944
  21622934.820   113629296.78708  21622936.600    88542326.78848
  22680142.100   119185019.56208  22680143.860    92871467.47746
  21262966.700   111737669.68608  21262967.000    87068322.61448
  24712445.900   129864778.73705  24712447.640   101193333.14344
  20676411.960   108655357.70809  20676411.800    84666544.37449
  20337485.940   106874244.01909  20337490.000    83278661.17049
  23635500.080   124205401.90306  23635504.100    96783453.42545
 15 02 16 03 21 30.0000000  0 10G04G11G14G16G18G19G21G22G27G32
  22393849.120   117680489.49708  22393852.320    91699100.51546
  23954644.620   125882514.41206  23954647.100    98090282.08645
  24627867.460   129420316.22105  24627870.680   100847000.04444
  21637393.440   113705277.17708  21637395.140    88601532.27948
  22693386.280   119254617.75908  22693387.980    92925699.82346
  21252836.520   111684434.95008  21252836.740    87026841.00548
  24725689.720   129934374.51605  24725691.380   101247563.58245
  20678708.200   108667424.47009  20678708.020    84675947.04849
  20335239.580   106862439.52309  20335243.660    83269462.85949
  23613488.860   124089733.22806  23613493.020    96693322.02945
 15 02 16 03 22  0.0000000  0 10G04G11G14G16G18G19G21G22G27G32
  22380319.960   117609393.41708  22380323.120    91643700.99947
  23937952.120   125794794.72406  23937954.620    98021929.12145
  24613250.440   129343504.24005  24613253.760   100787146.54044
  21651930.100   113781667.80908  21651931.820    88661057.43248
  22706688.660   119324521.51208  22706690.220    92980170.26846
  21242751.440   111631437.49708  21242751.660    86985544.29448
  24738931.920   130003962.41105  24738933.200   101301787.83943
  20681102.920   108680008.76409  20681102.700    84685752.99949
  20333061.960   106850996.03409  20333066.040    83260545.84249
  23591505.820   123974212.37406  23591510.160    96603305.84145
 15 02 16 03 22 30.0000000  0 10G04G11G14G16G18G19G21G22G27G32
  22366831.360   117538510.46208  22366834.580    91588467.54347
  23921273.920   125707150.59906  23921276.440    97953635.02045
  24598638.600   129266719.28805  24598642.020   100727314.15144
  21666543.940   113858464.20108  21666545.720    88720898.77348
  22720048.260   119394726.07708  22720049.740    93034875.11646
  21232711.220   111578676.00308  21232711.480    86944431.45448
  24752172.160   130073540.23105  24752173.200   101356004.29044
  20683595.460   108693106.85909  20683595.160    84695959.31349
  20330952.780   106839912.02109  20330956.840    83251908.94149
  23569551.060   123858839.34806  23569555.300    96513404.82946
 15 02 16 03 23  0.0000000  0 10G04G11G14G16G18G19G21G22G27G32
  22353384.020   117467844.25808  22353387.300    91533402.98547
  23904610.900   125619586.14006  23904613.500    97885403.00945
  24584032.200   129189960.26005  24584034.700   100667516.35344
  21681235.040   113935666.64208  21681236.880    88781056.51148
  22733465.300   119465232.91408  22733466.760    93089815.49046
  21222716.860   111526155.51208  21222717.140    86903506.40748
  24765410.900   130143110.73705  24765412.180   101410215.03243
  20686186.280   108706721.48609  20686185.940    84706568.11849
  20328912.880   106829192.10609  20328916.900    83243555.75449
  23547625.560   123743620.18606  23547629.700    96423623.71545
 15 02 16 03 23 30.0000000  0 10G04G11G14G16G18G19G21G22G27G32
  22339976.300   117397386.57108  22339979.720    91478500.90846
  23887961.520   125532093.31506  23887964.100    97817226.80244
  24569432.740   129113236.01905  24569435.080   100607731.24145
  21696001.180   114013263.67308  21696003.140    88841521.72148
  22746937.780   119536031.33008  22746939.260    93144983.07246
  21212767.060   111473868.96308  21212767.320    86862763.64348
  24778646.580   130212665.92104  24778648.420   101464413.80845
  20688873.580   108720843.31909  20688873.260    84717572.14849
  20326940.940   106818829.21309  20326944.920    83235480.77349
  23525728.320   123628549.13406  23525732.260    96333958.00345
 15 02 16 03 24  0.0000000  0 10G04G11G14G16G18G19G21G22G27G32
  22326609.880   117327145.88508  22326613.360    91423767.92747
  23871327.320   125444680.57205  23871330.040    97749112.99744
  24554840.640   129036550.63704  24554842.780   100547976.35142
  21710843.680   114091261.72308  21710845.700    88902299.41348
  22760466.840   119607127.52208  22760468.400    93200382.68646
  21202863.580   111421825.81608  21202863.860    86822210.55048
  24791880.920   130282213.37505  24791882.880   101518606.58043
  20691658.740   108735479.62909  20691658.480    84728977.07249
  20325038.680   106808832.61409  20325042.660    83227691.21349
  23503861.360   123513636.96906  23503865.100    96244416.11645
 15 02 16 03 24 30.0000000  0 10G04G11G14G16G18G19G21G22G27G32
  22313284.160   117257119.05108  22313287.680    91369201.57546
  23854707.840   125357345.19305  23854710.620    97681059.45545
  24540255.700   128959903.67205  24540257.220   100488251.50044
  21725761.380   114169654.96808  21725763.460    88963385.04848
  22774051.620   119678516.06208  22774053.240    93256010.09746
  21193006.120   111370024.42008  21193006.400    86781845.83648
  24805113.380   130351750.00404  24805115.240   101572790.97044
  20694540.960   108750626.06709  20694540.780    84740779.49649
  20323205.760   106799200.36309  20323209.720    83220185.55949
  23482024.540   123398883.20306  23482028.040    96154997.64645
 15 02 16 03 25  0.0000000  0 10G04G11G14G16G18G19G21G22G27G32
  22299999.540   117187308.20908  22300003.040    91314803.52646
  23838103.560   125270089.72205  23838106.260    97613068.21645
  24525678.820   128883299.57004  24525680.080   100428559.95944
  21740754.140   114248442.51108  21740756.260    89024777.92948
  22787692.060   119750196.76408  22787693.680    93311865.18646
  21183195.260   111318468.08908  21183195.540    86741672.07649
  24818343.940   130421277.14805  24818346.260   101626967.88144
  20697520.440   108766283.80809  20697520.340    84752980.33749
  20321442.700   106789935.49609  20321446.680    83212966.17649
  23460218.680   123284292.18906  23460221.980    96065706.00045
 15 02 16 03 25 30.0000000  0 10G04G11G14G16G18G19G21G22G27G32
  22286756.280   117117714.46108  22286759.700    91260574.64246
  23821514.640   125182914.85605  23821517.220    97545139.77545
  24511110.500   128806741.99505  24511111.580   100368904.72544
  21755821.700   114327622.94008  21755823.780    89086476.95548
  22801387.900   119822168.22708  22801389.420    93367946.82846
  21173431.500   111267159.07408  21173431.760    86701691.02748
  24831572.900   130490795.54205  24831575.600   101681138.02444
  20700597.200   108782452.62509  20700597.160    84765579.42549
  20319749.940   106781040.05909  20319753.920    83206034.66649
  23438444.440   123169867.44706  23438447.640    95976543.91645
 15 02 16 03 26  0.0000000  0 10G04G11G14G16G18G19G21G22G27G32
  22273553.820   117048334.93108  22273557.080    91206512.69346
  23804940.760   125095818.83105  23804943.320    97477272.77943
  24496550.960   128730231.26705  24496552.060   100309285.96743
  21770962.880   114407190.33008  21770964.960    89148477.51948
  22815138.080   119894425.57108  22815139.580    93424251.23946
  21163714.500   111216096.05408  21163714.780    86661901.67448
  24844799.720   130560302.30105  24844802.540   101735299.11244
  20703770.480   108799128.50509  20703770.460    84778573.62649
  20318127.140   106772512.27609  20318131.140    83199389.63549
  23416701.720   123055608.73707  23416704.920    95887511.20245
 15 02 16 03 26 30.0000000  0 10G04G11G14G16G18G19G21G22G27G32
  22260392.660   116979172.30308  22260395.740    91152619.75946
  23788382.360   125008804.20105  23788385.080    97409469.20944
  24482001.220   128653772.71605  24482002.560   100249707.86545
  21786177.840   114487145.20908  21786179.880    89210780.01448
  22828942.680   119966969.15008  22828944.200    93480778.68846
  21154045.060   111165283.00408  21154045.360    86622307.09748
  24858024.780   130629799.59605  24858027.380   101789452.78344
  20707040.560   108816313.00409  20707040.540    84791964.14549
  20316575.020   106764355.87309  20316579.000    83193033.99449
  23394991.520   122941521.03906  23394994.720    95798611.74745
 15 02 16 03 27  0.0000000  0 10G04G11G14G16G18G19G21G22G27G32
  22247272.680   116910226.06708  22247275.560    91098895.44646
  23771839.440   124921870.75606  23771842.140    97341728.88244
  24467461.520   128577368.49205  24467463.380   100190172.08343
  21801465.820   114567483.92308  21801467.820    89273381.60148
  22842801.280   120039796.35608  22842802.780    93537527.15246
  21144423.300   111114720.68708  21144423.640    86582907.89548
  24871248.000   130699286.72205  24871250.260   101843598.60644
  20710407.160   108834004.48109  20710407.060    84805749.71549
  20315093.640   106756571.35809  20315097.640    83186968.13349
  23373314.300   122827606.46907  23373317.460    95709847.19645
 15 02 16 03 27 30.0000000  0 10G04G11G14G16G18G19G21G22G27G32
  22234193.620   116841494.92708  22234196.360    91045338.73846
  23755311.860   124835017.58706  23755314.600    97274051.13245
  24452932.440   128501020.07805  24452935.000   100130679.81545
  21816826.100   114648202.54808  21816828.080    89336279.22348
  22856713.040   120112903.27408  22856714.480    93594493.56646
  21134849.340   111064409.21108  21134849.680    86543704.15248
  24884468.980   130768761.83805  24884471.080   101897735.02944
  20713869.720   108852200.20109  20713869.560    84819928.20049
  20313682.980   106749158.41509  20313686.980    83181191.80549
  23351670.260   122713866.05807  23351673.360    95621218.35545
 15 02 16 03 28  0.0000000  0 10G04G11G14G16G18G19G21G22G27G32
  22221155.960   116772981.51408  22221158.640    90991951.68746
  23738800.140   124748247.39006  23738802.860    97206438.01844
  24438414.940   128424732.48905  24438418.180   100071234.90443
  21832258.580   114729300.69108  21832260.520    89399472.56948
  22870678.120   120186290.19408  22870679.540    93651678.17046
  21125323.840   111014352.32108  21125324.160    86504698.78548
  24897688.080   130838227.47205  24897689.840   101951864.05341
  20717428.580   108870901.72709  20717428.320    84834500.82449
  20312343.740   106742120.63809  20312347.740    83175707.81849
  23330060.280   122600304.87807  23330063.340    95532729.15545
 15 02 16 03 28 30.0000000  0 10G04G11G14G16G18G19G21G22G27G32
  22208159.280   116704683.73708  22208162.020    90938732.66646
  23722303.920   124661558.36706  23722306.520    97138888.16944
  24423909.440   128348506.36305  24423913.000   100011837.95145
  21847762.440   114810773.88308  21847764.340    89462958.16747
  22884695.660   120259952.73808  22884697.040    93709077.54146
  21115846.600   110964549.09708  21115846.900    86465891.08249
  24910904.780   130907680.99505  24910906.180   102005983.62244
  20721083.020   108890105.73909  20721082.720    84849464.99849
  20311075.680   106735456.80609  20311079.660    83170515.21449
  23308484.420   122486923.18206  23308487.540    95444379.81245
 15 02 16 03 29  0.0000000  0 10G04G11G14G16G18G19G21G22G27G32
  22195203.840   116636603.01008  22195206.720    90885682.78047
  23705823.480   124574952.50006  23705825.940    97071403.11944
  24409416.600   128272345.94605  24409420.280    99952492.15744
  21863337.340   114892620.57908  21863339.260    89526734.80148
  22898765.460   120333890.08007  22898766.860    93766691.03846
  21106418.260   110915002.66708  21106418.560    86427283.48148
  24924119.460   130977123.91105  24924120.420   102060095.02244
  20724833.100   108909812.54309  20724832.780    84864820.95449
  20309879.280   106729169.56609  20309883.260    83165616.05849
  23286943.440   122373725.16906  23286946.740    95356173.60345
 15 02 16 03 29 30.0000000  0 10G04G11G14G16G18G19G21G22G27G32
  22182289.600   116568738.74608  22182292.620    90832801.55646
  23689358.700   124488429.09606  23689361.060    97003982.30445
  24394936.980   128196253.56605  24394940.320    99893199.40643
  21878982.600   114974837.28308  21878984.600    89590799.76148
  22912886.960   120408099.28207  22912888.400    93824516.38446
  21097038.920   110865713.51908  21097039.160    86388876.35849
  24937331.800   131046554.99705  24937332.760   102114197.11742
  20728678.400   108930019.83009  20728678.080    84880566.89749
  20308754.560   106723259.01009  20308758.540    83161010.42349
  23265437.600   122260712.33906  23265441.100    95268111.68046
 15 02 16 03 30  0.0000000  0 10G04G11G14G16G18G19G21G22G27G32
  22169417.060   116501093.42308  22169420.200    90780090.92747
  23672910.180   124401991.27206  23672912.500    96936628.16645
  24380471.320   128120234.16505  24380474.360    99833963.52144
  21894698.340   115057424.11708  21894700.380    89655153.13047
  22927060.200   120482580.62008  22927061.740    93882553.77446
  21087709.240   110816685.42308  21087709.400    86350672.64749
  24950542.200   131115976.53305  24950543.700   102168291.81441
  20732619.200   108950729.30008  20732618.960    84896704.15249
  20307702.260   106717728.79409  20307706.200    83156701.16449
  23243967.980   122147889.79906  23243971.720    95180198.04446
 15 02 16 03 30 30.0000000  0 10G04G11G14G16G18G19G21G22G27G32
  22156585.900   116433665.27708  22156589.100    90727549.53947
  23656477.540   124315637.46006  23656479.860    96869339.51045
  24366019.760   128044288.80205  24366022.540    99774785.34144
  21910483.620   115140376.18708  21910485.740    89719791.10248
  22941284.500   120557330.06107  22941286.120    93940800.08146
  21078429.140   110767918.10808  21078429.280    86312672.14649
  24963750.300   131185386.73604  24963752.280   102222377.66244
  20736654.900   108971937.63508  20736654.780    84913230.13449
  20306722.160   106712578.14209  20306726.080    83152687.66549
  23222534.720   122035258.24607  23222538.640    95092433.22346
 15 02 16 03 31  0.0000000  0 10G04G11G14G16G18G19G21G22G27G32
  22143796.020   116366453.95408  22143799.240    90675177.09247
  23640060.880   124229367.81306  23640063.140    96802116.42044
  24351582.720   127968420.23105  24351585.160    99715666.94544
  21926337.940   115223690.85408  21926340.040    89784711.61848
  22955559.380   120632345.24307  22955561.040    93999253.44946
  21069198.820   110719412.64308  21069199.000    86274875.68849
  24976956.240   131254784.81105  24976958.380   102276454.05343
  20740785.240   108993643.08908  20740785.240    84930143.47249
  20305814.380   106707807.79509  20305818.340    83148970.51349
  23201138.340   121922819.88107  23201142.360    95004818.96245
 15 02 16 03 31 30.0000000  0 10G04G11G14G16G18G19G21G22G27G32
  22131047.880   116299461.58808  22131051.040    90622975.26247
  23623660.680   124143184.38806  23623662.880    96734960.54445
  24337160.880   127892632.55105  24337163.080    99656611.63144
  21942261.020   115307366.81508  21942263.080    89849913.65847
  22969884.820   120707625.64907  22969886.480    94057913.49846
  21060018.940   110671172.16908  21060019.160    86237285.71749
  24990160.140   131324172.23304  24990162.120   102330522.15244
  20745010.340   109015846.42008  20745010.440    84947444.77649
  20304979.500   106703420.45709  20304983.480    83145551.80349
  23179779.660   121810579.02607  23179783.560    94917358.57445
 15 02 16 03 32  0.0000000  0  9G04G11G14G16G18G19G22G27G32
  22118339.580   116232678.52708  22118342.660    90570936.53847
  23607275.140   124057078.11706  23607277.300    96667864.77944
  24322753.120   127816919.34305  24322755.300    99597614.33845
  21958250.520   115391391.86908  21958252.500    89915387.72347
  22984258.440   120783159.34507  22984260.100    94116770.90546
  21050887.980   110623188.72208  21050888.200    86199896.02349
  20749328.180   109038536.76209  20749328.300    84965125.56149
  20304215.860   106699407.67009  20304219.880    83142424.95349
  23158457.320   121698528.62907  23158460.960    94830046.60745
 15 02 16 03 32 30.0000000  0  9G04G11G14G16G18G19G22G27G32
  22105676.120   116166131.08008  22105679.100    90519081.39946
  23590909.320   123971075.43605  23590911.360    96600849.71345
  24308364.920   127741309.57405  24308367.020    99538697.62544
  21974310.780   115475789.13608  21974312.680    89981151.81747
  22998684.760   120858970.15507  22998686.460    94175844.25546
  21041811.100   110575489.54508  21041811.340    86162727.84049
  20753743.480   109061739.07609  20753743.560    84983205.28849
  20303528.640   106695796.48409  20303532.680    83139611.04049
  23137176.620   121586697.31807  23137180.080    94742905.36045
 15 02 16 03 33  0.0000000  0  9G04G11G14G16G18G19G22G27G32
  22093052.860   116099795.19608  22093055.780    90467391.11247
  23574558.700   123885152.49505  23574560.640    96533896.80144
  24293992.240   127665782.07905  24293994.600    99479845.04844
  21990436.700   115560531.73608  21990438.580    90047185.00247
  23013158.860   120935032.12507  23013160.560    94235113.30446
  21032784.080   110528052.27708  21032784.320    86125763.74149
  20758251.380   109085427.93009  20758251.380    85001664.14049
  20302913.520   106692564.05609  20302917.560    83137092.25549
  23115933.440   121475063.71607  23115936.800    94655918.17545
 15 02 16 03 33 30.0000000  0 10G01G04G11G14G16G18G19G22G27G32
  24584222.520   129190959.14504  24584230.660   100668313.37145
  22080471.320   116033678.93108  22080474.300    90415871.95047
  23558224.960   123799318.48806  23558226.760    96467013.20243
  24279637.280   127590347.74505  24279639.700    99421065.02644
  22006629.540   115645625.87308  22006631.380    90113492.11447
  23027681.800   121011351.01007  23027683.560    94294582.55346
  21023808.680   110480886.37908  21023808.960    86089011.10349
  20762853.120   109109610.11009  20762853.080    85020507.40049
  20302372.160   106689719.39009  20302376.260    83134875.61949
  23094729.840   121363638.41407  23094733.140    94569093.28545
 15 02 16 03 34  0.0000000  0 10G01G04G11G14G16G18G19G22G27G32
  24568927.640   129110582.84904  24568934.960   100605682.54545
  22067931.960   115967784.66908  22067935.080    90364525.78147
  23541908.580   123713575.78206  23541910.340    96400200.75144
  24265300.920   127515011.47005  24265303.660    99362361.46844
  22022889.000   115731070.14108  22022890.880    90180072.05647
  23042253.640   121087926.62007  23042255.400    94354251.84145
  21014885.600   110433995.51308  21014885.900    86052472.77749
  20767548.900   109134286.40609  20767548.760    85039735.69049
  20301905.240   106687265.64609  20301909.320    83132963.60349
  23073566.760   121252425.93307  23073570.040    94482434.24645
 15 02 16 03 34 30.0000000  0 10G01G04G11G14G16G18G19G22G27G32
  24553652.680   129030310.76604  24553659.540   100543132.90944
  22055433.280   115902104.25108  22055436.540    90313346.23447
  23525608.060   123627916.26306  23525609.840    96333453.09844
  24250982.220   127439767.68105  24250985.100    99303729.91544
  22039213.080   115816853.80508  22039215.040    90246916.46647
  23056872.300   121164748.65607  23056874.100    94414113.14946
  21006013.580   110387372.77508  21006013.880    86016143.38149
  20772336.820   109159447.10909  20772336.620    85059341.44149
  20301511.340   106685195.60809  20301515.380    83131350.57849
  23052443.120   121141420.71807  23052446.360    94395936.70645
 15 02 16 03 35  0.0000000  0 10G01G04G11G14G16G18G19G22G27G32
  24538398.360   128950147.25004  24538405.280   100480667.86444
  22042976.200   115836642.18008  22042979.560    90262336.83647
  23509324.340   123542345.07306  23509326.120    96266774.28645
  24236682.760   127364623.98705  24236685.640    99245176.36144
  22055602.080   115902978.32608  22055604.080    90314026.47647
  23071538.360   121241819.29807  23071540.160    94474168.18346
  20997193.700   110341024.07508  20997194.020    85980027.51849
  20777217.520   109185095.41609  20777217.300    85079327.14049
  20301191.460   106683514.68809  20301195.520    83130040.76049
  23031360.200   121030629.62507  23031363.440    94309606.01345
 15 02 16 03 35 30.0000000  0 10G01G04G11G14G16G18G19G22G27G32
  24523164.680   128870092.86704  24523171.680   100418287.89145
  22030560.760   115771398.55508  22030564.120    90211497.66747
  23493057.640   123456862.82706  23493059.520    96200164.76644
  24222403.180   127289583.73505  24222406.220    99186703.45945
  22072055.480   115989441.26208  22072057.500    90381400.18847
  23086251.460   121319136.83207  23086253.260    94534415.59146
  20988426.360   110294951.32608  20988426.660    85944126.68049
  20782190.840   109211230.34909  20782190.620    85099692.03049
  20300945.900   106682224.26909  20300950.000    83129035.23749
  23010318.540   120920055.64907  23010321.840    94223444.50645
 15 02 16 03 36  0.0000000  0 10G01G04G11G14G16G18G19G22G27G32
  24507951.800   128790148.48804  24507958.920   100355993.61645
  22018187.160   115706374.83708  22018190.480    90160829.84747
  23476808.180   123371470.98906  23476810.180    96133625.68445
  24208144.020   127214650.28006  24208147.080    99128313.78244
  22088572.960   116076241.10508  22088575.040    90449036.43047
  23101011.320   121396699.91807  23101013.120    94594854.35546
  20979712.000   110249156.95008  20979712.260    85908442.75049
  20787256.640   109237851.34009  20787256.440    85120435.66549
  20300775.020   106681326.26009  20300779.100    83128335.48749
  22989318.900   120809702.23507  22989322.320    94137454.87046
 15 02 16 03 36 30.0000000  0 10G01G04G11G14G16G18G19G22G27G32
  24492759.800   128710313.87304  24492766.900   100293784.87143
  22005855.360   115641570.63608  22005858.620    90110333.08747
  23460575.940   123286169.54806  23460577.960    96067157.06945
  24193905.820   127139826.36806  24193908.760    99070009.44344
  22105153.840   116163374.24108  22105155.940    90516932.37647
  23115817.380   121474506.03107  23115819.180    94655482.47546
  20971050.800   110203642.03408  20971051.040    85872976.59049
  20792414.640   109264956.78609  20792414.480    85141556.80049
  20300678.880   106680821.30109  20300683.040    83127942.00949
  22968361.700   120699571.48507  22968365.220    94051638.73745
 15 02 16 03 37  0.0000000  0 10G01G04G11G14G16G18G19G22G27G32
  24477588.720   128630589.44404  24477595.660   100231662.00643
  21993565.360   115576986.11608  21993568.540    90060007.49647
  23444361.040   123200959.28406  23444363.080    96000759.48045
  24179689.100   127065115.24006  24179691.920    99011792.98145
  22121797.760   116250838.77808  22121799.860    90585086.55447
  23130669.340   121552553.60807  23130671.160    94716298.74446
  20962443.040   110158408.09008  20962443.300    85837729.36949
  20797664.640   109292545.66509  20797664.460    85163054.63449
  20300657.860   106680710.80909  20300662.020    83127855.90949
  22947447.520   120589666.48307  22947451.080    93965998.49745
 15 02 16 03 37 30.0000000  0 10G01G04G11G14G16G18G19G22G27G32
  24462438.680   128550975.75404  24462445.300   100169625.37544
  21981317.320   115512622.39708  21981320.460    90009853.96347
  23428163.660   123115841.57806  23428165.800    95934434.02744
  24165494.460   126990520.52106  24165497.060    98953667.23044
  22138504.320   116338632.49108  22138506.380    90653497.22747
  23145566.880   121630840.65607  23145568.700    94777301.62445
  20953889.240   110113457.70908  20953889.540    85802703.10249
  20803006.460   109320617.13709  20803006.260    85184928.51849
  20300712.200   106680996.32309  20300716.340    83128078.37949
  22926576.940   120479990.18207  22926580.460    93880536.47145
 15 02 16 03 38  0.0000000  0 10G01G04G11G14G16G18G19G22G27G32
  24447309.860   128471473.58104  24447316.480   100107675.69144
  21969111.340   115448480.01508  21969114.520    89959872.88547
  23411984.060   123030817.61106  23411986.320    95868181.61245
  24151322.500   126916045.76706  24151325.000    98895634.95745
  22155273.140   116426753.14808  22155275.120    90722162.67047
  23160509.760   121709365.76307  23160511.500    94838490.01745
  20945389.820   110068792.92408  20945390.100    85767899.38049
  20808439.960   109349170.60609  20808439.800    85207177.98349
  20300842.200   106681679.50109  20300846.320    83128610.72249
  22905750.560   120370545.92307  22905753.960    93795255.26946
 15 02 16 03 38 30.0000000  0 10G01G04G11G14G16G18G19G22G27G32
  24432201.980   128392081.42705  24432208.240   100045811.69444
  21956947.240   115384557.73208  21956950.480    89910063.32247
  23395822.000   122945886.09806  23395824.400    95802001.22445
  24137173.500   126841692.11005  24137175.800    98837697.05444
  22172103.360   116515196.38008  22172105.260    90791079.46447
  23175497.300   121788125.15007  23175498.940    94899860.95846
  20936944.680   110024413.44508  20936944.940    85733317.97249
  20813964.540   109378202.65308  20813964.420    85229800.36049
  20301047.780   106682759.78109  20301051.860    83129452.48849
  22884968.460   120261334.67807  22884971.740    93710155.62646
 15 02 16 03 39  0.0000000  0 10G01G04G11G14G16G18G19G22G27G32
  24417115.100   128312799.57105  24417121.020    99984033.68844
  21944825.040   115320855.81108  21944828.420    89860425.46847
  23379677.680   122861047.85906  23379680.240    95735893.53344
  24123048.040   126767462.69505  24123050.300    98779855.96645
  22188994.440   116603959.54908  22188996.320    90860245.55647
  23190529.060   121867117.15407  23190530.600    94961413.14645
  20928554.200   109980321.26708  20928554.480    85698960.44149
  20819580.020   109407712.32609  20819579.900    85252794.91449
  20301329.160   106684238.36709  20301333.220    83130604.62749
  22864231.200   120152359.16607  22864234.320    93625239.66745
 15 02 16 03 39 30.0000000  0 10G01G04G11G14G16G18G19G22G27G32
  24402049.500   128233630.05504  24402055.380    99922343.17641
  21932745.140   115257376.13608  21932748.640    89810960.79247
  23363551.600   122776305.47806  23363554.300    95669860.51645
  24108947.140   126693362.62206  24108949.420    98722115.67444
  22205946.240   116693041.85208  22205948.100    90929660.32747
  23205605.000   121946341.59307  23205606.540    95023146.47145
  20920219.040   109936519.79308  20920219.360    85664829.42849
  20825286.560   109437700.51409  20825286.460    85276162.33849
  20301686.900   106686118.22709  20301690.940    83132069.44549
  22843539.620   120043624.06307  22843542.600    93540511.03845
 15 02 16 03 40  0.0000000  0 10G01G04G11G14G16G18G19G22G27G32
  24387005.020   128154571.65404  24387010.920    99860739.26044
  21920707.340   115194117.43308  21920710.940    89761668.31347
  23347443.620   122691657.90006  23347446.240    95603901.38345
  24094871.100   126619393.44205  24094873.560    98664477.35244
  22222957.940   116782439.15708  22222959.880    90999320.56647
  23220724.460   122025794.84407  23220725.980    95085058.07545
  20911939.240   109893009.13908  20911939.540    85630925.02549
  20831083.640   109468164.14909  20831083.500    85299900.24149
  20302120.940   106688399.01509  20302124.960    83133846.67649
  22822893.900   119935130.49507  22822896.860    93455970.62746
 15 02 16 03 40 30.0000000  0 10G01G04G11G14G16G18G19G22G27G32
  24371981.680   128075624.05004  24371987.920    99799221.71944
  21908711.720   115131079.85608  21908715.320    89712548.12747
  23331353.760   122607105.47806  23331356.380    95538016.40745
  24080820.380   126545557.78606  24080823.060    98606943.08945
  22240029.000   116872148.58508  22240031.060    91069224.01247
  23235886.900   122105474.25407  23235888.480    95147145.90645
  20903715.060   109849790.70608  20903715.340    85597248.33349
  20836970.820   109499101.37609  20836970.660    85324007.17149
  20302631.420   106691081.41909  20302635.440    83135936.85549
  22802294.520   119826880.82407  22802297.500    93371620.26046
 15 02 16 03 41  0.0000000  0 10G01G04G11G14G16G18G19G22G27G32
  24356979.500   127996787.63005  24356985.900    99737790.77044
  21896758.240   115068263.48508  21896761.740    89663600.31847
  23315282.160   122522649.18806  23315284.800    95472206.31444
  24066795.680   126471858.67006  24066798.600    98549515.24644
  22257158.980   116962167.51608  22257161.160    91139368.64447
  23251092.080   122185378.20807  23251093.660    95209408.71845
  20895546.820   109806866.26208  20895547.100    85563800.71949
  20842947.960   109530511.22009  20842947.780    85348482.38249
  20303218.520   106694166.63209  20303222.580    83138340.91049
  22781742.060   119718877.75307  22781745.080    93287462.05046
 15 02 16 03 41 30.0000000  0 10G01G04G11G14G16G18G19G22G27G32
  24341998.460   127918061.69905  24342005.140    99676445.92044
  21884846.900   115005668.11908  21884850.200    89614824.71647
  23299228.840   122438288.86606  23299231.400    95406471.02344
  24052797.500   126398298.49706  24052800.520    98492195.62644
  22274347.180   117052492.02208  22274349.380    91209751.37047
  23266339.420   122265504.02007  23266341.080    95271844.38945
  20887434.700   109764236.58408  20887434.940    85530582.79649
  20849014.540   109562391.23409  20849014.340    85373323.96049
  20303882.320   106697654.89509  20303886.400    83141059.03849
  22761236.880   119611123.15107  22761239.980    93203497.45146
 15 02 16 03 42  0.0000000  0 10G01G04G11G14G16G18G19G22G27G32
  24327038.420   127839445.68505  24327045.240    99615186.70344
  21872977.420   114943292.80608  21872980.520    89566220.60147
  23283193.860   122354024.25406  23283196.300    95340810.32744
  24038826.260   126324879.42206  24038829.400    98434985.98044
  22291593.040   117143119.27008  22291595.160    91280369.99947
  23281628.480   122345848.82007  23281630.200    95334450.70346
  20879378.840   109721902.61708  20879379.040    85497595.29449
  20855170.200   109594739.36909  20855169.980    85398530.30349
  20304622.840   106701546.53309  20304626.960    83144091.48549
  22740779.380   119503618.87007  22740782.540    93119727.91046
 15 02 16 03 42 30.0000000  0 10G01G04G11G14G16G18G19G22G27G32
  24312099.520   127760940.71605  24312106.460    99554014.06944
  21861150.020   114881138.83108  21861152.940    89517788.95747
  23267177.480   122269856.99406  23267179.620    95275225.48444
  24024882.700   126251605.50606  24024885.820    98377889.41245
  22308896.160   117234047.24908  22308898.200    91351222.96147
  23296959.060   122426411.42507  23296960.740    95397226.74546
  20871379.680   109679866.78708  20871379.860    85464840.10249
  20861414.800   109627555.02208  20861414.580    85424100.94149
  20305440.480   106705843.44909  20305444.640    83147439.72549
  22720370.280   119396368.54107  22720373.500    93036156.25045
 15 02 16 03 43  0.0000000  0 10G01G04G11G14G16G18G19G22G27G32
  24297181.760   127682547.48404  24297188.640    99492928.41345
  21849364.820   114819207.14508  21849367.680    89469530.51547
  23251179.880   122185788.34506  23251181.800    95209717.47844
  24010967.560   126178480.39006  24010970.520    98320908.77945
  22326256.080   117325273.88708  22326258.060    91422308.64347
  23312330.920   122507190.58707  23312332.480    95460171.53345
  20863437.620   109638131.30408  20863437.840    85432318.95649
  20867748.260   109660837.71308  20867748.080    85450035.51049
  20306335.580   106710547.31609  20306339.760    83151105.07249
  22700010.180   119289375.47007  22700013.460    92952785.04046
 15 02 16 03 43 30.0000000  0 10G01G04G11G14G16G18G19G22G27G32
  24282285.100   127604265.53605  24282291.880    99431929.54343
  21837621.720   114757497.18508  21837624.640    89421444.86247
  23235200.960   122101818.01007  23235202.660    95144286.07544
  23997081.260   126105506.44806  23997084.160    98264045.98944
  22343672.040   117416795.73408  22343674.120    91493624.36647
  23327743.400   122588183.44307  23327744.940    95523282.83246
  20855553.000   109596697.49308  20855553.240    85400032.87349
  20874170.140   109694585.13509  20874170.000    85476332.20149
  20307308.180   106715658.51809  20307312.380    83155087.82549
  22679699.400   119182641.50307  22679702.760    92869615.73446
 15 02 16 03 44  0.0000000  0 10G01G04G11G14G16G18G19G22G27G32
  24267409.820   127526095.95004  24267416.540    99371018.18844
  21825921.020   114696010.00908  21825923.960    89373532.78947
  23219241.100   122017948.06207  23219242.740    95078932.90944
  23983224.540   126032687.88306  23983227.320    98207304.24745
  22361143.760   117508610.82108  22361145.980    91565168.59647
  23343196.320   122669388.93807  23343197.840    95586559.81345
  20847726.260   109555567.74408  20847726.480    85367983.72549
  20880680.340   109728796.72208  20880680.240    85502990.58249
  20308358.680   106721178.99909  20308362.880    83159389.49449
  22659438.640   119076170.35207  22659442.080    92786651.23146
 15 02 16 03 44 30.0000000  0 10G01G04G11G14G16G18G19G22G27G32
  24252555.640   127448036.89904  24252562.440    99310192.97844
  21814262.420   114634744.05008  21814265.440    89325793.10347
  23203300.040   121934177.14507  23203301.740    95013656.91345
  23969397.560   125960025.31506  23969400.120    98150684.06444
  22378670.500   117600714.81008  22378672.840    91636937.94247
  23358688.900   122750802.99807  23358690.420    95649999.32246
  20839957.300   109514741.59708  20839957.500    85336171.14249
  20887278.240   109763469.09708  20887278.180    85530008.01949
  20309486.880   106727107.69009  20309491.060    83164009.24549
  22639228.000   118969962.47507  22639231.460    92703891.86646
 15 02 16 03 45  0.0000000  0 10G01G04G11G14G16G18G19G22G27G32
  24237723.180   127370091.56705  24237729.920    99249456.33645
  21802646.520   114573702.40908  21802649.620    89278228.21347
  23187378.420   121850508.86107  23187380.300    94948460.88145
  23955601.260   125887524.92006  23955603.820    98094190.24344
  22396252.320   117693107.91908  22396254.680    91708932.57347
  23374221.380   122832426.97907  23374222.960    95713602.39946
  20832247.080   109474223.90408  20832247.220    85304598.92349
  20893964.160   109798604.06708  20893964.140    85557385.92649
  20310693.600   106733448.77909  20310697.740    83168950.34349
  22619068.600   118864023.77407  22619072.040    92621342.26246
 15 02 16 03 45 30.0000000  0 10G01G04G11G14G16G18G19G22G27G32
  24222912.060   127292258.21005  24222918.620    99188807.00744
  21791073.000   114512883.39308  21791076.200    89230836.79447
  23171476.080   121766941.97806  23171478.140    94883343.86045
  23941835.860   125815188.00306  23941838.600    98037823.78844
  22413888.260   117785785.03908  22413890.560    91781148.50447
  23389793.100   122914256.67007  23389794.660    95777365.77045
  20824595.420   109434014.28608  20824595.600    85273266.76349
  20900737.400   109834197.98308  20900737.420    85585121.44749
  20311978.560   106740201.19409  20311982.680    83174211.95949
  22598960.420   118758354.80307  22598963.820    92539002.82346
 15 02 16 03 46  0.0000000  0 10G01G04G11G14G16G18G19G22G27G32
  24208122.320   127214537.62004  24208128.840    99128245.56044
  21779542.080   114452287.92308  21779545.300    89183619.56547
  23155593.340   121683478.12106  23155595.560    94818307.11045
  23928102.100   125743018.20506  23928105.140    97981587.58844
  22431577.960   117878744.50908  22431580.100    91853584.44747
  23405403.680   122996290.62707  23405405.260    95841288.32246
  20817002.780   109394114.88208  20817003.000    85242176.33149
  20907597.840   109870250.04308  20907597.860    85613213.97048
  20313342.140   106747366.62709  20313346.220    83179795.40549
  22578904.140   118652958.89807  22578907.540    92456876.16246
 15 02 16 03 46 30.0000000  0 10G01G04G11G14G16G18G19G22G27G32
  24193353.700   127136928.79704  24193360.300    99067771.16444
  21768053.560   114391915.13008  21768056.740    89136575.85347
  23139730.100   121600116.64206  23139732.460    94753350.16145
  23914400.460   125671017.37405  23914403.820    97925483.02645
  22449320.600   117971982.17808  22449322.560    91926237.17047
  23421052.560   123078526.11207  23421054.260    95905367.88845
  20809469.300   109354526.27808  20809469.500    85211328.07549
  20914545.000   109906757.63408  20914545.020    85641661.44349
  20314784.240   106754944.93709  20314788.380    83185700.58049
  22558900.100   118547837.46807  22558903.500    92374963.38446
 15 02 16 03 47  0.0000000  0 10G01G04G11G14G16G18G19G22G27G32
  24178606.320   127059431.85004  24178612.860    99007383.95243
  21756607.420   114331765.01408  21756610.520    89089705.65147
  23123886.400   121516857.83306  23123888.780    94688473.17945
  23900731.560   125599188.46206  23900735.060    97869512.46044
  22467115.640   118065495.59208  22467117.500    91999104.76347
  23436739.300   123160960.71307  23436741.160    95969602.61845
  20801995.400   109315250.57908  20801995.620    85180723.64549
  20921578.540   109943718.91008  20921578.500    85670462.43749
  20316305.060   106762937.00309  20316309.260    83191928.16149
  22538948.820   118442993.15107  22538952.200    92293266.54746
 15 02 16 03 47 30.0000000  0 10G01G04G11G14G16G18G19G22G27G32
  24163880.260   126982046.06204  24163886.840    98947083.40344
  21745203.560   114271837.06008  21745206.580    89043008.57747
  23108062.240   121433701.77106  23108064.680    94623676.28345
  23887096.100   125527533.77806  23887099.540    97813677.65345
  22484962.340   118159281.29108  22484964.260    92072184.52047
  23452463.400   123243591.85007  23452465.440    96033990.48645
  20794581.180   109276288.34008  20794581.380    85150363.47149
  20928698.040   109981131.79308  20928697.960    85699615.34049
  20317904.640   106771342.91509  20317908.880    83198478.22349
  22519050.720   118338427.70407  22519054.020    92211787.00446
 15 02 16 03 48  0.0000000  0 10G01G04G11G14G16G18G19G22G27G32
  24149175.280   126904771.08604  24149181.900    98886869.14845
  21733841.820   114212130.79708  21733844.820    88996484.23547
  23092257.720   121350648.85207  23092260.200    94558959.75145
  23873494.480   125456055.73406  23873497.720    97757980.46645
  22502860.120   118253335.53208  22502862.220    92145473.54147
  23468224.360   123326416.61407  23468226.580    96098529.23846
  20787226.720   109237640.36308  20787226.980    85120248.17749
  20935903.080   110018994.31108  20935902.980    85729118.61249
  20319583.080   106780163.04809  20319587.280    83205351.05249
  22499206.180   118234143.09108  22499209.280    92130526.29746
 15 02 16 03 48 30.0000000  0 10G01G04G11G14G16G18G19G22G27G32
  24134491.700   126827608.94304  24134498.580    98826742.81944
  21722522.760   114152648.68508  21722525.720    88950134.57047
  23076473.400   121267701.63007  23076475.820    94494325.57345
  23859927.560   125384759.40206  23859930.460    97702424.89445
  22520808.960   118347657.52508  22520811.160    92218971.20047
  23484022.320   123409435.63507  23484024.600    96163219.35845
  20779932.700   109199310.29508  20779933.020    85090380.59549
  20943193.720   110057306.80108  20943193.640    85758972.50749
  20321340.880   106789400.30009  20321345.060    83212548.90649
  22479416.040   118130143.92108  22479418.840    92049488.01446
 15 02 16 03 49  0.0000000  0 10G01G04G11G14G16G18G19G22G27G32
  24119829.600   126750559.33405  24119836.500    98766704.17444
  21711246.200   114093390.16508  21711249.160    88903959.13247
  23060709.280   121184860.34707  23060711.580    94429773.96045
  23846395.660   125313647.48106  23846398.380    97647013.02545
  22538808.320   118442244.36708  22538810.500    92292675.23047
  23499856.600   123492645.71707  23499858.980    96228058.36045
  20772699.400   109161299.54008  20772699.760    85060761.83649
  20950569.520   110096067.12808  20950569.520    85789175.35949
  20323178.160   106799055.11909  20323182.300    83220072.13649
  22459680.520   118026432.36008  22459683.200    91968673.83546
 15 02 16 03 49 30.0000000  0 10G01G04G11G14G16G18G19G22G27G32
  24105188.860   126673621.44504  24105195.680    98706752.58045
  21700012.060   114034354.64208  21700015.060    88857957.45347
  23044965.240   121102124.76407  23044967.400    94365304.70545
  23832899.080   125242721.71306  23832901.720    97591746.22345
  22556857.420   118537092.24708  22556859.560    92366582.66947
  23515726.900   123576044.26507  23515729.200    96293044.21745
  20765527.020   109123608.66008  20765527.400    85031392.32749
  20958030.060   110135272.66508  20958030.140    85819725.13048
  20325094.920   106809127.47409  20325098.980    83227920.71849
  22439999.940   117923010.00607  22440002.580    91888085.01646
 15 02 16 03 50  0.0000000  0 10G01G04G11G14G16G18G19G22G27G32
  24090569.760   126596796.91305  24090576.500    98646889.32644
  21688820.660   113975543.74808  21688823.680    88812130.80547
  23029241.740   121019497.06707  23029243.820    94300919.52245
  23819438.660   125171986.75206  23819441.400    97536628.09245
  22574955.860   118632199.66608  22574957.980    92440692.33647
  23531632.920   123659630.76907  23531635.220    96358176.53245
  20758416.100   109086240.58408  20758416.460    85002274.35049
  20965575.380   110174923.46809  20965575.480    85850621.87249
  20327091.560   106819619.69409  20327095.540    83236096.46849
  22420374.920   117819880.76007  22420377.740    91807724.58546
 15 02 16 03 50 30.0000000  0 10G01G04G11G14G16G18G19G22G27G32
  24075972.200   126520085.36305  24075978.700    98587114.11345
  21677671.920   113916957.07608  21677674.960    88766478.86747
  23013538.820   120936977.68607  23013540.840    94236618.73445
  23806014.860   125101445.27606  23806017.920    97481660.72245
  22593102.960   118727563.11208  22593105.040    92515001.51147
  23547574.240   123743402.89806  23547576.560    96423453.48245
  20751366.960   109049196.88808  20751367.220    84973409.13449
  20973205.040   110215017.34209  20973205.080    85881863.85849
  20329168.160   106830532.23209  20329172.140    83244599.73849
  22400805.980   117717046.80507  22400809.080    91727594.25546
 15 02 16 03 51  0.0000000  0 10G01G04G11G14G16G18G19G22G27G32
  24061396.020   126443486.89905  24061402.480    98527427.01744
  21666565.880   113858594.92008  21666568.960    88721001.87247
  22997856.620   120854567.10607  22997858.620    94172402.73745
  23792628.400   125031100.36206  23792631.820    97426846.50245
  22611298.160   118823180.28208  22611300.320    92589508.40346
  23563550.440   123827358.31707  23563552.700    96488873.27745
  20744379.780   109012478.90108  20744379.980    84944797.71449
  20980918.680   110255552.61809  20980918.620    85913449.79548
  20331324.880   106841865.87209  20331328.900    83253431.14449
  22381293.800   117614510.85207  22381297.100    91647696.13146
 15 02 16 03 51 30.0000000  0 10G01G04G11G14G16G18G19G22G27G32
  24046841.180   126367000.42605  24046847.500    98467827.16944
  21655502.420   113800456.19208  21655505.480    88675698.99447
  22982195.000   120772264.76307  22982196.900    94108271.06645
  23779279.680   124960953.45806  23779283.380    97372186.59145
  22629540.760   118919047.15308  22629543.100    92664209.86346
  23579560.940   123911493.81206  23579563.120    96554433.36845
  20737454.680   108976087.37908  20737454.920    84916440.69549
  20988715.800   110296526.56009  20988715.660    85945377.54748
  20333561.680   106853620.31009  20333565.720    83262590.44649
  22361838.620   117512274.05908  22361842.000    91568031.12546
 15 02 16 03 52  0.0000000  0 10G01G04G11G14G16G18G19G22G27G32
  24032307.620   126290625.80005  24032313.760    98408314.51345
  21644481.500   113742540.80408  21644484.520    88630570.14147
  22966554.100   120690071.35007  22966556.040    94044224.28745
  23765969.360   124891007.54406  23765973.180    97317683.28545
  22647830.320   119015160.42807  22647832.760    92739103.32847
  23595605.340   123995807.25706  23595607.500    96620132.13045
  20730591.840   108940023.13408  20730592.160    84888338.69349
  20996596.040   110337937.33309  20996595.800    85977645.68348
  20335878.640   106865796.00609  20335882.700    83272077.99749
  22342440.920   117410338.63308  22342444.280    91488600.95246
 15 02 16 03 52 30.0000000  0  9G04G11G14G16G18G19G22G27G32
  21633502.940   113684848.04508  21633505.900    88585614.76347
  22950933.840   120607986.34007  22950935.740    93980261.95245
  23752697.740   124821264.27406  23752701.480    97263337.88645
  22666166.220   119111516.33308  22666168.660    92814185.85746
  23611682.960   124080295.60506  23611685.060    96685967.17545
  20723791.440   108904286.96508  20723791.800    84860492.33349
  21004558.800   110379781.96608  21004558.540    86010251.89348
  20338275.680   106878392.71509  20338279.800    83281893.61949
  22323100.940   117308706.05008  22323104.220    91409406.76546
 15 02 16 03 53  0.0000000  0  9G04G11G14G16G18G19G22G27G32
  21622567.140   113627379.72308  21622570.020    88540834.26447
  22935334.720   120526012.32707  22935336.580    93916386.11045
  23739465.720   124751728.64606  23739469.240    97209154.28045
  22684548.200   119208113.58008  22684550.540    92889456.43147
  23627793.840   124164958.61906  23627795.880    96751938.32745
  20717054.180   108868882.37508  20717054.500    84832904.34949
  21012604.160   110422060.88908  21012603.940    86043196.51448
  20340753.380   106891413.15609  20340757.540    83292039.41349
  22303819.480   117207380.78408  22303822.680    91330452.03246
 15 02 16 03 53 30.0000000  0 10G01G04G11G14G16G18G19G22G27G32
  23988835.160   126062179.49505  23988841.320    98230297.25144
  21611675.540   113570143.83408  21611678.380    88496234.90147
  22919758.320   120444157.77207  22919760.100    93852603.36445
  23726275.240   124682411.54906  23726278.420    97155140.97644
  22702977.180   119304957.42808  22702979.360    92964919.16847
  23643939.000   124249802.21006  23643941.080    96818050.19145
  20710381.840   108833818.69408  20710382.100    84805581.99949
  21020733.200   110464779.82108  21020733.100    86076483.99248
  20343313.320   106904865.73909  20343317.520    83302521.94549
  22284598.340   117106372.88308  22284601.560    91251744.59946
 15 02 16 03 54  0.0000000  0 10G01G04G11G14G16G18G19G22G27G32
  23974387.640   125986264.78505  23974394.240    98171148.93544
  21600825.500   113513126.47608  21600828.300    88451805.80947
  22904202.140   120362409.60707  22904203.940    93788903.51445
  23713124.200   124613301.86806  23713127.060    97101289.28545
  22721449.820   119402030.92308  22721451.900    93040560.85547
  23660115.540   124334810.26807  23660117.680    96884290.20945
  20703771.980   108799083.46208  20703772.180    84778515.59049
  21028943.060   110507923.23908  21028943.060    86110102.24848
  20345952.980   106918737.32209  20345957.160    83313330.96949
  22265435.340   117005670.86208  22265438.620    91173275.52146
 15 02 16 03 54 30.0000000  0  9G04G11G14G16G18G19G22G27G32
  21590018.000   113456332.94108  21590020.800    88407551.12347
  22888667.200   120280773.49007  22888669.080    93725290.95145
  23700014.080   124544407.53306  23700016.780    97047605.38744
  22739966.460   119499336.31608  22739968.600    93116383.23447
  23676324.020   124419985.91107  23676326.160    96950660.81845
  20697225.860   108764683.36608  20697226.020    84751710.32749
  21037234.380   110551494.42508  21037234.400    86144053.81748
  20348673.480   106933033.67009  20348677.660    83324470.98049
  22246331.940   116905282.36408  22246335.300    91095050.73546
 15 02 16 03 55  0.0000000  0 10G01G04G11G14G16G18G19G22G27G32
  23945557.320   125834750.76405  23945563.260    98053080.78145
  21579253.800   113399767.13408  21579256.600    88363473.87147
  22873154.460   120199253.95407  22873156.400    93661769.25345
  23686946.120   124475735.21106  23686948.800    96994094.49745
  22758527.320   119596874.84507  22758529.580    93192387.29646
  23692564.760   124505330.95607  23692566.820    97017163.41345
  20690744.540   108730623.87908  20690744.700    84725170.47749
  21045607.500   110595495.37808  21045607.520    86178340.28148
  20351475.680   106947759.38309  20351479.860    83335945.55949
  22227289.440   116805213.62108  22227292.800    91017075.10846
 15 02 16 03 55 30.0000000  0 10G01G04G11G14G16G18G19G22G27G32
  23931173.980   125759166.11505  23931179.760    97994183.70344
  21568532.140   113343425.03008  21568535.000    88319570.95147
  22857663.180   120117847.31707  22857665.220    93598335.51245
  23673920.220   124407283.87506  23673922.920    96940755.80645
  22777131.040   119694638.99207  22777133.440    93268567.15646
  23708836.500   124590839.14506  23708838.540    97083793.14945
  20684327.460   108696901.98008  20684327.640    84698893.68049
  21054061.260   110639920.17608  21054061.280    86212957.00448
  20354358.840   106962910.77709  20354363.040    83347751.83949
  22208307.460   116705462.71908  22208310.740    90939347.15346
 15 02 16 03 56  0.0000000  0 10G01G04G11G14G16G18G19G22G27G32
  23916812.360   125683695.09005  23916817.960    97935375.15544
  21557853.440   113287308.54808  21557856.340    88275843.82647
  22842193.940   120036556.39307  22842196.060    93534991.95545
  23660937.260   124339058.32806  23660940.020    96887593.05845
  22795777.600   119792627.76507  22795779.980    93344922.05846
  23725139.220   124676510.58806  23725141.360    97150550.08145
  20677975.380   108663521.54008  20677975.560    84672882.95649
  21062595.780   110684769.20308  21062595.740    86247904.30448
  20357323.580   106978490.65909  20357327.760    83359892.00549
  22189386.940   116606034.19008  22189390.040    90861870.40246
 15 02 16 03 56 30.0000000  0 10G01G04G11G14G16G18G19G22G27G32
  23902472.320   125608337.75005  23902477.940    97876655.15244
  21547217.780   113231417.99508  21547220.680    88232292.75447
  22826746.940   119955381.93807  22826749.040    93471739.16245
  23647997.860   124271061.62706  23648000.700    96834608.63645
  22814466.580   119890838.74908  22814468.840    93421450.08646
  23741472.520   124762342.85106  23741474.720    97217432.32445
  20671688.600   108630484.12009  20671688.760    84647139.52449
  21071210.640   110730040.55908  21071210.540    86283180.68348
  20360370.040   106994499.72009  20360374.200    83372366.59849
  22170528.180   116506930.45408  22170531.180    90784646.73847
 15 02 16 03 57  0.0000000  0 10G01G04G11G14G16G18G19G22G27G32
  23888153.560   125533092.77305  23888159.380    97818022.77845
  21536624.960   113175752.28508  21536627.820    88188916.89547
  22811322.060   119874323.45507  22811324.140    93408576.73046
  23635102.280   124203295.28806  23635105.200    96781803.72645
  22833197.140   119989267.59508  22833199.220    93498147.88046
  23757835.980   124848333.35006  23757838.240    97284437.88245
  20665467.100   108597789.94009  20665467.280    84621663.55049
  21079905.260   110775730.95308  21079905.080    86318783.59448
  20363498.040   107010937.28209  20363502.180    83385175.08549
  22151731.400   116408152.60008  22151734.360    90707677.00447
 15 02 16 03 57 30.0000000  0 10G01G04G11G14G16G18G19G22G27G32
  23873856.020   125457964.52105  23873862.240    97759476.93745
  21526075.200   113120312.72208  21526078.020    88145717.25447
  22795919.640   119793382.85307  22795921.680    93345506.15246
  23622251.360   124135763.65506  23622254.340    96729181.68445
  22851968.860   120087912.65608  22851970.820    93575014.16346
  23774229.300   124934480.73906  23774231.600    97351565.69144
  20659311.460   108565441.80709  20659311.660    84596457.21949
  21088679.500   110821839.94508  21088679.300    86354712.68548
  20366707.940   107027805.31509  20366712.040    83398319.00749
  22132997.280   116309704.37408  22133000.320    90630964.11747
 15 02 16 03 58  0.0000000  0 10G01G04G11G14G16G18G19G22G27G32
  23859580.220   125382943.99505  23859586.380    97701019.42945
  21515567.900   113065096.25708  21515570.700    88102691.44747
  22780539.240   119712557.85107  22780541.240    93282525.65146
  23609445.040   124068466.42006  23609448.040    96676742.29545
  22870780.480   120186767.97608  22870782.460    93652044.28547
  23790651.600   125020780.10606  23790653.820    97418811.92045
  20653221.340   108533438.02109  20653221.520    84571519.21449
  21097532.480   110868362.78208  21097532.260    86390964.25648
  20369999.280   107045101.36309  20370003.380    83411796.44549
  22114325.700   116211585.04308  22114328.860    90554507.51046
 15 02 16 03 58 30.0000000  0 10G01G04G11G14G16G18G19G22G27G32
  23845326.200   125308038.69305  23845332.480    97642651.69046
  21505103.960   113010107.65008  21505106.760    88059843.19847
  22765181.860   119631853.72807  22765183.760    93219639.34445
  23596684.780   124001411.08506  23596687.760    96624491.38645
  22889632.200   120285834.96207  22889634.360    93729239.34147
  23807103.240   125107233.92106  23807105.460    97486178.48245
  20647197.920   108501784.67809  20647198.060    84546854.28249
  21106464.720   110915302.22808  21106464.540    86427540.45448
  20373373.020   107062830.55009  20373377.120    83425611.39449
  22095717.980   116113801.43208  22095721.260    90478312.49647
 15 02 16 03 59  0.0000000  0 10G01G04G11G14G16G18G19G22G27G32
  23831093.620   125233246.57905  23831100.040    97584372.14746
  21494682.980   112955344.81708  21494685.740    88017170.86948
  22749847.160   119551269.12807  22749849.000    93156846.17145
  23583970.740   123934598.41706  23583973.780    96572429.58845
  22908523.140   120385108.84607  22908525.600    93806595.62846
  23823583.420   125193837.98606  23823585.620    97553662.15445
  20641241.120   108470481.39009  20641241.240    84522462.11849
  21115475.500   110962654.30908  21115475.360    86464438.18648
  20376828.900   107080991.35909  20376833.000    83439762.66949
  22077174.280   116016353.89308  22077177.620    90402379.36447
 15 02 16 03 59 30.0000000  0 10G01G04G11G14G16G18G19G22G27G32
  23816882.560   125158567.42205  23816889.060    97526180.63145
  21484304.960   112900807.82308  21484307.700    87974674.53248
  22734535.300   119470804.39507  22734537.060    93094146.39246
  23571303.480   123868031.17206  23571306.500    96520559.00945
  22927452.840   120484586.73307  22927455.660    93884110.88546
  23840091.860   125280590.28906  23840094.040    97621261.31945
  20635351.200   108439529.57309  20635351.320    84498343.83349
  21124564.320   111010416.68808  21124564.260    86501655.63248
  20380366.980   107099584.21809  20380371.080    83454250.60949
  22058695.000   115919244.50308  22058698.260    90326709.72547
 15 02 16 04 00  0.0000000  0 10G01G04G11G14G16G18G19G22G27G32
  23802693.120   125084001.77505  23802699.680    97468077.55245
  21473970.020   112846497.15508  21473972.740    87932354.54147
  22719246.340   119390460.62007  22719248.120    93031540.87645
  23558683.520   123801712.46906  23558686.480    96468882.10645
  22946420.840   120584265.21307  22946423.800    93961782.43246
  23856628.200   125367489.15306  23856630.440    97688974.69745
  20629528.460   108408930.79709  20629528.560    84474500.63949
  21133731.040   111058588.09308  21133731.000    86539191.80248
  20383987.480   107118610.08209  20383991.560    83469075.95849
  22040280.640   115822476.05408  22040283.740    90251305.76446
 15 02 16 04 00 30.0000000  0 10G01G04G11G14G16G18G19G22G27G32
  23788525.460   125009550.62605  23788532.020    97410063.70345
  21463678.280   112792413.80408  21463681.040    87890211.68548
  22703980.740   119310239.76607  22703982.560    92969031.14446
  23546111.660   123735646.43406  23546114.520    96417402.08545
  22965427.160   120684143.68607  22965429.920    94039609.81846
  23873192.220   125454533.70506  23873194.560    97756801.59645
  20623773.400   108378687.99409  20623773.500    84450934.82549
  21142975.500   111107167.75608  21142975.440    86577046.09348
  20387690.740   107138070.60009  20387694.780    83484239.99649
  22021931.800   115726051.98908  22021934.760    90176170.15146
 15 02 16 04 01  0.0000000  0 10G01G04G11G14G16G18G19G22G27G32
  23774378.960   124935210.39305  23774385.460    97352136.31645
  21453429.140   112738554.44108  21453431.960    87848243.36948
  22688737.920   119230138.92907  22688739.800    92906614.92146
  23533587.640   123669832.11806  23533590.560    96366118.21445
  22984470.400   120784215.25507  22984472.700    94117587.66846
  23889782.960   125541718.61406  23889785.360    97824737.86645
  20618085.660   108348798.85509  20618085.720    84427644.59149
  21152296.540   111156149.80008  21152296.440    86615213.92948
  20391476.080   107157962.58809  20391480.160    83499740.24449
  22003648.160   115629970.88408  22003651.060    90101301.78647
 15 02 16 04 01 30.0000000  0 10G01G04G11G14G16G18G19G22G27G32
  23760254.340   124860984.96105  23760260.600    97294298.36444
  21443223.380   112684923.13008  21443226.260    87806452.75447
  22673518.820   119150162.97007  22673520.820    92844296.01546
  23521112.800   123604276.45706  23521115.820    96315035.91445
  23003550.620   120884480.75908  23003552.480    94195716.62646
  23906400.620   125629045.42506  23906403.220    97892784.68845
  20612466.240   108319268.79309  20612466.340    84404634.16549
  21161694.500   111205536.33408  21161694.440    86653696.95148
  20395344.360   107178290.61009  20395348.460    83515580.25849
  21985430.920   115534239.04808  21985433.880    90026705.57147
 15 02 16 04 02  0.0000000  0 10G01G04G11G14G16G18G19G22G27G32
  23746151.100   124786871.66406  23746157.100    97236547.79445
  21433060.460   112631516.91408  21433063.420    87764837.53747
  22658323.100   119070309.78107  22658325.220    92782072.77145
  23508687.160   123538979.51106  23508690.120    96264155.19645
  23022666.600   120984934.51207  23022668.220    94273992.27846
  23923044.420   125716509.54406  23923047.160    97960938.54245
  20606914.920   108290096.58109  20606915.020    84381902.57549
  21171168.600   111255323.13608  21171168.580    86692491.87048
  20399295.120   107199052.36509  20399299.260    83531758.24649
  21967280.060   115438856.01608  21967283.080    89952381.15347
 15 02 16 04 02 30.0000000  0 10G01G04G11G14G16G18G19G22G27G32
  23732069.580   124712872.45706  23732075.320    97178886.12345
  21422940.880   112578338.27808  21422943.880    87723399.65548
  22643151.300   118990582.11207  22643153.500    92719947.34645
  23496311.720   123473946.41906  23496314.640    96213480.08345
  23041818.000   121085575.25907  23041819.600    94352413.64846
  23939714.320   125804111.04606  23939717.200    98029199.42545
  20601432.380   108261285.64609  20601432.460    84359452.51149
  21180718.820   111305510.08108  21180718.860    86731598.59348
  20403328.880   107220250.39209  20403333.080    83548276.18549
  21949196.400   115343826.07308  21949199.520    89878331.87147
 15 02 16 04 03  0.0000000  0 10G01G04G11G14G16G18G19G22G27G32
  23718009.540   124638985.99305  23718015.160    97121312.31145
  21412864.300   112525385.64508  21412867.320    87682137.88747
  22628003.340   118910979.22407  22628005.560    92657919.14846
  23483986.640   123409178.23606  23483989.560    96163011.39645
  23061004.120   121186399.23207  23061005.900    94430977.79246
  23956409.720   125891846.45906  23956412.720    98097564.64345
  20596018.600   108232835.98809  20596018.680    84337283.95849
  21190344.580   111356093.86508  21190344.640    86771014.53448
  20407445.500   107241883.74409  20407449.760    83565133.34149
  21931180.160   115249150.03708  21931183.300    89804558.35147
 15 02 16 04 03 30.0000000  0 10G01G04G11G14G16G18G19G22G27G32
  23703971.080   124565213.10905  23703976.700    97063826.99645
  21402830.940   112472660.09308  21402833.960    87641053.06248
  22612879.480   118831502.48207  22612881.620    92595989.24646
  23471712.780   123344678.82106  23471715.660    96112752.12245
  23080224.520   121287404.08507  23080226.580    94509682.89546
  23973130.420   125979714.43806  23973133.460    98166033.15845
  20590674.040   108204750.07809  20590674.100    84315398.83549
  21200045.620   111407073.32608  21200045.700    86810738.79648
  20411645.220   107263953.71909  20411649.520    83582330.71949
  21913231.880   115154831.02908  21913235.040    89731063.04147
 15 02 16 04 04  0.0000000  0 10G01G04G11G14G16G18G19G22G27G32
  23689954.200   124491554.33905  23689960.100    97006430.61146
  21392840.900   112420162.17808  21392843.920    87600145.61648
  22597779.900   118752153.29107  22597781.960    92534158.73646
  23459490.780   123280451.49906  23459493.580    96062704.87645
  23099478.800   121388587.35707  23099481.180    94588527.01246
  23989876.200   126067713.86706  23989879.060    98234604.10044
  20585399.100   108177030.15409  20585399.180    84293798.90549
  21209821.740   111458447.01308  21209821.760    86850770.25148
  20415928.320   107286461.36909  20415932.560    83599869.14649
  21895352.080   115060871.93608  21895355.220    89657848.18147
 15 02 16 04 04 30.0000000  0 10G01G04G11G14G16G18G19G22G27G32
  23675958.700   124418008.27805  23675964.880    96949122.00246
  21382893.960   112367890.62708  21382896.920    87559414.55448
  22582704.540   118672931.12007  22582706.500    92472427.20246
  23447320.840   123216497.58906  23447323.540    96012870.68945
  23118766.300   121489944.76807  23118768.840    94667506.84146
  24006646.380   126155841.07206  24006649.040    98303274.65644
  20580193.740   108149675.87109  20580193.820    84272483.88349
  21219672.240   111510211.65308  21219672.200    86891106.34448
  20420294.520   107309405.65609  20420298.680    83617747.81349
  21877540.880   114967273.51408  21877544.000    89584914.36447
 15 02 16 04 05  0.0000000  0 10G01G04G11G14G16G18G19G22G27G32
  23661984.860   124344575.83705  23661991.120    96891901.97146
  21372990.280   112315846.51908  21372993.240    87518860.72648
  22567653.700   118593837.93808  22567655.560    92410796.18146
  23435203.540   123152820.89706  23435206.220    95963252.49245
  23138086.640   121591474.13407  23138089.140    94746620.64546
  24023440.760   126244095.40606  24023443.280    98372044.22445
  20575058.460   108122689.82209  20575058.540    84251455.79749
  21229596.920   111562366.03008  21229596.820    86931746.12348
  20424744.080   107332787.94109  20424748.180    83635967.77649
  21859798.860   114874038.90308  21859802.000    89512264.04147
 15 02 16 04 05 30.0000000  0 10G01G04G11G14G16G18G19G22G27G32
  23648032.660   124271257.02505  23648039.100    96834770.45845
  21363129.900   112264029.78508  21363132.820    87478484.07147
  22552627.500   118514874.33308  22552629.260    92349266.13746
  23423139.560   123089424.49606  23423142.260    95913852.72645
  23157439.320   121693172.95507  23157441.660    94825866.47146
  24040258.840   126332474.53506  24040261.140    98440911.06345
  20569993.520   108096073.35909  20569993.620    84230715.70249
  21239595.400   111614908.39208  21239595.280    86972688.23348
  20429277.060   107356608.67509  20429281.120    83654529.38549
  21842126.500   114781170.37408  21842129.640    89439898.97447
 15 02 16 04 06  0.0000000  0 10G01G04G11G14G16G18G19G22G27G32
  23634102.040   124198051.81905  23634108.680    96777727.46546
  21353312.860   112212440.78708  21353315.740    87438284.87047
  22537626.060   118436041.00508  22537627.780    92287837.60146
  23411129.420   123026310.84206  23411132.240    95864673.27845
  23176823.700   121795038.27807  23176825.820    94905242.06045
  24057100.240   126420976.40006  24057102.300    98509873.51945
  20564999.160   108069827.93509  20564999.260    84210264.73749
  21249667.260   111667836.56808  21249667.140    87013930.97448
  20433893.520   107380868.24709  20433897.540    83673432.94949
  21824524.240   114688670.08108  21824527.340    89367820.85047
 15 02 16 04 06 30.0000000  0 10G01G04G11G14G16G18G19G22G27G32
  23620193.080   124124960.02705  23620199.780    96720772.84745
  21343539.060   112161078.99008  21343541.900    87398262.70748
  22522649.500   118357338.56407  22522651.160    92226511.05646
  23399173.540   122963482.45007  23399176.460    95815716.10945
  23196239.120   121897066.85707  23196241.060    94984744.85246
  24073964.580   126509599.19506  24073966.600    98578930.24243
  20560075.660   108043954.94209  20560075.800    84190103.97149
  21259812.180   111721148.58508  21259812.060    87055472.80948
  20438593.480   107405566.73209  20438597.500    83692678.52249
  21806992.420   114596539.95208  21806995.520    89296031.14847
 15 02 16 04 07  0.0000000  0 10G01G04G11G14G16G18G19G22G27G32
  23606305.760   124051981.38105  23606312.340    96663906.40746
  21333808.520   112109944.56208  21333811.340    87358417.70848
  22507697.940   118278767.60708  22507699.600    92165286.95946
  23387272.520   122900942.21007  23387275.420    95766983.47745
  23215684.960   121999255.40107  23215686.720    95064372.29646
  24090851.560   126598340.77406  24090853.600    98648079.50444
  20555223.260   108018455.44209  20555223.380    84170234.24749
  21270029.680   111774841.99408  21270029.560    87097311.83548
  20443376.980   107430704.35709  20443381.040    83712266.28049
  21789531.480   114504782.08008  21789534.600    89224531.52547
 15 02 16 04 07 30.0000000  0 10G01G04G11G14G16G18G19G22G27G32
  23592440.160   123979116.80705  23592446.580    96607128.85745
  21324121.380   112059038.46108  21324124.200    87318750.62948
  22492771.620   118200329.62608  22492773.380    92104166.49346
  23375427.080   122838693.86907  23375429.920    95718478.28845
  23235160.780   122101601.83407  23235162.500    95144122.77346
  24107760.960   126687200.14206  24107763.000    98717320.57045
  20550442.360   107993331.49809  20550442.420    84150657.16349
  21280319.560   111828915.92008  21280319.460    87139447.37248
  20448244.340   107456282.36509  20448248.400    83732197.19949
  21772142.000   114413399.45708  21772145.140    89153324.30347
 15 02 16 04 08  0.0000000  0 10G01G04G11G14G16G18G19G22G27G32
  23578596.120   123906365.63106  23578602.420    96550439.64345
  21314477.580   112008360.02908  21314480.400    87279260.94548
  22477870.640   118122024.85707  22477872.420    92043149.83346
  23363637.480   122776739.16006  23363640.260    95670201.91545
  23254665.960   122204102.71707  23254667.820    95223993.60946
  24124692.220   126776174.31106  24124694.320    98786651.03444
  20545733.140   107968584.36909  20545733.180    84131373.69249
  21290681.300   111883367.54908  21290681.280    87181877.21748
  20453195.380   107482300.43509  20453199.480    83752471.01749
  21754824.160   114322393.57008  21754827.340    89082410.63547
 15 02 16 04 08 30.0000000  0 10G01G04G11G14G16G18G19G22G27G32
  23564773.480   123833726.88905  23564779.560    96493838.05545
  21304876.960   111957908.45408  21304879.760    87239948.04248
  22462994.980   118043853.26207  22462996.800    91982236.93246
  23351904.160   122715080.01306  23351906.860    95622155.85346
  23274199.860   122306754.18307  23274201.880    95303981.78546
  24141644.860   126865260.59706  24141647.000    98856068.93744
  20541095.680   107944214.28209  20541095.680    84112384.02749
  21301114.340   111938193.88308  21301114.420    87224599.03848
  20458230.040   107508757.87209  20458234.180    83773087.20549
  21737578.220   114231765.63008  21737581.440    89011791.47747
 15 02 16 04 09  0.0000000  0 10G01G04G11G14G16G18G19G22G27G32
  23550972.740   123761203.27906  23550978.660    96437326.19645
  21295320.000   111907686.49008  21295322.840    87200814.05048
  22448145.320   117965818.41607  22448147.240    91921430.59546
  23340228.140   122653722.05906  23340230.800    95574344.47846
  23293762.360   122409555.85607  23293764.520    95384087.00446
  24158618.900   126954459.70806  24158621.080    98925574.71844
  20536530.720   107920225.36309  20536530.720    84093691.37849
  21311618.880   111993395.70608  21311619.000    87267613.45348
  20463348.920   107535657.75509  20463353.080    83794048.15649
  21720405.120   114141520.49108  21720408.320    88941470.60047
 15 02 16 04 09 30.0000000  0 10G01G04G11G14G16G18G19G22G27G32
  23537193.540   123688793.55505  23537199.360    96380903.06545
  21285806.540   111857693.10908  21285809.380    87161858.17548
  22433321.540   117887919.68807  22433323.580    91860730.32346
  23328609.720   122592666.64207  23328612.300    95526768.86245
  23313352.700   122512503.79007  23313354.980    95464306.18346
  24175613.720   127043768.57405  24175615.980    98995166.02744
  20532038.320   107896617.93609  20532038.380    84075295.99049
  21322194.320   112048969.90808  21322194.420    87310918.02848
  20468551.820   107562999.11609  20468555.960    83815353.10749
  21703305.080   114051659.05908  21703308.180    88871448.72147
 15 02 16 04 10  0.0000000  0 10G01G04G11G14G16G18G19G22G27G32
  23523436.020   123616498.16905  23523441.980    96324569.03545
  21276336.680   111807928.77208  21276339.520    87123080.78048
  22418523.860   117810158.09107  22418526.020    91800136.91546
  23317049.460   122531917.09507  23317051.920    95479431.58345
  23332970.340   122615595.06107  23332972.700    95544637.06046
  24192629.140   127133185.68505  24192631.540    99064841.67845
  20527618.880   107873393.68209  20527618.940    84057199.18049
  21332840.260   112104914.55008  21332840.300    87354511.26748
  20473838.920   107590782.65909  20473843.040    83837002.61949
  21686278.540   113962183.81408  21686281.500    88801727.77147
 15 02 16 04 10 30.0000000  0 10G01G04G11G14G16G18G19G22G27G32
  23509700.040   123544315.70805  23509706.180    96268322.98046
  21266910.220   111758392.30608  21266913.020    87084480.96548
  22403752.300   117732533.35507  22403754.480    91739650.14146
  23305547.580   122471474.77307  23305550.020    95432333.68045
  23352614.620   122718825.94207  23352616.960    95625076.71845
  24209664.520   127222707.82805  24209666.920    99134599.18444
  20523272.420   107850552.80409  20523272.460    84039401.10149
  21343556.100   112161226.43308  21343556.060    87398390.65648
  20479209.980   107619007.35209  20479214.040    83858995.88649
  21669325.660   113873095.59708  21669328.440    88732308.40647
 15 02 16 04 11  0.0000000  0 10G01G04G11G14G16G18G19G22G27G32
  23495985.580   123472246.06006  23495991.740    96212164.84846
  21257527.020   111709083.30508  21257529.800    87046058.37948
  22389006.940   117655046.20407  22389009.140    91679270.57646
  23294104.600   122411342.14006  23294107.100    95385477.11645
  23372284.820   122822193.07007  23372287.120    95705622.55746
  24226719.420   127312332.49005  24226722.060    99204436.56244
  20518999.120   107828096.35409  20518999.120    84021902.57649
  21354341.340   112217903.10708  21354341.220    87442554.31048
  20484664.960   107647673.21409  20484668.980    83881332.91749
  21652446.740   113784396.31308  21652449.420    88663192.10447
 15 02 16 04 11 30.0000000  0 10G01G04G11G14G16G18G19G22G27G32
  23482293.100   123400291.58706  23482299.380    96156096.45846
  21248187.640   111660004.70808  21248190.440    87007815.32948
  22374288.400   117577699.89407  22374290.600    91619000.76546
  23282721.500   122351524.33906  23282724.160    95338865.85945
  23391980.720   122925695.55807  23391982.960    95786273.84845
  24243794.140   127402004.65706  24243795.860    99274298.62845
  20514799.680   107806027.94309  20514799.640    84004706.42249
  21365196.100   112274945.24008  21365195.960    87487002.73848
  20490204.420   107676782.94609  20490208.400    83904015.82449
  21635642.660   113696090.44708  21635645.300    88594382.36147
 15 02 16 04 12  0.0000000  0 10G01G04G11G14G16G18G19G22G27G32
  23468621.600   123328447.16706  23468627.920    96100113.82046
  21238891.120   111611151.20708  21238893.920    86969747.68248
  22359595.780   117500489.81207  22359597.980    91558837.10446
  23271397.880   122292018.78006  23271400.660    95292497.91146
  23411700.980   123029326.01107  23411703.100    95867024.85646
  24260887.400   127491829.19906  24260889.520    99344291.76144
  20510673.380   107784344.15509  20510673.340    83987809.97549
  21376119.060   112332345.79808  21376118.900    87531730.45448
  20495827.340   107706331.59109  20495831.320    83927040.73949
  21618912.860   113608174.94108  21618915.580    88525876.79047
 15 02 16 04 12 30.0000000  0 10G01G04G11G14G16G18G19G22G27G32
  23454971.960   123256717.41506  23454978.300    96044220.52745
  21229638.340   111562527.60708  21229641.180    86931859.18348
  22344930.200   117423421.71707  22344932.340    91498784.07346
  23260135.100   122232833.15706  23260138.020    95246379.26445
  23431445.860   123133085.96107  23431447.880    95947876.78045
  24277999.480   127581752.91406  24278001.780    99414362.18244
  20506621.380   107763051.06209  20506621.400    83971217.97049
  21387110.640   112390107.02008  21387110.500    87576739.20648
  20501534.680   107736324.02809  20501538.700    83950411.47149
  21602258.560   113520656.47708  21602261.460    88457680.59847
 15 02 16 04 13  0.0000000  0 10G01G04G11G14G16G18G19G22G27G32
  23441344.260   123185103.12406  23441350.620    95988417.19146
  21220429.460   111514134.86308  21220432.320    86894150.57048
  22330291.980   117346497.30707  22330294.080    91438843.00946
  23248933.880   122173970.81607  23248936.960    95200512.52646
  23451214.960   123236973.26407  23451216.820    96028827.93546
  24295130.080   127671774.49306  24295132.580    99484508.85744
  20502644.120   107742150.69009  20502644.180    83954931.97649
  21398170.660   112448227.78808  21398170.540    87622028.11848
  20507326.660   107766761.30609  20507330.720    83974128.83149
  21585680.360   113433537.84508  21585683.460    88389795.96447
 15 02 16 04 13 30.0000000  0 10G01G04G11G14G16G18G19G22G27G32
  23427738.160   123113602.46506  23427744.560    95932702.41646
  21211264.200   111465971.12808  21211267.080    86856620.40548
  22315680.880   117269715.43907  22315682.960    91379013.01746
  23237794.500   122115432.77707  23237797.580    95154898.48146
  23471007.300   123340982.74407  23471008.940    96109874.28445
  24312278.540   127761890.34306  24312281.240    99554728.98844
  20498741.540   107721642.54409  20498741.600    83938951.61549
  21409298.340   112506704.07808  21409298.220    87667594.06548
  20513203.000   107797641.70509  20513207.060    83998191.47849
  21569178.380   113346819.34908  21569181.580    88322223.12547
 15 02 16 04 14  0.0000000  0 10G01G04G11G14G16G18G19G22G27G32
  23414153.580   123042214.77606  23414159.880    95877075.67746
  21202142.440   111418035.98708  21202145.300    86819268.36248
  22301096.980   117193076.51708  22301099.060    91319294.40946
  23226717.220   122057220.88407  23226720.260    95109538.58945
  23490822.260   123445111.56707  23490823.840    96191013.63645
  24329444.520   127852097.90606  24329447.120    99625020.59744
  20494913.680   107701527.16109  20494913.780    83923277.30549
  21420493.220   112565533.41708  21420493.080    87713435.12148
  20519163.560   107828964.75609  20519167.660    84022599.04849
  21552752.820   113260502.21508  21552756.040    88254963.04547
 15 02 16 04 14 30.0000000  0 10G01G04G11G14G16G18G19G22G27G32
  23400590.680   122970941.46306  23400596.860    95821538.04946
  21193064.440   111370330.97208  21193067.320    86782095.64348
  22286540.640   117116582.48908  22286542.700    91259688.70646
  23215702.760   121999339.29307  23215705.720    95064436.07146
  23510659.540   123549357.95407  23510661.260    96272244.60445
  24346627.840   127942396.63906  24346630.260    99695383.26344
  20491161.100   107681807.31709  20491161.240    83907911.20349
  21431755.060   112624714.76008  21431754.900    87759550.46048
  20525208.640   107860731.96609  20525212.780    84047352.71649
  21536404.340   113174589.99708  21536407.500    88188018.48448
 15 02 16 04 15  0.0000000  0 10G01G04G11G14G16G18G19G22G27G32
  23387049.440   122899782.39206  23387055.620    95766089.44845
  21184030.180   111322855.74408  21184033.080    86745101.98848
  22272012.020   117040234.05008  22272014.060    91200196.44246
  23204751.580   121941790.26707  23204754.360    95019592.70146
  23530518.640   123653718.52107  23530520.400    96353564.53645
  24363828.100   128032784.79405  24363830.380    99765815.59544
  20487484.060   107662484.23709  20487484.180    83892854.26849
  21443083.440   112684246.14508  21443083.340    87805938.55548
  20531338.260   107892943.38609  20531342.440    84072452.52649
  21520133.200   113089084.49008  21520136.320    88121390.83347
 15 02 16 04 15 30.0000000  0 10G01G04G11G14G16G18G19G22G27G32
  23373529.660   122828735.88106  23373535.760    95710728.57245
  21175039.420   111275609.10008  21175042.320    86708286.43948
  22257511.040   116964030.88308  22257513.020    91140817.37446
  23193863.980   121884575.30607  23193866.600    94975009.64946
  23550398.580   123758188.38407  23550400.520    96434969.64945
  24381044.700   128123258.71605  24381046.980    99836314.75243
  20483882.520   107643557.89509  20483882.620    83878106.47949
  21454477.740   112744123.94308  21454477.700    87852596.58148
  20537552.120   107925597.49109  20537556.360    84097897.28549
  21503939.500   113003986.13208  21503942.580    88055080.43847
 15 02 16 04 16  0.0000000  0 10G01G04G11G14G16G18G19G22G27G32
  23360031.800   122757804.74706  23360037.860    95655457.59746
  21166092.700   111228593.69808  21166095.560    86671651.08448
  22243038.300   116887976.02908  22243040.220    91081553.87446
  23183040.880   121827699.40107  23183043.340    94930690.78445
  23570299.460   123862768.42507  23570301.620    96516460.60845
  24398277.780   128213819.33105  24398280.000    99906881.44445
  20480357.220   107625032.21409  20480357.300    83863670.89449
  21465938.100   112804348.73808  21465938.080    87899524.99748
  20543850.780   107958697.19909  20543855.020    84123689.26749
  21487824.120   112919299.54408  21487827.200    87989090.91147
 15 02 16 04 16 30.0000000  0 10G01G04G11G14G16G18G19G22G27G32
  23346555.360   122686986.28906  23346561.440    95600274.43245
  21157189.520   111181807.01408  21157192.360    86635193.95248
  22228593.540   116812068.32608  22228595.420    91022405.04146
  23172282.320   121771162.51507  23172284.640    94886636.09545
  23590220.260   123967452.86407  23590222.480    96598032.91546
  24415526.520   128304462.35505  24415528.780    99977512.36243
  20476907.940   107606905.93309  20476907.980    83849546.53149
  21477463.620   112864915.75408  21477463.600    87946720.07748
  20550233.760   107992239.90909  20550238.000    84149826.44649
  21471786.960   112835024.03008  21471790.080    87923421.69448
 15 02 16 04 17  0.0000000  0 10G01G04G11G14G16G18G19G22G27G32
  23333100.720   122616282.19106  23333106.780    95545180.39145
  21148330.200   111135250.97008  21148333.040    86598916.54048
  22214177.260   116736310.26108  22214179.140    90963372.80746
  23161589.100   121714969.05207  23161591.400    94842848.99646
  23610160.700   124072240.03207  23610162.880    96679685.27046
  24432790.800   128395187.06905  24432793.100   100048206.91744
  20473535.160   107589181.87309  20473535.180    83835735.57849
  21489054.220   112925824.54508  21489054.180    87994181.47948
  20556701.420   108026227.38409  20556705.620    84176310.19149
  21455828.700   112751163.17308  21455831.840    87858075.58647
 15 02 16 04 17 30.0000000  0 10G01G04G11G14G16G18G19G22G27G32
  23319667.660   122545691.47806  23319673.880    95490174.69245
  21139514.520   111088924.52508  21139517.380    86562818.03348
  22199789.380   116660701.48608  22199791.240    90904456.90146
  23150961.540   121659120.76907  23150963.940    94799330.86546
  23630119.900   124177125.79207  23630121.960    96761414.44345
  24450070.280   128485991.14205  24450072.460   100118963.36844
  20470239.000   107571860.38309  20470238.980    83822238.32149
  21500709.340   112987072.11808  21500709.220    88041906.86848
  20563253.500   108060658.67409  20563257.640    84203139.76949
  21439949.600   112667718.03408  21439952.760    87793053.41647
 15 02 16 04 18  0.0000000  0 10G01G04G11G14G16G18G19G22G27G32
  23306256.160   122475213.43306  23306262.460    95435256.79245
  21130742.400   111042827.09308  21130745.280    86526897.97348
  22185429.920   116585242.28008  22185431.780    90845657.54646
  23140399.940   121603619.33107  23140402.460    94756083.00346
  23650097.300   124282107.41406  23650099.320    96843218.32146
  24467364.400   128576872.13505  24467366.500   100189779.70244
  20467019.520   107554941.99809  20467019.500    83809055.16849
  21512428.340   113048655.81008  21512428.200    88089894.16548
  20569889.880   108095533.15909  20569894.000    84230314.69149
  21424149.840   112584689.71908  21424152.980    87728356.04247
 15 02 16 04 18 30.0000000  0 10G01G04G11G14G16G18G19G22G27G32
  23292866.560   122404850.32906  23292872.800    95380428.45346
  21122014.400   110996961.20408  21122017.240    86491158.33848
  22171099.480   116509935.64608  22171101.400    90786977.07646
  23129905.340   121548469.90107  23129908.040    94713109.44045
  23670092.700   124387183.94307  23670094.640    96925096.12845
  24484673.180   128667830.18805  24484675.400   100260656.11144
  20463877.480   107538430.56709  20463877.480    83796189.12149
  21524211.300   113110575.57208  21524211.160    88138143.33448
  20576611.020   108130853.07809  20576615.160    84257836.70549
  21408430.200   112502082.46408  21408433.280    87663986.76947
 15 02 16 04 19  0.0000000  0 10G01G04G11G14G16G18G19G22G27G32
  23279498.460   122334600.31406  23279504.660    95325688.23446
  21113330.140   110951325.15708  21113332.940    86455597.80848
  22156797.940   116434780.81608  22156799.880    90728414.88846
  23119477.840   121493673.05607  23119480.660    94670410.61845
  23690105.160   124492350.50606  23690107.120    97007044.12346
  24501996.020   128758861.54106  24501998.360   100331589.62744
  20460812.700   107522325.19709  20460812.740    83783639.49749
  21536057.440   113172827.48208  21536057.320    88186651.32448
  20583416.580   108166616.68409  20583420.740    84285704.45549
  21392790.700   112419896.30008  21392793.720    87599945.61948
 15 02 16 04 19 30.0000000  0 10G01G04G11G14G16G18G19G22G27G32
  23266152.140   122264464.90806  23266158.280    95271037.31346
  21104689.900   110905920.42908  21104692.660    86420217.52148
  22142525.740   116359779.93608  22142527.700    90669972.68346
  23109118.180   121439232.85307  23109120.980    94627989.70245
  23710134.400   124597605.46606  23710136.440    97089060.98846
  24519332.780   128849965.98105  24519334.880   100402580.09644
  20457825.760   107506628.74209  20457825.760    83771408.50549
  21547966.660   113235410.97608  21547966.560    88235417.68748
  20590306.880   108202825.50509  20590311.020    84313919.12249
  21377231.940   112338134.57508  21377234.940    87536235.20647
 15 02 16 04 20  0.0000000  0 10G01G04G11G14G16G18G19G22G27G32
  23252827.560   122194443.97706  23252833.620    95216475.61146
  21096093.700   110860747.06108  21096096.420    86385017.51548
  22128283.100   116284934.45508  22128285.040    90611651.55946
  23098826.920   121385151.97507  23098829.580    94585848.78445
  23730179.940   124702946.22006  23730182.120    97171144.70245
  24536683.100   128941141.61605  24536684.920   100473626.01244
  20454916.860   107491342.38309  20454916.840    83759497.06749
  21559938.580   113298323.90908  21559938.480    88284440.75648
  20597281.860   108239479.39009  20597286.020    84342480.59149
  21361754.320   112256799.10908  21361757.280    87472856.94148
 15 02 16 04 20 30.0000000  0 10G01G04G11G14G16G18G19G22G27G32
  23239524.780   122124537.48906  23239530.760    95162003.06346
  21087541.520   110815805.06508  21087544.240    86349997.80648
  22114070.200   116210244.89008  22114072.080    90553451.92346
  23088604.460   121331432.55607  23088606.940    94543989.52346
  23750241.240   124808369.84107  23750243.600    97253292.98945
  24554046.500   129032386.86805  24554048.200   100544726.20044
  20452086.260   107476467.62909  20452086.260    83747906.36049
  21571972.700   113361563.71008  21571972.580    88333718.52748
  20604341.540   108276578.25909  20604345.700    84371388.80349
  21346358.100   112175891.72108  21346361.100    87409812.24448
 15 02 16 04 21  0.0000000  0 10G01G04G11G14G16G18G19G22G27G32
  23226243.420   122054743.61806  23226249.380    95107618.27646
  21079033.060   110771092.81209  21079035.760    86315157.11248
  22099886.720   116135710.19508  22099888.600    90495372.96647
  23078450.960   121278075.54607  23078453.320    94502412.66946
  23770317.440   124913871.31006  23770319.740    97335501.94045
  24571422.340   129123697.78105  24571424.080   100615877.57944
  20449333.840   107462003.66409  20449333.840    83736635.74849
  21584068.320   113425126.81108  21584068.200    88383248.22048
  20611485.520   108314120.26709  20611489.680    84400642.31949
  21331043.320   112095412.35008  21331046.380    87347101.07348
 15 02 16 04 21 30.0000000  0 10G01G04G11G14G16G18G19G22G27G32
  23212983.920   121985064.70106  23212989.800    95053323.04745
  21070568.800   110726612.84108  21070571.480    86280497.42148
  22085733.340   116061333.66008  22085735.180    90437417.25946
  23068367.300   121225085.84107  23068369.620    94461122.01946
  23790408.500   125019450.25906  23790410.640    97417771.25745
  24588810.760   129215075.03905  24588812.560   100687080.58444
  20446660.220   107447953.87209  20446660.260    83725687.86449
  21596225.560   113489013.64608  21596225.440    88433030.17248
  20618714.320   108352107.69409  20618718.400    84430242.92049
  21315810.800   112015365.16408  21315813.900    87284726.65948
 15 02 16 04 22  0.0000000  0 10G01G04G11G14G16G18G19G22G27G32
  23199746.060   121915499.41606  23199751.820    94999116.37945
  21062148.440   110682363.61109  21062151.100    86246017.53048
  22071610.040   115987115.15208  22071611.780    90379584.68046
  23058353.700   121172464.49407  23058356.080    94420118.39645
  23810513.580   125125102.60806  23810515.460    97500097.77945
  24606211.280   129306515.75905  24606213.060   100758333.12244
  20444065.460   107434318.44009  20444065.520    83715062.85649
  21608443.720   113553220.46308  21608443.580    88483061.46048
  20626027.600   108390539.11609  20626031.640    84460189.48549
  21300660.640   111935750.64408  21300663.760    87222689.39548
 15 02 16 04 22 30.0000000  0 10G01G04G11G14G16G18G19G22G27G32
  23186529.860   121846048.15606  23186535.500    94944998.55445
  21053772.100   110638345.80709  21053774.760    86211717.96748
  22057517.020   115913055.64008  22057518.660    90321875.99846
  23048410.760   121120214.04107  23048413.220    94379403.78046
  23830632.120   125230825.69506  23830633.700    97582479.42345
  24623623.560   129398018.12105  24623625.400   100829633.65743
  20441549.800   107421098.68309  20441549.860    83704761.75849
  21620722.400   113617745.43008  21620722.260    88533340.65948
  20633425.400   108429414.78909  20633429.440    84490482.22349
  21285593.280   111856570.97808  21285596.360    87160990.97448
 15 02 16 04 23  0.0000000  0 10G01G04G11G14G16G18G19G22G27G32
  23173335.240   121776710.36406  23173340.840    94890969.13945
  21045439.740   110594559.13308  21045442.400    86177598.50648
  22043454.340   115839155.77908  22043455.940    90264291.72646
  23038539.000   121068336.94307  23038541.420    94338980.09046
  23850763.420   125336616.28806  23850764.780    97664913.65245
  24641047.200   129489580.03805  24641049.100   100900980.61443
  20439113.460   107408295.52009  20439113.500    83694785.27749
  21633061.180   113682586.09608  21633061.020    88583865.85548
  20640907.640   108468734.11209  20640911.640    84521120.66349
  21270608.880   111777827.24308  21270611.900    87099632.24248
