     2.11           OBSERVATION DATA    G                   RINEX VERSION / TYPE
SPIDER V4,0,0,3554                      2015 03 18 00:28    PGM / RUN BY / DATE 
EASA                                                        MARKER NAME         
EASA                                                        MARKER NUMBER       
                                                            OBSERVER / AGENCY   
496549              LEICA GRX1200+GNSS  8.20/4.007          REC # / TYPE / VERS 
10321008            LEIAR25         NONE                    ANT # / TYPE        
  5282957.1227   142380.7781  3561159.3736                  APPROX POSITION XYZ 
        0.0000        0.0000        0.0000                  ANTENNA: DELTA H/E/N
     1     1                                                WAVELENGTH FACT L1/2
     4    C1    L1    P2    L2                              # / TYPES OF OBSERV 
    30.000                                                  INTERVAL            
  2015    02    16    00    00    0.0000000     GPS         TIME OF FIRST OBS   
  2015    02    16    23    59   30.0000000     GPS         TIME OF LAST OBS    
    16                                                      LEAP SECONDS        
    30                                                      # OF SATELLITES     
   G 1   838   838   838   838                              PRN / # OF OBS      
   G 2   926   925   925   925                              PRN / # OF OBS      
   G 3   849   849   849   849                              PRN / # OF OBS      
   G 4   854   854   854   854                              PRN / # OF OBS      
   G 5   676   675   675   675                              PRN / # OF OBS      
   G 6   714   714   714   714                              PRN / # OF OBS      
   G 7   649   649   649   649                              PRN / # OF OBS      
   G 9   792   792   791   791                              PRN / # OF OBS      
   G10   788   788   788   788                              PRN / # OF OBS      
   G11   805   804   804   804                              PRN / # OF OBS      
   G12   821   821   821   821                              PRN / # OF OBS      
   G13   828   828   828   828                              PRN / # OF OBS      
   G14   933   933   933   933                              PRN / # OF OBS      
   G15   728   719   718   718                              PRN / # OF OBS      
   G16   695   695   695   695                              PRN / # OF OBS      
   G17   931   931   930   930                              PRN / # OF OBS      
   G18   938   937   937   937                              PRN / # OF OBS      
   G19   786   786   786   786                              PRN / # OF OBS      
   G20   827   827   827   827                              PRN / # OF OBS      
   G21   716   715   715   715                              PRN / # OF OBS      
   G22   770   770   770   770                              PRN / # OF OBS      
   G23   733   733   733   733                              PRN / # OF OBS      
   G24   850   850   849   849                              PRN / # OF OBS      
   G25   873   873   873   873                              PRN / # OF OBS      
   G27   837   837   837   837                              PRN / # OF OBS      
   G28   907   907   906   906                              PRN / # OF OBS      
   G29   760   760   760   760                              PRN / # OF OBS      
   G30   696   696   696   696                              PRN / # OF OBS      
   G31   785   785   785   785                              PRN / # OF OBS      
   G32   748   748   748   748                              PRN / # OF OBS      
BIT 2 OF LLI FLAGS DATA COLLECTED UNDER A/S CONDITION       COMMENT             
SNR is mapped to RINEX snr flag value [2-9]                 COMMENT             
Lx:     = 25dBHz -> 1; 26-27dBHz -> 2; 28-31dBHz -> 3       COMMENT             
       32-35dBHz -> 4; 36-38dBHz -> 5; 39-41dBHz -> 6       COMMENT             
       42-44dBHz -> 7; 45-48dBHz -> 8; >=49dBHz -> 9        COMMENT             
                                                            END OF HEADER       
 15 02 16 00 00  0.0000000  0  7G16G18G21G25G27G29G31
  23050984.980   121133749.73508  23050982.520    94389936.48246
  23913451.980   125666105.73708  23913452.560    97921644.49745
  20965010.180   110171880.41408  20965006.880    85848209.57148
  23470830.820   123340034.10508  23470831.760    96109116.69946
  23893386.500   125560616.02408  23893387.960    97839462.26147
  22848709.080   120070766.75209  22848706.900    93561624.87148
  21333716.580   112109429.55109  21333713.920    87357981.92048
 15 02 16 00 00 30.0000000  0  7G16G18G21G25G27G29G31
  23035169.380   121050638.21208  23035166.900    94325174.30046
  23899606.380   125593348.31308  23899607.060    97864950.70145
  20965740.340   110175717.55608  20965737.040    85851199.56148
  23486388.540   123421790.67308  23486389.500    96172823.07846
  23879826.180   125489356.11908  23879827.620    97783935.12647
  22862583.300   120143676.50409  22862581.180    93618437.64448
  21344709.520   112167197.78809  21344706.880    87402996.11048
 15 02 16 00 01  0.0000000  0  7G16G18G21G25G27G29G31
  23019367.220   120967597.16408  23019364.560    94260466.99246
  23885769.280   125520635.29908  23885769.700    97808291.45945
  20966557.680   110180013.00908  20966554.420    85854546.66348
  23501988.900   123503771.13408  23501989.880    96236703.91146
  23866290.780   125418227.33008  23866292.300    97728510.15746
  22876463.440   120216617.21909  22876461.380    93675274.53848
  21355789.380   112225422.87109  21355786.800    87448366.27648
 15 02 16 00 01 30.0000000  0  7G16G18G21G25G27G29G31
  23003578.360   120884626.06608  23003575.600    94195814.19646
  23871940.620   125447967.23108  23871941.060    97751667.22745
  20967461.720   110184764.14708  20967458.520    85858248.85948
  23517631.400   123585973.01808  23517632.480    96300757.29146
  23852779.960   125347227.75708  23852781.440    97673185.89047
  22890348.920   120289586.07709  22890346.920    93732133.37248
  21366955.360   112284100.55509  21366952.860    87494089.12348
 15 02 16 00 02  0.0000000  0  7G16G18G21G25G27G29G31
  22987802.880   120801725.96908  22987800.260    94131216.76346
  23858121.160   125375346.54308  23858121.600    97695079.93944
  20968452.240   110189969.73308  20968449.100    85862305.16948
  23533315.900   123668395.27008  23533316.900    96364982.37746
  23839293.600   125276356.88308  23839295.080    97617961.90146
  22904239.500   120362581.91409  22904237.560    93789013.22147
  21378206.960   112343228.14409  21378204.540    87540162.54248
 15 02 16 00 02 30.0000000  0  7G16G18G21G25G27G29G31
  22972041.020   120718896.93508  22972038.280    94066674.66746
  23844311.000   125302774.39308  23844310.920    97638530.40044
  20969528.800   110195627.36408  20969525.700    85866713.72248
  23549041.920   123751035.60008  23549042.960    96429377.39546
  23825831.480   125205613.08508  23825832.840    97562836.92646
  22918134.840   120435602.47709  22918132.920    93845912.33847
  21389543.580   112402802.32409  21389541.160    87586583.95448
 15 02 16 00 03  0.0000000  0  7G16G18G21G25G27G29G31
  22956293.660   120636144.24208  22956290.820    94002192.06346
  23830511.240   125230256.93908  23830511.300    97582023.53344
  20970691.980   110201740.03508  20970688.900    85871476.85448
  23564809.940   123833896.85008  23564810.960    96493944.56746
  23812394.140   125134999.69708  23812395.500    97507813.57846
  22932035.400   120508650.42809  22932033.500    93902832.79948
  21400965.460   112462824.49309  21400963.020    87633354.44948
 15 02 16 00 03 30.0000000  0  7G16G18G21G25G27G29G31
  22940559.980   120553463.47908  22940557.240    93937765.52346
  23816721.480   125157791.23008  23816721.080    97525556.94345
  20971940.660   110208301.58808  20971937.560    85876589.76248
  23580618.820   123916972.96708  23580619.840    96558679.17646
  23798980.560   125064511.23208  23798981.960    97452887.56946
  22945940.160   120581720.54309  22945938.320    93959770.52448
  21412471.220   112523287.27009  21412468.680    87680468.27748
 15 02 16 00 04  0.0000000  0  7G16G18G21G25G27G29G31
  22924841.360   120470861.67108  22924838.540    93873400.49646
  23802943.000   125085385.31208  23802942.640    97469136.98945
  20973275.560   110215316.16108  20973272.380    85882055.66648
  23596469.440   124000268.43208  23596470.560    96623584.68046
  23785591.720   124994152.81808  23785593.100    97398062.90046
  22959849.980   120654816.93609  22959848.120    94016728.73647
  21424061.260   112584192.95809  21424058.620    87727927.22548
 15 02 16 00 04 30.0000000  0  7G16G18G21G25G27G29G31
  22909137.480   120388337.82908  22909134.600    93809096.22646
  23789176.020   125013039.41808  23789175.480    97412763.76644
  20974696.120   110222780.63708  20974692.780    85887872.15748
  23612361.180   124083780.20308  23612362.240    96688658.74646
  23772227.200   124923922.01408  23772228.500    97343337.66446
  22973764.160   120727936.46609  22973762.360    94073704.96648
  21435734.780   112645537.41709  21435732.080    87775728.08648
 15 02 16 00 05  0.0000000  0  7G16G18G21G25G27G29G31
  22893449.180   120305895.36108  22893446.360    93744855.36446
  23775421.100   124940757.64508  23775420.520    97356440.52345
  20976202.460   110230696.01908  20976198.980    85894040.00348
  23628294.200   124167509.20108  23628295.360    96753902.08246
  23758887.280   124853820.30608  23758888.520    97288713.00846
  22987683.140   120801080.81309  22987681.260    94130700.55447
  21447491.740   112707320.31509  21447489.020    87823870.58848
 15 02 16 00 05 30.0000000  0  7G16G18G21G25G27G29G31
  22877776.200   120223533.28708  22877773.380    93680677.13746
  23761678.580   124868540.44908  23761677.920    97300167.55845
  20977793.880   110239058.46709  20977790.300    85900556.20048
  23644268.040   124251452.18608  23644269.180    96819312.14946
  23745571.420   124783845.08708  23745572.660    97234186.91646
  23001606.140   120874246.55109  23001604.240    94187712.79248
  21459331.160   112769536.80809  21459328.500    87872350.94348
 15 02 16 00 06  0.0000000  0  7G16G18G21G25G27G29G31
  22862119.000   120141253.76509  22862116.040    93616563.23846
  23747948.840   124796391.04508  23747948.220    97243947.43845
  20979470.400   110247868.35809  20979466.740    85907421.05748
  23660282.600   124335609.20608  23660283.660    96884889.00546
  23732279.760   124713996.99008  23732281.000    97179759.88546
  23015533.100   120947433.14909  23015531.240    94244741.29247
  21471252.760   112832185.40709  21471250.180    87921168.00348
 15 02 16 00 06 30.0000000  0  7G16G18G21G25G27G29G31
  22846478.080   120059059.47109  22846475.100    93552515.75547
  23734232.740   124724313.03908  23734231.900    97187782.95445
  20981232.000   110257125.72008  20981228.340    85914634.59648
  23676337.980   124419980.49808  23676339.000    96950632.83046
  23719012.440   124644276.89908  23719013.680    97125432.61846
  23029464.180   121020641.76309  23029462.380    94301786.94447
  21483256.300   112895264.63509  21483253.840    87970320.62448
 15 02 16 00 07  0.0000000  0  7G16G18G21G25G27G29G31
  22830853.540   119976952.19108  22830850.660    93488536.09346
  23720530.680   124652308.91408  23720529.940    97131676.05645
  20983078.500   110266829.69508  20983074.900    85922196.14548
  23692434.060   124504565.52808  23692435.100    97016543.20046
  23705769.500   124574684.90408  23705770.720    97071205.15446
  23043399.460   121093872.29809  23043397.720    94358849.68148
  21495341.520   112958772.68509  21495339.060    88019807.38949
 15 02 16 00 07 30.0000000  0  7G16G18G21G25G27G29G31
  22815245.560   119894931.88608  22815242.700    93424624.17846
  23706843.020   124580380.54208  23706842.180    97075628.14245
  20985009.420   110276977.25308  20985005.900    85930103.33748
  23708570.360   124589361.95208  23708571.400    97082618.29246
  23692550.620   124505219.26808  23692551.780    97017076.14247
  23057338.400   121167121.65409  23057336.620    94415927.08047
  21507507.620   113022705.79109  21507505.200    88069625.37548
 15 02 16 00 08  0.0000000  0  7G16G18G21G25G27G29G31
  22799655.080   119813004.30708  22799652.480    93360784.54247
  23693170.960   124508534.13608  23693170.100    97019644.09445
  20987025.640   110287572.64708  20987022.120    85938359.49448
  23724747.480   124674373.13708  23724748.620    97148860.71446
  23679356.580   124435883.99608  23679357.660    96963048.71546
  23071281.700   121240394.00609  23071279.880    94473022.39547
  21519754.980   113087065.70009  21519752.500    88119775.92748
 15 02 16 00 08 30.0000000  0  7G16G18G21G25G27G29G31
  22784081.420   119731164.67008  22784078.940    93297013.42146
  23679513.920   124436766.21708  23679513.060    96963721.22446
  20989125.600   110298608.10809  20989122.080    85946958.56448
  23740964.080   124759592.00308  23740965.300    97215264.96846
  23666186.080   124366672.65408  23666187.120    96909117.86746
  23085228.160   121313682.68609  23085226.320    94530130.43147
  21532081.880   113151843.75709  21532079.380    88170252.31148
 15 02 16 00 09  0.0000000  0  7G16G18G21G25G27G29G31
  22768525.600   119649418.74708  22768523.140    93233315.31146
  23665872.980   124365083.31608  23665872.040    96907864.58845
  20991309.900   110310086.50609  20991306.300    85955902.77848
  23757220.820   124845021.89008  23757222.220    97281833.66046
  23653039.880   124297589.21708  23653040.900    96855286.67646
  23099178.240   121386990.69909  23099176.400    94587253.52347
  21544488.680   113217041.68209  21544486.100    88221055.86648
 15 02 16 00 09 30.0000000  0  7G16G18G21G25G27G29G31
  22752987.940   119567768.19709  22752985.620    93169691.53747
  23652248.800   124293488.21308  23652247.860    96852076.34846
  20993578.280   110322006.92108  20993574.640    85965191.41548
  23773517.580   124930661.77108  23773518.820    97348566.00646
  23639917.860   124228633.36408  23639918.900    96801554.89846
  23113131.900   121460317.45609  23113129.980    94644391.23948
  21556974.860   113282657.00309  21556972.320    88272184.65948
 15 02 16 00 10  0.0000000  0  7G16G18G21G25G27G29G31
  22737468.660   119486213.65908  22737466.320    93106142.57347
  23638641.680   124221982.92508  23638640.660    96796358.11945
  20995930.500   110334368.05208  20995926.840    85974823.46948
  23789854.080   125016510.42708  23789855.300    97415461.02646
  23626820.020   124159804.45908  23626821.100    96747922.04146
  23127088.980   121533662.24109  23127087.100    94701542.99747
  21569539.820   113348687.02809  21569537.440    88323636.58648
 15 02 16 00 10 30.0000000  0  7G16G18G21G25G27G29G31
  22721967.820   119404756.41909  22721965.420    93042669.41947
  23625051.900   124150569.17108  23625050.700    96740711.18645
  20998366.000   110347167.11408  20998362.380    85984796.78748
  23806229.940   125102566.07508  23806231.140    97482517.32546
  23613746.140   124091101.43708  23613747.280    96694387.28647
  23141049.160   121607023.30909  23141047.340    94758707.43547
  21582183.060   113415128.26809  21582180.840    88375408.95548
 15 02 16 00 11  0.0000000  0  7G16G18G21G25G27G29G31
  22706485.820   119323397.62809  22706483.400    92979272.97247
  23611479.900   124079249.28208  23611479.060    96685137.41745
  21000884.700   110360403.62308  21000881.180    85995110.95448
  23822645.000   125188827.72208  23822646.160    97549734.14946
  23600696.280   124022524.00208  23600697.420    96640950.37747
  23155012.340   121680400.17809  23155010.500    94815884.20247
  21594904.160   113481978.31009  21594902.000    88427499.87148
 15 02 16 00 11 30.0000000  0  7G16G18G21G25G27G29G31
  22691023.140   119242140.41009  22691020.580    92915955.69246
  23597926.740   124008027.88408  23597925.640    96629640.34645
  21003486.900   110374078.41909  21003483.380    86005766.64948
  23839099.420   125275296.21908  23839100.700    97617112.12346
  23587670.620   123954073.61008  23587671.640    96587612.47447
  23168978.700   121753794.09809  23168976.920    94873074.24247
  21607702.940   113549236.30809  21607700.780    88479908.67048
 15 02 16 00 12  0.0000000  0  7G16G18G21G25G27G29G31
  22675579.960   119160985.16109  22675577.000    92852717.83347
  23584392.520   123936905.84508  23584391.540    96574220.70445
  21006171.960   110388188.69608  21006168.500    86016761.67648
  23855592.760   125361969.13508  23855594.160    97684649.39546
  23574668.840   123885748.53708  23574669.760    96534372.20947
  23182947.900   121827202.79709  23182946.180    94930275.80447
  21620578.660   113616898.49709  21620576.480    88532632.41748
 15 02 16 00 12 30.0000000  0  7G16G18G21G25G27G29G31
  22660156.560   119079934.10809  22660153.460    92789561.17547
  23570877.840   123865886.40808  23570876.780    96518881.00045
  21008939.740   110402733.69308  21008936.320    86028095.44248
  23872125.020   125448846.28308  23872126.520    97752345.81046
  23561690.980   123817549.30708  23561691.840    96481230.00347
  23196919.940   121900626.39408  23196918.200    94987488.96447
  21633530.980   113684963.02009  21633528.740    88585669.67248
 15 02 16 00 13  0.0000000  0  7G16G18G21G25G27G29G31
  22644753.580   118998990.62609  22644750.400    92726488.35047
  23557383.520   123794973.82708  23557382.400    96463624.57645
  21011790.360   110417714.05508  21011787.000    86039768.47048
  23888696.280   125535928.41908  23888697.740    97820201.96346
  23548737.320   123749477.38008  23548738.160    96428186.99647
  23210895.040   121974066.11109  23210893.260    95044714.70147
  21646559.700   113753429.01409  21646557.440    88639019.76948
 15 02 16 00 13 30.0000000  0  7G16G18G21G25G27G29G31
  22629370.940   118918154.19409  22629367.660    92663498.93347
  23543909.760   123724168.96408  23543908.700    96408452.09146
  21014723.300   110433126.73508  21014719.920    86051778.35448
  23905306.020   125623212.68208  23905307.560    97888215.60446
  23535807.400   123681530.50208  23535808.260    96375241.43447
  23224872.760   122047519.40209  23224870.960    95101951.01547
  21659664.000   113822292.10509  21659661.680    88692679.29248
 15 02 16 00 14  0.0000000  0  7G16G18G21G25G27G29G31
  22614009.140   118837427.99509  22614006.060    92600595.43147
  23530457.160   123653475.45408  23530455.920    96353366.34845
  21017738.580   110448971.82308  21017735.120    86064125.18748
  23921954.320   125710699.57708  23921955.780    97956387.14546
  23522901.500   123613710.00708  23522902.400    96322394.34947
  23238853.100   122120986.61409  23238851.360    95159198.16247
  21672843.660   113891551.13709  21672841.260    88746647.34248
 15 02 16 00 14 30.0000000  0  7G16G18G21G25G27G29G31
  22598668.680   118756813.54609  22598665.700    92537778.99047
  23517026.300   123582896.17108  23517025.060    96298369.62745
  21020835.840   110465247.95808  21020832.340    86076807.89348
  23938640.980   125798388.13908  23938642.420    98024715.81346
  23510019.660   123546015.56808  23510020.560    96269645.48447
  23252836.160   122194467.88509  23252834.440    95216456.26347
  21686098.140   113961203.46309  21686095.700    88800921.84948
 15 02 16 00 15  0.0000000  0  7G16G18G21G25G27G29G31
  22583349.180   118676309.34309  22583346.200    92475048.46947
  23503617.200   123512430.88608  23503615.800    96243461.71445
  21024014.480   110481951.50608  21024010.920    86089823.65548
  23955365.240   125886274.32708  23955366.520    98093198.49746
  23497161.260   123478443.88108  23497161.960    96216992.26547
  23266821.140   122267959.39309  23266819.400    95273722.35547
  21699426.320   114031243.45609  21699423.900    88855498.43648
 15 02 16 00 15 30.0000000  0  7G16G18G21G25G27G29G31
  22568051.400   118595918.80309  22568048.460    92412406.50247
  23490230.540   123442083.54708  23490228.880    96188645.69845
  21027274.440   110499082.42508  21027270.860    86103172.43148
  23972127.260   125974358.76908  23972128.540    98161835.67246
  23484326.500   123410996.31508  23484326.920    96164435.75347
  23280808.340   122341462.47009  23280806.600    95330997.44947
  21712828.140   114101670.39309  21712825.740    88910376.54248
 15 02 16 00 16  0.0000000  0  7G16G18G21G25G27G29G31
  22552776.400   118515648.24709  22552773.460    92349858.04547
  23476867.540   123371860.81008  23476865.840    96133926.75845
  21030616.380   110516644.35408  21030612.820    86116857.04948
  23988927.680   126062645.15608  23988928.820    98230630.20045
  23471516.140   123343677.30108  23471516.420    96111979.41146
  23294798.400   122414980.75809  23294796.740    95388284.40447
  21726303.900   114172486.00809  21726301.500    88965557.51448
 15 02 16 00 16 30.0000000  0  7G16G18G21G25G27G29G31
  22537523.680   118435494.71009  22537520.680    92287400.75047
  23463527.900   123301761.15408  23463526.140    96079303.75245
  21034039.060   110534630.89808  21034035.560    86130872.54448
  24005765.480   126151127.82308  24005766.520    98299577.66545
  23458729.240   123276481.90308  23458729.560    96059619.40347
  23308790.480   122488509.41909  23308788.760    95445579.44047
  21739852.360   114243683.34909  21739849.980    89021035.92948
 15 02 16 00 17  0.0000000  0  7G16G18G21G25G27G29G31
  22522293.920   118355461.74109  22522290.940    92225037.42447
  23450212.420   123231789.12708  23450211.100    96024780.22846
  21037542.640   110553042.71408  21037539.260    86145219.41848
  24022640.820   126239807.78408  24022641.680    98368678.88046
  23445966.180   123209411.90408  23445966.580    96007357.10947
  23322784.820   122562049.74909  23322783.060    95502883.56347
  21753473.360   114315261.73809  21753470.940    89076811.26648
 15 02 16 00 17 30.0000000  0  7G16G18G21G25G27G29G31
  22507087.320   118275550.49009  22507084.340    92162768.92747
  23436921.620   123161946.70008  23436920.420    95970357.66246
  21041126.920   110571878.47908  21041123.620    86159896.63848
  24039553.320   126328683.40308  24039554.300    98437932.54346
  23433226.860   123142466.39908  23433227.280    95955191.81647
  23336781.200   122635600.98409  23336779.440    95560196.18647
  21767166.240   114387217.89309  21767163.740    89132880.96748
 15 02 16 00 18  0.0000000  0  7G16G18G21G25G27G29G31
  22491904.060   118195762.07509  22491901.160    92100596.15947
  23423655.880   123092235.53308  23423654.800    95916037.37846
  21044791.540   110591136.34508  21044788.280    86174902.77948
  24056502.700   126417753.41408  24056503.880    98507337.67945
  23420511.100   123075644.86308  23420511.540    95903123.13146
  23350779.500   122709162.17609  23350777.760    95617516.57347
  21780930.460   114459549.01509  21780927.900    89189242.85648
 15 02 16 00 18 30.0000000  0  7G16G18G21G25G27G29G31
  22476744.500   118116098.08709  22476741.660    92038520.35447
  23410415.900   123022659.22808  23410414.800    95861822.17746
  21048536.200   110610814.76108  21048532.940    86190236.62448
  24073488.880   126507016.80208  24073490.220    98576893.52145
  23407818.900   123008947.08808  23407819.280    95851150.87846
  23364779.540   122782732.74609  23364777.820    95674844.27047
  21794765.400   114532252.20309  21794762.900    89245894.66148
 15 02 16 00 19  0.0000000  0  7G16G18G21G25G27G29G31
  22461609.560   118036563.62909  22461606.680    91976545.47147
  23397202.600   122953222.59008  23397201.320    95807715.78346
  21052361.340   110630915.76508  21052357.980    86205899.74648
  24090512.200   126596475.56508  24090513.680    98646601.58645
  23395150.720   122942375.65008  23395151.020    95799277.06347
  23378781.820   122856315.21109  23378780.160    95732181.22147
  21808671.240   114605327.93509  21808668.720    89302836.75448
 15 02 16 00 19 30.0000000  0  7G16G18G21G25G27G29G31
  22446498.880   117957156.82509  22446496.060    91914670.06347
  23384015.700   122883925.01008  23384014.260    95753717.76346
  21056266.020   110651434.61608  21056262.600    86221888.46748
  24107571.960   126686125.19007  24107573.660    98716458.35545
  23382505.980   122875927.14008  23382506.180    95747499.04447
  23392785.560   122929905.54808  23392783.880    95789524.29947
  21822646.860   114678770.30309  21822644.380    89360064.54048
 15 02 16 00 20  0.0000000  0  7G16G18G21G25G27G29G31
  22431412.960   117877879.92209  22431410.100    91852895.87247
  23370855.900   122814769.82608  23370854.300    95699830.68846
  21060249.960   110672370.07308  21060246.480    86238201.82148
  24124667.960   126775965.11608  24124669.540    98786463.42945
  23369884.560   122809601.60908  23369884.900    95695816.85947
  23406790.800   123003503.82508  23406789.160    95846873.57647
  21836691.820   114752576.84509  21836689.300    89417576.09948
 15 02 16 00 20 30.0000000  0  7G16G18G21G25G27G29G31
  22416352.380   117798736.00009  22416349.420    91791225.30447
  23357723.940   122745760.85508  23357722.340    95646057.56846
  21064313.180   110693722.44908  21064309.700    86254840.04448
  24141800.260   126865995.69008  24141801.900    98856617.04745
  23357286.600   122743400.19308  23357287.240    95644231.41047
  23420797.820   123077111.21508  23420796.200    95904229.97147
  21850805.860   114826746.64209  21850803.300    89475370.71348
 15 02 16 00 21  0.0000000  0  7G16G18G21G25G27G29G31
  22401317.420   117719726.44209  22401314.400    91729659.43547
  23344620.140   122676899.82608  23344618.460    95592399.72346
  21068455.240   110715489.55208  21068451.800    86271801.43148
  24158968.540   126956215.37607  24158970.240    98926918.01546
  23344712.240   122677322.20808  23344712.880    95592742.12047
  23434806.360   123150726.61808  23434804.780    95961592.59847
  21864988.340   114901275.93609  21864985.740    89533445.45448
 15 02 16 00 21 30.0000000  0  7G16G18G21G25G27G29G31
  22386308.020   117640851.19509  22386304.880    91668198.21847
  23331544.760   122608187.74709  23331542.920    95538857.91246
  21072675.720   110737668.68108  21072672.340    86289083.87848
  24176172.320   127046621.58007  24176174.040    98997364.32046
  23332161.180   122611365.82408  23332161.780    95541347.57047
  23448816.080   123224348.11208  23448814.500    96018959.96147
  21879238.540   114976161.06309  21879235.940    89591797.46548
 15 02 16 00 22  0.0000000  0  7G16G18G21G25G27G29G31
  22371325.160   117562115.54209  22371322.000    91606845.78047
  23318498.880   122539631.00108  23318496.980    95485437.14746
  21076975.060   110760262.01308  21076971.720    86306689.07348
  24193412.100   127137216.77008  24193413.940    99067957.88446
  23319633.860   122545534.33708  23319634.500    95490050.35547
  23462827.560   123297978.85508  23462825.960    96076334.54047
  21893556.600   115051402.82109  21893554.040    89650427.36348
 15 02 16 00 22 30.0000000  0  7G16G18G21G25G27G29G31
  22356368.940   117483519.92309  22356365.720    91545602.45947
  23305482.700   122471230.97808  23305480.660    95432138.51445
  21081352.800   110783266.93709  21081349.380    86324614.99648
  24210687.440   127227998.78508  24210689.280    99138697.00646
  23307129.940   122479826.32208  23307130.740    95438849.35947
  23476840.540   123371617.34409  23476838.960    96133715.15447
  21907941.760   115126997.21109  21907939.180    89709332.04548
 15 02 16 00 23  0.0000000  0  7G16G18G21G25G27G29G31
  22341439.400   117405064.74009  22341436.160    91484468.56447
  23292496.360   122402988.36508  23292494.360    95378962.53145
  21085808.320   110806680.46108  21085804.720    86342859.30348
  24227997.840   127318964.83308  24227999.640    99209579.55846
  23294649.240   122414239.93508  23294649.920    95387743.13147
  23490854.500   123445261.06209  23490852.900    96191099.84047
  21922393.140   115202939.78009  21922390.620    89768508.03548
 15 02 16 00 23 30.0000000  0  7G16G18G21G25G27G29G31
  22326537.460   117326754.55109  22326534.140    91423447.66047
  23279541.100   122334908.93908  23279539.080    95325913.70045
  21090341.840   110830504.05608  21090338.120    86361423.13948
  24245343.580   127410116.57108  24245345.200    99280606.80446
  23282192.200   122348777.63708  23282192.760    95336733.57147
  23504869.900   123518912.51008  23504868.260    96248490.54247
  21936910.780   115279230.39909  21936908.280    89827955.23348
 15 02 16 00 24  0.0000000  0  7G16G18G21G25G27G29G31
  22311662.800   117248587.87209  22311659.440    91362538.57747
  23266616.780   122266991.56809  23266614.840    95272991.14946
  21094952.360   110854732.65508  21094948.620    86380302.57948
  24262723.820   127501449.58408  24262725.440    99351775.30446
  23269758.060   122283435.82708  23269758.600    95285817.92647
  23518886.160   123592568.32708  23518884.500    96305884.66347
  21951493.520   115355863.05509  21951491.020    89887668.96248
 15 02 16 00 24 30.0000000  0  7G16G18G21G25G27G29G31
  22296816.400   117170569.73609  22296813.100    91301745.24447
  23253724.540   122199242.39008  23253722.500    95220199.63446
  21099640.320   110879368.37408  21099636.560    86399499.24748
  24280138.960   127592966.11408  24280140.420    99423086.81546
  23257347.400   122218217.57908  23257348.000    95234998.56747
  23532903.820   123666231.37508  23532902.040    96363284.41047
  21966141.480   115432838.61509  21966139.000    89947649.88148
 15 02 16 00 25  0.0000000  0  7G16G18G21G25G27G29G31
  22281997.980   117092699.02609  22281994.740    91241066.78247
  23240864.220   122131661.12008  23240862.220    95167538.97246
  21104404.880   110904406.78408  21104401.220    86419009.69748
  24297588.280   127684662.34408  24297589.820    99494538.33346
  23244959.720   122153119.97608  23244960.320    95184273.18647
  23546922.220   123739898.23608  23546920.360    96420687.12047
  21980853.640   115510151.47709  21980851.180    90007893.62748
 15 02 16 00 25 30.0000000  0  7G16G18G21G25G27G29G31
  22267208.760   117014981.48709  22267205.600    91180507.66947
  23228037.060   122064254.26508  23228035.080    95115014.21846
  21109246.620   110929850.68108  21109243.060    86438836.11048
  24315072.320   127776541.20308  24315073.880    99566132.15346
  23232595.720   122088146.75908  23232596.240    95133644.74547
  23560942.080   123813572.63808  23560940.140    96478095.71446
  21995630.220   115587802.84709  21995627.760    90068401.15648
 15 02 16 00 26  0.0000000  0  7G16G18G21G25G27G29G31
  22252448.420   116937415.66009  22252445.340    91120066.78447
  23215242.720   121997019.80708  23215240.880    95062623.80046
  21114164.520   110955694.65308  21114161.040    86458974.27848
  24332590.120   127868597.82908  24332591.820    99637864.48946
  23220254.580   122023293.92008  23220255.140    95083110.11647
  23574962.600   123887250.51608  23574960.620    96535506.99247
  22010470.000   115665786.41509  22010467.580    90129167.53148
 15 02 16 00 26 30.0000000  0  7G16G18G21G25G27G29G31
  22237717.460   116860003.75409  22237714.280    91059745.82447
  23202482.180   121929962.94308  23202480.220    95010371.74346
  21119158.500   110981938.15308  21119155.040    86479423.75948
  24350141.680   127960831.98608  24350143.360    99709735.15245
  23207936.460   121958562.10108  23207937.080    95032669.77747
  23588983.920   123960932.61908  23588981.940    96592921.59147
  22025372.600   115744100.18309  22025370.200    90190191.20548
 15 02 16 00 27  0.0000000  0  7G16G18G21G25G27G29G31
  22223016.480   116782749.46909  22223013.280    90999547.69947
  23189756.040   121863086.88008  23189754.020    94958260.57746
  21124228.560   111008581.32008  21124225.140    86500184.67248
  24367727.220   128053244.00308  24367728.880    99781744.44645
  23195641.700   121893952.63108  23195642.300    94982324.76947
  23603006.200   124034619.92108  23603004.260    96650340.24047
  22040337.800   115822742.76309  22040335.420    90251471.10348
 15 02 16 00 27 30.0000000  0  7G16G18G21G25G27G29G31
  22208345.780   116705654.47609  22208342.580    90939473.69447
  23177064.780   121796394.10808  23177062.760    94906292.24746
  21129374.360   111035622.35808  21129370.960    86521255.61948
  24385346.360   128145832.72708  24385347.920    99853891.38945
  23183370.180   121829465.09208  23183370.680    94932074.78347
  23617029.340   124108311.84308  23617027.500    96707762.48246
  22055365.020   115901711.30609  22055362.680    90313005.00048
 15 02 16 00 28  0.0000000  0  8G16G18G21G22G25G27G29G31
  22193705.480   116628719.64009  22193702.360    90879524.48347
  23164408.780   121729886.35308  23164406.680    94854468.06746
  21134595.460   111063058.99808  21134592.020    86542634.81548
  24545740.480   128988739.83807  24545743.400   100510720.06946
  24402998.720   128238596.10108  24402999.960    99926174.44545
  23171121.580   121765098.37008  23171122.040    94881918.93647
  23631053.200   124182007.40709  23631051.440    96765187.54546
  22070453.540   115981002.29209  22070451.300    90374790.13948
 15 02 16 00 28 30.0000000  0  8G16G18G21G22G25G27G29G31
  22179095.360   116551943.23509  22179092.360    90819698.73447
  23151787.680   121663562.24108  23151785.620    94802786.99246
  21139890.740   111090885.53608  21139887.240    86564317.83348
  24528852.540   128899997.17408  24528856.460   100441570.99146
  24420683.440   128331529.05407  24420684.640    99998589.70145
  23158895.240   121700848.37308  23158895.600    94831854.04847
  23645076.940   124255702.20108  23645075.160    96822612.02347
  22085602.180   116060609.00409  22085600.020    90436821.29748
 15 02 16 00 29  0.0000000  0  8G16G18G21G22G25G27G29G31
  22164517.080   116475333.98009  22164514.000    90760003.21947
  23139203.340   121597431.77108  23139201.400    94751256.81546
  21145261.400   111119108.38408  21145257.880    86586309.65748
  24511947.420   128811162.96508  24511951.580   100372350.49246
  24438401.500   128424638.05107  24438403.120   100071142.06844
  23146692.480   121636722.34908  23146692.820    94781885.75547
  23659101.840   124329403.35608  23659100.020    96880041.45846
  22100811.740   116140535.71509  22100809.620    90499101.80548
 15 02 16 00 29 30.0000000  0  8G16G18G21G22G25G27G29G31
  22149971.240   116398894.97509  22149968.060    90700440.36847
  23126656.480   121531498.36708  23126654.680    94699880.18846
  21150707.300   111147726.75808  21150703.780    86608609.69748
  24495025.440   128722240.22108  24495029.300   100303060.97046
  24456152.760   128517922.68407  24456154.760   100143831.24945
  23134513.420   121572720.85208  23134513.660    94732014.50147
  23673128.060   124403111.70008  23673126.200    96937476.48646
  22116081.860   116220780.74309  22116079.760    90561630.35748
 15 02 16 00 30  0.0000000  0  8G16G18G21G22G25G27G29G31
  22135456.780   116322620.60309  22135453.460    90641005.80647
  23114146.120   121465756.85408  23114144.420    94648653.08646
  21156226.740   111176731.65608  21156223.200    86631210.91248
  24478085.600   128633224.16908  24478089.320   100233698.70746
  24473935.960   128611374.33307  24473938.180   100216650.60945
  23122356.540   121508836.22708  23122356.780    94682234.31347
  23687154.240   124476819.57408  23687152.320    96994911.16846
  22131410.680   116301333.98109  22131408.560    90624399.07548
 15 02 16 00 30 30.0000000  0  8G16G18G21G22G25G27G29G31
  22120975.040   116246517.98809  22120971.560    90581705.06647
  23101673.860   121400215.55008  23101672.340    94597581.99946
  21161820.420   111206126.66408  21161816.840    86654116.11748
  24461129.360   128544122.01808  24461133.220   100164269.32846
  24491751.840   128704997.06208  24491754.180   100289603.23646
  23110222.780   121445073.42908  23110223.160    94632549.06547
  23701181.100   124550531.51508  23701179.280    97052349.00646
  22146798.640   116382197.88609  22146796.400    90687409.86948
 15 02 16 00 31  0.0000000  0  8G16G18G21G22G25G27G29G31
  22106526.240   116170588.91609  22106522.800    90522539.57247
  23089240.120   121334876.28108  23089238.620    94546668.33046
  21167488.000   111235910.06108  21167484.380    86677323.96148
  24444157.180   128454936.11608  24444160.760   100094774.65245
  24509600.160   128798789.44008  24509602.400   100362688.09146
  23098112.100   121381432.02708  23098112.560    94582958.42047
  23715208.660   124624247.19508  23715207.000    97109789.74846
  22162245.080   116463369.11809  22162242.800    90750660.13548
 15 02 16 00 31 30.0000000  0  8G16G18G21G22G25G27G29G31
  22092110.200   116094832.37509  22092106.820    90463508.51347
  23076844.840   121269738.71608  23076843.260    94495911.82946
  21173228.420   111266076.59708  21173224.820    86700830.36348
  24427168.840   128365665.82708  24427171.820   100025214.18145
  24527479.960   128892747.35108  24527482.100   100435901.92546
  23086023.940   121317908.79608  23086024.460    94533459.84747
  23729236.280   124697962.88808  23729234.660    97167230.51346
  22177748.920   116544841.97709  22177746.560    90814145.44348
 15 02 16 00 32  0.0000000  0  8G16G18G21G22G25G27G29G31
  22077727.880   116019253.29109  22077724.680    90404615.74447
  23064489.180   121204809.11908  23064487.460    94445317.37946
  21179042.260   111296628.84509  21179038.680    86724637.31148
  24410165.480   128276316.33508  24410168.400    99955591.98644
  24545391.660   128986872.99208  24545393.760   100509246.46646
  23073958.920   121254506.90108  23073959.340    94484055.80647
  23743264.580   124771682.13908  23743262.980    97224674.05546
  22193310.200   116626616.67409  22193307.760    90877865.94548
 15 02 16 00 32 30.0000000  0  8G16G18G21G22G25G27G29G31
  22063379.200   115943851.06009  22063376.060    90345860.77147
  23052173.020   121140087.06108  23052171.160    94394884.66246
  21184928.820   111327563.00308  21184925.200    86748741.84848
  24393147.120   128186888.23308  24393150.240    99885908.53744
  24563334.580   129081162.48808  24563336.780   100582718.68146
  23061916.480   121191223.44608  23061916.840    94434744.07047
  23757293.060   124845402.41208  23757291.540    97282118.38846
  22208928.000   116708688.31509  22208925.540    90941817.83048
 15 02 16 00 33  0.0000000  0  8G16G18G21G22G25G27G29G31
  22049064.880   115868629.06309  22049061.800    90287246.24947
  23039897.120   121075576.42208  23039895.180    94344616.68046
  21190887.840   111358877.72008  21190884.200    86773142.93648
  24376114.560   128097385.01308  24376117.700    99816166.54444
  24581308.600   129175615.97008  24581310.640   100656318.67046
  23049896.780   121128059.46508  23049897.120    94385525.42047
  23771321.880   124919124.41908  23771320.360    97339564.07146
  22224601.900   116791055.07909  22224599.520    91005999.68748
 15 02 16 00 33 30.0000000  0  8G16G18G21G22G25G27G29G31
  22034785.260   115793589.10109  22034782.140    90228773.55947
  23027661.980   121011279.84908  23027659.880    94294515.49646
  21196919.080   111390571.70609  21196915.340    86797839.55548
  24359068.240   128007808.78708  24359070.900    99746367.60944
  24599313.540   129270232.14008  24599315.740   100730045.40546
  23037899.780   121065014.63408  23037900.140    94336399.60247
  23785350.960   124992847.65308  23785349.520    97397010.69646
  22240331.380   116873713.92309  22240329.020    91070409.13348
 15 02 16 00 34  0.0000000  0  8G16G18G21G22G25G27G29G31
  22020540.980   115718734.83609  22020537.820    90170445.57547
  23015468.280   120947201.32108  23015466.020    94244584.21846
  21203022.540   111422645.37108  21203018.740    86822832.02548
  24342008.780   127918163.67608  24342011.380    99676515.01445
  24617349.500   129365011.58207  24617351.560   100803899.37745
  23025925.640   121002090.53708  23025926.100    94287367.86947
  23799380.560   125066573.70708  23799379.140    97454459.53046
  22256116.220   116956663.80709  22256113.960    91135045.35748
 15 02 16 00 34 30.0000000  0  8G16G18G21G22G25G27G29G31
  22006331.980   115644066.11309  22006328.860    90112262.17347
  23003316.120   120883341.24709  23003313.820    94194823.16946
  21209197.480   111455094.91009  21209193.720    86848117.38948
  24324936.440   127828450.27808  24324938.840    99606609.20546
  24635415.840   129459950.97107  24635418.120   100877877.97345
  23013973.980   120939284.86708  23013974.500    94238428.41547
  23813410.220   125140300.12808  23813408.860    97511908.65346
  22271955.480   117039899.89009  22271953.320    91199904.59348
 15 02 16 00 35  0.0000000  0  8G16G18G21G22G25G27G29G31
  21992159.080   115569587.31009  21992155.980    90054226.75247
  22991206.460   120819704.75909  22991204.160    94145236.33446
  21215444.080   111487920.93009  21215440.340    86873696.10248
  24307851.800   127738672.88907  24307853.920    99536653.55646
  24653512.660   129555051.42106  24653515.080   100951982.02944
  23002045.260   120876599.63008  23002045.900    94189582.80648
  23827440.380   125214029.00108  23827439.060    97569359.69046
  22287849.060   117123421.41109  22287846.940    91264986.24948
 15 02 16 00 35 30.0000000  0  8G16G18G21G22G25G27G29G31
  21978021.880   115495296.28509  21978018.920    89996337.65847
  22979139.000   120756290.30408  22979136.700    94095822.52646
  21221761.240   111521117.87008  21221757.560    86899563.85148
  24290754.700   127648830.16807  24290756.640    99466646.97146
  24671639.240   129650307.72306  24671641.940   101026207.55144
  22990138.760   120814030.75008  22990139.460    94140827.86647
  23841470.300   125287756.40508  23841469.000    97626809.58846
  22303795.700   117207221.65909  22303793.660    91330285.09048
 15 02 16 00 36  0.0000000  0  8G16G18G21G22G25G27G29G31
  21963921.500   115421198.57709  21963918.560    89938599.19547
  22967114.860   120693103.99408  22967112.720    94046586.48246
  21228149.400   111554687.84309  21228145.740    86925722.26348
  24273646.420   127558928.50508  24273648.220    99396594.43846
  24689796.100   129745722.31707  24689798.440   101100556.47043
  22978255.040   120751581.67208  22978255.760    94092166.28747
  23855500.540   125361485.78508  23855499.360    97684261.00846
  22319795.540   117291301.31509  22319793.500    91395801.66048
 15 02 16 00 36 30.0000000  0  8G16G18G21G22G25G27G29G31
  21949857.600   115347292.36009  21949854.660    89881009.94948
  22955133.980   120630144.71008  22955131.900    93997527.33846
  21234607.360   111588624.84108  21234603.740    86952166.67948
  24256526.680   127468966.19208  24256528.080    99326494.57146
  24707982.300   129841289.99008  24707984.560   101175024.67044
  22966393.280   120689248.13808  22966394.060    94043594.74347
  23869530.400   125435212.90308  23869529.220    97741710.67746
  22335847.320   117375653.73309  22335845.320    91461530.76248
 15 02 16 00 37  0.0000000  0  8G16G18G21G22G25G27G29G31
  21935831.380   115273583.86609  21935828.380    89823574.78048
  22943197.600   120567418.80908  22943195.480    93948650.06246
  21241135.740   111622931.76208  21241132.140    86978899.34748
  24239396.700   127378949.76208  24239397.780    99256352.51946
  24726198.300   129937013.77108  24726200.320   101249614.54044
  22954554.360   120627034.26708  22954555.120    93995116.43348
  23883560.560   125508941.66508  23883559.320    97799161.64147
  22351951.300   117460280.02309  22351949.180    91527473.27448
 15 02 16 00 37 30.0000000  0  8G16G18G21G22G25G27G29G31
  21921842.820   115200073.32709  21921839.780    89766293.85248
  22931305.820   120504927.24408  22931303.620    93899955.38746
  21247733.840   111657605.16908  21247730.220    87005917.59748
  24222256.580   127288879.99208  24222257.660    99186168.87046
  24744443.320   130032890.77408  24744445.360   101324323.74645
  22942737.900   120564938.13008  22942738.560    93946729.87248
  23897590.760   125582670.43308  23897589.420    97856612.60247
  22368106.560   117545175.79409  22368104.380    91593625.78048
 15 02 16 00 38  0.0000000  0  8G16G18G21G22G25G27G29G31
  21907892.580   115126764.41509  21907889.540    89709170.03847
  22919459.480   120442674.02009  22919457.100    93851446.40846
  21254401.720   111692645.31508  21254398.100    87033221.60248
  24205107.120   127198761.28308  24205108.160    99115947.05946
  24762717.520   130128921.19008  24762719.760   101399152.51445
  22930944.160   120502961.07508  22930944.720    93898436.09748
  23911621.180   125656400.44108  23911619.820    97914064.51946
  22384312.880   117630339.81309  22384310.560    91659987.29648
 15 02 16 00 38 30.0000000  0  8G16G18G21G22G25G27G29G31
  21893980.680   115053657.04009  21893977.620    89652203.26247
  22907658.620   120380659.57309  22907656.120    93803123.49746
  21261138.580   111728048.13908  21261135.060    87060808.21748
  24187948.440   127108593.81308  24187949.140    99045687.24546
  24781020.260   130225101.71808  24781022.420   101474098.24346
  22919172.600   120441100.71008  22919173.060    93850233.23848
  23925651.340   125730129.41608  23925650.040    97971515.61846
  22400569.220   117715766.85709  22400566.720    91726553.77948
 15 02 16 00 39  0.0000000  0  8G16G18G21G22G25G27G29G31
  21880107.540   114980753.55709  21880104.520    89595395.36947
  22895903.780   120318886.89409  22895901.180    93754988.97446
  21267944.100   111763811.83008  21267940.720    87088676.03148
  24170780.960   127018380.22008  24170781.640    98975391.48246
  24799351.320   130321431.43708  24799353.740   101549160.18146
  22907423.180   120379357.23108  22907423.600    93802121.47148
  23939681.340   125803857.46408  23939679.980    98028966.00346
  22416875.020   117801454.06509  22416872.600    91793322.97248
 15 02 16 00 39 30.0000000  0  7G16G18G21G22G27G29G31
  21866274.800   114908062.27509  21866271.780    89538752.81847
  22884196.540   120257364.88009  22884193.960    93707049.79646
  21274819.400   111799942.18208  21274816.160    87116829.55548
  24153606.360   126928129.49008  24153607.060    98905066.73446
  22895697.180   120317736.96608  22895697.620    93754105.70847
  23953712.400   125877591.04008  23953710.980    98086420.70946
  22433231.120   117887405.59809  22433228.680    91860298.13847
 15 02 16 00 40  0.0000000  0  7G16G18G21G22G27G29G31
  21852481.340   114835577.26709  21852478.380    89482270.99548
  22872535.760   120196087.72909  22872533.180    93659301.39146
  21281762.560   111836428.86308  21281759.360    87145260.73548
  24136423.720   126837836.23008  24136424.040    98834708.81345
  22883993.020   120256231.64408  22883993.560    93706179.52348
  23967742.960   125951321.87008  23967741.460    98143873.25746
  22449635.340   117973610.18609  22449632.900    91927470.48648
 15 02 16 00 40 30.0000000  0  7G16G18G21G22G27G29G31
  21838727.260   114763299.01509  21838724.240    89425950.29047
  22860921.800   120135056.52509  22860919.240    93611744.64646
  21288772.980   111873268.95008  21288769.780    87173967.30248
  24119233.200   126747501.31108  24119233.360    98764318.42045
  22872310.460   120194839.51408  22872311.020    93658341.53047
  23981772.640   126025048.05008  23981771.120    98201322.19246
  22466086.860   118060063.45709  22466084.400    91994836.61648
 15 02 16 00 41  0.0000000  0  7G16G18G21G22G27G29G31
  21825014.400   114691237.39109  21825011.380    89369798.37348
  22849356.640   120074281.73509  22849354.180    93564387.70146
  21295851.800   111910468.47408  21295848.620    87202953.94248
  24102036.600   126657135.05908  24102037.020    98693903.61545
  22860650.880   120133568.22808  22860651.440    93610597.70048
  23995802.900   126098777.31408  23995801.500    98258773.53446
  22482586.600   118146770.37509  22482584.240    92062400.38548
 15 02 16 00 41 30.0000000  0  7G16G18G21G22G27G29G31
  21811342.100   114619388.98309  21811339.040    89313812.61348
  22837839.680   120013760.13009  22837837.360    93517228.03246
  21302997.620   111948019.90408  21302994.420    87232214.79748
  24084833.600   126566734.79408  24084833.800    98623462.30445
  22849013.160   120072412.04608  22849013.700    93562943.56248
  24009832.780   126172504.57108  24009831.380    98316223.30546
  22499133.060   118233722.49109  22499130.760    92130155.22448
 15 02 16 00 42  0.0000000  0  7G16G18G21G22G27G29G31
  21797711.200   114547758.13309  21797708.120    89257996.36647
  22826371.940   119953496.73709  22826369.700    93470269.57246
  21310210.540   111985923.98609  21310207.340    87261750.43948
  24067625.080   126476305.37108  24067624.860    98552998.23046
  22837397.780   120011373.22208  22837398.360    93515380.86547
  24023862.640   126246231.67308  24023861.200    98373672.95046
  22515726.080   118320919.20809  22515723.780    92198100.65648
 15 02 16 00 42 30.0000000  0  7G16G18G21G22G27G29G31
  21784121.500   114476343.76709  21784118.380    89202348.80948
  22814953.160   119893490.57709  22814950.960    93423511.55846
  21317489.540   112024175.35209  21317486.360    87291556.69448
  24050410.860   126385845.64808  24050410.560    98482510.51945
  22825804.120   119950448.03008  22825804.680    93467906.72048
  24037891.820   126319954.99108  24037890.260    98431119.64446
  22532364.460   118408354.27209  22532362.120    92266231.81548
 15 02 16 00 43  0.0000000  0  7G16G18G21G22G27G29G31
  21770574.060   114405151.54709  21770570.960    89146874.37248
  22803584.480   119833747.95709  22803582.360    93376958.91146
  21324835.140   112062776.84908  21324831.960    87321635.78948
  24033192.160   126295362.01108  24033191.780    98412004.18545
  22814232.780   119889640.40208  22814233.380    93420524.18148
  24051921.060   126393678.74608  24051919.480    98488566.68746
  22549048.380   118496028.75309  22549046.060    92334549.53147
 15 02 16 00 43 30.0000000  0  7G16G18G21G22G27G29G31
  21757069.800   114334186.16609  21757066.700    89091576.68548
  22792266.840   119774273.64409  22792264.720    93330615.32346
  21332247.600   112101729.46309  21332244.400    87351988.47948
  24015969.900   126204860.04008  24015969.280    98341483.52745
  22802684.260   119828952.64308  22802684.740    93373235.04347
  24065950.740   126467405.09308  24065949.240    98546015.74446
  22565777.840   118583942.22809  22565775.540    92403053.48648
 15 02 16 00 44  0.0000000  0  7G16G18G21G22G27G29G31
  21743607.700   114263442.10909  21743604.580    89036451.45348
  22780999.400   119715063.02609  22780997.200    93284477.20346
  21339725.000   112141023.41808  21339721.780    87382607.15348
  23998743.200   126114334.22408  23998742.580    98270944.28246
  22791157.100   119768377.03208  22791157.480    93326033.28547
  24079979.460   126541126.33308  24079978.000    98603460.83146
  22582550.780   118672084.12909  22582548.480    92471735.42347
 15 02 16 00 44 30.0000000  0  7G16G18G21G22G27G29G31
  21730189.140   114192926.81409  21730186.000    88981504.47848
  22769783.560   119656123.44409  22769781.240    93238550.27546
  21347268.000   112180662.23208  21347264.760    87413494.54348
  23981513.460   126023792.49808  23981512.940    98200392.64846
  22779652.220   119707918.49508  22779652.600    93278922.74947
  24094008.120   126614847.62608  24094006.740    98660905.94546
  22599367.620   118760456.69909  22599365.260    92540597.11547
 15 02 16 00 45  0.0000000  0  7G16G18G21G22G27G29G31
  21716814.540   114122642.39309  21716811.300    88926737.39348
  22758619.840   119597457.82609  22758617.520    93192836.84146
  21354876.400   112220644.67208  21354873.180    87444649.68948
  23964281.220   125933237.87708  23964280.580    98129830.96046
  22768169.680   119647577.25408  22768170.080    93231903.61447
  24108036.780   126688568.70508  24108035.440    98718350.88546
  22616227.840   118849057.43309  22616225.540    92609636.57047
 15 02 16 00 45 30.0000000  0  7G16G18G21G22G27G29G31
  21703483.740   114052588.35909  21703480.480    88872149.84848
  22747508.160   119539065.40309  22747505.860    93147336.28346
  21362549.100   112260965.11708  21362545.920    87476068.22048
  23947046.580   125842670.05208  23947045.700    98059258.96546
  22756708.880   119587350.27208  22756709.180    93184973.51747
  24122065.040   126762287.39908  24122063.720    98775793.98046
  22633130.420   118937880.55909  22633128.100    92678849.34747
 15 02 16 00 46  0.0000000  0  7G16G18G21G22G27G29G31
  21690197.600   113982769.24609  21690194.340    88817745.34948
  22736449.360   119480951.23509  22736447.100    93102052.54646
  21370286.520   112301625.56008  21370283.360    87507751.67848
  23929810.260   125752093.77008  23929809.420    97988680.33446
  22745270.260   119527239.94208  22745270.460    93138134.31747
  24136093.280   126836006.14308  24136092.000    98833237.10646
  22650075.160   119026925.51909  22650072.900    92748234.95748
 15 02 16 00 46 30.0000000  0  7G16G18G21G22G27G29G31
  21676956.240   113913185.57909  21676953.040    88763524.32048
  22725443.800   119423116.57509  22725441.480    93056986.59747
  21378088.020   112342622.67408  21378084.880    87539697.48148
  23912572.660   125661510.39008  23912571.680    97918096.19346
  22733853.440   119467244.41308  22733853.640    93091384.57748
  24150121.200   126909722.95008  24150119.880    98890678.73546
  22667061.260   119116187.74609  22667059.100    92817789.87748
 15 02 16 00 47  0.0000000  0  7G16G18G21G22G27G29G31
  21663759.780   113843838.06809  21663756.660    88709487.30748
  22714491.600   119365562.26209  22714489.260    93012139.09947
  21385952.860   112383952.72208  21385949.760    87571902.70748
  23895333.920   125570921.34508  23895332.800    97847507.66146
  22722458.220   119407362.35408  22722458.500    93044723.25247
  24164148.480   126983436.42008  24164147.200    98948117.77446
  22684087.980   119205663.54809  22684085.840    92887511.21048
 15 02 16 00 47 30.0000000  0  7G16G18G21G22G27G29G31
  21650609.660   113774734.07109  21650606.640    88655640.04848
  22703594.020   119308295.52609  22703591.680    92967515.69746
  21393881.660   112425618.91808  21393878.600    87604369.87348
  23878095.380   125480334.09608  23878094.400    97776920.49746
  22711085.520   119347598.57208  22711085.840    92998154.09447
  24178176.080   127057151.42308  24178174.700    99005558.00546
  22701155.740   119295354.61809  22701153.620    92957400.29348
 15 02 16 00 48  0.0000000  0  7G16G18G21G22G27G29G31
  21637505.520   113705871.68709  21637502.500    88601981.06448
  22692750.940   119251315.01109  22692748.520    92923115.32146
  21401873.540   112467616.49108  21401870.480    87637095.25748
  23860857.040   125389747.49508  23860856.020    97706333.81546
  22699734.520   119287949.11408  22699734.920    92951674.03248
  24192203.240   127130864.40408  24192201.800    99062996.66946
  22718263.060   119385254.05509  22718260.980    93027451.73748
 15 02 16 00 48 30.0000000  0  7G16G18G21G22G27G29G31
  21624447.960   113637253.82209  21624444.900    88548512.60048
  22681962.920   119194623.78609  22681960.520    92878940.36046
  21409928.240   112509944.05208  21409925.140    87670077.76348
  23843619.360   125299164.70408  23843618.240    97635750.11746
  22688405.460   119228414.54909  22688405.860    92905283.48048
  24206230.020   127204575.80108  24206228.600    99120434.09346
  22735409.640   119475359.88309  22735407.640    93097663.98748
 15 02 16 00 49  0.0000000  0  7G16G18G21G22G27G29G31
  21611437.540   113568883.39609  21611434.400    88495236.95048
  22671230.700   119138225.40509  22671228.300    92834993.59547
  21418045.520   112552600.54108  21418042.360    87703316.58248
  23826383.080   125208589.20908  23826381.900    97565172.09046
  22677098.440   119168995.51608  22677098.820    92858982.95848
  24220256.700   127278286.70208  24220255.480    99177871.12146
  22752595.020   119565669.66909  22752593.080    93168035.17148
 15 02 16 00 49 30.0000000  0  7G16G18G21G22G27G29G31
  21598474.700   113500762.71809  21598471.460    88442155.91048
  22660554.660   119082122.37809  22660552.240    92791276.96746
  21426225.020   112595584.01508  21426221.820    87736810.19548
  23809148.900   125118023.87308  23809147.720    97494601.99546
  22665813.380   119109692.13108  22665813.740    92812772.55248
  24234283.220   127351996.96108  24234282.080    99235307.66046
  22769818.720   119656180.86109  22769816.820    93238563.29448
 15 02 16 00 50  0.0000000  0  7G16G18G21G22G27G29G31
  21585559.180   113432890.58509  21585555.800    88389268.53348
  22649934.520   119026313.58609  22649932.160    92747789.62347
  21434465.920   112638890.17609  21434462.680    87770555.25448
  23791916.480   125027468.21608  23791915.080    97424039.40846
  22654549.660   119050501.03009  22654549.940    92766649.63947
  24248309.020   127425703.44308  24248307.840    99292741.24746
  22787079.600   119746887.34509  22787077.760    93309243.59447
 15 02 16 00 50 30.0000000  0  7G16G18G21G22G27G29G31
  21572692.320   113365274.45809  21572688.880    88336580.64748
  22639371.800   118970806.43309  22639369.480    92704537.31946
  21442768.820   112682522.06008  21442765.540    87804554.12148
  23774687.320   124936929.50408  23774685.680    97353490.01846
  22643308.280   118991427.15808  22643308.480    92720618.06748
  24262334.980   127499410.40508  24262333.780    99350175.21346
  22804378.080   119837791.32109  22804376.260    93380077.78147
 15 02 16 00 51  0.0000000  0  7G16G18G21G22G27G29G31
  21559873.360   113297910.46409  21559869.920    88284089.23148
  22628865.920   118915597.87409  22628863.580    92661517.67846
  21451132.200   112726471.75309  21451128.880    87838800.63348
  23757460.880   124846405.00208  23757459.300    97282951.70546
  22632088.020   118932464.41508  22632088.240    92674673.09948
  24276360.200   127573113.55408  24276359.180    99407606.19546
  22821712.460   119928883.85009  22821710.660    93451058.88947
 15 02 16 00 51 30.0000000  0  7G16G18G21G22G27G29G31
  21547104.020   113230807.41309  21547100.660    88231801.14748
  22618418.560   118860696.55109  22618416.100    92618737.43746
  21459557.120   112770744.65208  21459553.720    87873298.99148
  23740238.920   124755903.84308  23740237.320    97212431.55946
  22620890.160   118873619.41608  22620890.420    92628819.88148
  24290385.880   127646818.98108  24290385.000    99465038.95946
  22839083.440   120020168.64309  22839081.640    93522189.82147
 15 02 16 00 52  0.0000000  0  7G16G18G21G22G27G29G31
  21534383.440   113163960.78909  21534380.180    88179712.87148
  22608028.880   118806098.34809  22608026.360    92576193.40347
  21468041.940   112815332.47709  21468038.460    87908042.75348
  23723020.840   124665422.37109  23723018.840    97141926.74646
  22609713.540   118814885.63409  22609713.660    92583053.31948
  24304410.800   127720520.25008  24304410.000    99522468.48246
  22856489.240   120111636.48709  22856487.420    93593463.37947
 15 02 16 00 52 30.0000000  0  7G16G18G21G22G27G29G31
  21521712.320   113097374.37709  21521709.180    88127827.35948
  22597697.500   118751806.82909  22597695.040    92533888.35047
  21476586.480   112860234.30409  21476583.000    87943031.19648
  23705807.180   124574964.19008  23705804.960    97071440.04846
  22598558.240   118756264.00909  22598558.240    92537374.15448
  24318435.140   127794218.10208  24318434.320    99579895.32946
  22873929.500   120203285.34909  22873927.740    93664877.98747
 15 02 16 00 53  0.0000000  0  7G16G18G21G22G27G29G31
  21509092.340   113031056.47309  21509089.300    88076151.08148
  22587426.120   118697830.50009  22587423.700    92491828.89746
  21485191.500   112905454.12309  21485188.000    87978267.42148
  23688599.480   124484538.00508  23688597.300    97000978.29646
  22587425.380   118697760.35309  22587425.360    92491786.91348
  24332459.980   127867918.48508  24332459.140    99637324.16346
  22891404.800   120295118.24709  22891403.060    93736436.00147
 15 02 16 00 53 30.0000000  0  7G16G18G21G22G27G29G31
  21496522.640   112965002.51909  21496519.660    88024680.47748
  22577213.900   118644165.14709  22577211.520    92450011.76447
  21493855.520   112950984.00509  21493852.060    88013745.25348
  23671397.180   124394140.29108  23671394.880    96930538.73646
  22576313.800   118639368.65609  22576313.780    92446286.91847
  24346484.140   127941615.58508  24346483.180    99694750.43746
  22908913.500   120387126.49609  22908911.680    93808130.65647
 15 02 16 00 54  0.0000000  0  7G16G18G21G22G27G29G31
  21484004.680   112899220.09809  21484001.700    87973421.45248
  22567062.380   118590818.52309  22567059.940    92408442.98546
  21502579.280   112996827.82009  21502575.860    88049467.70248
  23654201.800   124303779.24108  23654199.460    96860127.72146
  22565224.420   118581093.95709  22565224.440    92400878.08647
  24360508.600   128015314.29208  24360507.660    99752177.97246
  22926455.920   120479312.27009  22926454.160    93879963.62847
 15 02 16 00 54 30.0000000  0  7G16G18G21G22G27G29G31
  21471537.420   112833703.87609  21471534.360    87922369.85348
  22556970.560   118537785.62309  22556968.000    92367118.66946
  21511360.960   113042976.15209  21511357.600    88085427.44148
  23637012.480   124213449.85808  23637010.280    96789741.38746
  22554155.900   118522928.53109  22554155.880    92355554.39848
  24374532.020   128089007.51208  24374531.100    99809601.21346
  22944030.040   120571664.82309  22944028.400    93951926.56147
 15 02 16 00 55  0.0000000  0  7G16G18G21G22G27G29G31
  21459122.820   112768464.18209  21459119.620    87871533.73348
  22546940.440   118485076.85009  22546937.860    92326046.91847
  21520201.820   113089435.42609  21520198.520    88121629.47348
  23619831.300   124123163.09108  23619829.240    96719388.26946
  22543109.700   118464880.63209  22543109.680    92310322.30148
  24388555.960   128162703.38608  24388554.960    99867026.51446
  22961636.940   120664189.30209  22961635.340    94024023.45747
 15 02 16 00 55 30.0000000  0  7G16G18G21G22G27G29G31
  21446760.080   112703497.22709  21446756.800    87820910.13648
  22536971.280   118432688.24009  22536968.720    92285224.64747
  21529100.320   113136197.56509  21529097.080    88158067.50748
  23602657.620   124032915.51908  23602655.480    96649065.64946
  22532084.640   118406944.04908  22532084.660    92265176.94548
  24402579.200   128236395.94608  24402578.200    99924449.23746
  22979275.040   120756877.63609  22979273.540    94096248.03147
 15 02 16 00 56  0.0000000  0  7G16G18G21G22G27G29G31
  21434449.960   112638806.61009  21434446.540    87770501.87448
  22527063.740   118380623.74209  22527061.240    92244654.93346
  21538056.460   113183262.51109  21538053.240    88194741.48548
  23585492.260   123942711.38708  23585490.060    96578776.88846
  22521081.100   118349120.29309  22521081.120    92220119.49748
  24416602.160   128310086.90408  24416601.080    99981870.73445
  22996943.900   120849727.83509  22996942.460    94168598.71747
 15 02 16 00 56 30.0000000  0  7G16G18G21G22G27G29G31
  21422193.140   112574396.39709  21422189.640    87720312.10248
  22517218.540   118328886.92409  22517216.000    92204340.55047
  21547070.160   113230630.04709  21547066.940    88231651.25448
  23568335.960   123852555.01608  23568333.740    96508525.35247
  22510099.360   118291410.81208  22510099.360    92175151.10048
  24430625.000   128383777.55708  24430623.760   100039291.99546
  23014643.280   120942738.53209  23014641.920    94241074.47547
 15 02 16 00 57  0.0000000  0  7G16G18G21G22G27G29G31
  21409990.000   112510268.50809  21409986.480    87670342.32248
  22507436.240   118277480.79609  22507433.680    92164283.84547
  21556141.060   113278297.97809  21556137.780    88268795.09848
  23551189.300   123762449.17708  23551186.960    96438313.16647
  22499139.320   118233815.63209  22499139.320    92130271.75648
  24444647.840   128457468.30708  24444646.500   100096713.31846
  23032372.680   121035906.85009  23032371.400    94313673.04047
 15 02 16 00 57 30.0000000  0  7G16G18G21G22G27G29G31
  21397840.460   112446422.36609  21397836.980    87620592.09348
  22497716.640   118226404.35009  22497714.180    92124484.05047
  21565268.300   113326262.03209  21565265.020    88306169.68548
  23534052.260   123672393.73708  23534049.740    96368140.27547
  22488200.540   118176331.63409  22488200.440    92085479.05648
  24458670.160   128531156.16908  24458668.960   100154132.39746
  23050130.920   121129226.72909  23050129.720    94386389.68647
 15 02 16 00 58  0.0000000  0  7G16G18G21G22G27G29G31
  21385745.560   112382863.37109  21385742.140    87571065.61448
  22488060.820   118175662.93409  22488058.340    92084945.30447
  21574452.140   113374523.49709  21574448.880    88343776.01848
  23516925.860   123582394.49908  23516923.220    96298011.16347
  22477283.500   118118962.05509  22477283.440    92040775.51448
  24472692.560   128604844.38108  24472691.560   100211551.72346
  23067918.180   121222698.90209  23067916.940    94459225.02247
 15 02 16 00 58 30.0000000  0  7G16G18G21G22G27G29G31
  21373705.560   112319593.15409  21373702.240    87521764.15148
  22478469.020   118125258.08909  22478466.660    92045668.82147
  21583692.160   113423080.16709  21583688.880    88381612.38248
  23499810.520   123492453.62108  23499807.880    96227927.53046
  22466388.060   118061706.24409  22466388.060    91996160.62348
  24486714.920   128678532.54108  24486714.000   100268971.00145
  23085733.700   121316319.54209  23085732.580    94532176.02347
 15 02 16 00 59  0.0000000  0  7G16G18G21G22G27G29G31
  21361720.720   112256612.65509  21361717.480    87472688.44348
  22468941.460   118075190.83609  22468939.220    92006655.40947
  21592987.820   113471928.79009  21592984.500    88419676.24648
  23482706.520   123402572.53508  23482703.840    96157890.48246
  22455514.020   118004562.72309  22455513.900    91951633.22548
  24500736.980   128752219.15808  24500736.100   100326389.10345
  23103576.700   121410084.47809  23103575.500    94605239.46847
 15 02 16 00 59 30.0000000  0  7G16G18G21G22G27G29G31
  21349791.480   112193924.29609  21349788.280    87423840.37148
  22459478.820   118025464.12509  22459476.500    91967907.34147
  21602338.800   113521067.87009  21602335.400    88457966.43448
  23465614.520   123312754.52008  23465611.860    96087902.57646
  22444661.460   117947532.08809  22444661.280    91907193.78948
  24514758.980   128825905.08908  24514758.160   100383806.68745
  23121446.720   121503991.33609  23121445.640    94678413.45947
 15 02 16 01 00  0.0000000  0  7G16G18G21G22G27G29G31
  21337918.440   112131531.12109  21337915.260    87375222.32148
  22450081.420   117976080.49409  22450079.060    91929426.61047
  21611744.840   113570496.22109  21611741.340    88496482.03148
  23448535.180   123223002.82608  23448532.480    96017966.33446
  22433830.480   117890614.81409  22433830.320    91862842.69048
  24528780.980   128899590.81808  24528780.120   100441224.09445
  23139343.280   121598037.92309  23139342.180    94751696.35447
 15 02 16 01 00 30.0000000  0  7G16G18G21G22G27G29G31
  21326101.820   112069434.37909  21326098.660    87326835.25848
  22440749.580   117927041.25709  22440747.160    91891214.23447
  21621205.460   113620211.51309  21621201.920    88535221.21948
  23431468.840   123133319.11408  23431466.040    95948083.05946
  22423020.840   117833810.01709  22423020.680    91818579.23448
  24542802.880   128973275.89808  24542801.800   100498641.00445
  23157265.600   121692219.89308  23157264.500    94825084.66147
 15 02 16 01 01  0.0000000  0  7G16G18G21G22G27G29G31
  21314341.780   112007635.07309  21314338.660    87278679.95848
  22431483.480   117878347.57309  22431480.960    91853271.12447
  21630720.040   113670210.46709  21630716.380    88574181.43848
  23414415.780   123043705.30108  23414412.960    95878254.25546
  22412232.380   117777116.36909  22412232.180    91774402.38848
  24556824.440   129046958.99408  24556823.360   100556056.37145
  23175213.080   121786533.70209  23175211.940    94898575.77247
 15 02 16 01 01 30.0000000  0  6G16G18G21G22G27G31
  21302641.200   111946148.14709  21302638.100    87230768.07648
  22422286.000   117830014.27909  22422283.420    91815608.83447
  21640290.660   113720504.06209  21640286.940    88613371.24948
  23397379.000   122954177.05908  23397376.140    95808492.11847
  22401467.460   117720546.52209  22401467.320    91730322.00448
  23193187.460   121880989.01508  23193186.480    94972177.02847
 15 02 16 01 02  0.0000000  0  6G16G18G21G22G27G31
  21290997.200   111884958.50309  21290994.080    87183087.84448
  22413154.220   117782026.00209  22413151.580    91778215.40047
  21649913.680   113771073.22909  21649909.940    88652775.78948
  23380355.660   122864719.49708  23380352.780    95738785.05646
  22390722.700   117664083.20508  22390722.800    91686324.64448
  23211184.940   121975565.58308  23211184.020    95045872.77947
 15 02 16 01 02 30.0000000  0  7G16G18G19G21G22G27G31
  21279410.640   111824070.67209  21279407.460    87135642.78548
  22404088.960   117734387.54709  22404086.280    91741094.53847
  24541961.140   128968871.14307  24541958.020   100495222.34346
  21659589.120   113821918.27209  21659585.420    88692395.29748
  23363346.820   122775337.78908  23363343.920    95669137.09946
  22379998.700   117607728.88809  22379998.940    91642412.20448
  23229205.500   122070262.74709  23229204.540    95119662.44947
 15 02 16 01 03  0.0000000  0  7G16G18G19G21G22G27G31
  21267876.920   111763460.54609  21267873.720    87088414.12248
  22395085.580   117687074.76309  22395082.920    91704227.45647
  24527341.060   128892042.58207  24527338.460   100435356.02446
  21669311.680   113873011.36608  21669308.080    88732208.09348
  23346347.960   122686008.48708  23346345.040    95599529.99646
  22369290.520   117551457.12709  22369290.720    91598564.09548
  23247243.480   122165051.47408  23247242.520    95193523.46947
 15 02 16 01 03 30.0000000  0  7G16G18G19G21G22G27G31
  21256409.100   111703196.58209  21256405.880    87041455.18548
  22386157.140   117640155.82009  22386154.480    91667667.25547
  24512743.920   128815334.72508  24512741.740   100375583.75346
  21679093.620   113924416.66708  21679090.140    88772264.16148
  23329372.040   122596800.05108  23329369.080    95530017.05346
  22358610.540   117495333.78209  22358610.720    91554831.64348
  23265310.880   122259995.37109  23265310.160    95267505.66648
 15 02 16 01 04  0.0000000  0  7G16G18G19G21G22G27G31
  21245000.080   111643241.67009  21244996.880    86994737.08048
  22377296.580   117593593.53309  22377294.000    91631384.97247
  24498162.400   128738708.67208  24498160.360   100315875.23146
  21688927.080   113976092.60508  21688923.720    88812531.11848
  23312412.160   122507676.18908  23312409.300    95460570.03546
  22347951.460   117439319.86709  22347951.700    91511184.46348
  23283399.740   122355051.93709  23283399.140    95341575.60047
 15 02 16 01 04 30.0000000  0  7G16G18G19G21G22G27G31
  21233649.980   111583596.47609  21233646.780    86948260.31348
  22368504.040   117547388.47409  22368501.480    91595381.05047
  24483596.160   128662162.58208  24483594.080   100256228.99146
  21698811.520   114028036.31308  21698808.300    88853006.72848
  23295468.760   122418638.40209  23295465.840    95391190.05446
  22337313.080   117383413.76509  22337313.260    91467621.28348
  23301509.060   122450216.05709  23301508.420    95415729.06548
 15 02 16 01 05  0.0000000  0  7G16G18G19G21G22G27G31
  21222360.160   111524268.35309  21222357.100    86902030.60948
  22359780.900   117501548.09009  22359778.320    91559661.29747
  24469046.160   128585701.97908  24469044.060   100196649.38446
  21708747.660   114080251.28108  21708744.560    88893693.70848
  23278543.320   122329694.93208  23278540.320    95321883.56946
  22326696.120   117327620.77309  22326696.180    91424146.24848
  23319639.460   122545490.88308  23319638.820    95489968.97046
 15 02 16 01 05 30.0000000  0  7G16G18G19G21G22G27G31
  21211131.480   111465261.57509  21211128.520    86856051.31448
  22351127.920   117456076.41509  22351125.340    91524228.83847
  24454512.820   128509328.94108  24454510.640   100137138.00146
  21718735.620   114132738.05508  21718732.500    88934592.48748
  23261636.580   122240849.90508  23261633.620    95252653.79546
  22316100.940   117271942.82309  22316100.860    91380760.85648
  23337790.720   122640875.48908  23337790.240    95564294.60646
 15 02 16 01 06  0.0000000  0  7G16G18G19G21G22G27G31
  21199963.600   111406574.45509  21199960.740    86810321.09148
  22342544.720   117410971.58109  22342542.180    91489082.23247
  24439995.360   128433039.18908  24439993.100   100077691.51746
  21728774.140   114185490.34708  21728770.940    88975698.16148
  23244748.460   122152102.13909  23244745.240    95183499.79347
  22305526.940   117216376.00409  22305526.780    91337462.05048
  23355961.560   122736363.41209  23355961.140    95638701.02748
 15 02 16 01 06 30.0000000  0  7G16G18G19G21G22G27G31
  21188857.040   111348209.45909  21188854.200    86764841.88548
  22334031.760   117366236.10509  22334029.300    91454223.44347
  24425493.760   128356832.99008  24425491.400   100018310.12746
  21738862.800   114238506.46908  21738859.560    89017009.42148
  23227879.520   122063455.51508  23227876.260    95114424.62947
  22294974.220   117160920.67709  22294974.040    91294250.12548
  23374151.260   122831950.80708  23374150.880    95713184.36847
 15 02 16 01 07  0.0000000  0  7G16G18G19G21G22G27G31
  21177812.800   111290171.66009  21177809.960    86719617.62848
  22325590.040   117321874.90109  22325587.560    91419656.27947
  24411008.640   128280713.61208  24411006.280    99958996.39046
  21749001.920   114291787.84908  21748998.680    89058527.36348
  23211030.820   121974915.45709  23211027.620    95045432.48447
  22284443.180   117105579.89309  22284443.040    91251127.45748
  23392360.100   122927638.64709  23392359.660    95787745.97348
 15 02 16 01 07 30.0000000  0  7G16G18G19G21G22G27G31
  21166830.980   111232461.98509  21166828.160    86674649.06248
  22317219.660   117277888.42809  22317217.200    91385381.12347
  24396539.700   128204679.32708  24396537.300    99899748.97445
  21759191.060   114345331.96009  21759187.800    89100250.04048
  23194202.600   121886483.10709  23194199.440    94976524.26947
  22273933.620   117050351.95809  22273933.380    91208092.71948
  23410587.320   123023422.27508  23410586.980    95862382.14747
 15 02 16 01 08  0.0000000  0  7G16G18G19G21G22G27G31
  21155911.800   111175081.14409  21155908.920    86629936.71748
  22308920.720   117234277.19909  22308918.240    91351398.35347
  24382086.660   128128728.58508  24382084.300    99840566.64245
  21769429.380   114399134.43508  21769426.080    89142174.03448
  23177395.060   121798159.44609  23177391.880    94907700.72447
  22263445.240   116995235.31009  22263444.920    91165144.69248
  23428831.920   123119297.52808  23428831.720    95937090.02447
 15 02 16 01 08 30.0000000  0  7G16G18G19G21G22G27G31
  21145055.660   111118031.46209  21145052.660    86585482.42948
  22300693.680   117191043.88009  22300691.100    91317710.07447
  24367649.500   128052861.39707  24367647.240    99781449.44045
  21779716.520   114453193.45509  21779713.160    89184297.94448
  23160608.960   121709948.05809  23160605.680    94838964.66447
  22252978.120   116940230.56209  22252977.940    91122283.86948
  23447093.380   123215261.37808  23447093.320    96011866.69347
 15 02 16 01 09  0.0000000  0  7G16G18G19G21G22G27G31
  21134263.920   111061320.12509  21134260.820    86541291.77348
  22292539.700   117148194.78109  22292537.100    91284321.17747
  24353229.200   127977082.97307  24353227.080    99722401.39845
  21790053.240   114507513.13309  21790049.820    89226624.95948
  23143845.640   121621856.39809  23143842.340    94770321.91247
  22242533.240   116885342.40009  22242533.140    91079513.89348
  23465372.360   123311316.98909  23465372.280    96086715.35047
 15 02 16 01 09 30.0000000  0  7G16G18G19G21G22G27G31
  21123535.940   111004944.00009  21123532.800    86497362.33748
  22284458.200   117105726.59209  22284455.620    91251229.10347
  24338824.760   127901388.17107  24338822.620    99663418.52045
  21800438.140   114562085.99309  21800434.660    89269149.26448
  23127104.560   121533881.70209  23127101.220    94701770.31847
  22232109.540   116830565.54909  22232109.420    91036830.65448
  23483666.980   123407454.97608  23483666.740    96161628.03847
 15 02 16 01 10  0.0000000  0  7G16G18G19G21G22G27G31
  21112872.200   110948905.47609  21112869.000    86453695.95548
  22276449.700   117063641.96909  22276447.180    91218435.90547
  24324436.200   127825777.05707  24324434.180    99604500.84344
  21810870.800   114616909.89909  21810867.300    89311869.18348
  23110386.380   121446027.41208  23110382.900    94633312.50347
  22221707.080   116775900.46309  22221706.940    90994234.50348
  23501976.820   123503673.33509  23501976.420    96236603.38747
 15 02 16 01 10 30.0000000  0  7G16G18G19G21G22G27G31
  21102272.820   110893205.20609  21102269.600    86410293.15548
  22268514.320   117021941.25009  22268511.880    91185941.85047
  24310063.400   127750248.20907  24310061.280    99545647.26345
  21821350.680   114671981.86709  21821347.180    89354782.39848
  23093691.300   121358294.68409  23093687.720    94564949.43146
  22211325.600   116721345.58109  22211325.460    90951724.21148
  23520300.980   123599967.37209  23520300.660    96311637.65947
 15 02 16 01 11  0.0000000  0  7G16G18G19G21G22G27G31
  21091738.780   110837848.42609  21091735.560    86367158.01048
  22260652.920   116980629.29909  22260650.540    91153750.74547
  24295706.800   127674803.74307  24295704.640    99486859.44145
  21831877.980   114727303.19409  21831874.520    89397889.92048
  23077020.440   121270689.28108  23077016.880    94496685.57047
  22200965.620   116666903.85709  22200965.580    90909302.10448
  23538639.520   123696336.91909  23538639.200    96386730.68847
 15 02 16 01 11 30.0000000  0  7G16G18G19G21G22G27G31
  21081270.260   110782836.01309  21081267.060    86324291.20148
  22252865.580   116939706.62209  22252863.200    91121862.96647
  24281366.280   127599443.10207  24281364.080    99428136.94045
  21842452.100   114782870.58309  21842448.680    89441189.18048
  23060374.020   121183212.63608  23060370.540    94428522.02947
  22190626.920   116612573.98709  22190626.940    90866967.15848
  23556991.740   123792777.89508  23556991.460    96461879.34446
 15 02 16 01 12  0.0000000  0  7G16G18G19G21G22G27G31
  21070867.660   110728169.95809  21070864.480    86281694.28548
  22245152.760   116899175.35009  22245150.340    91090280.17747
  24267041.620   127524166.29607  24267039.380    99369479.76846
  21853072.740   114838682.33309  21853069.360    89484678.85148
  23043752.680   121095867.51709  23043749.300    94360460.96947
  22180309.520   116558356.02109  22180309.580    90824719.40748
  23575357.140   123889287.89308  23575356.780    96537081.87347
 15 02 16 01 12 30.0000000  0  7G16G18G19G21G22G27G31
  21060531.960   110673855.72409  21060528.820    86239371.51248
  22237515.400   116859040.09609  22237512.780    91059005.97147
  24252733.360   127448976.45807  24252731.240    99310890.40846
  21863740.120   114894739.81409  21863736.740    89528359.99948
  23027157.500   121008659.61009  23027154.160    94292506.84947
  22170014.020   116504253.16809  22170014.060    90782561.36248
  23593735.560   123985866.86608  23593735.280    96612338.06847
 15 02 16 01 13  0.0000000  0  7G16G18G19G21G22G27G31
  21050262.980   110619892.03009  21050259.860    86197321.88648
  22229953.120   116819299.36809  22229950.380    91028039.17947
  24238440.980   127373869.83507  24238438.940    99252365.87646
  21874453.220   114951037.41409  21874449.820    89572228.25348
  23010588.380   120921588.67209  23010585.060    94224659.42347
  22159739.840   116450262.00909  22159739.840    90740490.34148
  23612125.840   124082508.34008  23612125.660    96687643.02447
 15 02 16 01 13 30.0000000  0  7G16G18G19G21G22G27G31
  21040060.940   110566280.11609  21040057.860    86155546.37348
  22222466.100   116779954.57109  22222463.280    90997380.90847
  24224164.400   127298845.75708  24224162.280    99193905.62546
  21885211.560   115007572.60709  21885208.060    89616281.64848
  22994045.660   120834656.72509  22994042.460    94156920.31347
  22149486.860   116396381.86009  22149486.780    90698505.82848
  23630527.460   124179208.94108  23630527.340    96762994.08347
 15 02 16 01 14  0.0000000  0  7G16G18G19G21G22G27G31
  21029926.980   110513025.64709  21029923.860    86114049.38648
  22215055.220   116741010.15209  22215052.420    90967034.61947
  24209904.220   127223907.46408  24209901.940    99135512.22346
  21896015.380   115064346.68909  21896011.800    89660521.17948
  22977530.560   120747869.63309  22977527.420    94089294.08947
  22139255.540   116342615.99209  22139255.460    90656610.36948
  23648940.360   124275968.87608  23648940.200    96838391.27147
 15 02 16 01 14 30.0000000  0  7G16G18G19G21G22G27G31
  21019860.980   110460128.13209  21019857.780    86072830.54548
  22207720.460   116702466.34809  22207717.840    90937000.51347
  24195659.880   127149052.28908  24195657.380    99077183.57846
  21906863.960   115121356.06709  21906860.300    89704944.08048
  22961043.180   120661227.77709  22961039.940    94021781.04547
  22129045.520   116288962.11909  22129045.420    90614802.18548
  23667363.540   124372783.45608  23667363.520    96913831.21847
 15 02 16 01 15  0.0000000  0  7G16G18G19G21G22G27G31
  21009863.620   110407591.51909  21009860.400    86031892.92748
  22200462.580   116664326.22309  22200460.000    90907280.95347
  24181431.560   127074281.65608  24181428.960    99018920.83646
  21917757.260   115178600.30109  21917753.500    89749549.97248
  22944584.300   120574735.45509  22944580.960    93954384.50947
  22118857.040   116235421.79209  22118856.960    90573082.47448
  23685796.780   124469650.95208  23685796.900    96989312.33847
 15 02 16 01 15 30.0000000  0  7G16G18G19G21G22G27G31
  20999935.400   110355418.52909  20999932.200    85991238.64648
  22193282.060   116626592.53309  22193279.460    90877878.08647
  24167219.440   126999596.49808  24167216.820    98960724.69147
  21928694.900   115236077.82109  21928691.140    89794337.64948
  22928154.540   120488396.27909  22928151.080    93887107.29047
  22108690.320   116181995.78509  22108690.280    90531451.84248
  23704239.720   124566568.95608  23704239.760    97064832.80447
 15 02 16 01 16  0.0000000  0  7G16G18G19G21G22G27G31
  20990076.580   110303610.08209  20990073.360    85950868.43348
  22186178.920   116589265.47209  22186176.380    90848792.07947
  24153023.320   126924995.82308  24153020.720    98902594.38346
  21939676.360   115293785.81709  21939672.660    89839304.91448
  22911754.180   120402211.77909  22911750.620    93819950.60847
  22098545.200   116128683.14009  22098545.160    90489909.54448
  23722691.500   124663533.54908  23722691.600    97140389.49247
 15 02 16 01 16 30.0000000  0  7G16G18G19G21G22G27G31
  20980287.180   110252166.23109  20980283.940    85910782.31748
  22179153.080   116552344.49909  22179150.500    90820022.50647
  24138842.880   126850477.41508  24138840.240    98844528.16346
  21950700.840   115351720.09809  21950697.240    89884448.50748
  22895383.300   120316182.51609  22895379.700    93752914.90747
  22088421.280   116075481.64709  22088421.240    90448453.86248
  23741151.300   124760540.05809  23741151.400    97215979.00147
 15 02 16 01 17  0.0000000  0  7G16G18G19G21G22G27G31
  20970568.240   110201092.83509  20970565.000    85870984.86448
  22172205.680   116515835.80209  22172203.020    90791574.17747
  24124678.700   126776044.67208  24124676.100    98786528.70346
  21961768.720   115409882.55209  21961765.240    89929769.89648
  22879043.320   120230315.36809  22879039.560    93686005.49447
  22078319.240   116022395.20509  22078319.260    90407087.82848
  23759619.220   124857588.97608  23759619.160    97291601.51346
 15 02 16 01 17 30.0000000  0  7G16G18G19G21G22G27G31
  20960919.820   110150390.31409  20960916.640    85831476.41248
  22165336.620   116479738.69809  22165333.960    90763446.58247
  24110530.520   126701695.92108  24110527.800    98728594.69346
  21972879.500   115468270.21309  21972876.040    89975266.76048
  22862734.240   120144611.02009  22862730.460    93619222.95147
  22068238.820   115969422.04909  22068238.800    90365810.06248
  23778094.360   124954675.91109  23778094.120    97367253.73247
 15 02 16 01 18  0.0000000  0  7G16G18G19G21G22G27G31
  20951341.880   110100058.39609  20951338.760    85792256.73948
  22158545.820   116444052.76409  22158543.180    90735639.37347
  24096397.900   126627428.80308  24096395.000    98670724.29646
  21984032.240   115526878.25509  21984028.740    90020935.35448
  22846456.120   120059069.82409  22846452.480    93552567.53647
  22058179.600   115916559.85009  22058179.440    90324618.75448
  23796575.700   125051795.76909  23796575.280    97442931.54246
 15 02 16 01 18 30.0000000  0  7G16G18G19G21G22G27G31
  20941835.580   110050102.78109  20941832.500    85753330.28848
  22151834.340   116408783.64909  22151831.700    90708156.95447
  24082281.500   126553247.13308  24082278.520    98612920.47946
  21995227.380   115585709.07009  21995223.880    90066777.53847
  22830210.340   119973698.37509  22830206.740    93486044.39947
  22048142.220   115863812.72609  22048142.020    90283517.11848
  23815063.460   125148949.65908  23815062.940    97518635.90046
 15 02 16 01 19  0.0000000  0  7G16G18G19G21G22G27G31
  20932400.900   110000523.48709  20932397.840    85714697.07448
  22145202.000   116373930.62409  22145199.440    90680998.77147
  24068180.800   126479148.41908  24068177.920    98555181.30146
  22006464.140   115644758.72909  22006460.640    90112790.25748
  22813997.200   119888497.69209  22813993.460    93419654.31047
  22038126.280   115811178.37209  22038126.040    90242503.36648
  23833556.680   125246132.04408  23833556.200    97594362.38346
 15 02 16 01 19 30.0000000  0  7G16G18G19G21G22G27G31
  20923039.320   109951328.20409  20923036.260    85676363.08548
  22138650.200   116339500.63809  22138647.640    90654170.22147
  24054096.860   126405138.06507  24054094.100    98497510.98346
  22017743.120   115704030.30109  22017739.620    90158975.89148
  22797817.940   119803475.37409  22797814.260    93353403.22147
  22028132.780   115758662.11209  22028132.500    90201581.62848
  23852055.820   125343345.42408  23852055.400    97670112.98046
 15 02 16 01 20  0.0000000  0  7G16G18G19G21G22G27G31
  20913750.040   109902512.80009  20913746.960    85638325.11048
  22132178.060   116305489.51509  22132175.500    90627668.06647
  24040028.600   126331210.09707  24040026.060    98439904.84445
  22029062.840   115763515.98609  22029059.340    90205328.36548
  22781671.960   119718628.27909  22781668.420    93287288.65247
  22018160.620   115706258.14409  22018160.320    90160747.38748
  23870559.060   125440580.77408  23870558.700    97745880.63445
 15 02 16 01 20 30.0000000  0  7G16G18G19G21G22G27G31
  20904533.300   109854078.64609  20904530.240    85600584.21748
  22125785.740   116271898.00209  22125783.160    90601492.87947
  24025975.960   126257363.65908  24025973.380    98382362.25545
  22040422.800   115823213.23909  22040419.340    90251845.70148
  22765559.720   119633958.38009  22765556.220    93221312.17947
  22008209.660   115653965.73509  22008209.420    90120000.07948
  23889065.880   125537835.08008  23889065.740    97821663.16546
 15 02 16 01 21  0.0000000  0  7G16G18G19G21G22G27G31
  20895390.100   109806030.89009  20895387.060    85563144.40748
  22119474.080   116238730.71709  22119471.540    90575648.24947
  24011939.600   126183602.21508  24011936.900    98324885.84645
  22051823.260   115883123.25209  22051819.840    90298528.81448
  22749482.440   119549471.64309  22749478.880    93155478.40147
  21998280.560   115601788.31009  21998280.380    90079342.36348
  23907576.340   125635108.03808  23907576.360    97897460.03346
 15 02 16 01 21 30.0000000  0  7G16G18G19G21G22G27G31
  20886320.480   109758369.68409  20886317.460    85526005.81348
  22113243.240   116205987.80709  22113240.780    90550134.31647
  23997919.020   126109923.48908  23997916.140    98267473.91145
  22063263.560   115943242.62609  22063260.180    90345375.07348
  22733440.100   119465169.13409  22733436.580    93089788.20847
  21988373.040   115549724.13809  21988372.860    90038772.90048
  23926089.680   125732395.99708  23926089.880    97973268.77946
 15 02 16 01 22  0.0000000  0  7G16G18G19G21G22G27G31
  20877325.060   109711098.25909  20877322.020    85489170.94348
  22107093.580   116173671.29109  22107091.180    90524952.63447
  23983914.300   126036328.41208  23983911.300    98210127.16945
  22074743.580   116003570.52309  22074740.220    90392383.81148
  22717433.520   119381054.47509  22717430.000    93024244.36747
  21978487.300   115497774.27909  21978487.100    89998292.50948
  23944605.460   125829696.45708  23944605.740    98049087.14647
 15 02 16 01 22 30.0000000  0  7G16G18G19G21G22G27G31
  20868404.580   109664220.73609  20868401.540    85452643.00548
  22101025.880   116141785.37609  22101023.440    90500106.48047
  23969925.920   125962819.15508  23969922.880    98152847.30345
  22086263.360   116064107.21209  22086259.940    90439555.24947
  22701463.680   119297132.51209  22701460.140    92958850.68147
  21968623.760   115445940.77109  21968623.480    89957902.77948
  23963123.440   125927008.77608  23963123.720    98124914.77946
 15 02 16 01 23  0.0000000  0  7G16G18G19G21G22G27G31
  20859558.340   109617733.51309  20859555.280    85416419.19748
  22095039.380   116110326.08009  22095036.880    90475592.75747
  23955952.840   125889390.15308  23955949.740    98095629.96846
  22097821.500   116124845.27809  22097818.000    90486883.60848
  22685529.980   119213400.40309  22685526.340    92893604.92947
  21958781.400   115394218.40809  21958781.000    89917599.65348
  23981642.160   126024324.63608  23981642.380    98200745.13647
 15 02 16 01 23 30.0000000  0  7G16G18G19G21G22G27G31
  20850788.100   109571645.49909  20850785.000    85380506.46048
  22089135.580   116079301.32509  22089133.100    90451417.64047
  23941996.340   125816048.14808  23941993.160    98038480.39546
  22109418.820   116185789.24009  22109415.280    90534372.39248
  22669634.220   119129867.61809  22669630.600    92828514.49647
  21948961.420   115342613.97509  21948960.940    89877388.41848
  24000162.280   126121647.92508  24000162.420    98276581.29047
 15 02 16 01 24  0.0000000  0  7G16G18G19G21G22G27G31
  20842093.140   109525952.88909  20842089.980    85344901.83048
  22083313.600   116048706.68709  22083311.160    90427577.67547
  23928055.280   125742787.10408  23928052.060    97981393.91946
  22121053.940   116246932.03509  22121050.460    90582016.11647
  22653775.740   119046530.92209  22653772.120    92763576.86247
  21939162.720   115291121.57209  21939162.220    89837264.47548
  24018682.160   126218969.87808  24018682.380    98352416.41147
 15 02 16 01 24 30.0000000  0  7G16G18G19G21G22G27G31
  20833474.560   109480661.58009  20833471.320    85309609.90548
  22077574.560   116018547.58109  22077572.100    90404077.08847
  23914130.400   125669611.22708  23914127.160    97924373.83246
  22132727.240   116308275.75409  22132723.860    90629816.40348
  22637955.860   118963397.21409  22637952.180    92698797.39147
  21929386.180   115239745.60709  21929385.680    89797231.27948
  24037202.100   126316291.82908  24037202.400    98428251.62847
 15 02 16 01 25  0.0000000  0  7G16G18G19G21G22G27G31
  20824932.680   109435773.25909  20824929.380    85274631.99248
  22071918.700   115988825.58209  22071916.240    90380917.09847
  23900221.580   125596519.81608  23900218.300    97867419.57046
  22144438.360   116369818.04909  22144435.060    90677771.42348
  22622175.060   118880469.15509  22622171.440    92634178.16547
  21919631.720   115188485.67709  21919631.240    89757288.49048
  24055721.380   126413610.69108  24055721.760    98504084.37546
 15 02 16 01 25 30.0000000  0  7G16G18G19G21G22G27G31
  20816467.780   109391289.61809  20816464.480    85239969.42148
  22066346.120   115959541.55509  22066343.580    90358098.39447
  23886328.780   125523512.59908  23886325.440    97810530.90146
  22156186.780   116431556.75008  22156183.540    90725879.49348
  22606433.880   118797749.10809  22606430.240    92569721.03947
  21909899.340   115137341.70909  21909898.880    89717436.07248
  24074239.540   126510923.45809  24074239.840    98579912.44147
 15 02 16 01 26  0.0000000  0  7G16G18G19G21G22G27G31
  20808079.860   109347210.78509  20808076.600    85205622.27248
  22060856.880   115930695.22009  22060854.200    90335620.73547
  23872451.620   125450587.97208  23872448.340    97753706.57246
  22167971.900   116493488.30908  22167968.700    90774137.83048
  22590732.520   118715237.82609  22590728.760    92505426.56347
  21900188.720   115086312.09609  21900188.260    89677672.75348
  24092755.620   126608225.41908  24092755.760    98655732.07945
 15 02 16 01 26 30.0000000  0  7G16G18G19G21G22G27G31
  20799769.520   109303539.64309  20799766.280    85171592.81948
  22055451.300   115902288.52909  22055448.540    90313485.67247
  23858590.260   125377746.38108  23858587.040    97696946.96046
  22179793.500   116555611.37109  22179790.380    90822545.40747
  22575071.460   118632938.23409  22575067.580    92441297.06147
  21890499.960   115035397.47309  21890499.520    89637999.04848
  24111269.160   126705514.35508  24111269.260    98731541.67845
 15 02 16 01 27  0.0000000  0  7G16G18G19G21G22G27G31
  20791537.800   109260281.62509  20791534.560    85137885.27148
  22050130.300   115874326.25409  22050127.400    90291696.89247
  23844745.320   125304991.14308  23844742.140    97640254.63446
  22191651.940   116617927.72309  22191648.860    90871103.58248
  22559451.860   118550857.17109  22559448.000    92377337.83647
  21880833.780   114984601.59109  21880833.400    89598417.85848
  24129780.280   126802790.89008  24129780.400    98807341.55746
 15 02 16 01 27 30.0000000  0  7G16G18G19G21G22G27G31
  20783384.520   109217435.85809  20783381.260    85104498.96048
  22044893.720   115846807.61009  22044890.780    90270253.79647
  23830916.280   125232319.86908  23830913.220    97583627.72147
  22203546.420   116680433.18809  22203543.300    90919809.12948
  22543873.960   118468994.76209  22543870.040    92313548.97847
  21871189.740   114933922.09709  21871189.400    89558927.35948
  24148287.960   126900050.05608  24148288.340    98883127.95745
 15 02 16 01 28  0.0000000  0  7G16G18G19G21G22G27G31
  20775309.820   109175003.08609  20775306.560    85071434.46548
  22039741.340   115819731.93509  22039738.500    90249155.88747
  23817102.900   125159730.86908  23817100.000    97527064.96846
  22215476.220   116743124.47109  22215473.040    90968659.47048
  22528337.980   118387352.16109  22528333.900    92249931.41047
  21861567.540   114883357.53609  21861567.260    89519526.41548
  24166791.360   126997286.93907  24166791.760    98958896.93445
 15 02 16 01 28 30.0000000  0  7G16G18G19G21G22G27G31
  20767314.300   109132986.51809  20767311.040    85038694.28448
  22034673.960   115793102.57109  22034671.080    90228405.74547
  23803305.500   125087225.72308  23803302.680    97470567.52747
  22227441.280   116806001.29108  22227438.080    91017654.38248
  22512844.540   118305933.09209  22512840.360    92186488.02748
  21851967.520   114832909.50609  21851967.280    89480216.28848
  24185290.500   127094500.68608  24185290.980    99034647.90246
 15 02 16 01 29  0.0000000  0  7G16G18G19G21G22G27G31
  20759398.440   109091388.46409  20759395.180    85006280.21448
  22029691.820   115766920.76009  22029688.880    90208004.34047
  23789524.060   125014804.48708  23789521.280    97414135.46146
  22239441.340   116869061.99209  22239438.120    91066792.57748
  22497394.260   118224741.06809  22497390.040    92123221.56048
  21842389.780   114782578.46009  21842389.580    89440997.30648
  24203784.780   127191688.88308  24203785.380    99110378.99745
 15 02 16 01 29 30.0000000  0  7G16G18G19G21G22G27G31
  20751562.480   109050210.43709  20751559.240    84974193.44248
  22024794.980   115741187.28809  22024792.020    90187952.30047
  23775758.580   124942466.74308  23775755.760    97357768.46147
  22251475.780   116932303.52709  22251472.520    91116071.69347
  22481987.520   118143778.06909  22481983.220    92060133.54747
  21832834.280   114732364.13509  21832834.120    89401869.27848
  24222273.440   127288847.89408  24222274.000    99186087.29345
 15 02 16 01 30  0.0000000  0  7G16G18G19G21G22G27G31
  20743806.700   109009453.83509  20743803.520    84942435.05148
  22019983.520   115715902.74009  22019980.580    90168250.06347
  23762008.860   124870212.02108  23762006.000    97301466.15046
  22263544.380   116995724.58008  22263541.140    91165490.68247
  22466624.760   118063046.45909  22466620.360    91997225.83448
  21823301.000   114682266.46509  21823300.840    89362832.14648
  24240756.060   127385974.83108  24240756.680    99261770.59946
 15 02 16 01 30 30.0000000  0  7G16G18G19G21G22G27G31
  20736131.900   108969122.80709  20736128.800    84911008.28348
  22015258.220   115691071.11309  22015255.200    90148900.74947
  23748275.320   124798042.17208  23748272.480    97245229.98446
  22275647.120   117059325.32008  22275643.940    91215049.68948
  22451306.820   117982550.74009  22451302.540    91934501.95548
  21813790.260   114632287.33109  21813790.100    89323887.39048
  24259232.480   127483068.58408  24259233.160    99337427.97047
 15 02 16 01 31  0.0000000  0  7G16G18G19G21G22G27G31
  20728537.820   108929215.55209  20728534.680    84879911.72248
  22010618.520   115666689.79009  22010615.580    90129902.33247
  23734557.420   124725953.90008  23734554.520    97189057.37346
  22287783.040   117123100.07909  22287779.860    91264744.29948
  22436033.620   117902290.01909  22436029.380    91871961.17448
  21804301.420   114582423.54009  21804301.280    89285032.50448
  24277701.520   127580123.11708  24277702.280    99413054.72146
 15 02 16 01 31 30.0000000  0  7G16G18G19G21G22G27G31
  20721025.620   108889738.38309  20721022.460    84849150.29548
  22006065.600   115642764.49309  22006062.700    90111259.24647
  23720855.860   124653951.40908  23720852.800    97132951.60746
  22299952.660   117187051.61109  22299949.420    91314576.65247
  22420806.600   117822271.88809  22420802.400    91809609.42548
  21794835.500   114532679.77109  21794835.320    89246271.13848
  24296163.460   127677140.27608  24296164.120    99488652.32547
 15 02 16 01 32  0.0000000  0  7G16G18G19G21G22G27G31
  20713594.840   108850689.39709  20713591.640    84818722.51648
  22001598.920   115619292.48609  22001596.240    90092969.38347
  23707169.900   124582030.78908  23707166.680    97076909.61846
  22312154.880   117251174.55509  22312151.620    91364542.56447
  22405625.600   117742495.32609  22405621.380    91747445.90048
  21785391.700   114483052.45609  21785391.580    89207600.52248
  24314616.980   127774113.53208  24314617.580    99564215.71647
 15 02 16 01 32 30.0000000  0  7G16G18G19G21G22G27G31
  20706246.320   108812072.53509  20706243.060    84788631.45948
  21997219.200   115596277.16209  21997216.620    90075035.37448
  23693500.000   124510194.74008  23693496.560    97020933.52246
  22324389.820   117315469.41009  22324386.520    91414642.44047
  22390491.420   117662964.56509  22390487.160    91685473.91648
  21775970.540   114433544.00209  21775970.420    89169022.52648
  24333062.060   127871042.22208  24333062.600    99639744.33046
 15 02 16 01 33  0.0000000  0  7G16G18G19G21G22G27G31
  20698980.340   108773889.58909  20698977.100    84758878.52248
  21992926.620   115573719.08709  21992923.960    90057457.65748
  23679845.960   124438442.27108  23679842.340    96965022.54946
  22336656.960   117379933.55009  22336653.680    91464874.23048
  22375404.500   117583682.02709  22375400.160    91623695.33548
  21766571.980   114384154.03609  21766571.740    89130536.85348
  24351498.060   127967922.77108  24351498.560    99715235.38346
 15 02 16 01 33 30.0000000  0  7G16G18G19G21G22G27G31
  20691797.380   108736143.03709  20691794.220    84729465.62248
  21988721.400   115551620.41509  21988718.760    90040237.92948
  23666208.040   124366774.33908  23666204.280    96909177.45746
  22348956.100   117444565.75409  22348952.820    91515236.97647
  22360365.440   117504651.29309  22360361.040    91562112.98448
  21757196.140   114334883.60909  21757195.860    89092144.33148
  24369924.620   128064754.09608  24369925.280    99790688.12846
 15 02 16 01 34  0.0000000  0  7G16G18G19G21G22G27G31
  20684698.020   108698835.75409  20684694.900    84700395.01248
  21984604.040   115529983.32909  21984601.340    90023377.87147
  23652586.380   124295191.96708  23652582.540    96853399.03246
  22361287.160   117509365.93209  22361284.000    91565730.61147
  22345374.980   117425876.15209  22345370.560    91500729.78648
  21747843.320   114285733.98509  21747843.000    89053845.93948
  24388341.380   128161533.94608  24388342.100    99866100.71346
 15 02 16 01 34 30.0000000  0  7G16G18G19G21G22G27G31
  20677682.160   108661967.27609  20677679.060    84671666.33048
  21980574.200   115508806.68909  21980571.520    90006876.60147
  23638980.520   124223692.78708  23638976.680    96797685.43346
  22373649.300   117574329.76609  22373646.300    91616351.77247
  22330433.240   117347356.97009  22330428.880    91439546.03248
  21738513.120   114236703.08509  21738512.700    89015640.06548
  24406747.360   128258257.66307  24406748.180    99941469.51445
 15 02 16 01 35  0.0000000  0  7G16G18G19G21G22G27G31
  20670750.680   108625541.95609  20670747.560    84643282.96448
  21976632.680   115488094.07009  21976630.000    89990736.91047
  23625390.980   124152279.43308  23625387.160    96742038.70646
  22386042.740   117639458.10109  22386039.860    91667101.11047
  22315541.120   117269098.70909  22315536.800    91378565.60248
  21729206.040   114187793.71609  21729205.480    88977528.88148
  24425142.440   128354924.89707  24425143.460   100016794.27345
 15 02 16 01 35 30.0000000  0  7G16G18G19G21G22G27G31
  20663902.860   108589556.30609  20663899.680    84615242.19948
  21972778.680   115467841.43609  21972776.000    89974955.65147
  23611816.820   124080946.97708  23611813.080    96686455.02347
  22398466.220   117704744.19709  22398463.420    91717973.38847
  22300698.160   117191098.76909  22300693.880    91317786.46148
  21719921.100   114139000.94009  21719920.520    88939508.55748
  24443525.580   128451527.70707  24443526.360   100092068.87545
 15 02 16 01 36  0.0000000  0  7G16G18G19G21G22G27G31
  20657140.240   108554018.50809  20657137.080    84587550.42448
  21969013.640   115448056.06509  21969010.920    89959538.48747
  23598259.020   124009701.03208  23598255.480    96630938.75847
  22410920.580   117770192.47109  22410917.800    91768972.03347
  22285906.140   117113366.51509  22285901.920    91257215.91048
  21710659.560   114090331.33009  21710659.020    88901584.21148
  24461897.240   128548069.89307  24461898.000   100167296.21445
 15 02 16 01 36 30.0000000  0  7G16G18G19G21G22G27G31
  20650462.260   108518925.77309  20650459.160    84560205.43148
  21965336.880   115428734.35309  21965334.120    89944482.61647
  23584716.880   123938537.35508  23584713.520    96575486.59747
  22423404.640   117835796.58409  22423401.800    91820092.10747
  22271164.760   117035900.03509  22271160.600    91196852.44248
  21701420.620   114041780.63209  21701420.080    88863752.51348
  24480255.840   128644544.28508  24480257.120   100242470.65445
 15 02 16 01 37  0.0000000  0  7G16G18G19G21G22G27G31
  20643869.560   108484281.06409  20643866.520    84533209.55348
  21961748.700   115409878.69709  21961745.940    89929789.91147
  23571190.720   123867457.38208  23571187.440    96520099.66347
  22435918.280   117901556.03009  22435915.360    91871333.22547
  22256474.620   116958703.00209  22256470.520    91136698.94048
  21692204.660   113993350.41509  21692204.080    88826014.70048
  24498601.540   128740949.32408  24498602.600   100317591.13644
 15 02 16 01 37 30.0000000  0  7G16G18G19G21G22G27G31
  20637362.860   108450088.30009  20637359.860    84506565.84248
  21958249.580   115391491.20709  21958246.960    89915462.00547
  23557680.780   123796462.40008  23557677.440    96464778.93247
  22448461.360   117967470.15709  22448458.360    91922694.86947
  22241836.480   116881779.44909  22241832.380    91076758.53448
  21683011.920   113945042.31309  21683011.380    88788372.04048
  24516933.880   128837283.87008  24516934.560   100392656.69245
 15 02 16 01 38  0.0000000  0  7G16G18G19G21G22G27G31
  20630942.620   108416349.69609  20630939.660    84480276.01648
  21954839.980   115373574.35609  21954837.520    89901500.84147
  23544187.180   123725553.31608  23544183.860    96409525.15447
  22461033.880   118033538.94909  22461030.820    91974177.03447
  22227251.000   116805132.69909  22227246.960    91017033.82648
  21673842.640   113896857.36909  21673842.060    88750825.35548
  24535252.400   128933545.92008  24535253.080   100467665.72346
 15 02 16 01 38 30.0000000  0  7G16G18G19G21G22G27G31
  20624608.300   108383062.39909  20624605.320    84454337.86648
  21951519.280   115356124.29309  21951516.860    89887903.40847
  23530708.980   123654725.49908  23530705.820    96354334.71947
  22473634.600   118099755.74109  22473631.460    92025774.53447
  22212717.920   116728761.24009  22212713.860    90957523.62948
  21664696.040   113848791.47509  21664695.400    88713371.43048
  24553555.820   129029728.58709  24553556.680   100542612.89246
 15 02 16 01 39  0.0000000  0  7G16G18G19G21G22G27G31
  20618361.020   108350232.54209  20618358.020    84428756.15848
  21948288.520   115339146.47709  21948286.140    89874673.95147
  23517247.100   123583983.42208  23517244.080    96299211.08447
  22486263.800   118166122.28509  22486260.600    92077488.70647
  22198238.440   116652671.27709  22198234.380    90898232.78048
  21655572.980   113800849.35309  21655572.320    88676013.94848
  24571844.380   129125833.70608  24571845.260   100617499.64346
 15 02 16 01 39 30.0000000  0  7G16G18G19G21G22G27G31
  20612200.800   108317860.30409  20612197.760    84403531.03849
  21945147.460   115322639.94009  21945145.020    89861811.73147
  23503801.280   123513325.44808  23503798.260    96244152.95947
  22498921.040   118232636.01309  22498917.760    92129317.57447
  22183812.980   116576864.94909  22183808.980    90839162.95148
  21646473.120   113753029.53709  21646472.540    88638751.77248
  24590117.260   129221856.92508  24590118.240   100692322.56246
 15 02 16 01 40  0.0000000  0  7G16G18G19G21G22G27G31
  20606128.020   108285947.67009  20606124.940    84378664.04749
  21942096.380   115306606.21709  21942093.860    89849317.92547
  23490371.620   123442752.01608  23490368.440    96189160.71047
  22511606.260   118299296.49209  22511602.820    92181260.79147
  22169442.060   116501344.77909  22169437.980    90780316.08848
  21637396.660   113705332.78509  21637396.140    88601585.48148
  24608374.140   129317795.86308  24608375.280   100767079.81447
 15 02 16 01 40 30.0000000  0  7G16G18G19G21G22G27G31
  20600142.980   108254496.10109  20600139.880    84354156.34048
  21939135.260   115291045.40309  21939132.680    89837192.63447
  23476957.920   123372262.92508  23476954.620    96134234.20946
  22524318.800   118366100.93909  22524315.300    92233316.19247
  22155126.020   116426113.01909  22155121.840    90721693.97148
  21628343.560   113657758.93109  21628343.160    88564514.96748
  24626614.400   129413647.39708  24626615.700   100841768.95046
 15 02 16 01 41  0.0000000  0  7G16G18G19G21G22G27G31
  20594246.160   108223508.04209  20594243.040    84330009.78849
  21936264.540   115275959.69409  21936261.900    89825437.54247
  23463560.400   123301858.91308  23463557.180    96079373.97947
  22537058.420   118433048.05709  22537054.900    92285482.75747
  22140865.460   116351172.88909  22140861.200    90663299.08648
  21619314.020   113610309.18209  21619313.800    88527541.13948
  24644837.640   129509410.18707  24644839.120   100916388.90946
 15 02 16 01 41 30.0000000  0  7G16G18G19G21G22G27G31
  20588438.060   108192986.20509  20588434.940    84306226.53949
  21933484.560   115261350.87709  21933481.880    89814054.06447
  23450179.420   123231541.16808  23450176.180    96024580.97747
  22549824.940   118500136.74309  22549821.440    92337759.64747
  22126661.060   116276528.14009  22126656.720    90605134.37748
  21610308.460   113562985.02309  21610308.300    88490665.18148
  24663043.600   129605082.59307  24663045.280   100990938.44746
 15 02 16 01 42  0.0000000  0  7G16G18G19G21G22G27G31
  20582718.400   108162929.23909  20582715.280    84282805.53249
  21930794.840   115247216.59409  21930792.200    89803040.34247
  23436814.280   123161306.50508  23436810.940    95969852.73247
  22562617.800   118567363.81609  22562614.320    92390144.36447
  22112512.800   116202178.28209  22112508.360    90547199.44948
  21601326.300   113515783.57509  21601326.160    88453884.84648
  24681231.200   129700658.62407  24681233.040   101065412.89546
 15 02 16 01 42 30.0000000  0  6G16G18G19G21G22G27
  20577086.460   108133333.16009  20577083.320    84259743.64649
  21928194.520   115233551.94109  21928191.920    89792392.57247
  23423463.800   123091149.34608  23423460.380    95915184.87147
  22575435.320   118634720.50109  22575431.920    92442630.07647
  22098420.060   116128120.16809  22098415.500    90489491.85748
  21592366.560   113468699.71009  21592366.380    88417196.12148
 15 02 16 01 43  0.0000000  0  6G16G18G19G21G22G27
  20571545.780   108104216.62209  20571542.620    84237055.43948
  21925687.000   115220374.91909  21925684.440    89782124.77347
  23410131.300   123021086.78508  23410127.780    95860590.71946
  22588280.640   118702223.09709  22588277.280    92495229.49247
  22084386.600   116054373.59909  22084381.900    90432027.02448
  21583432.440   113421750.58009  21583432.240    88380612.39148
 15 02 16 01 43 30.0000000  0  6G16G18G19G21G22G27
  20566093.760   108075565.78809  20566090.560    84214730.10949
  21923269.600   115207671.51209  21923267.080    89772226.02247
  23396814.080   122951104.11908  23396810.380    95806058.82947
  22601150.520   118769855.04909  22601147.240    92547929.69447
  22070410.000   115980926.26209  22070405.260    90374795.36048
  21574521.200   113374921.76009  21574521.040    88344122.41248
 15 02 16 01 44  0.0000000  0  6G16G18G19G21G22G27
  20560732.420   108047391.52509  20560729.200    84192776.13249
  21920943.980   115195450.27809  21920941.440    89762702.98547
  23383513.540   122881209.05808  23383509.760    95751595.19046
  22614046.200   118837622.53109  22614042.980    92600735.51347
  22056492.280   115907788.69909  22056487.560    90317805.07148
  21565634.400   113328221.72409  21565634.280    88307732.78748
 15 02 16 01 44 30.0000000  0  6G16G18G19G21G22G27
  20555461.620   108019693.02409  20555458.360    84171192.88449
  21918709.940   115183710.08409  21918707.300    89753554.80147
  23370229.300   122811399.86308  23370225.440    95697198.46246
  22626966.920   118905521.51709  22626963.740    92653643.80447
  22042633.500   115834961.13309  22042628.860    90261056.35548
  21556771.800   113281648.63809  21556771.720    88271442.08848
 15 02 16 01 45  0.0000000  0  6G16G18G19G21G22G27
  20550281.280   107992469.95109  20550278.020    84149980.09849
  21916567.260   115172449.79709  21916564.520    89744780.55947
  23356961.060   122741675.02308  23356957.220    95642867.47746
  22639912.060   118973548.85008  22639908.940    92706652.10347
  22028833.900   115762444.63109  22028829.300    90204550.01548
  21547933.160   113235201.25309  21547933.060    88235249.32848
 15 02 16 01 45 30.0000000  0  6G16G18G19G21G22G27
  20545192.060   107965726.06909  20545188.820    84129140.71249
  21914516.400   115161672.26809  21914513.620    89736382.49947
  23343709.140   122672036.53808  23343705.480    95588603.76346
  22652881.760   119041705.35109  22652878.640    92759761.05347
  22015094.460   115690243.91209  22015090.020    90148289.73948
  21539118.960   113188882.10109  21539118.800    88199156.49348
 15 02 16 01 46  0.0000000  0  6G16G18G19G21G22G27
  20540194.000   107939461.31809  20540190.840    84108674.67049
  21912557.280   115151377.03109  21912554.480    89728360.24247
  23330473.380   122602483.10908  23330469.840    95534406.34947
  22665875.480   119109988.11008  22665872.380    92812968.39047
  22001415.360   115618360.11409  22001411.060    90092276.40848
  21530328.940   113142690.32609  21530328.840    88163162.91448
 15 02 16 01 46 30.0000000  0  6G16G18G19G21G22G27
  20535287.740   107913678.74509  20535284.600    84088584.35149
  21910690.200   115141565.36709  21910687.380    89720714.79847
  23317254.060   122533015.69708  23317250.540    95480275.95047
  22678893.020   119178395.93708  22678889.920    92866273.17347
  21987797.220   115546796.69409  21987793.080    90036512.73548
  21521563.380   113096627.02909  21521563.280    88127269.44648
 15 02 16 01 47  0.0000000  0  6G16G18G19G21G22G27
  20530473.180   107888378.02209  20530470.040    84068869.50049
  21908915.000   115132236.51509  21908912.180    89713445.56747
  23304050.920   122463632.87008  23304047.220    95426211.44047
  22691933.760   119246925.40908  22691930.660    92919672.75047
  21974240.260   115475554.66709  21974236.180    89980999.48148
  21512822.120   113050691.08309  21512821.900    88091475.20848
 15 02 16 01 47 30.0000000  0  6G16G18G19G21G22G27
  20525750.580   107863560.49409  20525747.440    84049531.16949
  21907231.680   115123390.87409  21907228.900    89706552.87847
  23290863.860   122394334.63308  23290860.140    95372212.86547
  22704997.340   119315574.61708  22704994.160    92973165.63547
  21960744.960   115404636.07109  21960740.780    89925738.25748
  21504105.040   113004882.60509  21504104.780    88055780.30148
 15 02 16 01 48  0.0000000  0  6G16G18G19G21G22G27
  20521120.340   107839228.71509  20521117.240    84030571.34249
  21905640.600   115115030.09209  21905637.860    89700037.99347
  23277693.120   122325122.15608  23277689.480    95318281.11447
  22718083.840   119384344.24808  22718080.600    93026752.35447
  21947311.900   115334044.84109  21947307.720    89870732.12848
  21495412.520   112959203.43009  21495412.280    88020186.14949
 15 02 16 01 48 30.0000000  0  6G16G18G19G21G22G27
  20516583.200   107815386.12009  20516580.120    84011992.70049
  21904142.260   115107156.27009  21904139.460    89693902.56648
  23264539.080   122255997.09608  23264535.460    95264417.48247
  22731193.120   119453233.70308  22731189.940    93080432.44147
  21933941.920   115263784.95609  21933937.780    89815984.19448
  21486745.000   112913655.50409  21486744.780    87984694.27348
 15 02 16 01 49  0.0000000  0  6G16G18G19G21G22G27
  20512138.940   107792031.48409  20512135.860    83993794.27249
  21902736.360   115099767.94009  21902733.480    89688145.43447
  23251401.180   122186956.92108  23251397.480    95210619.97347
  22744324.460   119522238.91408  22744321.280    93134202.71247
  21920635.060   115193856.43609  21920630.860    89761494.44448
  21478102.100   112868236.69509  21478101.840    87949302.99748
 15 02 16 01 49 30.0000000  0  6G16G18G19G21G22G27
  20507788.380   107769169.07709  20507785.320    83975979.40948
  21901423.480   115092868.25409  21901420.500    89682769.06847
  23238280.020   122118004.88808  23238276.220    95156891.16647
  22757477.940   119591360.51608  22757474.700    93188063.69947
  21907392.120   115124264.31709  21907387.840    89707266.84348
  21469484.360   112822950.25509  21469484.120    87914014.87948
 15 02 16 01 50  0.0000000  0  6G16G18G19G21G22G27
  20503531.280   107746797.83409  20503528.220    83958547.27249
  21900203.100   115086454.96209  21900200.120    89677771.70748
  23225175.100   122049138.26308  23225171.300    95103228.91247
  22770652.880   119660595.11708  22770649.580    93242012.72647
  21894213.060   115055008.56909  21894208.840    89653301.35948
  21460891.420   112777794.00109  21460891.180    87878828.19748
 15 02 16 01 50 30.0000000  0  6G16G18G19G21G22G27
  20499367.960   107724919.40209  20499364.860    83941499.14549
  21899075.400   115080528.96309  21899072.480    89673154.06247
  23212086.560   121980357.47708  23212082.800    95049633.55347
  22783848.960   119729940.89308  22783845.620    93296048.38247
  21881098.680   114986092.11909  21881094.500    89599600.24948
  21452323.400   112732768.76209  21452323.120    87843743.61448
 15 02 16 01 51  0.0000000  0  6G16G18G19G21G22G27
  20495298.640   107703534.96309  20495295.540    83924835.94849
  21898040.480   115075090.42709  21898037.600    89668916.25048
  23199014.360   121911662.27908  23199010.540    94996104.86547
  22797065.940   119799396.57908  22797062.580    93350169.68547
  21868049.380   114917517.35809  21868045.100    89546165.39548
  21443780.380   112687874.70509  21443780.060    87808761.24448
 15 02 16 01 51 30.0000000  0  6G16G18G19G21G22G27
  20491324.440   107682650.40909  20491321.300    83908562.27049
  21897099.260   115070144.27009  21897096.440    89665062.11048
  23185959.280   121843057.06308  23185955.380    94942646.29647
  22810304.220   119868964.42008  22810300.880    93404378.38047
  21855066.160   114849290.48109  21855061.820    89493001.61948
  21435263.260   112643116.60109  21435262.900    87773884.80449
 15 02 16 01 52  0.0000000  0  6G16G18G19G21G22G27
  20487445.020   107662263.45709  20487441.760    83892676.32349
  21896251.120   115065687.39309  21896248.280    89661589.22448
  23172920.620   121774538.63708  23172916.680    94889255.34747
  22823563.040   119938639.87908  22823559.660    93458670.93347
  21842149.060   114781410.87309  21842144.600    89440108.43748
  21426771.460   112598491.44209  21426771.020    87739111.95649
 15 02 16 01 52 30.0000000  0  6G16G18G19G21G22G27
  20483660.620   107642375.78809  20483657.240    83877179.43449
  21895496.160   115061720.33709  21895493.280    89658498.02148
  23159898.520   121706107.34408  23159894.560    94835932.29747
  22836841.960   120008421.24508  22836838.680    93513046.01047
  21829298.600   114713881.23209  21829294.160    89387487.95548
  21418305.020   112553999.97309  21418304.560    87704443.28948
 15 02 16 01 53  0.0000000  0  6G16G18G19G21G22G27
  20479970.940   107622986.13709  20479967.540    83862070.61249
  21894834.080   115058241.12309  21894831.140    89655786.95147
  23146892.580   121637760.83608  23146888.600    94782675.31047
  22850140.220   120078304.33908  22850137.060    93567500.35247
  21816514.620   114646701.17109  21816510.320    89335139.89148
  21409863.620   112509639.98809  21409863.080    87669877.07548
 15 02 16 01 53 30.0000000  0  6G16G18G19G21G22G27
  20476377.160   107604100.93209  20476373.840    83847354.86648
  21894265.760   115055254.62809  21894262.840    89653459.82248
  23133903.600   121569503.77408  23133899.660    94729488.02647
  22863458.420   120148292.22508  22863455.300    93622036.34947
  21803798.520   114579877.96109  21803794.180    89283069.88448
  21401448.260   112465416.77809  21401447.600    87635417.43848
 15 02 16 01 54  0.0000000  0  6G16G18G19G21G22G27
  20472878.860   107585717.60409  20472875.620    83833030.20149
  21893790.600   115052757.81109  21893787.740    89651514.26548
  23120931.040   121501332.87908  23120927.060    94676367.88547
  22876795.520   120218379.33808  22876792.400    93676649.67147
  21791150.200   114513410.23109  21791145.640    89231276.86648
  21393058.360   112421327.25909  21393057.620    87601061.98349
 15 02 16 01 54 30.0000000  0  6G16G18G19G21G22G27
  20469476.600   107567838.83609  20469473.400    83819098.69449
  21893408.920   115050752.30609  21893406.140    89649951.55448
  23107975.180   121433249.35708  23107971.140    94623315.82347
  22890151.760   120288567.04908  22890148.680    93731341.38447
  21778570.140   114447301.55109  21778565.580    89179763.63748
  21384694.200   112377373.39109  21384693.460    87566812.22349
 15 02 16 01 55  0.0000000  0  6G16G18G19G21G22G27
  20466171.360   107550469.54509  20466168.080    83805564.17449
  21893121.520   115049242.10609  21893118.760    89648774.78148
  23095036.620   121365257.02608  23095032.580    94570334.81847
  22903527.400   120358856.82008  22903524.460    93786112.61547
  21766059.560   114381558.18309  21766055.120    89128535.06948
  21376356.560   112333559.00209  21376355.840    87532671.15348
 15 02 16 01 55 30.0000000  0  6G16G18G19G21G22G27
  20462962.300   107533605.55909  20462958.960    83792423.40149
  21892927.340   115048221.66209  21892924.580    89647979.63848
  23082114.340   121297350.72108  23082110.480    94517420.85447
  22916921.080   120429241.13008  22916918.200    93840957.52246
  21753617.980   114316176.82109  21753613.420    89077588.57448
  21368044.540   112289879.29409  21368043.900    87498635.03248
 15 02 16 01 56  0.0000000  0  6G16G18G19G21G22G27
  20459850.100   107517250.77409  20459846.720    83779679.41349
  21892826.940   115047694.21709  21892824.160    89647568.66048
  23069208.920   121229532.92308  23069205.200    94464575.85747
  22930333.100   120499721.37708  22930330.080    93895877.18747
  21741246.200   114251162.37909  21741241.440    89026927.99448
  21359758.720   112246337.30509  21359758.120    87464706.22448
 15 02 16 01 56 30.0000000  0  6G16G18G19G21G22G27
  20456834.480   107501403.73109  20456831.140    83767331.05949
  21892819.860   115047657.26909  21892817.100    89647539.87848
  23056320.020   121161801.48508  23056316.260    94411798.12947
  22943762.600   120570293.42408  22943759.520    93950868.37646
  21728944.180   114186514.85109  21728939.440    88976553.32048
  21351498.740   112202931.01509  21351498.200    87430883.15248
 15 02 16 01 57  0.0000000  0  6G16G18G19G21G22G27
  20453916.260   107486068.50309  20453912.920    83755381.52448
  21892906.860   115048114.06509  21892904.020    89647895.82547
  23043448.140   121094159.43608  23043444.360    94359090.06847
  22957209.820   120640958.49308  22957206.740    94005932.05046
  21716713.000   114122239.41609  21716708.220    88926468.58848
  21343265.300   112159664.05309  21343264.760    87397168.63948
 15 02 16 01 57 30.0000000  0  7G04G16G18G19G21G22G27
  24602243.440   129285660.13608  24602244.200   100742074.03144
  20451095.780   107471246.94009  20451092.460    83743832.25949
  21893087.980   115049065.40309  21893085.100    89648637.14747
  23030593.280   121026607.27108  23030589.680    94306452.06347
  22970674.520   120711715.59308  22970671.420    94061067.44047
  21704553.100   114058338.81009  21704548.300    88876675.93348
  21335058.540   112116537.28809  21335058.040    87363563.38249
 15 02 16 01 58  0.0000000  0  7G04G16G18G19G21G22G27
  24583219.180   129185687.00708  24583220.100   100664173.16844
  20448375.580   107456952.47709  20448372.340    83732693.70249
  21893365.440   115050523.18909  21893362.480    89649773.08547
  23017757.900   120959157.11208  23017754.300    94253893.52847
  22984158.720   120782575.17708  22984155.520    94116282.67646
  21692467.120   113994827.02709  21692462.420    88827186.25448
  21326880.880   112073563.20609  21326880.400    87330077.08848
 15 02 16 01 58 30.0000000  0  7G04G16G18G19G21G22G27
  24564220.080   129085846.51208  24564220.960   100586375.66644
  20445750.300   107443156.50609  20445747.080    83721943.59049
  21893733.620   115052458.21109  21893730.660    89651280.90347
  23004936.500   120891779.77508  23004932.660    94201391.71747
  22997656.620   120853506.69208  22997653.360    94171553.97646
  21680450.060   113931677.05609  21680445.440    88777978.49848
  21318726.740   112030712.72709  21318726.240    87296687.11249
 15 02 16 01 59  0.0000000  0  7G04G16G18G19G21G22G27
  24545249.940   128986158.50508  24545250.780   100508697.00744
  20443223.600   107429878.57309  20443220.400    83711597.14749
  21894196.120   115054888.95209  21894193.300    89653174.99847
  22992132.340   120824493.75208  22992128.440    94148961.08447
  23011171.400   120924527.20408  23011168.100    94226894.62647
  21668505.820   113868909.90609  21668501.300    88729069.06248
  21310599.740   111988005.05109  21310599.200    87263408.40849
 15 02 16 01 59 30.0000000  0  7G04G16G18G19G21G22G27
  24526309.060   128886624.41808  24526310.000   100431138.24844
  20440795.760   107417120.34009  20440792.580    83701655.65548
  21894753.080   115057816.03509  21894750.380    89655455.84547
  22979345.580   120757299.52608  22979341.840    94096601.97647
  23024702.800   120995635.38508  23024699.560    94282303.56847
  21656634.820   113806528.08109  21656630.400    88680459.85848
  21302500.060   111945441.19209  21302499.540    87230241.76149
 15 02 16 02 00  0.0000000  0  7G04G16G18G19G21G22G27
  24507397.200   128787243.13108  24507398.120   100353698.55745
  20438466.580   107404880.65609  20438463.440    83692118.23449
  21895404.160   115061237.59409  21895401.460    89658122.00547
  22966576.040   120690195.26409  22966572.440    94044312.98547
  23038250.000   121066826.75408  23038246.860    94337777.34947
  21644837.160   113744531.44609  21644832.780    88632150.81448
  21294427.360   111903019.38509  21294426.900    87197185.82249
 15 02 16 02 00 30.0000000  0  7G04G16G18G19G21G22G27
  24488514.620   128688015.81208  24488515.560   100276378.83044
  20436236.300   107393160.49509  20436233.140    83682985.64348
  21896149.320   115065153.44209  21896146.560    89661173.32147
  22953823.720   120623180.96808  22953820.100    93992094.07447
  23051812.980   121138101.07608  23051809.960    94393315.76647
  21633113.200   113682922.18009  21633108.940    88584143.61248
  21286381.720   111860740.13909  21286381.440    87164240.96548
 15 02 16 02 01  0.0000000  0  7G04G16G18G19G21G22G27
  24469661.780   128588944.91708  24469662.780   100199181.00044
  20434105.420   107381962.63709  20434102.240    83674260.03449
  21896988.820   115069565.13109  21896986.060    89664611.00847
  22941088.760   120556258.28808  22941085.060    93939946.57447
  23065391.720   121209457.97508  23065388.800    94448918.52847
  21621463.640   113621704.10409  21621459.560    88536441.24448
  21278363.620   111818605.52709  21278363.460    87131408.80648
 15 02 16 02 01 30.0000000  0  7G04G16G18G19G21G22G27
  24450838.400   128490028.48607  24450839.460   100122103.52645
  20432073.460   107371284.68909  20432070.280    83665939.55149
  21897922.020   115074469.66309  21897919.260    89668432.73447
  22928370.820   120489424.58209  22928366.880    93887868.39047
  23078985.240   121280892.12408  23078982.220    94504581.49147
  21609888.460   113560876.31109  21609884.380    88489042.98748
  21270372.680   111776612.99109  21270372.540    87098687.35548
 15 02 16 02 02  0.0000000  0  7G04G16G18G19G21G22G27
  24432044.860   128391269.15407  24432046.020   100045148.48245
  20430140.840   107361128.79409  20430137.680    83658025.85649
  21898949.200   115079868.00309  21898946.440    89672639.23547
  22915670.120   120422681.24109  22915666.080    93835860.61048
  23092593.600   121352404.16508  23092590.480    94560305.14347
  21598388.240   113500442.29709  21598384.120    88441951.57048
  21262409.220   111734764.51609  21262409.020    87066078.15649
 15 02 16 02 02 30.0000000  0  7G04G16G18G19G21G22G27
  24413281.700   128292669.43008  24413282.920    99968317.80445
  20428308.260   107351498.32909  20428305.100    83650521.59649
  21900070.780   115085761.99909  21900068.040    89677231.97547
  22902986.780   120356029.58908  22902982.780    93783924.30647
  23106216.820   121423994.44108  23106213.640    94616089.76747
  21586963.640   113440405.52509  21586959.460    88395169.68948
  21254473.580   111693062.16009  21254473.320    87033582.82448
 15 02 16 02 03  0.0000000  0  7G04G16G18G19G21G22G27
  24394548.940   128194229.25508  24394550.120    99891611.46445
  20426575.540   107342392.75109  20426572.380    83643426.33448
  21901286.540   115092150.58209  21901283.780    89682210.10047
  22890320.580   120289469.11808  22890316.640    93732059.05147
  23119854.360   121495660.10308  23119851.160    94671933.12446
  21575614.880   113380767.36709  21575610.620    88348698.41248
  21246565.600   111651505.44409  21246565.360    87001200.97848
 15 02 16 02 03 30.0000000  0  7G04G16G18G19G21G22G27
  24375846.840   128095950.02108  24375847.980    99815030.49845
  20424942.900   107333813.11209  20424939.760    83636740.89549
  21902596.440   115099033.88809  21902593.600    89687573.71947
  22877671.940   120223000.34509  22877667.860    93680265.22247
  23133506.000   121567399.86008  23133502.820    94727834.21347
  21564342.360   113321529.82209  21564338.040    88302539.30548
  21238685.540   111610095.21609  21238685.260    86968933.27749
 15 02 16 02 04  0.0000000  0  7G04G16G18G19G21G22G27
  24357175.400   127997831.90808  24357176.480    99738575.10146
  20423410.420   107325759.79109  20423407.300    83630465.58049
  21904000.260   115106410.88509  21903997.340    89693322.04347
  22865040.640   120156622.31809  22865036.420    93628542.10747
  23147171.240   121639211.03208  23147168.020    94783790.95247
  21553146.440   113262694.55809  21553142.060    88256693.66748
  21230833.300   111568831.09809  21230832.980    86936779.42649
 15 02 16 02 04 30.0000000  0  7G04G16G18G19G21G22G27
  24338535.100   127899877.48508  24338535.980    99662247.20845
  20421978.620   107318235.32109  20421975.440    83624602.34649
  21905498.280   115114283.12009  21905495.320    89699456.25747
  22852426.900   120090336.98508  22852422.800    93576891.22647
  23160850.240   121711094.56708  23160847.020    94839804.07846
  21542027.820   113204265.37209  21542023.360    88211164.44948
  21223009.320   111527715.50609  21223008.920    86904741.31449
 15 02 16 02 05  0.0000000  0  7G04G16G18G19G21G22G27
  24319926.220   127802088.16408  24319927.000    99586047.95445
  20420647.600   107311240.55409  20420644.360    83619151.87449
  21907090.600   115122650.73709  21907087.620    89705976.49447
  22839830.780   120024144.72909  22839826.940    93525312.89047
  23174542.700   121783048.95608  23174539.540    94895872.41546
  21530986.840   113146244.24409  21530982.320    88165953.20148
  21215213.780   111486749.17309  21215213.300    86872819.50048
 15 02 16 02 05 30.0000000  0  7G04G16G18G19G21G22G27
  24301348.680   127704463.33608  24301349.300    99509976.85045
  20419417.240   107304774.99409  20419413.980    83614113.76849
  21908776.840   115131511.78609  21908773.840    89712881.20947
  22827252.160   119958044.02409  22827248.360    93473805.87447
  23188247.900   121855070.78908  23188244.940    94951993.29847
  21520023.600   113088631.82109  21520019.040    88121060.41448
  21207446.360   111445931.00309  21207445.820    86841013.14048
 15 02 16 02 06  0.0000000  0  7G04G16G18G19G21G22G27
  24282802.780   127607004.61008  24282803.240    99434035.18045
  20418287.760   107298839.64509  20418284.480    83609488.80849
  21910557.140   115140866.82909  21910554.040    89720170.85747
  22814691.200   119892035.84909  22814687.360    93422370.95747
  23201965.700   121927159.23408  23201963.000    95008166.08846
  21509138.540   113031430.15109  21509133.900    88076487.69648
  21199707.340   111405262.32009  21199706.800    86809323.25849
 15 02 16 02 06 30.0000000  0  7G04G16G18G19G21G22G27
  24264288.840   127509714.01608  24264289.260    99358224.50444
  20417259.600   107293436.70609  20417256.320    83605278.72449
  21912431.580   115150716.66209  21912428.400    89727846.06647
  22802148.020   119826121.27209  22802144.200    93371008.99247
  23215696.240   121999314.24508  23215693.700    95064390.76646
  21498332.380   112974642.89509  21498327.580    88032237.90548
  21191997.040   111364744.61009  21191996.560    86777751.03049
 15 02 16 02 07  0.0000000  0  7G04G16G18G19G21G22G27
  24245806.640   127412590.10908  24245806.820    99282543.71944
  20416332.520   107288564.65509  20416329.200    83601482.31449
  21914399.620   115161058.59809  21914396.440    89735904.72247
  22789622.280   119760298.17709  22789618.480    93319718.29148
  23229438.880   122071532.45208  23229436.340    95120664.67146
  21487605.040   112918269.87709  21487600.160    87988310.88748
  21184315.160   111324376.09409  21184314.720    86746295.04649
 15 02 16 02 07 30.0000000  0  7G04G16G18G19G21G22G27
  24227357.320   127315638.97608  24227357.460    99206997.55044
  20415507.560   107284229.30109  20415504.220    83598104.10849
  21916462.180   115171897.43709  21916459.040    89744350.57947
  22777114.960   119694571.71409  22777111.120    93268502.89447
  23243194.180   122143816.81108  23243191.560    95176990.12147
  21476957.700   112862317.63309  21476952.820    87944711.75048
  21176662.740   111284162.49009  21176662.340    86714959.77449
 15 02 16 02 08  0.0000000  0  7G04G16G18G19G21G22G27
  24208940.420   127218858.32008  24208940.680    99131584.24744
  20414784.220   107280428.00309  20414780.860    83595142.05149
  21918618.620   115183229.79309  21918615.540    89753180.99847
  22764625.400   119628938.80108  22764621.480    93217360.38547
  23256961.240   122216162.90008  23256958.620    95233363.67847
  21466390.200   112806785.17709  21466385.420    87901439.72348
  21169039.320   111244101.13409  21169038.880    86683743.13749
 15 02 16 02 08 30.0000000  0  7G04G16G18G19G21G22G27
  24190556.020   127122248.56308  24190556.320    99056304.09744
  20414162.580   107277161.09909  20414159.160    83592596.41049
  21920868.800   115195054.75509  21920865.760    89762395.27047
  22752153.540   119563399.21608  22752149.600    93166290.61347
  23270739.680   122288568.53608  23270737.000    95289783.64046
  21455902.760   112751673.89209  21455898.060    87858495.88248
  21161444.860   111204192.18309  21161444.440    86652645.25949
 15 02 16 02 09  0.0000000  0  7G04G16G18G19G21G22G27
  24172204.960   127025813.71008  24172205.220    98981160.25545
  20413643.300   107274432.14409  20413639.860    83590469.94349
  21923213.120   115207374.72009  21923210.160    89771995.25047
  22739700.040   119497956.07308  22739696.100    93115295.98147
  23284529.840   122361035.73508  23284527.020    95346251.56147
  21445496.360   112696988.56809  21445491.740    87815883.95248
  21153880.040   111164439.05309  21153879.680    86621668.80149
 15 02 16 02 09 30.0000000  0  7G04G16G18G19G21G22G27
  24153887.040   126929553.13408  24153887.400    98906152.19145
  20413226.240   107272240.25009  20413222.780    83588761.97049
  21925651.320   115220188.04709  21925648.480    89781979.67047
  22727264.720   119432608.07208  22727260.800    93064375.48947
  23298331.060   122433561.15808  23298328.080    95402764.85346
  21435170.980   112642729.17409  21435166.480    87773603.92348
  21146344.720   111124840.95309  21146344.460    86590813.14449
 15 02 16 02 10  0.0000000  0  7G04G16G18G19G21G22G27
  24135601.780   126833463.99608  24135602.140    98831277.71045
  20412910.720   107270582.15209  20412907.320    83587469.93749
  21928182.720   115233490.63109  21928179.860    89792345.32047
  22714846.880   119367351.88308  22714842.900    93013526.53547
  23312142.400   122506139.96608  23312139.400    95459319.74447
  21424926.540   112588894.54609  21424922.040    87731654.87548
  21138838.340   111085394.72809  21138838.100    86560075.82849
 15 02 16 02 10 30.0000000  0  7G04G16G18G19G21G22G27
  24117350.400   126737553.16108  24117350.800    98756542.18146
  20412698.100   107269464.76609  20412694.740    83586599.23749
  21930808.200   115247287.62409  21930805.260    89803096.23047
  22702447.660   119302193.26109  22702443.520    92962753.59747
  23325964.740   122578776.29108  23325961.700    95515919.45747
  21414764.460   112535492.59509  21414760.000    87690042.97948
  21131362.100   111046106.96309  21131361.880    86529461.99649
 15 02 16 02 11  0.0000000  0  7G04G16G18G19G21G22G27
  24099132.740   126641819.51008  24099133.020    98681944.69745
  20412588.120   107268886.66509  20412584.760    83586148.76249
  21933527.480   115261577.45509  21933524.460    89814231.17248
  22690066.700   119237130.48009  22690062.500    92912055.35147
  23339797.360   122651466.90308  23339794.280    95572561.47247
  21404684.620   112482522.77009  21404680.140    87648767.80148
  21123915.740   111006976.25609  21123915.520    86498970.53649
 15 02 16 02 11 30.0000000  0  7G04G16G18G19G21G22G27
  24080949.220   126546265.24608  24080949.480    98607487.00046
  20412581.060   107268849.41209  20412577.660    83586119.72649
  21936340.540   115276360.22709  21936337.500    89825750.22747
  22677704.220   119172164.94609  22677700.060    92861432.88047
  23353640.220   122724211.22108  23353637.040    95629245.34246
  21394687.540   112429987.95409  21394683.120    87607831.60748
  21116499.600   110968004.25109  21116499.400    86468602.74549
 15 02 16 02 12  0.0000000  0  7G04G16G18G19G21G22G27
  24062799.820   126450890.27508  24062800.000    98533168.99246
  20412676.760   107269352.37409  20412673.360    83586511.63849
  21939247.100   115291634.43709  21939244.080    89837652.21347
  22665360.060   119107295.82209  22665355.860    92810885.53447
  23367492.920   122797007.52208  23367489.700    95685969.69946
  21384773.380   112377888.84409  21384768.920    87567234.90848
  21109113.620   110929190.66909  21109113.400    86438358.39849
 15 02 16 02 12 30.0000000  0  7G04G16G18G19G21G22G27
  24044684.760   126355695.70108  24044684.800    98458991.55645
  20412875.460   107270396.73409  20412872.160    83587325.42049
  21942247.160   115307399.92209  21942244.140    89849937.00848
  22653034.340   119042523.77309  22653030.200    92760413.83147
  23381355.300   122869854.57608  23381352.040    95742733.61946
  21374942.660   112326228.17209  21374938.180    87526979.86048
  21101758.040   110890536.54109  21101757.700    86408238.30749
 15 02 16 02 13  0.0000000  0  7G04G16G18G19G21G22G27
  24026604.060   126260681.56008  24026604.080    98384954.72045
  20413177.180   107271982.20209  20413173.880    83588560.84449
  21945340.360   115323655.06809  21945337.400    89862603.36247
  22640726.900   118977848.13909  22640722.820    92710017.25547
  23395226.900   122942749.94808  23395223.600    95799535.18146
  21365195.460   112275006.48209  21365191.020    87487066.87748
  21094432.760   110852041.49109  21094432.340    86378242.16249
 15 02 16 02 13 30.0000000  0  7G04G16G18G19G21G22G27
  24008558.120   126165850.39008  24008558.140    98311060.45045
  20413582.240   107274110.72009  20413578.960    83590219.41949
  21948527.100   115340401.57409  21948524.160    89875652.58948
  22628438.140   118913270.72108  22628434.120    92659697.21447
  23409107.800   123015694.37008  23409104.440    95856374.97046
  21355532.480   112224227.17209  21355528.080    87447498.59848
  21087138.200   110813708.03609  21087137.740    86348371.93949
 15 02 16 02 14  0.0000000  0  7G04G16G18G19G21G22G27
  23990547.420   126071204.19008  23990547.360    98237310.31045
  20414090.960   107276783.99809  20414087.660    83592302.49149
  21951807.320   115357639.23809  21951804.460    89889084.54448
  22616168.320   118848792.73409  22616164.340    92609454.65347
  23422997.840   123088686.99908  23422994.480    95913252.32146
  21345954.340   112173893.29109  21345949.860    87408277.40248
  21079874.620   110775537.63409  21079874.160    86318628.77649
 15 02 16 02 14 30.0000000  0  7G04G16G18G19G21G22G27
  23972571.340   125976739.72308  23972571.120    98163701.75045
  20414702.620   107279998.06709  20414699.280    83594806.95449
  21955180.260   115375364.21309  21955177.480    89902896.21448
  22603916.780   118784410.37809  22603912.720    92559286.60047
  23436896.100   123161722.87708  23436892.800    95970163.37446
  21336460.500   112124002.61009  21336456.020    87369401.56348
  21072641.440   110737527.24209  21072641.000    86289010.29049
 15 02 16 02 15  0.0000000  0  7G04G16G18G19G21G22G27
  23954630.880   125882462.54208  23954630.620    98090239.17044
  20415418.180   107283758.28209  20415414.800    83597736.97949
  21958646.740   115393580.69109  21958644.000    89917090.87548
  22591684.400   118720128.53509  22591680.300    92509196.88347
  23450803.180   123234804.86108  23450799.900    96027110.35447
  21327052.020   112074560.91909  21327047.540    87330875.58448
  21065439.680   110699681.90109  21065439.260    86259520.42149
 15 02 16 02 15 30.0000000  0  7G04G16G18G19G21G22G27
  23936725.720   125788370.81408  23936725.300    98016921.05945
  20416237.300   107288062.60509  20416233.900    83601090.99149
  21962206.020   115412285.02009  21962203.280    89931665.68748
  22579470.740   118655945.13709  22579466.620    92459183.86048
  23464718.200   123307929.04408  23464714.980    96084090.22347
  21317728.840   112025567.71309  21317724.480    87292699.08348
  21058268.980   110661999.68409  21058268.600    86230157.65749
 15 02 16 02 16  0.0000000  0  7G04G16G18G19G21G22G27
  23918856.360   125694466.70108  23918855.760    97943749.13145
  20417160.260   107292912.67709  20417156.860    83604870.25649
  21965858.280   115431477.72609  21965855.460    89946621.04448
  22567276.060   118591861.65609  22567271.940    92409248.69848
  23478641.320   123381095.72308  23478638.140    96141103.20346
  21308491.600   111977026.12309  21308487.280    87254874.48248
  21051129.800   110624482.81109  21051129.420    86200923.73649
 15 02 16 02 16 30.0000000  0  7G04G16G18G19G21G22G27
  23901022.940   125600751.48108  23901022.120    97870724.36845
  20418187.140   107298308.73909  20418183.720    83609074.97849
  21969603.420   115451158.31209  21969600.540    89961956.56848
  22555100.460   118527878.38009  22555096.280    92359391.61948
  23492572.260   123454303.57508  23492569.180    96198148.25146
  21299340.680   111928938.01109  21299336.320    87217403.23848
  21044022.200   110587131.95009  21044021.800    86171819.16949
 15 02 16 02 17  0.0000000  0  7G04G16G18G19G21G22G27
  23883225.400   125507225.03708  23883224.580    97797846.72245
  20419317.840   107304250.54709  20419314.400    83613704.95249
  21973441.200   115471325.65309  21973438.240    89977671.37547
  22542943.780   118463994.84809  22542939.640    92309612.26348
  23506510.740   123527550.77608  23506507.700    96255223.96847
  21290276.180   111881303.81809  21290271.760    87180285.70348
  21036946.120   110549947.09309  21036945.740    86142843.96049
 15 02 16 02 17 30.0000000  0  7G04G16G18G19G21G22G27
  23865464.120   125413889.25408  23865463.340    97725117.64545
  20420552.740   107310739.90409  20420549.280    83618761.58749
  21977371.700   115491980.36809  21977368.740    89993765.95447
  22530806.400   118400212.60409  22530802.280    92259911.83448
  23520456.600   123600837.07808  23520453.680    96312330.15346
  21281298.700   111834126.69809  21281294.200    87143524.32948
  21029901.980   110512930.11109  21029901.640    86113999.56249
 15 02 16 02 18  0.0000000  0  7G04G16G18G19G21G22G27
  23847739.720   125320747.47308  23847738.960    97652539.73445
  20421892.220   107317779.05809  20421888.780    83624246.63449
  21981395.060   115513123.60709  21981392.140    90010241.21547
  22518688.760   118336534.16509  22518684.600    92210292.29248
  23534410.080   123674163.26008  23534407.240    96369467.40746
  21272409.060   111787410.87509  21272404.480    87107122.40048
  21022890.340   110476084.02509  21022890.040    86085288.33149
 15 02 16 02 18 30.0000000  0  7G04G16G18G19G21G22G27
  23830051.400   125227795.22608  23830050.920    97580109.50845
  20423335.340   107325362.85209  20423331.960    83630156.07449
  21985510.280   115534749.84309  21985507.440    90027092.82247
  22506589.980   118272954.77309  22506585.860    92160749.92548
  23548370.020   123747523.04008  23548367.160    96426630.84546
  21263606.440   111741152.63409  21263601.800    87071077.03448
  21015910.380   110439404.43209  21015910.140    86056706.83849
 15 02 16 02 19  0.0000000  0  7G04G16G18G19G21G22G27
  23812399.720   125135035.45008  23812399.300    97507829.27245
  20424882.660   107333494.10009  20424879.300    83636492.10149
  21989717.720   115556860.15009  21989714.900    90044321.62647
  22494510.520   118209476.62709  22494506.320    92111286.46548
  23562336.540   123820917.33808  23562333.640    96483821.18946
  21254891.520   111695355.18409  21254886.800    87035390.71948
  21008962.660   110402894.03809  21008962.460    86028257.18049
 15 02 16 02 19 30.0000000  0  7G04G16G18G19G21G22G27
  23794785.060   125042470.28308  23794784.800    97435700.67346
  20426534.500   107342174.43309  20426531.160    83643255.98449
  21994017.460   115579455.38409  21994014.640    90061928.30847
  22482450.620   118146101.11809  22482446.320    92061902.96448
  23576309.560   123894346.04308  23576306.680    96541038.33746
  21246264.920   111650021.86109  21246260.160    87000066.06248
  21002047.540   110366554.83209  21002047.360    85999940.91849
 15 02 16 02 20  0.0000000  0  7G04G16G18G19G21G22G27
  23777207.800   124950101.56108  23777207.620    97363725.14546
  20428291.020   107351404.81909  20428287.660    83650448.48749
  21998409.480   115602535.83309  21998406.740    90079913.08047
  22470410.560   118082830.02309  22470406.180    92012600.83448
  23590289.100   123967808.80908  23590286.140    96598282.02647
  21237727.100   111605155.18309  21237722.280    86965105.02048
  20995165.380   110330388.69209  20995165.180    85971759.51649
 15 02 16 02 20 30.0000000  0  7G04G16G18G19G21G22G27
  23759667.900   124857929.47108  23759667.680    97291902.83646
  20430152.100   107361184.82609  20430148.780    83658069.26549
  22002893.440   115626099.49909  22002890.700    90098274.38047
  22458390.280   118019662.90409  22458385.840    91963379.72148
  23604274.820   124041303.86908  23604271.760    96655550.88646
  21229278.200   111560755.88509  21229273.360    86930508.17948
  20988316.140   110294395.64609  20988315.900    85943712.98349
 15 02 16 02 21  0.0000000  0  7G04G16G18G19G21G22G27
  23742165.440   124765953.93508  23742165.260    97220233.66346
  20432117.700   107371513.97109  20432114.300    83666117.93649
  22007469.140   115650145.19909  22007466.380    90117011.29347
  22446389.620   117956599.12609  22446385.140    91914239.13348
  23618266.280   124114829.22008  23618263.220    96712843.33646
  21220918.360   111516824.77109  21220913.600    86896276.15748
  20981499.820   110258575.60309  20981499.540    85915801.26549
 15 02 16 02 21 30.0000000  0  7G04G16G18G19G21G22G27
  23724700.400   124674175.04508  23724700.140    97148717.75646
  20434187.660   107382391.75309  20434184.300    83674594.12149
  22012136.340   115674671.53409  22012133.580    90136122.72547
  22434408.540   117893638.43309  22434404.160    91865178.88248
  23632263.140   124188383.15308  23632260.020    96770158.06846
  21212647.780   111473362.75109  21212643.080    86862409.65948
  20974716.500   110222928.81909  20974716.160    85888024.55249
 15 02 16 02 22  0.0000000  0  7G04G16G18G19G21G22G27
  23707273.440   124582596.37308  23707273.200    97077357.84945
  20436362.420   107393820.33309  20436359.080    83683499.50449
  22016895.360   115699680.23509  22016892.580    90155610.02247
  22422447.620   117830783.79709  22422443.380    91816201.27648
  23646265.680   124261966.95808  23646262.560    96827496.07646
  21204467.300   111430374.00409  21204462.580    86828911.94948
  20967966.800   110187458.67709  20967966.440    85860385.48549
 15 02 16 02 22 30.0000000  0  7G04G16G18G19G21G22G27
  23689884.240   124491216.16908  23689884.020    97006152.56546
  20438641.740   107405798.53209  20438638.480    83692833.15549
  22021745.460   115725167.66909  22021742.700    90175470.35747
  22410506.560   117768033.20309  22410502.300    91767304.73248
  23660273.180   124335576.82708  23660270.040    96884854.38746
  21196376.660   111387857.37009  21196371.900    86795782.11048
  20961250.360   110152163.44409  20961249.980    85832882.70849
 15 02 16 02 23  0.0000000  0  7G04G16G18G19G21G22G27
  23672533.360   124400037.13408  23672533.080    96935104.06145
  20441025.880   107418327.46109  20441022.700    83702595.94949
  22026686.940   115751135.19109  22026684.160    90195704.78947
  22398585.720   117705388.82909  22398581.400    91718490.95748
  23674285.780   124409213.49008  23674282.660    96942233.58446
  21188376.540   111345816.40309  21188371.760    86763022.93048
  20954567.700   110117045.81809  20954567.320    85805518.33349
 15 02 16 02 23 30.0000000  0  7G04G16G18G19G21G22G27
  23655220.740   124309058.87308  23655220.400    96864211.98745
  20443514.680   107431406.59009  20443511.600    83712787.47249
  22031719.400   115777580.83909  22031716.560    90216311.79847
  22386684.920   117642850.07609  22386680.680    91669759.48548
  23688303.080   124482874.83308  23688299.940    96999632.01546
  21180466.940   111304251.61009  21180462.220    86730634.79448
  20947918.820   110082105.52409  20947918.400    85778292.12949
 15 02 16 02 24  0.0000000  0  7G04G16G18G19G21G22G27
  23637946.760   124218283.54508  23637946.320    96793478.03345
  20446108.400   107445037.12309  20446105.460    83723408.65449
  22036842.940   115804505.11309  22036840.040    90237291.74947
  22374804.460   117580418.40509  22374800.360    91621111.46348
  23702325.080   124556560.99808  23702321.940    97057049.77946
  21172648.460   111263165.63009  21172643.800    86698619.75948
  20941304.040   110047344.58309  20941303.600    85751205.68449
 15 02 16 02 24 30.0000000  0  7G04G16G18G19G21G22G27
  23620711.360   124127710.78308  23620710.760    96722901.91845
  20448806.860   107459218.09109  20448804.040    83734458.74749
  22042057.120   115831905.89009  22042054.220    90258642.99447
  22362944.240   117518093.17009  22362940.320    91572546.37348
  23716351.400   124630269.80008  23716348.280    97114485.18046
  21164921.180   111222558.71809  21164916.540    86666978.01748
  20934723.320   110012762.85009  20934722.880    85724258.87749
 15 02 16 02 25  0.0000000  0  7G04G16G18G19G21G22G27
  23603514.640   124037341.28408  23603513.860    96652484.17145
  20451610.020   107473948.85409  20451607.280    83745937.25549
  22047361.740   115859781.83209  22047358.800    90280364.50847
  22351104.520   117455875.14509  22351100.640    91524064.81348
  23730381.660   124703999.31108  23730378.520    97171936.73946
  21157285.240   111182432.06609  21157280.660    86635710.51148
  20928176.840   109978360.87609  20928176.360    85697452.15449
 15 02 16 02 25 30.0000000  0  7G04G16G18G19G21G22G27
  23586357.400   123947179.39708  23586356.400    96582228.20145
  20454518.660   107489233.68909  20454515.920    83757847.50249
  22052757.380   115888135.93609  22052754.380    90302458.60847
  22339285.860   117393767.59309  22339281.900    91475669.34148
  23744416.440   124777752.37308  23744413.320    97229406.63146
  21149741.700   111142791.00309  21149737.120    86604821.37748
  20921665.440   109944143.18109  20921664.900    85670789.01749
 15 02 16 02 26  0.0000000  0  7G04G16G18G19G21G22G27
  23569238.940   123857221.56108  23569238.000    96512131.23145
  20457531.860   107505067.92009  20457529.040    83770185.85249
  22058242.980   115916962.76109  22058239.920    90324921.07047
  22327487.560   117331767.01409  22327483.480    91427357.21448
  23758454.760   124851523.91408  23758451.660    97286890.92446
  21142289.940   111103632.28909  21142285.420    86574308.10948
  20915188.460   109910106.36109  20915187.860    85644266.81549
 15 02 16 02 26 30.0000000  0  7G04G16G18G19G21G22G27
  23552159.880   123767470.69508  23552158.800    96442195.54045
  20460650.000   107521453.72509  20460647.140    83782954.00549
  22063818.800   115946263.81409  22063815.680    90347753.06547
  22315710.040   117269875.68409  22315705.940    91379130.23448
  23772496.640   124925314.21508  23772493.520    97344389.84646
  21134930.700   111064959.47109  21134926.220    86544173.45548
  20908746.460   109876253.26209  20908745.820    85617887.78349
 15 02 16 02 27  0.0000000  0  7G04G16G18G19G21G22G27
  23535120.240   123677927.00008  23535119.100    96372421.27845
  20463873.060   107538390.99909  20463870.160    83796151.86749
  22069484.540   115976037.35009  22069481.380    90370953.22747
  22303953.380   117208093.96609  22303949.280    91330988.65448
  23786541.860   124999122.46008  23786538.840    97401902.72946
  21127664.140   111026773.54309  21127659.720    86514418.19648
  20902339.540   109842584.36209  20902338.880    85591652.27949
 15 02 16 02 27 30.0000000  0  7G04G16G18G19G21G22G27
  23518120.880   123588595.28908  23518119.740    96302812.19945
  20467201.700   107555883.11709  20467198.780    83809782.07949
  22075240.780   116006286.33309  22075237.620    90394523.86747
  22292218.400   117146426.08309  22292214.280    91282935.77648
  23800590.960   125072951.27108  23800588.060    97459431.65446
  21120491.340   110989079.70709  21120486.880    86485046.38248
  20895968.540   109809104.54509  20895967.940    85565564.11849
 15 02 16 02 28  0.0000000  0  7G04G16G18G19G21G22G27
  23501160.300   123499467.36708  23501159.280    96233361.93046
  20470634.280   107573921.27609  20470631.280    83823837.77549
  22081085.660   116037001.09309  22081082.440    90418457.45347
  22280503.440   117084863.55509  22280499.320    91234964.99248
  23814642.060   125146790.34708  23814639.220    97516968.58046
  21113410.740   110951870.35409  21113406.180    86456052.08948
  20889631.940   109775805.68709  20889631.400    85539616.96249
 15 02 16 02 28 30.0000000  0  7G04G16G18G19G21G22G27
  23484240.520   123410554.03308  23484239.720    96164078.87645
  20474172.660   107592515.40009  20474169.620    83838326.69849
  22087020.880   116068190.65609  22087017.540    90442761.00447
  22268810.520   117023416.95909  22268806.460    91187084.54848
  23828696.840   125220649.01908  23828694.100    97574520.76846
  21106424.440   110915156.92109  21106419.860    86427444.23348
  20883331.880   109742698.85309  20883331.340    85513819.43749
 15 02 16 02 29  0.0000000  0  7G04G16G18G19G21G22G27
  23467360.580   123321850.06908  23467359.900    96094958.96845
  20477815.680   107611659.50709  20477812.640    83853244.17849
  22093045.060   116099847.71509  22093041.660    90467428.84247
  22257138.620   116962081.00709  22257134.600    91139290.33348
  23842754.100   125294520.40808  23842751.380    97632082.86746
  21099531.620   110878934.93109  21099527.080    86399219.31948
  20877067.360   109709778.90609  20877066.860    85488167.53349
 15 02 16 02 29 30.0000000  0  7G04G16G18G19G21G22G27
  23450520.840   123233357.22408  23450520.160    96026003.54146
  20481563.500   107631354.38109  20481560.480    83868590.82149
  22099158.100   116131972.18309  22099154.760    90492460.89747
  22245488.020   116900856.77209  22245483.960    91091583.14748
  23856813.720   125368404.19208  23856810.960    97689654.61946
  21092732.680   110843206.43409  21092728.180    86371378.93948
  20870838.780   109677047.60309  20870838.260    85462662.62549
 15 02 16 02 30  0.0000000  0  7G04G16G18G19G21G22G27
  23433721.820   123145078.03908  23433721.160    95957214.61846
  20485416.400   107651601.48109  20485413.400    83884367.77249
  22105360.300   116164564.97709  22105357.080    90517857.89047
  22233859.200   116839746.89009  22233855.020    91043965.06348
  23870875.900   125442301.21208  23870873.160    97747236.68346
  21086028.260   110807974.57109  21086023.760    86343925.54848
  20864646.640   109644507.88209  20864646.180    85437307.00049
 15 02 16 02 30 30.0000000  0  7G04G16G18G19G21G22G27
  23416963.060   123057010.21808  23416962.440    95888590.39646
  20489373.800   107672397.71709  20489370.820    83900572.62049
  22111650.840   116197621.97209  22111647.640    90543616.58747
  22222251.660   116778748.64809  22222247.380    90996433.98448
  23884939.800   125516207.24308  23884937.160    97804825.77546
  21079417.980   110773237.03209  21079413.400    86316857.35048
  20858490.580   109612157.45309  20858490.100    85412098.88049
 15 02 16 02 31  0.0000000  0  7G04G16G18G19G21G22G27
  23400245.220   122969157.66808  23400244.660    95820133.91446
  20493436.320   107693746.52709  20493433.440    83917208.04049
  22118030.180   116231145.62709  22118026.980    90569738.91247
  22210666.100   116717866.06109  22210661.740    90948993.01148
  23899005.920   125590124.71408  23899003.220    97862423.77246
  21072902.800   110738999.04609  21072898.160    86290178.40448
  20852371.360   109580000.66309  20852370.880    85387041.63849
 15 02 16 02 31 30.0000000  0  7G04G16G18G19G21G22G27
  23383568.100   122881519.08408  23383567.640    95751844.16046
  20497603.380   107715644.80909  20497600.560    83934271.62249
  22124497.640   116265132.28009  22124494.400    90596222.02247
  22199102.140   116657097.03909  22199097.700    90901640.54948
  23913073.600   125664050.29608  23913070.840    97920028.10146
  21066482.440   110705259.54509  21066477.760    86263887.89848
  20846288.740   109548036.24009  20846288.240    85362134.30149
 15 02 16 02 32  0.0000000  0  7G04G16G18G19G21G22G27
  23366932.240   122794097.41508  23366931.780    95683723.44246
  20501875.540   107738094.93209  20501872.660    83951765.21749
  22131053.460   116299583.21809  22131050.220    90623066.91147
  22187560.420   116596444.73609  22187555.960    90854379.02048
  23927143.100   125737985.52908  23927140.380    97977639.94646
  21060157.500   110672021.74009  21060152.840    86237988.32248
  20840243.260   109516267.38809  20840242.860    85337379.35849
 15 02 16 02 32 30.0000000  0  7G04G16G18G19G21G22G27
  23350337.340   122706890.88708  23350336.860    95615770.36346
  20506252.260   107761094.58609  20506249.300    83969687.01049
  22137696.980   116334495.02009  22137693.740    90650270.91047
  22176040.460   116535907.17109  22176036.060    90807206.92048
  23941213.740   125811926.72808  23941210.980    98035256.43746
  21053927.820   110639284.44109  21053923.140    86212478.75248
  20834234.740   109484692.74209  20834234.420    85312775.73749
 15 02 16 02 33  0.0000000  0  7G04G16G18G19G21G22G27
  23333783.860   122619901.83808  23333783.320    95547986.73846
  20510733.720   107784644.79609  20510730.760    83988037.80149
  22144428.220   116369867.85909  22144425.000    90677834.15847
  22164542.760   116475486.50209  22164538.380    90760125.88448
  23955285.680   125885874.89108  23955282.820    98092878.36146
  21047793.900   110607050.37909  21047789.180    86187361.31448
  20828263.660   109453314.68009  20828263.360    85288325.29749
 15 02 16 02 33 30.0000000  0  7G04G16G18G19G21G22G27
  23317271.800   122533130.17008  23317271.120    95480372.48946
  20515319.680   107808744.17309  20515316.740    84006816.52849
  22151246.780   116405699.85209  22151243.620    90705755.19347
  22153067.280   116415182.70309  22153062.920    90713135.92848
  23969358.580   125959828.10208  23969355.720    98150504.22146
  21041755.780   110575319.80509  21041751.000    86162636.19748
  20822330.060   109422133.44909  20822329.760    85264028.24049
 15 02 16 02 34  0.0000000  0  7G04G16G18G19G21G22G27
  23300801.340   122446577.05308  23300800.640    95412928.55346
  20520010.300   107833393.45309  20520007.320    84026023.74949
  22158152.600   116441990.36809  22158149.540    90734033.51547
  22141614.240   116354996.73909  22141609.860    90666237.79448
  23983432.260   126033785.45508  23983429.260    98208133.29746
  21035813.740   110544094.49209  21035808.980    86138304.80348
  20816434.220   109391150.47509  20816433.940    85239885.66749
 15 02 16 02 34 30.0000000  0  7G04G16G18G19G21G22G27
  23284372.780   122360243.95108  23284372.000    95345656.05646
  20524805.460   107858592.16509  20524802.480    84045659.09349
  22165145.620   116478739.00409  22165142.600    90762668.81647
  22130183.840   116294929.82909  22130179.420    90619432.41948
  23997506.720   126107747.04208  23997503.660    98265765.67046
  21029968.180   110513375.94009  21029963.420    86114368.27148
  20810576.440   109360367.46209  20810576.160    85215898.91249
 15 02 16 02 35  0.0000000  0  7G04G16G18G19G21G22G27
  23267986.240   122274131.91608  23267985.340    95278555.79946
  20529705.280   107884340.83009  20529702.260    84065722.97349
  22172225.660   116515944.96009  22172222.620    90791660.46247
  22118776.280   116234982.86709  22118771.760    90572720.50948
  24011581.860   126181712.42608  24011578.740    98323401.01146
  21024219.400   110483165.99509  21024214.720    86090828.07148
  20804757.020   109329785.91009  20804756.680    85192069.12749
 15 02 16 02 35 30.0000000  0  7G04G16G18G19G21G22G27
  23251641.560   122188240.02208  23251640.600    95211627.09646
  20534709.480   107910637.95009  20534706.420    84086214.22349
  22179392.140   116553605.32909  22179389.140    90821006.20447
  22107391.360   116175154.82509  22107386.820    90526101.27648
  24025657.280   126255679.23108  24025654.240    98381037.46246
  21018567.280   110453464.05309  21018562.660    86067683.71148
  20798975.800   109299405.16509  20798975.360    85168395.82749
 15 02 16 02 36  0.0000000  0  7G04G16G18G19G21G22G27
  23235339.040   122102569.75308  23235338.080    95144871.07746
  20539818.120   107937483.49309  20539814.940    84107132.81648
  22186645.040   116591719.87609  22186642.140    90850705.84247
  22096029.380   116115447.32709  22096024.840    90479575.96348
  24039732.880   126329647.23708  24039729.960    98438674.82446
  21013012.100   110424271.71109  21013007.540    86044936.44648
  20793233.120   109269227.01009  20793232.540    85144880.37349
 15 02 16 02 36 30.0000000  0  7G04G16G18G19G21G22G27
  23219078.900   122017122.28608  23219078.060    95078288.67446
  20545031.000   107964876.82909  20545027.720    84128478.25448
  22193984.160   116630287.30309  22193981.320    90880758.38347
  22084690.520   116055861.26609  22084685.940    90433145.28048
  24053808.540   126403615.68708  24053805.700    98496312.55746
  21007554.260   110395590.72109  21007549.640    86022587.62048
  20787529.180   109239252.77109  20787528.600    85121523.82849
 15 02 16 02 37  0.0000000  0  7G04G16G18G19G21G22G27
  23202860.840   121931895.90008  23202859.920    95011878.54646
  20550347.720   107992816.05809  20550344.360    84150249.07248
  22201408.840   116669304.62809  22201406.060    90911161.49147
  22073374.460   115996395.00309  22073369.940    90386807.95348
  24067883.720   126477581.51908  24067880.920    98553948.24645
  21002193.420   110367419.69709  21002188.780    86000636.19248
  20781863.780   109209481.28709  20781863.280    85098325.27349
 15 02 16 02 37 30.0000000  0  7G04G16G18G19G21G22G27
  23186685.840   121846895.78508  23186684.900    94945644.72146
  20555769.120   108021305.39509  20555765.740    84172448.53248
  22208919.680   116708774.82109  22208916.920    90941917.47847
  22062082.220   115937053.72909  22062077.720    90340568.01448
  24081959.120   126551548.34808  24081956.380    98611584.69945
  20996930.760   110339764.37409  20996926.080    85979086.59348
  20776238.080   109179918.14709  20776237.580    85075289.05849
 15 02 16 02 38  0.0000000  0  7G04G16G18G19G21G22G27
  23170553.480   121762119.75608  23170552.520    94879585.52046
  20561294.460   108050340.91309  20561291.040    84195073.59949
  22216515.960   116748693.82609  22216513.200    90973023.18847
  22050813.300   115877834.86309  22050808.820    90294423.45948
  24096033.940   126625512.16808  24096031.140    98669218.81246
  20991765.840   110312622.53709  20991761.200    85957937.12248
  20770651.720   109150561.35609  20770651.180    85052413.63349
 15 02 16 02 38 30.0000000  0  7G04G16G18G19G21G22G27
  23154463.880   121677568.54208  23154462.980    94813701.50546
  20566923.640   108079922.10409  20566920.100    84218123.87048
  22224197.440   116789060.50109  22224194.800    91004477.74247
  22039567.940   115818739.72209  22039563.420    90248375.31748
  24110108.160   126699472.61208  24110105.380    98726850.30845
  20986698.860   110285995.39009  20986694.220    85937188.71448
  20765104.920   109121412.31309  20765104.320    85029700.10149
 15 02 16 02 39  0.0000000  0  7G04G16G18G19G21G22G27
  23138417.160   121593242.77408  23138416.280    94747993.14146
  20572656.560   108110048.53409  20572652.980    84241598.99248
  22231963.780   116829873.13509  22231961.240    91036279.78247
  22028346.180   115759768.53909  22028341.520    90202423.75548
  24124181.500   126773428.58708  24124178.820    98784478.30145
  20981729.920   110259883.46309  20981725.260    85916841.76248
  20759597.760   109092471.70009  20759597.140    85007148.96849
 15 02 16 02 39 30.0000000  0  7G04G16G18G19G21G22G27
  23122413.520   121509143.39108  23122412.680    94682461.19546
  20578493.180   108140720.31909  20578489.640    84265499.07748
  22239814.860   116871130.75309  22239812.300    91068428.56747
  22017148.140   115700922.49109  22017143.500    90156569.71848
  24138253.920   126847379.55608  24138251.300    98842102.40645
  20976859.240   110234288.12409  20976854.640    85896897.35548
  20754130.520   109063740.97909  20754129.880    84984761.40549
 15 02 16 02 40  0.0000000  0  7G04G16G18G19G21G22G27
  23106452.840   121425269.83308  23106452.040    94617105.21646
  20584433.160   108171935.50509  20584429.760    84289822.58548
  22247750.180   116912830.94408  22247747.620    91100922.21447
  22005973.820   115642201.03809  22005969.160    90110812.75648
  24152324.980   126921323.48608  24152322.460    98899721.01645
  20972086.820   110209208.98309  20972082.260    85877355.17248
  20748703.180   109035220.03609  20748702.540    84962537.28949
 15 02 16 02 40 30.0000000  0  7G04G16G18G19G21G22G27
  23090535.700   121341624.80508  23090534.780    94551927.30646
  20590476.840   108203695.59409  20590473.500    84314570.69848
  22255769.860   116954974.77008  22255767.320    91133761.54947
  21994823.680   115583606.71509  21994818.980    90065154.85648
  24166394.940   126995261.77708  24166392.440    98957335.22845
  20967413.300   110184649.43809  20967408.680    85858217.87148
  20743316.320   109006912.10609  20743315.720    84940479.16249
 15 02 16 02 41  0.0000000  0  7G04G16G18G19G21G22G27
  23074662.200   121258209.27308  23074661.300    94486928.23346
  20596624.200   108236000.40509  20596620.900    84339743.26948
  22263873.760   116997561.11008  22263871.220    91166945.71047
  21983698.020   115525140.91409  21983693.320    90019597.09948
  24180463.800   127069194.14008  24180461.260    99014944.83845
  20962838.820   110160610.46209  20962834.120    85839486.21848
  20737970.240   108978818.53409  20737969.700    84918588.06749
 15 02 16 02 41 30.0000000  0  7G04G16G18G19G21G22G27
  23058831.820   121175020.25108  23058830.980    94422105.68246
  20602874.340   108268845.12009  20602871.020    84365336.54649
  22272060.960   117040584.77908  22272058.340    91200470.64047
  21972596.220   115466800.52109  21972591.480    89974137.07248
  24194530.680   127143115.82008  24194528.080    99072546.12046
  20958362.820   110137089.13309  20958358.120    85821157.92448
  20732664.460   108950936.64809  20732663.920    84896861.93049
 15 02 16 02 42  0.0000000  0  7G04G16G18G19G21G22G27
  23043045.400   121092062.46108  23043044.600    94357463.27746
  20609227.900   108302233.20309  20609224.600    84391353.22048
  22280331.860   117084048.25709  22280329.160    91234338.28047
  21961519.160   115408590.09209  21961514.360    89928778.30148
  24208596.180   127217030.13308  24208593.520    99130141.66845
  20953986.320   110114090.56009  20953981.600    85803236.96048
  20727400.020   108923271.72409  20727399.440    84875304.83849
 15 02 16 02 42 30.0000000  0  7G04G16G18G19G21G22G27
  23027302.900   121009335.44608  23027302.080    94293000.70546
  20615684.680   108336163.63509  20615681.340    84417792.50149
  22288686.000   117127949.61208  22288683.320    91268547.10947
  21950466.780   115350509.50009  21950461.980    89883520.69848
  24222659.940   127290935.25708  24222657.300    99187730.03945
  20949709.200   110091614.22909  20949704.520    85785722.94448
  20722176.900   108895823.80909  20722176.260    84853916.85149
 15 02 16 02 43  0.0000000  0  7G04G16G18G19G21G22G27
  23011603.980   120926837.26709  23011603.160    94228716.45246
  20622243.920   108370632.77109  20622240.640    84444651.56448
  22297122.660   117172284.45208  22297119.940    91303093.74647
  21939438.720   115292557.13709  21939434.040    89838363.02748
  24236721.300   127364827.96908  24236718.660    99245308.75345
  20945531.200   110069658.61209  20945526.540    85768614.67948
  20716994.800   108868591.49509  20716994.140    84832696.87249
 15 02 16 02 43 30.0000000  0  8G04G11G16G18G19G21G22G27
  22995949.260   120844570.83009  22995948.380    94164612.76347
  24705105.440                                                  
  20628905.940   108405642.23809  20628902.760    84471931.65248
  22305642.020   117217053.92508  22305639.320    91337979.03347
  21928435.600   115234735.87409  21928431.080    89793307.50148
  24250780.540   127438709.73208  24250777.940    99302878.91945
  20941452.840   110048226.44409  20941448.220    85751914.29348
  20711854.300   108841578.00409  20711853.660    84811647.39249
 15 02 16 02 44  0.0000000  0  8G04G11G16G18G19G21G22G27
  22980337.560   120762530.38809  22980336.580    94100685.19146
  24688210.860   129737421.54108  24688209.660   101094090.09344
  20635669.400   108441184.74409  20635666.280    84499627.10748
  22314242.560   117262250.13108  22314239.940    91373196.84847
  21917456.340   115177040.00409  21917451.920    89748349.69148
  24264836.320   127512573.28008  24264833.700    99360434.91345
  20937473.080   110027312.35909  20937468.420    85735617.61448
  20706754.480   108814778.09309  20706753.780    84790764.35349
 15 02 16 02 44 30.0000000  0  8G04G11G16G18G19G21G22G27
  22964771.880   120680731.98809  22964770.840    94036946.20546
  24671334.400   129648735.39007  24671332.900   101024984.11945
  20642537.180   108477275.44509  20642534.120    84527749.71248
  22322927.000   117307887.31008  22322924.500    91408758.27447
  21906504.080   115119485.76309  21906499.740    89703502.23048
  24278891.440   127586433.36108  24278888.820    99417988.19445
  20933594.960   110006932.35209  20933590.200    85719737.09248
  20701698.480   108788208.46509  20701697.700    84770060.73349
 15 02 16 02 45  0.0000000  0  8G04G11G16G18G19G21G22G27
  22949250.160   120599164.71509  22949249.140    93973387.33246
  24654473.820   129560133.19007  24654472.220   100955943.56144
  20649506.920   108513902.06209  20649503.940    84556289.92749
  22331692.820   117353952.40209  22331690.420    91444653.14547
  21895576.740   115062062.45309  21895572.480    89658756.80048
  24292943.680   127660278.32508  24292941.020    99475529.70045
  20929816.460   109987075.77509  20929811.560    85704264.44748
  20696684.320   108761858.78209  20696683.520    84749528.51049
 15 02 16 02 45 30.0000000  0  8G04G11G16G18G19G21G22G27
  22933772.700   120517830.62908  22933771.780    93910010.16146
  24637629.500   129471616.65807  24637627.900   100886969.76745
  20656578.740   108551065.11509  20656575.900    84585248.14748
  22340540.060   117400445.25909  22340537.660    91480881.33747
  21884674.780   115004772.44009  21884670.540    89614115.23748
  24306993.080   127734108.34708  24306990.400    99533059.55845
  20926137.980   109967744.91409  20926132.980    85689201.44548
  20691712.480   108735731.63409  20691711.740    84729169.69749
 15 02 16 02 46  0.0000000  0  8G04G11G16G18G19G21G22G27
  22918340.140   120436732.49908  22918339.180    93846816.84146
  24620801.980   129383188.46007  24620800.480   100818064.80545
  20663752.880   108588766.06709  20663750.220    84614625.50348
  22349468.840   117447366.12009  22349466.320    91517443.04147
  21873798.700   114947618.49309  21873794.480    89569579.70548
  24321039.800   127807924.49808  24321037.160    99590578.61245
  20922560.020   109948942.37609  20922554.980    85674550.12948
  20686783.520   108709830.17609  20686782.900    84708986.74749
 15 02 16 02 46 30.0000000  0  8G04G11G16G18G19G21G22G27
  22902952.280   120355869.12208  22902951.280    93783806.44646
  24603991.020   129294847.27607  24603989.620   100749227.63545
  20671028.780   108627001.45509  20671026.280    84644419.29848
  22358478.620   117494712.62309  22358476.020    91554336.40547
  21862948.300   114890599.34309  21862944.120    89525149.19848
  24335083.500   127881724.85308  24335080.940    99648085.36645
  20919082.300   109930666.69209  20919077.260    85660309.33848
  20681897.420   108684153.82809  20681896.880    84688979.20149
 15 02 16 02 47  0.0000000  0  8G04G11G16G18G19G21G22G27
  22887609.600   120275243.00408  22887608.740    93720980.94746
  24587197.060   129206595.37708  24587195.780   100680460.00545
  20678406.900   108665773.63509  20678404.440    84674631.37249
  22367569.460   117542485.01609  22367566.820    91591561.63847
  21852124.240   114833718.36409  21852120.060    89480826.36148
  24349124.460   127955510.54007  24349121.940    99705580.67045
  20915705.300   109912920.86609  20915700.380    85646481.43648
  20677054.740   108658705.68109  20677054.280    84669149.46849
 15 02 16 02 47 30.0000000  0  8G04G11G16G18G19G21G22G27
  22872311.320   120194850.43608  22872310.540    93658337.42746
  24570419.440   129118428.97408  24570418.200   100611759.00745
  20685886.080   108705077.00209  20685883.640    84705257.36249
  22376740.260   117590677.31209  22376737.480    91629114.07847
  21841325.780   114776972.02909  21841321.580    89436608.44648
  24363161.680   128029276.25607  24363159.100    99763060.41845
  20912428.480   109895701.52309  20912423.660    85633063.77848
  20672254.880   108633482.68809  20672254.480    84649495.19249
 15 02 16 02 48  0.0000000  0  8G04G11G16G18G19G21G22G27
  22857058.240   120114695.16508  22857057.480    93595878.79446
  24553658.680   129030351.01708  24553657.300   100543126.91645
  20693466.720   108744913.31609  20693464.280    84736298.63148
  22385991.280   117639290.98009  22385988.300    91666994.84547
  21830553.640   114720363.99009  21830549.460    89392498.30048
  24377195.660   128103025.06407  24377193.240    99820526.99345
  20909252.460   109879011.81909  20909247.720    85620058.82749
  20667498.620   108608488.91109  20667498.320    84630019.52649
 15 02 16 02 48 30.0000000  0  8G04G11G16G18G19G21G22G27
  22841850.140   120034776.29708  22841849.400    93533604.38046
  24536914.620   128942360.89208  24536913.180   100474563.26444
  20701148.420   108785280.65109  20701145.940    84767753.68549
  22395321.960   117688323.32009  22395318.820    91705201.85847
  21819807.680   114663893.59709  21819803.480    89348495.39948
  24391225.980   128176755.02707  24391223.640    99877978.88344
  20906177.060   109862850.94309  20906172.420    85607465.95348
  20662785.980   108583724.13609  20662785.740    84610722.29849
 15 02 16 02 49  0.0000000  0  8G04G11G16G18G19G21G22G27
  22826687.320   119955095.49209  22826686.620    93471515.46846
  24520187.640   128854460.30608  24520186.080   100406069.37845
  20708931.300   108826179.47309  20708928.740    84799622.88148
  22404732.160   117737773.97609  22404729.020    91743734.83147
  21809088.360   114607563.15409  21809084.160    89304601.56748
  24405252.800   128250466.20907  24405250.340    99935416.13944
  20903202.700   109847220.93309  20903198.160    85595286.73048
  20658117.460   108559190.90609  20658117.280    84591605.49149
 15 02 16 02 49 30.0000000  0  8G04G11G16G18G19G21G22G27
  22811570.320   119875655.08909  22811569.580    93409613.88446
  24503478.060   128766651.05708  24503476.380   100337646.64844
  20716815.360   108867610.10909  20716812.700    84831906.48748
  22414221.880   117787642.76209  22414218.780    91782593.62247
  21798396.140   114551375.03809  21798391.880    89260818.62148
  24419276.220   128324159.51607  24419273.760    99992839.47945
  20900329.740   109832123.72009  20900325.220    85583522.68548
  20653493.580   108534892.05509  20653493.400    84572671.32049
 15 02 16 02 50  0.0000000  0  8G04G11G16G18G19G21G22G27
  22796498.820   119796453.79809  22796498.000    93347898.61146
  24486785.540   128678931.77908  24486783.780   100269294.03044
  20724800.020   108909569.78409  20724797.300    84864602.32548
  22423790.640   117837926.83309  22423787.540    91821775.99847
  21787730.860   114495328.37909  21787726.520    89217145.90948
  24433295.800   128397832.52207  24433293.280   100050246.96545
  20897558.020   109817558.32009  20897553.500    85572173.02448
  20648914.180   108510826.83109  20648913.960    84553919.19549
 15 02 16 02 50 30.0000000  0  8G04G11G16G18G19G21G22G27
  22781472.480   119717489.88809  22781471.640    93286368.31647
  24470109.720   128591300.40808  24470107.960   100201009.91444
  20732884.860   108952055.89709  20732882.100    84897708.36748
  22433437.660   117888622.10809  22433434.540    91861278.79747
  21777092.160   114439421.58109  21777087.840    89173582.17448
  24447310.940   128471482.16207  24447308.300   100107636.26644
  20894887.080   109803522.52009  20894882.520    85561236.04548
  20644379.060   108486994.25709  20644378.740    84535348.35049
 15 02 16 02 51  0.0000000  0  8G04G11G16G18G19G21G22G27
  22766491.780   119638765.77809  22766490.920    93225024.88047
  24453451.040   128503759.25508  24453449.420   100132796.08044
  20741069.980   108995068.88709  20741067.200    84931224.97548
  22443162.900   117939728.72309  22443159.820    91901102.13447
  21766480.500   114383657.10209  21766476.220    89130129.35448
  24461322.000   128545110.33307  24461319.300   100165008.85444
  20892317.340   109790018.57109  20892312.720    85550713.49448
  20639888.740   108463397.24509  20639888.380    84516961.07049
 15 02 16 02 51 30.0000000  0  8G04G11G16G18G19G21G22G27
  22751556.740   119560281.73209  22751555.880    93163868.50747
  24436809.700   128416308.74308  24436807.980   100064652.84744
  20749355.120   109038607.39009  20749352.300    84965151.07048
  22452966.120   117991245.21509  22452963.080    91941244.84547
  21755896.180   114328036.39009  21755891.940    89086788.55648
  24475328.780   128618716.12507  24475326.040   100222363.96845
  20889849.000   109777047.24409  20889844.400    85540605.97049
  20635443.400   108440036.98409  20635443.040    84498758.26749
 15 02 16 02 52  0.0000000  0  8G04G11G16G18G19G21G22G27
  22736668.060   119482041.71309  22736667.160    93102902.28146
  24420186.320   128328952.74108  24420184.500    99996583.28244
  20757740.780   109082673.89909  20757737.920    84999488.60048
  22462847.640   118043173.28109  22462844.680    91981708.26547
  21745340.020   114272563.56009  21745335.780    89043562.99348
  24489331.840   128692302.59907  24489329.160   100279704.04544
  20887482.700   109764612.12709  20887478.080    85530916.28648
  20631043.960   108416917.96209  20631043.640    84480743.44749
 15 02 16 02 52 30.0000000  0  8G04G11G16G18G19G21G22G27
  22721824.660   119404039.81308  22721823.920    93042121.60447
  24403579.680   128241684.93207  24403577.980    99928582.41244
  20766225.420   109127260.70209  20766222.560    85034231.55348
  22472805.940   118095504.75109  22472803.060    92022486.02547
  21734810.840   114217232.78809  21734806.600    89000448.12148
  24503329.820   128765862.21507  24503327.080   100337023.20045
  20885217.260   109752707.11009  20885212.620    85521639.65948
  20626689.380   108394034.85209  20626689.120    84462912.45349
 15 02 16 02 53  0.0000000  0  9G04G11G16G18G19G21G22G27G32
  22707027.540   119326280.93208  22707026.880    92981530.28747
  24386990.800   128154510.53607  24386989.140    99860654.36844
  20774809.740   109172371.29909  20774806.800    85069382.65348
  22482841.620   118148242.68909  22482838.740    92063580.50847
  21724309.740   114162049.38409  21724305.580    88957448.06648
  24517323.340   128839398.37807  24517320.500   100394324.05744
  20883053.640   109741337.01809  20883048.940    85512779.84948
  20622380.780   108371393.28809  20622380.580    84445269.66749
  24511217.660   128807313.32007  24511218.880   100369340.03645
 15 02 16 02 53 30.0000000  0  9G04G11G16G18G19G21G22G27G32
  22692275.940   119248761.39508  22692275.400    92921125.49647
  24370418.740   128067424.87907  24370417.440    99792795.47444
  20783492.760   109218000.57709  20783489.760    85104937.92648
  22492953.500   118201381.05109  22492950.600    92104987.01747
  21713836.160   114107010.47309  21713832.000    88914560.61448
  24531311.620   128912906.92607  24531308.760   100451603.39744
  20880991.120   109730498.15309  20880986.360    85504333.99248
  20618117.620   108348990.35709  20618117.440    84427812.83949
  24488715.460   128689062.85907  24488716.100   100277197.03545
 15 02 16 02 54  0.0000000  0  9G04G11G16G18G19G21G22G27G32
  22677571.340   119171488.71508  22677570.900    92860913.03947
  24353865.220   127980436.02707  24353863.880    99725011.98745
  20792275.520   109264154.06409  20792272.480    85140901.67248
  22503142.600   118254925.06209  22503139.660    92146709.60947
  21703391.600   114052123.75309  21703387.420    88871791.74748
  24545295.820   128986394.23007  24545293.040   100508866.19544
  20879031.080   109720197.86809  20879026.220    85496307.79948
  20613901.440   108326834.15009  20613901.240    84410548.25949
  24466215.040   128570823.32608  24466215.640   100185062.51446
 15 02 16 02 54 30.0000000  0  9G04G11G16G18G19G21G22G27G32
  22662913.040   119094459.21509  22662912.660    92800890.07647
  24337329.520   127893540.00407  24337328.200    99657300.86544
  20801157.080   109310826.69509  20801154.000    85177269.94648
  22513407.820   118308868.99109  22513404.880    92188743.83247
  21692975.380   113997385.80609  21692971.120    88829138.81648
  24559275.040   129059855.50807  24559272.200   100566108.70944
  20877172.680   109710431.83909  20877167.820    85488697.91648
  20609731.720   108304921.89509  20609731.460    84393473.77449
  24443716.380   128452593.32908  24443716.960   100092935.40346
 15 02 16 02 55  0.0000000  0  9G04G11G16G18G19G21G22G27G32
  22648301.140   119017673.16809  22648300.680    92741056.80946
  24320811.480   127806736.80207  24320810.280    99589662.04545
  20810137.140   109358016.94009  20810134.000    85214041.55548
  22523748.800   118363211.13509  22523745.920    92231088.35147
  21682587.560   113942797.16509  21682583.220    88786602.21448
  24573249.020   129133289.48207  24573246.340   100623329.94644
  20875415.980   109701200.50809  20875411.220    85481504.67548
  20605608.600   108283254.34609  20605608.200    84376589.95949
  24421220.040   128334375.21308  24421220.700   100000817.52546
 15 02 16 02 55 30.0000000  0  9G04G11G16G18G19G21G22G27G32
  22633735.820   118941131.51109  22633735.280    92681413.97647
  24304311.260   127720027.28007  24304310.060    99522096.27044
  20819215.500   109405723.98909  20819212.340    85251215.87348
  22534165.320   118417950.20109  22534162.400    92273742.16346
  21672228.420   113888359.45409  21672224.040    88744183.23148
  24587218.020   129206697.20307  24587215.460   100680530.74344
  20873761.160   109692504.44609  20873756.380    85474728.53348
  20601532.420   108261833.35809  20601531.900    84359898.28249
  24398726.640   128216172.36808  24398727.360    99908711.54346
 15 02 16 02 56  0.0000000  0  9G04G11G16G18G19G21G22G27G32
  22619216.920   118864833.80609  22619216.280    92621961.24547
  24287828.840   127633411.18407  24287827.480    99454603.24544
  20828391.880   109453946.20209  20828388.800    85288791.61348
  22544656.900   118473083.72609  22544653.940    92316703.34547
  21661898.040   113834072.90109  21661893.620    88701882.03348
  24601181.480   129280076.31707  24601179.100   100737709.23244
  20872208.080   109684343.01309  20872203.280    85468368.98148
  20597503.160   108240659.29009  20597502.600    84343399.00149
  24376236.460   128097986.56708  24376237.260    99816618.83945
 15 02 16 02 56 30.0000000  0  9G04G11G16G18G19G21G22G27G32
  22604744.860   118788782.35209  22604744.180    92562700.38247
  24271364.540   127546890.52807  24271363.100    99387184.57045
  20837666.340   109502684.06009  20837663.320    85326769.15248
  22555223.500   118528611.63409  22555220.560    92359971.83246
  21651596.940   113779940.11609  21651592.540    88659700.65248
  24615139.900   129353428.60107  24615137.460   100794866.84244
  20870757.120   109676718.41709  20870752.320    85462427.74348
  20593521.440   108219735.06609  20593520.860    84327094.40749
  24353750.380   127979822.43408  24353751.240    99724543.01145
 15 02 16 02 57  0.0000000  0  9G04G11G16G18G19G21G22G27G32
  22590319.260   118712975.22609  22590318.480    92503629.91746
  24254917.960   127460463.13008  24254916.420    99319838.59345
  20847038.140   109551933.50909  20847035.140    85365145.33648
  22565864.340   118584529.77309  22565861.460    92403544.40247
  21641324.760   113725959.29609  21641320.320    88617637.68248
  24629092.540   129426750.43207  24629090.120   100852000.68345
  20869407.880   109669628.19909  20869403.080    85456902.90548
  20589587.020   108199059.36809  20589586.440    84310983.47349
  24331268.420   127861680.05308  24331269.320    99632484.13244
 15 02 16 02 57 30.0000000  0  9G04G11G16G18G19G21G22G27G32
  22575940.560   118637414.68109  22575939.740    92444751.58347
  24238489.600   127374131.41808  24238488.000    99252567.17445
  20856507.400   109601695.09509  20856504.380    85403920.58448
  22576579.520   118640838.48109  22576576.640    92447421.31147
  21631082.080   113672133.82309  21631077.620    88575695.75948
  24643039.840   129500044.41407  24643037.580   100909112.84145
  20868160.800   109663074.62909  20868156.020    85451796.23748
  20585700.520   108178635.56209  20585699.940    84295068.81349
  24308791.640   127743564.49408  24308792.460    99540446.13344
 15 02 16 02 58  0.0000000  0  9G04G11G16G18G19G21G22G27G32
  22561608.620   118562100.03309  22561607.860    92386064.86247
  24222079.340   127287894.51208  24222077.620    99185369.63845
  20866073.740   109651966.67409  20866070.720    85443093.23548
  22587368.460   118697534.60209  22587365.580    92491600.09646
  21620868.860   113618463.27609  21620864.440    88533874.56848
  24656981.320   129573307.45107  24656979.240   100966200.88244
  20867015.580   109657056.51209  20867010.800    85447106.80149
  20581861.920   108158463.54709  20581861.360    84279350.36349
  24286320.220   127625477.00007  24286320.940    99448429.99844
 15 02 16 02 58 30.0000000  0  9G04G11G16G18G19G21G22G27G32
  22547323.600   118487031.67809  22547322.840    92327570.05347
  24205687.200   127201752.81208  24205685.400    99118246.26045
  20875736.880   109702747.02509  20875733.900    85482662.31748
  22598230.780   118754616.50509  22598227.880    92536079.48346
  21610685.320   113564948.66209  21610680.900    88492174.87248
  24670916.960   129646539.90407  24670915.120   101023265.06145
  20865972.200   109651573.51309  20865967.420    85442834.34148
  20578071.480   108138544.57609  20578070.940    84263829.08049
  24263854.720   127507420.49207  24263855.280    99356438.01644
 15 02 16 02 59  0.0000000  0  9G04G11G16G18G19G21G22G27G32
  22533085.640   118412210.41509  22533084.780    92269267.78847
  24189313.340   127115707.16908  24189311.420    99051197.74645
  20885496.580   109754034.85509  20885493.640    85522626.84948
  22609166.220   118812082.92209  22609163.420    92580858.50346
  21600531.720   113511591.23109  21600527.300    88450597.66248
  24684846.720   129719741.18506  24684844.940   101080304.98344
  20865030.920   109646627.18509  20865026.160    85438980.07148
  20574329.480   108118880.17109  20574328.980    84248506.16049
  24241395.740   127389398.00807  24241396.240    99264472.59145
 15 02 16 02 59 30.0000000  0  9G04G11G16G18G19G21G22G27G32
  22518894.880   118337637.25509  22518893.980    92211158.85947
  24172957.820   127029758.25008  24172955.680    98984224.59145
  20895352.740   109805829.65109  20895349.840    85562986.41048
  22620174.660   118869932.80609  22620171.940    92625936.32346
  21590408.340   113458392.57809  21590403.880    88409144.16848
  24698770.640   129792911.57306  24698768.720   101137320.81144
  20864191.920   109642217.95809  20864187.080    85435544.31449
  20570636.260   108099472.20009  20570635.780    84233383.06049
  24218943.920   127271412.99707  24218944.380    99172536.33646
 15 02 16 03 00  0.0000000  0  9G04G11G16G18G19G21G22G27G32
  22504751.000   118263310.52709  22504750.020    92153241.95347
  24156620.320   126943904.50208  24156618.220    98917325.61245
  20905304.760   109858128.20009  20905301.940    85603738.51648
  22631255.420   118928162.23309  22631252.620    92671309.89846
  21580315.060   113405351.80309  21580310.540    88367813.70248
  24712688.320   129866048.55107  24712686.380   101194310.62944
  20863454.620   109638343.43109  20863449.740    85432525.20848
  20566991.660   108080319.90809  20566991.220    84218459.19449
  24196499.400   127153466.23008  24196499.760    99080629.88745
 15 02 16 03 00 30.0000000  0  9G04G11G16G18G19G21G22G27G32
  22490654.420   118189232.61509  22490653.500    92095518.93947
  24140301.360   126858148.25308  24140299.360    98850502.59445
  20915352.680   109910930.46809  20915349.940    85644883.12648
  22642408.340   118986770.91309  22642405.540    92716978.99546
  21570252.240   113352471.62609  21570247.840    88326608.38448
  24726599.960   129939153.83207  24726597.700   101251275.75244
  20862819.400   109635005.62709  20862814.580    85429924.34448
  20563396.280   108061426.24809  20563395.820    84203736.86749
  24174063.100   127035562.22108  24174063.320    98988756.73546
 15 02 16 03 01  0.0000000  0  9G04G11G16G18G19G21G22G27G32
  22476605.260   118115403.93809  22476604.420    92037990.12947
  24124001.100   126772490.09808  24123999.140    98783756.00844
  20925496.240   109964235.24409  20925493.560    85686419.30348
  22653633.120   119045757.56209  22653630.340    92762942.60746
  21560220.220   113299753.25209  21560215.900    88285529.14248
  24740505.380   130012226.56606  24740503.220   101308215.49844
  20862286.300   109632204.63809  20862281.580    85427741.76848
  20559850.400   108042792.68509  20559849.960    84189217.20249
  24151635.500   126917703.96208  24151635.500    98896919.22946
 15 02 16 03 01 30.0000000  0  9G04G11G16G18G19G21G22G27G32
  22462603.560   118041824.75309  22462602.740    91980655.72547
  24107719.500   126686929.89608  24107717.540    98717085.75845
  20935735.160   110018040.89509  20935732.520    85728345.76848
  22664929.380   119105120.18709  22664926.680    92809199.18246
  21550219.200   113247197.41909  21550214.840    88244576.54948
  24754404.260   130085266.08906  24754402.220   101365129.34644
  20861855.380   109629940.10909  20861850.640    85425977.20648
  20556354.200   108024420.13309  20556353.760    84174900.92349
  24129217.060   126799893.97308  24129216.900    98805119.32646
 15 02 16 03 02  0.0000000  0  9G04G11G16G18G19G21G22G27G32
  22448649.780   117968497.05409  22448648.920    91923517.27747
  24091456.880   126601469.80008  24091455.060    98650493.53744
  20946069.500   110072347.91909  20946066.820    85770662.90948
  22676297.180   119164858.67409  22676294.520    92855748.64246
  21540249.660   113194806.79109  21540245.180    88203752.68748
  24768297.240   130158274.03106  24768295.380   101422018.62144
  20861526.840   109628213.63509  20861522.120    85424631.91448
  20552908.260   108006311.54609  20552907.800    84160790.32849
  24106808.600   126682136.84908  24106808.220    98713360.62146
 15 02 16 03 02 30.0000000  0  9G04G11G16G18G19G21G22G27G32
  22434743.060   117895416.77909  22434742.180    91866571.63747
  24075212.540   126516105.75108  24075210.740    98583976.13444
  20956498.140   110127150.53709  20956495.380    85813366.24648
  22687735.300   119224966.50009  22687732.660    92902585.90546
  21530310.940   113142578.06309  21530306.320    88163054.98348
  24782183.260   130231245.07306  24782181.200   101478879.12844
  20861299.860   109627021.12909  20861295.220    85423702.69848
  20549511.900   107988463.70909  20549511.480    84146882.93349
  24084409.800   126564430.75208  24084409.320    98621641.67446
 15 02 16 03 03  0.0000000  0  9G04G11G16G18G19G21G22G27G32
  22420883.900   117822586.29909  22420882.980    91809820.63647
  24058986.900   126430839.74508  24058985.020    98517535.12744
  20967021.040   110182448.57609  20967018.260    85856455.60248
  22699243.820   119285444.03309  22699241.160    92949711.23546
  21520403.420   113090513.86509  21520398.820    88122485.48448
  24796062.660   130304180.76106  24796060.600   101535712.09744
  20861174.780   109626364.19109  20861170.240    85423190.80548
  20546165.740   107970879.74009  20546165.400    84133181.12949
  24062021.600   126446780.57208  24062021.180    98529966.28646
 15 02 16 03 03 30.0000000  0  9G04G11G16G18G19G21G22G27G32
  22407072.560   117750007.55909  22407071.700    91753265.81547
  24042780.380   126345674.09908  24042778.400    98451172.32844
  20977638.340   110238242.63109  20977635.540    85899931.48048
  22710822.660   119346290.98609  22710820.000    92997124.43646
  21510527.780   113038617.39909  21510523.240    88082046.68848
  24809935.620   130377082.82206  24809933.440   101592518.85944
  20861151.960   109626244.51109  20861147.500    85423097.56048
  20542870.340   107953562.54609  20542870.060    84119687.21349
  24039644.840   126329190.66908  24039644.500    98438337.86245
 15 02 16 03 04  0.0000000  0  9G04G11G16G18G19G21G22G27G32
  22393308.880   117677679.13009  22393308.000    91696906.03447
  24026592.680   126260607.46908  24026590.780    98384886.68944
  20988349.280   110294528.86909  20988346.500    85943790.87948
  22722471.100   119407503.71709  22722468.420    93044822.65246
  21500683.940   112986887.59509  21500679.400    88041737.75948
  24823801.660   130449948.62906  24823799.580   101649297.38844
  20861231.100   109626660.32009  20861226.620    85423421.58048
  20539625.700   107936511.59009  20539625.340    84106400.75249
  24017279.780   126211662.15008  24017279.560    98346757.26245
 15 02 16 03 04 30.0000000  0  9G04G11G16G18G19G21G22G27G32
  22379593.060   117605601.68609  22379591.960    91640741.82147
  24010423.940   126175640.58707  24010422.080    98318678.77644
  20999153.780   110351306.60309  20999150.900    85988033.26048
  22734188.880   119469080.83808  22734186.200    93092804.81046
  21490872.140   112935325.86509  21490867.520    88001559.78648
  24837660.720   130522778.14207  24837658.360   101706047.59244
  20861412.140   109627611.39509  20861407.560    85424162.69148
  20536432.080   107919728.46209  20536431.600    84093322.99049
  23994927.060   126094198.06608  23994926.640    98255226.88645
 15 02 16 03 05  0.0000000  0  9G04G11G16G18G19G21G22G27G32
  22365925.260   117533776.58909  22365924.020    91584774.24647
  23994274.320   126090774.49208  23994272.460    98252549.39444
  21010051.780   110408575.39609  21010048.780    86032658.28848
  22745975.840   119531021.37909  22745973.140    93141070.15446
  21481092.700   112883934.21109  21481088.040    87961514.35048
  24851512.980   130595572.16506  24851510.300   101762770.20543
  20861695.240   109629098.75909  20861690.580    85425321.67748
  20533289.820   107903215.40709  20533289.280    84080455.67449
  23972587.420   125976802.38108  23972586.700    98163749.80944
 15 02 16 03 05 30.0000000  0  9G04G11G16G18G19G21G22G27G32
  22352305.220   117462202.61209  22352303.960    91529002.35247
  23978143.740   126006008.16308  23978141.900    98186497.77144
  21021042.440   110466331.55209  21021039.460    86077663.07248
  22757831.300   119593321.60008  22757828.480    93189615.76746
  21471345.420   112832711.93009  21471340.760    87921600.89248
  24865357.980   130668328.16007  24865355.320   101819463.14144
  20862080.060   109631120.64709  20862075.300    85426897.17848
  20530198.780   107886971.82409  20530198.240    84067798.33349
  23950260.980   125859476.00008  23950260.020    98072326.72945
 15 02 16 03 06  0.0000000  0  9G04G11G16G18G19G21G22G27G32
  22338732.880   117390879.21809  22338731.540    91473425.70347
  23962032.160   125921341.03408  23962030.120    98120523.42744
  21032125.440   110524573.10409  21032122.500    86123046.08848
  22769754.700   119655979.20708  22769751.720    93238439.85846
  21461630.460   112781659.62309  21461625.780    87881819.87848
  24879195.620   130741045.51706  24879193.200   101876125.95444
  20862566.380   109633676.16609  20862561.600    85428888.49549
  20527159.180   107870998.55509  20527158.640    84055351.63249
  23927948.160   125742221.43108  23927947.140    97980959.59645
 15 02 16 03 06 30.0000000  0  9G04G11G16G18G19G21G22G27G32
  22325208.940   117319810.45809  22325207.480    91418047.47247
  23945940.300   125836777.23208  23945938.060    98054629.60545
  21043301.120   110583301.77309  21043298.200    86168808.68548
  22781746.380   119718996.12308  22781743.400    93287543.93246
  21451948.720   112730781.88109  21451944.040    87842174.89448
  24893026.400   130813726.85406  24893024.280   101932760.74144
  20863154.840   109636768.69609  20863150.060    85431298.27649
  20524171.900   107855300.27709  20524171.320    84043119.21649
  23905650.060   125625044.87908  23905649.200    97889653.26545
 15 02 16 03 07  0.0000000  0  9G04G11G16G18G19G21G22G27G32
  22311732.960   117248993.96809  22311731.400    91362865.81247
  23929867.560   125752314.28708  23929865.240    97988814.38245
  21054568.700   110642513.55809  21054565.800    86214947.72248
  22793805.480   119782367.57608  22793802.680    93336924.26846
  21442299.960   112680077.29709  21442295.320    87802664.82648
  24906849.880   130886369.89206  24906847.700   101989365.66144
  20863844.880   109640395.23609  20863840.140    85434124.15249
  20521236.680   107839875.65209  20521236.100    84031100.02349
  23883366.820   125507946.64308  23883366.080    97798407.95445
 15 02 16 03 07 30.0000000  0  9G04G11G16G18G19G21G22G27G32
  22298305.480   117178432.27609  22298303.880    91307882.70247
  23913814.500   125667954.99508  23913812.400    97923079.92445
  21065928.300   110702209.02909  21065925.480    86261463.66148
  22805932.160   119846093.96208  22805929.480    93386581.18447
  21432684.700   112629548.91909  21432680.080    87763292.06748
  24920666.380   130958975.92906  24920664.360   102045941.74243
  20864636.960   109644557.66509  20864632.160    85437367.60849
  20518354.120   107824727.94709  20518353.540    84019296.61749
  23861099.400   125390931.59908  23861098.840    97707227.47646
 15 02 16 03 08  0.0000000  0  9G04G11G16G18G19G21G22G27G32
  22284925.800   117108121.64809  22284924.200    91253095.22747
  23897780.460   125583695.69608  23897778.480    97857423.39145
  21077378.700   110762381.70509  21077375.920    86308351.45048
  22818125.260   119910169.28408  22818122.640    93436509.99546
  21423102.500   112579194.12909  21423097.900    87724054.58248
  24934474.980   131031540.61506  24934472.480   102102485.58143
  20865530.200   109649251.76309  20865525.400    85441025.35449
  20515523.760   107809854.42309  20515523.220    84007706.85849
  23838847.660   125273998.57308  23838847.260    97616110.90646
 15 02 16 03 08 30.0000000  0  9G04G11G16G18G19G21G22G27G32
  22271594.340   117038064.74709  22271592.780    91198505.45247
  23881765.940   125499538.87008  23881764.040    97791846.69745
  21088920.240   110823033.12009  21088917.480    86355612.28348
  22830384.820   119974593.58608  22830382.180    93486710.72946
  21413553.880   112529016.01809  21413549.320    87684954.75248
  24948276.140   131104065.88206  24948273.420   102158998.75844
  20866525.020   109654479.43809  20866520.160    85445098.86348
  20512746.260   107795258.62009  20512745.720    83996333.49249
  23816612.560   125157152.69108  23816612.260    97525062.24146
 15 02 16 03 09  0.0000000  0  9G04G11G16G18G19G21G22G27G32
  22258311.340   116968262.42109  22258309.700    91144114.05647
  23865771.100   125415485.62608  23865769.240    97726350.73245
  21100552.560   110884161.59209  21100549.860    86403244.84648
  22842710.580   120039365.79808  22842707.960    93537182.57846
  21404039.120   112479015.85909  21404034.600    87645993.59648
  24962069.720   131176551.93406  24962067.400   102215481.35143
  20867621.400   109660240.96709  20867616.560    85449588.37948
  20510021.960   107780942.39509  20510021.480    83985177.99449
  23794394.720   125040397.42108  23794394.460    97434084.19746
 15 02 16 03 09 30.0000000  0  9G04G11G16G18G19G21G22G27G32
  22245076.440   116898712.40009  22245074.720    91089919.25947
  23849795.500   125331533.64108  23849793.720    97660933.65746
  21112275.000   110945763.72409  21112272.380    86451246.49848
  22855101.800   120104481.82008  22855099.100    93587922.31946
  21394558.100   112429193.02209  21394553.640    87607170.61348
  24975855.460   131248996.32106  24975853.260   102271931.45744
  20868818.900   109666533.84009  20868814.040    85454491.91848
  20507350.640   107766904.68709  20507350.240    83974239.51249
  23772194.260   124923733.23808  23772193.920    97343177.13146
 15 02 16 03 10  0.0000000  0  9G04G11G16G18G19G21G22G27G32
  22231890.120   116829417.70809  22231888.460    91035923.41947
  23833839.760   125247686.00008  23833838.040    97595597.89445
  21124087.680   111007839.89209  21124085.160    86499617.51948
  22867558.580   120169942.35908  22867555.780    93638930.51146
  21385111.560   112379551.02009  21385107.040    87568488.53348
  24989633.720   131321401.38206  24989631.560   102328350.97343
  20870117.880   109673359.98709  20870113.020    85459810.99848
  20504733.040   107753149.25309  20504732.740    83963520.99149
  23750012.140   124807165.62608  23750011.800    97252345.31946
 15 02 16 03 10 30.0000000  0  9G04G11G16G18G19G21G22G27G32
  22218752.440   116760379.22209  22218750.900    90982127.23547
  23817904.020   125163943.45508  23817902.340    97530344.02245
  21135990.260   111070388.39909  21135987.760    86548356.60548
  22880080.520   120235745.63508  22880077.780    93690205.77946
  21375699.760   112330091.39909  21375695.120    87529948.57548
  25003404.400   131393766.65506  25003402.540   102384739.39544
  20871518.340   109680719.58209  20871513.460    85465545.76248
  20502169.500   107739677.69709  20502169.180    83953023.67849
  23727848.960   124690697.72808  23727848.520    97161591.21646
 15 02 16 03 11  0.0000000  0  9G04G11G16G18G19G21G22G27G32
  22205663.400   116691595.87109  22205661.800    90928529.83147
  23801988.240   125080305.42708  23801986.540    97465171.56446
  21147982.280   111133406.77909  21147979.780    86597461.82648
  22892667.100   120301888.55708  22892664.360    93741745.70346
  21366322.700   112280814.47109  21366318.020    87491550.97148
  25017167.320   131466091.06406  25017165.020   102441096.07144
  20873019.960   109688610.85109  20873015.160    85471694.80748
  20499660.040   107726490.29809  20499659.680    83942747.77549
  23705705.040   124574331.55208  23705704.540    97070916.36646
 15 02 16 03 11 30.0000000  0  9G04G11G16G18G19G21G22G27G32
  22192622.640   116623066.47209  22192621.040    90875130.32647
  23786092.100   124996770.67908  23786090.320    97400079.61245
  21160063.100   111196891.49309  21160060.500    86646930.43048
  22905317.720   120368368.13408  22905315.000    93793547.95746
  21356980.220   112231719.41809  21356975.580    87453295.10048
  25030922.220   131538372.84706  25030919.660   102497419.50244
  20874622.500   109697032.33409  20874617.760    85478257.02048
  20497204.560   107713586.64009  20497204.140    83932692.97249
  23683580.680   124458068.17008  23683580.340    96980321.62946
 15 02 16 03 12  0.0000000  0  9G04G11G16G18G19G21G22G27G32
  22179630.220   116554791.61909  22179628.880    90821929.17747
  23770215.640   124913339.80808  23770213.840    97335068.58845
  21172232.480   111260841.45209  21172229.740    86696761.55748
  22918032.020   120435181.99008  22918029.280    93845610.69046
  21347672.580   112182807.75509  21347668.040    87415182.12248
  25044668.880   131610611.79406  25044666.200   102553709.58844
  20876325.860   109705983.55209  20876321.120    85485232.00548
  20494803.340   107700968.19909  20494802.860    83922860.41449
  23661476.620   124341910.77708  23661476.260    96889809.45445
 15 02 16 03 12 30.0000000  0  9G04G11G16G18G19G21G22G27G32
  22166686.840   116486774.12909  22166685.720    90768928.55647
  23754359.540   124830015.78408  23754357.820    97270140.83246
  21184490.440   111325257.18809  21184487.640    86746955.62748
  22930810.140   120502331.08508  22930807.340    93897934.64446
  21338400.600   112134083.39209  21338396.100    87377215.08848
  25058407.660   131682810.31406  25058405.160   102609968.09943
  20878130.400   109715466.64909  20878125.700    85492621.44048
  20492457.220   107688639.05309  20492456.680    83913253.27949
  23639393.780   124225864.92208  23639393.360    96799384.18245
 15 02 16 03 13  0.0000000  0  9G04G11G16G18G19G21G22G27G32
  22153791.840   116419010.84409  22153790.740    90716126.01647
  23738523.220   124746795.50008  23738521.560    97205293.91146
  21196836.020   111390133.34409  21196833.200    86797508.46548
  22943651.120   120569810.41308  22943648.200    93950515.92146
  21329163.840   112085544.05109  21329159.380    87339392.22948
  25072138.320   131754964.72506  25072136.000   102666192.27744
  20880035.480   109725477.84409  20880030.720    85500422.37548
  20490165.740   107676596.92309  20490165.160    83903869.79449
  23617332.100   124109930.05508  23617331.620    96709045.39345
 15 02 16 03 13 30.0000000  0  9G04G11G16G18G19G21G22G27G32
  22140945.640   116351504.05609  22140944.620    90663523.33747
  23722707.100   124663681.56508  23722705.460    97140529.84745
  21209269.240   111455470.09609  21209266.400    86848420.21048
  22956554.860   120637619.68808  22956551.880    94003354.29746
  21319962.900   112037192.79209  21319958.440    87301715.92148
  25085860.900   131827076.87606  25085858.600   102722383.55544
  20882041.320   109736018.42809  20882036.480    85508635.82348
  20487929.460   107664845.02509  20487928.880    83894712.47049
  23595292.500   123994111.07908  23595291.920    96618796.90945
 15 02 16 03 14  0.0000000  0  8G04G11G16G18G19G22G27G32
  22128148.740   116284256.06909  22128147.800    90611122.32947
  23706911.600   124580676.23808  23706910.060    97075850.43546
  21221790.240   111521267.91909  21221787.420    86899691.23348
  22969521.440   120705759.19208  22969518.480    94056449.99446
  21310798.380   111989033.04109  21310793.960    87264188.85348
  20884148.220   109747090.08909  20884143.300    85517263.09948
  20485749.040   107653386.76109  20485748.460    83885783.95149
  23573275.860   123878412.95208  23573275.140    96528642.58645
 15 02 16 03 14 30.0000000  0  8G04G11G16G18G19G22G27G32
  22115400.380   116217262.93309  22115399.420    90558919.90147
  23691136.100   124497775.74608  23691134.580    97011252.68445
  21234397.760   111587520.55809  21234394.920    86951316.64948
  22982549.560   120774222.18508  22982546.540    94109797.76746
  21301669.760   111941061.67509  21301665.300    87226808.57348
  20886355.220   109758687.92109  20886350.280    85526300.37548
  20483623.920   107642218.99909  20483623.300    83877081.79349
  23551281.880   123762834.19608  23551281.020    96438581.29145
 15 02 16 03 15  0.0000000  0  9G01G04G11G16G18G19G22G27G32
  24586535.940   129203118.25108  24586537.880   100677755.99844
  22102700.540   116150525.12009  22102699.600    90506916.44147
  23675380.740   124414980.74408  23675379.180    96946737.14146
  21247091.600   111654226.62809  21247088.640    87003295.40348
  22995639.040   120843007.86208  22995636.020    94163396.97946
  21292577.180   111893279.99709  21292572.740    87189576.10748
  20888662.300   109770811.74009  20888657.380    85535747.51548
  20481554.360   107631343.37709  20481553.720    83868607.27849
  23529311.240   123647378.11008  23529310.280    96348615.58846
 15 02 16 03 15 30.0000000  0  9G01G04G11G16G18G19G22G27G32
  24570927.480   129121095.30108  24570929.220   100613842.02544
  22090050.580   116084049.11609  22090049.620    90455116.97247
  23659646.760   124332297.83808  23659645.120    96882308.93945
  21259872.420   111721390.04109  21259869.440    87055630.51348
  23008790.580   120912120.02808  23008787.720    94217250.59946
  21283522.140   111845695.57909  21283517.720    87152497.34748
  20891070.520   109783467.28109  20891065.660    85545608.97848
  20479541.780   107620767.33509  20479541.200    83860366.19849
  23507365.660   123532053.72408  23507364.740    96258752.50046
 15 02 16 03 16  0.0000000  0  9G01G04G11G16G18G19G22G27G32
  24555346.540   129039216.74508  24555348.440   100550040.59144
  22077449.000   116017826.91409  22077447.960    90403515.26847
  23643932.500   124249718.97308  23643930.820    96817961.82046
  21272738.260   111789000.41809  21272735.300    87108313.91648
  23022002.260   120981548.45808  23021999.640    94271350.65646
  21274503.320   111798301.50809  21274498.920    87115566.90148
  20893578.220   109796645.49909  20893573.380    85555877.71548
  20477584.880   107610483.97409  20477584.380    83852353.18149
  23485444.140   123416855.80308  23485443.180    96168987.96046
 15 02 16 03 16 30.0000000  0  9G01G04G11G16G18G19G22G27G32
  24539793.340   128957484.38008  24539795.420   100486353.08945
  22064896.040   115951860.27709  22064894.940    90352112.72147
  23628238.360   124167246.18908  23628236.700    96753697.35445
  21285689.140   111857058.03609  21285686.300    87161345.81848
  23035273.960   121051292.37208  23035271.480    94325696.54046
  21265521.220   111751100.23009  21265516.860    87078786.69148
  20896185.540   109810347.34009  20896180.720    85566554.48048
  20475684.240   107600495.95909  20475683.780    83844570.30649
  23463547.500   123301788.66408  23463546.580    96079325.33446
 15 02 16 03 17  0.0000000  0  9G01G04G11G16G18G19G22G27G32
  24524268.960   128875903.69307  24524271.260   100422783.77345
  22052392.680   115886154.50909  22052391.500    90300913.44647
  23612565.420   124084885.03208  23612563.820    96689519.87946
  21298725.580   111925565.54509  21298722.880    87214728.27848
  23048606.380   121121355.16708  23048603.960    94380290.91946
  21256577.000   111704098.04409  21256572.620    87042161.61748
  20898893.380   109824577.42109  20898888.600    85577642.87348
  20473841.060   107590809.61209  20473840.540    83837022.50249
  23441677.240   123186860.32408  23441676.420    95989770.87546
 15 02 16 03 17 30.0000000  0  9G01G04G11G16G18G19G22G27G32
  24508772.420   128794469.39107  24508774.860   100359328.52645
  22039937.920   115820704.04909  22039936.640    90249913.10147
  23596912.720   124002630.34008  23596911.320    96625425.35846
  21311846.280   111994515.72509  21311843.680    87268455.68548
  23061998.120   121191729.38308  23061995.680    94435127.95046
  21247669.880   111657290.68909  21247665.480    87005688.36048
  20901700.420   109839329.09109  20901695.760    85589137.69248
  20472054.460   107581420.60309  20472053.900    83829706.39149
  23419832.900   123072068.01508  23419832.140    95900322.39346
 15 02 16 03 18  0.0000000  0  9G01G04G11G16G18G19G22G27G32
  24493304.120   128713183.33307  24493306.760   100295988.81445
  22027532.040   115755510.76409  22027530.780    90199113.16448
  23581280.720   123920483.81708  23581279.320    96561415.11246
  21325051.080   112063907.79009  21325048.600    87322527.40648
  23075449.040   121262414.38908  23075446.640    94490207.15846
  21238800.320   111610680.84509  21238795.920    86969369.00748
  20904606.940   109854603.26709  20904602.340    85601039.65148
  20470324.940   107572331.64709  20470324.280    83822624.08049
  23398015.280   122957416.15008  23398014.700    95810983.34746
 15 02 16 03 18 30.0000000  0  9G01G04G11G16G18G19G22G27G32
  24477864.220   128632046.63907  24477866.920   100232765.49445
  22015175.340   115690575.77609  22015174.040    90148514.48648
  23565669.500   123838446.52308  23565668.040    96497489.98045
  21338339.840   112133741.01309  21338337.420    87376942.89248
  23088958.920   121333408.90908  23088956.480    94545527.54346
  21229968.740   111564270.62309  21229964.360    86933205.20048
  20907613.000   109870400.27909  20907608.400    85613349.01548
  20468652.860   107563544.78609  20468652.160    83815777.16849
  23376225.060   122842908.43308  23376224.620    95721756.62246
 15 02 16 03 19  0.0000000  0  9G01G04G11G16G18G19G22G27G32
  24462452.980   128551060.34906  24462455.860   100169659.38946
  22002867.940   115625899.77309  22002866.500    90098117.61947
  23550079.280   123756519.72908  23550077.740    96433650.95145
  21351712.220   112204013.63309  21351709.840    87431700.76348
  23102527.420   121404711.42708  23102524.900    94601087.93046
  21221175.460   111518061.82709  21221171.100    86897198.35448
  20910718.580   109886719.95209  20910713.940    85626065.64648
  20467038.600   107555061.93709  20467037.880    83809167.14949
  23354463.020   122728548.48308  23354462.560    95632645.03446
 15 02 16 03 19 30.0000000  0  9G01G04G11G16G18G19G22G27G32
  24447069.960   128470222.53006  24447073.000   100106668.93846
  21990609.340   115561480.52409  21990607.920    90047920.82747
  23534509.800   123674701.65708  23534508.200    96369896.62146
  21365167.480   112274721.41509  21365165.080    87486797.72448
  23116153.820   121476317.97208  23116151.160    94656885.22746
  21212420.340   111472053.46409  21212416.020    86861347.68948
  20913923.060   109903559.20109  20913918.320    85639187.13848
  20465481.960   107546882.06909  20465481.340    83802793.22549
  23332729.260   122614336.84508  23332728.760    95543649.01246
 15 02 16 03 20  0.0000000  0  9G01G04G11G16G18G19G22G27G32
  24431715.360   128389534.29306  24431718.560   100043795.08745
  21978399.880   115497319.47409  21978398.560    89997925.22947
  23518961.280   123592993.28808  23518959.580    96306227.79346
  21378705.320   112345863.11609  21378702.820    87542232.80348
  23129837.840   121548227.36308  23129835.000    94712918.50046
  21203703.820   111426247.63709  21203699.500    86825654.84148
  20917226.480   109920918.33309  20917221.600    85652713.74148
  20463983.340   107539007.27309  20463982.820    83796657.00949
  23311024.480   122500277.32508  23311023.840    95454771.51146
 15 02 16 03 20 30.0000000  0  9G01G04G11G16G18G19G22G27G32
  24416389.320   128308996.24207  24416392.740    99981038.23846
  21966239.600   115433416.82609  21966238.280    89948130.97947
  23503433.700   123511395.37808  23503432.060    96242645.02746
  21392325.420   112417436.97709  21392322.860    87598004.62948
  23143579.140   121620437.85409  23143576.140    94769186.39146
  21195026.180   111380645.86109  21195021.780    86790120.99848
  20920628.660   109938796.52909  20920623.660    85666644.80248
  20462543.080   107531439.01809  20462542.680    83790759.67049
  23289349.240   122386373.08908  23289348.400    95366015.01046
 15 02 16 03 21  0.0000000  0  9G01G04G11G16G18G19G22G27G32
  24401092.500   128228610.92607  24401095.900    99918400.38946
  21954128.900   115369774.85709  21954127.520    89898539.87147
  23487927.600   123429910.51508  23487925.860    96179150.37145
  21406027.780   112489443.15009  21406025.160    87654113.33148
  23157377.680   121692949.56308  23157374.640    94825689.00946
  21186388.020   111335251.62209  21186383.520    86754748.86748
  20924129.900   109957195.38809  20924124.860    85680981.58448
  20461161.840   107524180.78909  20461161.480    83785103.91549
  23267704.460   122272629.21208  23267703.540    95277383.47146
 15 02 16 03 21 30.0000000  0  9G01G04G11G16G18G19G22G27G32
  24385824.060   128148374.39108  24385827.340    99855878.47346
  21942067.120   115306389.72009  21942065.640    89849148.88447
  23472442.260   123348534.70108  23472440.380    96115740.66645
  21419811.080   112561874.81409  21419808.500    87710553.57048
  23171232.340   121765756.30808  23171229.340    94882421.51946
  21177788.740   111290061.86109  21177784.140    86719536.06548
  20927729.200   109976109.76609  20927724.180    85695720.06648
  20459839.080   107517229.56709  20459838.700    83779687.37349
  23246089.900   122159044.44008  23246089.120    95188875.91846
 15 02 16 03 22  0.0000000  0  9G01G04G11G16G18G19G22G27G32
  24370584.440   128068289.19508  24370587.640    99793474.46746
  21930054.640   115243263.72209  21930053.040    89799959.80947
  23456978.220   123267270.92408  23456976.340    96052418.26145
  21433675.480   112634732.61809  21433672.900    87767325.87048
  23185143.140   121838858.06608  23185140.180    94939383.91246
  21169229.000   111245080.12609  21169224.400    86684485.36748
  20931426.820   109995541.06109  20931421.860    85710861.33549
  20458575.440   107510588.75309  20458575.020    83774512.70649
  23224506.600   122045623.76408  23224505.800    95100496.21546
 15 02 16 03 22 30.0000000  0  9G01G04G11G16G18G19G22G27G32
  24355373.520   127988354.73308  24355376.580    99731187.92246
  21918091.260   115180396.12509  21918089.660    89750972.09547
  23441535.320   123186118.40208  23441533.520    95989182.58545
  21447620.640   112708014.32409  21447617.980    87824428.49448
  23199109.580   121912252.10708  23199106.660    94996574.04946
  21160708.860   111200306.80409  21160704.300    86649597.07048
  20935222.400   110015487.44709  20935217.600    85726403.98449
  20457370.940   107504258.76309  20457370.520    83769580.23649
  23202954.960   121932369.33608  23202954.180    95012246.06746
 15 02 16 03 23  0.0000000  0  9G01G04G11G16G18G19G22G27G32
  24340191.500   127908572.38508  24340194.440    99669019.90846
  21906177.300   115117788.28409  21906175.680    89702186.78747
  23426114.020   123105078.97908  23426112.220    95926035.02545
  21461646.100   112781718.28309  21461643.400    87881860.14248
  23213131.460   121985937.56809  23213128.580    95053991.27246
  21152228.820   111155744.47609  21152224.380    86614873.19248
  20939116.140   110035949.35209  20939111.440    85742348.32748
  20456226.040   107498241.88909  20456225.600    83764891.76549
  23181435.740   121819285.16908  23181435.000    94924128.59046
 15 02 16 03 23 30.0000000  0  9G01G04G11G16G18G19G22G27G32
  24325038.440   127828942.45408  24325041.320    99606970.64846
  21894312.720   115055440.16809  21894311.240    89653603.86247
  23410714.360   123024152.81708  23410712.240    95862975.68945
  21475751.380   112855841.69809  21475748.600    87939618.63248
  23227208.380   122059912.24709  23227205.560    95111633.84346
  21143789.140   111111394.20509  21143784.780    86580314.53348
  20943107.860   110056925.75609  20943103.140    85758693.57349
  20455140.940   107492539.37709  20455140.440    83760448.24549
  23159949.500   121706374.09008  23159948.700    94836145.97746
 15 02 16 03 24  0.0000000  0  9G01G04G11G16G18G19G22G27G32
  24309914.120   127749463.80508  24309917.100    99545039.27646
  21882497.380   114993350.74909  21882496.080    89605222.52647
  23395335.940   122943338.83508  23395333.780    95800003.78345
  21489935.960   112930381.87009  21489933.100    87997701.87448
  23241339.700   122134172.82509  23241336.900    95169499.21846
  21135389.780   111067255.81109  21135385.520    86545920.98848
  20947197.080   110078414.47909  20947192.260    85775438.04149
  20454115.600   107487151.05809  20454115.060    83756249.55349
  23138496.380   121593637.72208  23138495.660    94748299.53546
 15 02 16 03 24 30.0000000  0  9G01G04G11G16G18G19G22G27G32
  24294818.700   127670137.02908  24294821.480    99483226.22345
  21870731.380   114931520.25209  21870730.080    89557042.93847
  23379978.960   122862637.75708  23379976.780    95737119.86845
  21504199.440   113005336.75309  21504196.580    88056108.27248
  23255525.080   122208717.45009  23255522.280    95227585.91847
  21127031.080   111023330.89309  21127026.840    86511693.78949
  20951383.620   110100414.56909  20951378.660    85792580.97249
  20453150.260   107482078.38009  20453149.720    83752296.81749
  23117077.180   121481079.22108  23117076.380    94660591.67646
 15 02 16 03 25  0.0000000  0  9G01G04G11G16G18G19G22G27G32
  24279752.460   127590963.81907  24279755.200    99421532.85745
  21859014.980   114869950.40909  21859013.640    89509066.45747
  23364643.920   122782051.70408  23364641.780    95674325.57546
  21518541.540   113080705.35409  21518538.700    88114837.04048
  23269764.460   122283545.55808  23269761.580    95285893.52146
  21118713.580   110979622.23309  21118709.360    86477635.09948
  20955667.600   110122926.80509  20955662.560    85810122.97649
  20452245.480   107477324.02109  20452244.980    83748592.11949
  23095692.580   121368702.80708  23095691.880    94573025.70046
 15 02 16 03 25 30.0000000  0  9G01G04G11G16G18G19G22G27G32
  24264715.080   127511942.45307  24264717.960    99359957.79746
  21847347.760   114808639.35609  21847346.560    89461291.63747
  23349330.340   122701578.48208  23349328.120    95611619.19145
  21532961.620   113156483.83509  21532958.880    88173885.19548
  23284057.000   122358652.99209  23284054.080    95344418.76946
  21110437.140   110936129.06609  21110432.900    86443744.32448
  20960048.420   110145948.12509  20960043.360    85828061.67148
  20451401.160   107472887.17909  20451400.660    83745134.82149
  23074342.840   121256509.52408  23074342.180    94485602.41646
 15 02 16 03 26  0.0000000  0  9G01G04G11G16G18G19G22G27G32
  24249706.720   127433073.70607  24249709.620    99298501.68045
  21835730.000   114747587.74109  21835728.860    89413718.96347
  23334038.480   122621219.77808  23334036.220    95549002.07645
  21547459.280   113232670.12609  21547456.680    88233251.12148
  23298402.420   122434038.48108  23298399.580    95403160.69246
  21102202.120   110892853.40709  21102197.800    86410023.03548
  20964526.000   110169478.02909  20964520.940    85846396.66848
  20450617.580   107468769.64009  20450617.120    83741926.34249
  23053028.680   121144502.86508  23053027.880    94398324.55746
 15 02 16 03 26 30.0000000  0  9G01G04G11G16G18G19G22G27G32
  24234727.480   127354357.69207  24234730.340    99237164.58544
  21824161.640   114686795.47309  21824160.460    89366348.38747
  23318768.480   122540975.46208  23318766.140    95486474.07145
  21562034.240   113309262.37809  21562031.700    88292933.38648
  23312800.320   122509699.75609  23312797.500    95462117.50446
  21094008.640   110849796.36609  21094004.300    86376472.10748
  20969100.140   110193515.37609  20969095.140    85865127.07049
  20449894.960   107464972.45209  20449894.520    83738967.49349
  23031750.580   121032685.45608  23031749.640    94311194.16646
 15 02 16 03 27  0.0000000  0  9G01G04G11G16G18G19G22G27G32
  24219777.460   127275794.93507  24219780.240    99175946.89645
  21812642.680   114626262.86909  21812641.420    89319180.13447
  23303520.440   122460846.17708  23303518.160    95424035.69746
  21576686.060   113386258.15909  21576683.620    88352930.08648
  23327250.380   122585635.11809  23327247.540    95521287.89146
  21085857.040   110806959.48509  21085852.720    86343092.72048
  20973770.700   110218059.44009  20973765.720    85884252.31648
  20449233.560   107461497.04209  20449233.200    83736259.37849
  23010509.140   120921060.53008  23010508.100    94224213.75346
 15 02 16 03 27 30.0000000  0  9G01G04G11G16G18G19G22G27G32
  24204857.160   127197388.09507  24204859.840    99114850.67845
  21801173.580   114565992.48909  21801172.340    89272216.22048
  23288294.780   122380834.80108  23288292.500    95361689.22246
  21591414.760   113463657.80609  21591412.320    88413241.48348
  23341752.580   122661844.63608  23341749.740    95580671.90446
  21077748.080   110764346.58409  21077743.780    86309887.86649
  20978537.840   110243111.35809  20978532.960    85903773.29849
  20448634.100   107458347.02109  20448633.740    83733804.80849
  22989305.240   120809633.28108  22989304.060    94137387.36446
 15 02 16 03 28  0.0000000  0  9G01G04G11G16G18G19G22G27G32
  24189965.600   127119132.32707  24189968.320    99053872.22946
  21789753.460   114505979.40309  21789752.220    89225452.79547
  23273090.560   122300936.56208  23273088.360    95299430.89945
  21606218.920   113541453.78709  21606216.380    88473861.71748
  23356305.620   122738321.22208  23356302.720    95640264.02546
  21069681.000   110721953.80009  21069676.700    86276854.53749
  20983400.580   110268665.24709  20983395.740    85923685.42448
  20448095.900   107455518.52709  20448095.540    83731600.77649
  22968138.540   120698401.68708  22968137.400    94050713.45746
 15 02 16 03 28 30.0000000  0  9G01G04G11G16G18G19G22G27G32
  24175103.460   127041031.14107  24175106.080    98993014.20746
  21778383.020   114446227.14309  21778381.800    89178892.60947
  23257908.600   122221155.26708  23257906.500    95237263.69745
  21621098.840   113619647.63809  21621096.220    88534791.98448
  23370909.680   122815066.19408  23370906.740    95700065.28146
  21061656.700   110679785.71609  21061652.420    86243996.29449
  20988359.300   110294723.43109  20988354.460    85943990.50448
  20447619.720   107453016.05809  20447619.380    83729650.78849
  22947010.200   120587371.87108  22947009.020    93964196.76046
 15 02 16 03 29  0.0000000  0  9G01G04G11G16G18G19G22G27G32
  24160270.780   126963085.00007  24160273.440    98932277.02446
  21767062.220   114386735.72509  21767061.000    89132535.67448
  23242749.060   122141491.55208  23242746.980    95175188.12446
  21636053.900   113698236.85809  21636051.220    88596030.32648
  23385564.440   122892077.53308  23385561.460    95760074.09246
  21053675.460   110637843.96509  21053671.180    86211314.40948
  20993413.780   110321284.89809  20993408.920    85964687.74648
  20447205.840   107450840.97009  20447205.520    83727955.91549
  22925920.860   120476547.03108  22925919.600    93877839.78046
 15 02 16 03 29 30.0000000  0 10G01G04G11G14G16G18G19G22G27G32
  24145467.260   126885292.12208  24145469.940    98871659.26246
  21755790.740   114327503.57709  21755789.400    89086380.77248
  23227611.600   122061943.73408  23227609.520    95113202.85845
  24697336.260   129785376.94308  24697333.600   101131456.34145
  21651083.400   113777217.27209  21651080.660    88657573.49748
  23400269.120   122969351.37409  23400266.200    95820287.45246
  21045737.160   110596127.95809  21045732.900    86178808.43148
  20998563.400   110348346.38309  20998558.540    85985774.62048
  20446854.080   107448992.46209  20446853.740    83726515.50649
  22904870.680   120365927.98208  22904869.460    93791643.16446
 15 02 16 03 30  0.0000000  0 10G01G04G11G14G16G18G19G22G27G32
  24130693.060   126807653.36908  24130695.720    98811161.59846
  21744568.760   114268531.25909  21744567.320    89040428.33947
  23212496.480   121982512.98508  23212494.340    95051308.80946
  24684176.260   129716221.41508  24684174.100   101077568.91644
  21666187.100   113856587.56009  21666184.300    88719420.46048
  23415023.560   123046886.25009  23415020.640    95880704.21946
  21037842.180   110554639.47709  21037837.900    86146479.74648
  21003808.140   110375907.75409  21003803.280    86007251.01548
  20446564.840   107447472.36909  20446564.480    83725331.01849
  22883860.380   120255518.30508  22883859.160    93705609.69246
 15 02 16 03 30 30.0000000  0 10G01G04G11G14G16G18G19G22G27G32
  24115948.540   126730170.19408  24115951.180    98750785.13646
  21733396.400   114209820.04509  21733394.980    88994679.35748
  23197403.960   121903200.89408  23197401.700    94989507.21745
  24671027.000   129647121.77308  24671024.880   101023725.04844
  21681364.700   113936346.26809  21681361.880    88781570.10148
  23429827.500   123124681.32809  23429824.560    95941323.73346
  21029991.000   110513381.24209  21029986.720    86114330.47448
  21009147.940   110403968.84009  21009143.100    86029116.80448
  20446338.580   107446283.10209  20446338.180    83724404.31049
  22862890.700   120145322.13708  22862889.440    93619742.59146
 15 02 16 03 31  0.0000000  0 10G01G04G11G14G16G18G19G22G27G32
  24101233.420   126652841.50108  24101235.960    98690529.06546
  21722273.420   114151368.57709  21722272.020    88949132.77948
  23182333.860   121824006.56408  23182331.460    94927797.38645
  24657888.720   129578079.82508  24657886.620   100969926.15043
  21696615.580   114016490.10409  21696612.740    88844019.83348
  23444680.340   123202733.31109  23444677.320    96002143.44146
  21022183.660   110472353.16809  21022179.300    86082360.55048
  21014582.300   110432526.90409  21014577.520    86051369.84848
  20446175.240   107445424.46909  20446174.800    83723735.23949
  22841961.960   120035340.92408  22841960.640    93534042.98046
 15 02 16 03 31 30.0000000  0 10G01G04G11G14G16G18G19G22G27G32
  24086547.580   126575666.68308  24086550.040    98630392.89746
  21711199.780   114093176.47909  21711198.400    88903788.30248
  23167286.120   121744929.61008  23167283.520    94866179.02146
  24644761.740   129509097.39207  24644759.740   100916173.57643
  21711939.100   114097015.72709  21711936.280    88906767.06848
  23459581.520   123281039.39008  23459578.520    96063161.14546
  21014420.260   110431555.91609  21014415.860    86050570.49149
  21020110.960   110461580.32709  21020106.200    86074008.88248
  20446074.860   107444896.87909  20446074.420    83723324.13049
  22821074.560   119925576.94308  22821073.300    93448512.65046
 15 02 16 03 32  0.0000000  0 10G01G04G11G14G16G18G19G22G27G32
  24071891.480   126498648.12608  24071893.940    98570378.47246
  21700175.980   114035245.82809  21700174.460    88858647.54548
  23152261.180   121665972.68108  23152258.520    94804654.16846
  24631647.060   129440179.83806  24631644.680   100862471.50644
  21727335.240   114177923.00209  21727332.440    88969811.68548
  23474531.020   123359599.48008  23474528.080    96124376.76746
  21006701.440   110390993.10609  21006697.020    86018963.10349
  21025734.100   110491130.00609  21025729.260    86097034.60748
  20446038.120   107444703.64609  20446037.680    83723173.54349
  22800229.480   119816035.17708  22800228.100    93363155.45246
 15 02 16 03 32 30.0000000  0 10G01G04G11G14G16G18G19G22G27G32
  24057264.740   126421784.16208  24057267.240    98510484.53646
  21689201.600   113977575.08209  21689200.000    88813709.32248
  23137258.720   121587134.38208  23137256.140    94743221.77446
  24618544.920   129371328.31806  24618542.620   100808820.95343
  21742803.200   114259207.62009  21742800.360    89033150.34048
  23489528.100   123438409.65208  23489525.240    96185787.25546
  20999027.100   110350664.11109  20999022.700    85987537.92149
  21031451.100   110521173.13309  21031446.220    86120444.82948
  20446064.900   107444844.16509  20446064.440    83723283.03149
  22779426.800   119706716.71308  22779425.540    93277972.28146
 15 02 16 03 33  0.0000000  0 10G01G04G11G14G16G18G19G22G27G32
  24042667.620   126345075.84708  24042670.060    98450711.85746
  21678276.760   113920164.84409  21678275.200    88768974.09248
  23122279.020   121508415.57108  23122276.400    94681882.46246
  24605456.060   129302546.52006  24605453.560   100755224.73444
  21758342.580   114340867.79209  21758339.820    89096781.63148
  23504572.540   123517468.84408  23504569.720    96247391.79846
  20991397.660   110310571.14909  20991393.240    85956296.65449
  21037261.880   110551709.03809  21037256.940    86144239.04748
  20446155.600   107445320.39009  20446155.100    83723654.10249
  22758667.340   119597625.31708  22758666.140    93192966.03347
 15 02 16 03 33 30.0000000  0 10G01G04G11G14G16G18G19G22G27G32
  24028100.000   126268522.62208  24028102.400    98391060.04046
  21667401.320   113863014.41809  21667399.900    88724441.32148
  23107322.180   121429816.72308  23107319.500    94620636.64746
  24592380.960   129233836.61906  24592378.840   100701684.61344
  21773953.000   114422901.35509  21773950.380    89160703.87748
  23519663.800   123596774.14708  23519661.040    96309188.11446
  20983813.200   110270714.88709  20983808.800    85925239.83649
  21043166.060   110582735.80309  21043161.140    86168415.74748
  20446310.260   107446132.69209  20446309.660    83724287.06149
  22737951.480   119488763.13709  22737950.400    93108138.40747
 15 02 16 03 34  0.0000000  0 10G01G04G11G14G16G18G19G22G27G32
  24013562.000   126192125.19208  24013564.380    98331529.61446
  21656575.540   113806124.55809  21656574.120    88680111.58048
  23092388.300   121351338.62308  23092385.600    94559484.92246
  24579320.240   129165202.15907  24579318.460   100648203.28944
  21789633.920   114505305.65509  21789631.460    89224915.01048
  23534801.580   123676323.91008  23534798.860    96371174.91146
  20976274.160   110231097.24609  20976269.740    85894368.95548
  21049163.500   110614252.66809  21049158.620    86192974.34548
  20446529.180   107447282.74409  20446528.540    83725183.19549
  22717279.900   119380133.45109  22717278.840    93023491.92947
 15 02 16 03 34 30.0000000  0 10G01G04G11G14G16G18G19G22G27G32
  23999053.540   126115883.19808  23999055.940    98272120.31646
  21645799.280   113749494.74209  21645797.760    88635984.47248
  23077477.280   121272980.82008  23077474.620    94498426.93546
  24566274.380   129096645.26007  24566272.760   100594782.34345
  21805384.900   114588078.05509  21805382.560    89289412.96648
  23549985.400   123756115.63308  23549982.700    96433350.25145
  20968780.700   110191718.99209  20968776.280    85863684.60648
  21055253.840   110646257.68109  21055248.960    86217913.31248
  20446812.400   107448771.17709  20446811.760    83726343.00349
  22696653.000   119271738.70109  22696651.960    92939028.52346
 15 02 16 03 35  0.0000000  0 10G01G04G11G14G16G18G19G22G27G32
  23984574.700   126039796.74308  23984577.140    98212832.21246
  21635072.500   113693125.06509  21635070.960    88592060.07048
  23062589.240   121194744.01308  23062586.600    94437463.23546
  24553243.960   129028169.24208  24553242.360   100541424.44045
  21821205.460   114671215.95609  21821203.180    89354195.74048
  23565214.900   123836147.21908  23565212.200    96495712.49746
  20961333.060   110152581.51409  20961328.680    85833187.88249
  21061436.800   110678749.64709  21061431.940    86243231.73148
  20447160.200   107450599.06809  20447159.600    83727767.32949
  22676071.380   119163581.72109  22676070.340    92854750.39347
 15 02 16 03 35 30.0000000  0 10G01G04G11G14G16G18G19G22G27G32
  23970125.500   125963866.11608  23970128.000    98153665.54646
  21624395.140   113637015.21209  21624393.640    88548338.12548
  23047724.320   121116628.51708  23047721.660    94376594.04546
  24540229.540   128959777.17308  24540227.960   100488131.94746
  21837095.220   114754716.91709  21837092.800    89419261.41948
  23580489.660   123916416.75108  23580487.080    96558260.15845
  20953931.560   110113686.31109  20953927.140    85802879.94249
  21067712.220   110711727.35109  21067707.360    86268928.64648
  20447572.780   107452767.63209  20447572.240    83729457.11949
  22655535.600   119055665.48509  22655534.520    92770659.85046
 15 02 16 03 36  0.0000000  0 10G01G04G11G14G16G18G19G22G27G32
  23955705.920   125888091.02408  23955708.380    98094620.06346
  21613767.180   113581165.32009  21613765.760    88504818.74648
  23032882.480   121038634.44708  23032879.700    94315819.46446
  24527231.500   128891471.25008  24527229.880   100434906.56946
  21853053.660   114838578.52509  21853051.160    89484608.11748
  23595809.240   123996921.67108  23595806.760    96620991.23646
  20946576.340   110075034.43509  20946571.920    85772761.60149
  21074079.780   110745188.94509  21074074.900    86295002.61148
  20448050.320   107455277.57909  20448049.880    83731412.91049
  22635046.080   118947992.46709  22635044.980    92686758.82247
 15 02 16 03 36 30.0000000  0 10G01G04G11G14G16G18G19G22G27G32
  23941316.380   125812473.49108  23941318.820    98035697.35845
  21603189.020   113525577.04809  21603187.660    88461503.23348
  23018064.060   120960763.86008  23018061.320    94255141.11746
  24514250.720   128823256.38608  24514248.960   100381752.14646
  21869080.440   114922799.61209  21869077.960    89550234.92048
  23611173.600   124077661.68108  23611171.080    96683905.49845
  20939268.000   110036628.96709  20939263.600    85742835.27248
  21080539.500   110779134.96309  21080534.660    86321454.05748
  20448593.360   107458131.78809  20448593.040    83733636.96949
  22614603.640   118840567.19209  22614602.640    92603050.85546
 15 02 16 03 37  0.0000000  0 10G01G04G11G14G16G18G19G22G27G32
  23926956.460   125737011.25608  23926958.780    97976895.64446
  21592660.140   113470247.74409  21592658.800    88418389.50448
  23003268.780   120883014.74608  23003266.180    94194557.41646
  24501287.300   128755133.10708  24501285.460   100328669.09646
  21885174.860   115007375.86609  21885172.260    89616138.49048
  23626581.900   124158632.52908  23626579.260    96746999.64745
  20932006.340   109998468.58109  20932001.880    85713099.91349
  21087090.700   110813561.66709  21087085.840    86348280.06548
  20449201.720   107461329.03609  20449201.460    83736128.31649
  22594208.560   118733390.33209  22594207.460    92519536.43647
 15 02 16 03 37 30.0000000  0 10G01G04G11G14G16G18G19G22G27G32
  23912626.020   125661704.09608  23912628.240    97918214.77846
  21582180.580   113415177.55209  21582179.280    88375477.68348
  22988496.740   120805387.60108  22988494.280    94134068.76746
  24488341.840   128687104.20508  24488340.080   100275659.56846
  21901336.300   115092304.49909  21901333.620    89682316.64048
  23642033.600   124239831.46308  23642030.820    96810271.52245
  20924791.620   109960554.87409  20924787.120    85683556.77549
  21093733.100   110848467.35509  21093728.220    86375479.31248
  20449875.580   107464870.08609  20449875.300    83738887.57249
  22573861.160   118626464.28609  22573860.040    92436217.46847
 15 02 16 03 38  0.0000000  0 10G01G04G11G14G16G18G19G22G27G32
  23898325.680   125586555.57308  23898327.780    97859657.51546
  21571750.880   113360369.61909  21571749.640    88332770.22348
  22973748.680   120727886.19608  22973746.180    94073678.08646
  24475415.500   128619176.01408  24475413.660   100222728.53145
  21917564.940   115177586.32109  21917562.160    89748770.00148
  23657528.960   124321259.85108  23657526.160    96873722.19345
  20917624.720   109922892.44209  20917620.220    85654209.43049
  21100467.000   110883854.13609  21100462.100    86403053.42948
  20450615.740   107468759.41209  20450615.400    83741918.20549
  22553562.680   118519795.37608  22553561.540    92353098.86647
 15 02 16 03 38 30.0000000  0 10G01G04G11G14G16G18G19G22G27G32
  23884054.960   125511562.59808  23884057.040    97801221.47946
  21561370.600   113305820.97609  21561369.340    88290264.80248
  22959023.980   120650507.63608  22959021.480    94013383.12846
  24462508.200   128551348.07007  24462506.300   100169875.60245
  21933859.720   115263215.62109  21933856.900    89815494.12748
  23673066.940   124402912.33208  23673064.180    96937347.47845
  20910505.220   109885479.28809  20910500.760    85625056.33149
  21107291.520   110919716.96209  21107286.540    86430998.50148
  20451421.780   107472994.87809  20451421.400    83745218.56149
  22533313.000   118413383.18908  22533311.940    92270180.32147
 15 02 16 03 39  0.0000000  0 10G01G04G11G14G16G18G19G22G27G32
  23869814.260   125436727.28608  23869816.380    97742908.29146
  21551040.080   113251533.52509  21551038.720    88247962.89348
  22944323.140   120573254.32608  22944320.640    93953185.76746
  24449620.860   128483625.33007  24449619.000   100117104.63145
  21950220.460   115349191.80009  21950217.620    89882488.53848
  23688647.620   124484789.04008  23688644.920    97001147.48245
  20903433.820   109848318.98609  20903429.400    85596100.25549
  21114206.760   110956056.60709  21114201.720    86459315.10648
  20452294.240   107477579.55509  20452293.820    83748791.02649
  22513113.200   118307232.57109  22513112.140    92187465.57647
 15 02 16 03 39 30.0000000  0 10G01G04G11G14G16G18G19G22G27G32
  23855602.800   125362045.63608  23855604.900    97684714.84546
  21540758.420   113197502.97909  21540757.100    88205861.19448
  22929645.480   120496122.76008  22929643.080    93893083.28746
  24436753.360   128416006.83407  24436751.500   100064414.92744
  21966645.940   115435508.30109  21966643.120    89949748.14948
  23704269.820   124566883.77708  23704267.180    97065117.38645
  20896410.020   109811408.74909  20896405.580    85567339.03749
  21121211.700   110992867.89709  21121206.680    86487999.23848
  20453232.580   107482510.44709  20453232.180    83752633.28349
  22492962.980   118201342.31609  22492961.860    92104953.72647
 15 02 16 03 40  0.0000000  0 10G01G04G11G14G16G18G19G22G27G32
  23841421.580   125287522.94208  23841423.660    97626645.27147
  21530526.620   113143734.43609  21530525.300    88163963.65348
  22914991.980   120419118.27908  22914989.680    93833079.83246
  24423907.220   128348500.65107  24423905.280   100011812.73143
  21983136.700   115522167.77509  21983133.880    90017275.00348
  23719934.080   124649199.52508  23719931.360    97129259.50145
  20889435.060   109774755.07609  20889430.620    85538777.73649
  21128307.060   111030154.23109  21128302.020    86517053.53448
  20454238.000   107487793.77309  20454237.560    83756750.15349
  22472863.840   118095720.38609  22472862.640    92022650.95747
 15 02 16 03 40 30.0000000  0 10G01G04G11G14G16G18G19G22G27G32
  23827270.200   125213156.94908  23827272.240    97568697.78246
  21520344.320   113090225.89409  21520342.880    88122268.68948
  22900362.320   120342239.04908  22900360.020    93773173.96146
  24411082.620   128281107.39807  24411080.360    99959298.51943
  21999691.820   115609165.47609  21999688.940    90085065.41448
  23735639.440   124731731.49408  23735636.640    97193570.08345
  20882508.740   109738357.09509  20882504.320    85510415.67349
  21135492.080   111067911.62409  21135487.040    86546474.88648
  20455310.220   107493428.18209  20455309.720    83761140.58549
  22452815.820   117990367.26909  22452814.560    91940557.65247
 15 02 16 03 41  0.0000000  0 10G01G04G11G14G16G18G19G22G27G32
  23813148.660   125138947.80508  23813150.640    97510872.52146
  21510211.400   113036977.01109  21510209.880    88080776.07648
  22885756.620   120265485.77008  22885754.380    93713366.24146
  24398280.020   128213829.83607  24398277.760    99906874.41543
  22016310.860   115696498.88909  22016307.900    90153117.41448
  23751385.560   124814477.98408  23751382.820    97258047.82745
  20875631.340   109702216.30309  20875626.960    85482254.01749
  21142766.540   111106138.92209  21142761.460    86576262.39748
  20456449.440   107499414.79809  20456448.920    83765805.46449
  22432819.520   117885285.75909  22432818.200    91858675.98447
 15 02 16 03 41 30.0000000  0 10G01G04G11G14G16G18G19G22G27G32
  23799056.980   125064895.51108  23799058.860    97453169.49446
  21500127.980   112983988.10809  21500126.440    88039486.04248
  22871174.940   120188858.79008  22871172.760    93653656.93946
  24385500.160   128146671.08908  24385498.020    99854542.92243
  22032993.120   115784164.99609  22032990.240    90221428.66448
  23767172.100   124897436.94808  23767169.360    97322691.15545
  20868803.120   109666333.93309  20868798.740    85454293.74149
  21150130.040   111144834.22109  21150124.920    86606414.59248
  20457655.860   107505754.56409  20457655.320    83770745.54249
  22412875.420   117780478.63609  22412874.080    91777008.13047
 15 02 16 03 42  0.0000000  0 10G01G04G11G14G16G18G19G22G27G32
  23784994.920   124990999.12408  23784996.820    97395587.93846
  21490093.700   112931257.67909  21490092.160    87998397.40448
  22856617.220   120112357.39208  22856614.960    93594045.48446
  24372743.240   128079632.93808  24372741.300    99802305.39044
  22049738.120   115872160.83809  22049735.320    90289996.83848
  23782998.420   124980605.20808  23782995.800    97387497.55445
  20862024.160   109630710.41309  20862019.800    85426535.14848
  21157582.080   111183995.12109  21157577.000    86636929.57948
  20458929.500   107512447.51909  20458928.980    83775960.82149
  22392983.880   117675947.60109  22392982.480    91695555.40147
 15 02 16 03 42 30.0000000  0 10G01G04G11G14G16G18G19G22G27G32
  23770962.960   124917261.47808  23770964.940    97338130.11646
  21480109.140   112878788.66509  21480107.620    87957512.47048
  22842084.060   120035984.82609  22842081.700    93534534.43346
  24360010.420   128012721.21507  24360008.580    99750166.35644
  22066545.920   115960486.40009  22066543.160    90358821.95148
  23798864.700   125063983.31608  23798862.200    97452467.48445
  20855295.280   109595349.79709  20855290.940    85398981.42949
  21165122.900   111223622.71309  21165117.860    86667808.23348
  20460271.040   107519497.41509  20460270.560    83781454.24849
  22373145.880   117571698.28609  22373144.440    91614322.20747
 15 02 16 03 43  0.0000000  0 10G01G04G11G14G16G18G19G22G27G32
  23756960.580   124843679.27008  23756962.540    97280793.38446
  21470173.680   112826577.69609  21470172.200    87916828.60648
  22827574.860   119959738.09508  22827572.420    93475121.42746
  24347301.600   127945935.48707  24347299.820    99698125.51145
  22083415.320   116049135.75009  22083412.580    90427899.36148
  23814769.920   125147565.94508  23814767.500    97517596.77145
  20848616.060   109560249.99909  20848611.700    85371630.93949
  21172751.660   111263712.34109  21172746.680    86699046.90648
  20461680.080   107526901.84909  20461679.640    83787223.93349
  22353361.360   117467730.12909  22353360.000    91533308.08747
 15 02 16 03 43 30.0000000  0 10G01G04G11G14G16G18G19G22G27G32
  23742988.000   124770253.08008  23742989.820    97223578.22446
  21460287.420   112774625.10709  21460286.000    87876346.07548
  22813089.720   119883617.92908  22813087.200    93415807.04646
  24334617.360   127879279.12207  24334615.700    99646185.49645
  22100345.960   116138106.70909  22100343.220    90497227.37548
  23830713.780   125231351.31108  23830711.340    97582884.04045
  20841986.880   109525413.26809  20841982.540    85344485.44249
  21180468.120   111304262.70409  21180463.160    86730644.60348
  20463156.900   107534662.37009  20463156.400    83793271.09049
  22333630.940   117364046.27409  22333629.620    91452515.50647
 15 02 16 03 44  0.0000000  0 10G01G04G11G14G16G18G19G22G27G32
  23729045.800   124696986.43208  23729047.580    97166487.38346
  21450450.920   112722934.23709  21450449.580    87836067.49248
  22798629.460   119807628.62608  22798626.880    93356594.63346
  24321959.000   127812758.75008  24321957.140    99594351.45044
  22117337.940   116227400.02209  22117335.180    90566806.58048
  23846696.520   125315340.84308  23846694.100    97648330.40445
  20835408.640   109490844.27609  20835404.280    85317548.56949
  21188272.600   111345275.67009  21188267.680    86762602.76548
  20464702.320   107542783.41809  20464701.820    83799599.17949
  22313955.880   117260653.17309  22313954.480    91371949.48047
 15 02 16 03 44 30.0000000  0 10G01G04G11G14G16G18G19G22G27G32
  23715133.180   124623875.10708  23715134.880    97109517.56946
  21440663.460   112671501.04709  21440662.160    87795989.69448
  22784193.280   119731766.42208  22784190.740    93297481.25446
  24309326.200   127746372.74607  24309324.060    99542622.13745
  22134390.020   116317009.28609  22134387.300    90636631.97248
  23862716.920   125399528.13008  23862714.420    97713930.85245
  20828880.740   109456540.11909  20828876.400    85290818.05849
  21196164.000   111386745.44309  21196159.120    86794916.87848
  20466315.700   107551261.73909  20466315.200    83806205.65449
  22294335.780   117157549.15609  22294334.380    91291608.71647
 15 02 16 03 45  0.0000000  0 10G01G04G11G14G16G18G19G22G27G32
  23701250.420   124550920.96108  23701252.200    97052670.22746
  21430925.400   112620326.99709  21430924.020    87756113.81548
  22769781.640   119656033.31008  22769779.240    93238468.47446
  24296719.840   127680125.79607  24296717.680    99491001.14745
  22151502.040   116406933.44509  22151499.320    90706702.74548
  23878774.940   125483913.07708  23878772.360    97779685.34045
  20822403.900   109422504.02409  20822399.500    85264296.42949
  21204142.380   111428672.35009  21204137.560    86827587.20148
  20467997.560   107560100.10709  20467997.080    83813092.69049
  22274771.560   117054738.92009  22274770.160    91211496.87947
 15 02 16 03 45 30.0000000  0 10G01G04G11G14G16G18G19G22G27G32
  23687397.800   124478124.85908  23687399.460    96995946.04346
  21421236.800   112569412.96009  21421235.340    87716440.55248
  22755394.840   119580430.65208  22755392.580    93179557.35546
  24284140.660   127614021.95808  24284138.620    99439491.66845
  22168673.540   116497170.39209  22168670.860    90777017.23948
  23894870.300   125568494.26308  23894867.640    97845592.72345
  20815978.480   109388738.19309  20815974.020    85237985.39849
  21212207.620   111471055.39909  21212202.760    86860612.96148
  20469748.240   107569300.26609  20469747.820    83820261.63849
  22255263.960   116952225.94209  22255262.560    91131616.66347
 15 02 16 03 46  0.0000000  0 10G01G04G11G14G16G18G19G22G27G32
  23673574.780   124405484.40408  23673576.300    96939343.13646
  21411597.220   112518756.47909  21411595.740    87676967.97948
  22741032.580   119504956.74408  22741030.320    93120746.54946
  24271588.860   127548061.67308  24271586.900    99388094.04545
  22185903.720   116587715.45209  22185900.960    90847571.83148
  23911002.080   125653267.03108  23910999.480    97911649.40945
  20809604.280   109355241.42809  20809599.780    85211884.02749
  21220358.900   111513890.55109  21220354.020    86893991.00248
  20471567.540   107578860.80209  20471567.100    83827711.39849
  22235812.980   116850010.62309  22235811.640    91051968.39147
 15 02 16 03 46 30.0000000  0 10G01G04G11G14G16G18G19G22G27G32
  23659781.960   124333002.96108  23659783.480    96882864.12646
  21402007.280   112468360.81409  21402005.800    87637698.64448
  22726695.500   119429615.17508  22726693.160    93062038.86146
  24259065.540   127482251.08508  24259063.660    99336813.06745
  22203192.660   116678569.04009  22203189.840    90918366.82948
  23927170.560   125738232.95108  23927168.000    97977856.58545
  20803282.160   109322018.47309  20803277.680    85185996.02149
  21228596.500   111557179.45209  21228591.640    86927722.61848
  20473456.240   107588785.99809  20473455.860    83835445.31549
  22216419.800   116748098.97109  22216418.540    90972556.74547
 15 02 16 03 47  0.0000000  0 10G01G04G11G14G16G18G19G22G27G32
  23646019.120   124260679.27208  23646020.680    96826508.05646
  21392466.680   112418224.45809  21392465.160    87598631.37048
  22712383.380   119354404.72908  22712381.020    93003433.34146
  24246571.040   127416591.85208  24246569.140    99285650.01845
  22220539.560   116769727.59909  22220536.740    90989399.47448
  23943375.080   125823388.36508  23943372.620    98044211.42445
  20797012.240   109289069.96809  20797007.800    85160321.86549
  21236919.880   111600918.87609  21236915.040    86961805.28348
  20475414.280   107599075.46809  20475413.920    83843463.08449
  22197084.740   116646492.49009  22197083.460    90893382.89447
 15 02 16 03 47 30.0000000  0 10G01G04G11G14G16G18G19G22G27G32
  23632285.840   124188511.22308  23632287.540    96770273.25646
  21382975.000   112368345.30609  21382973.400    87559764.50248
  22698095.940   119279323.91708  22698093.580    92944928.84146
  24234105.540   127351084.82908  24234103.600    99234605.58545
  22237943.580   116861186.48109  22237940.780    91060666.12748
  23959614.920   125908729.19808  23959612.460    98110710.74045
  20790794.380   109256394.92009  20790789.920    85134860.79049
  21245328.260   111645105.27609  21245323.480    86996236.24348
  20477441.360   107609728.02109  20477441.060    83851763.76949
  22177807.860   116545191.76009  22177806.560    90814447.28947
 15 02 16 03 48  0.0000000  0 10G01G04G11G14G16G18G19G22G27G32
  23618582.840   124116501.94208  23618584.640    96714162.16146
  21373532.800   112318726.26509  21373531.160    87521100.32148
  22683833.940   119204376.60908  22683831.360    92886528.36446
  24221670.140   127285736.06408  24221668.220    99183684.46745
  22255404.740   116952945.74609  22255401.980    91132166.84347
  23975890.140   125994256.18508  23975887.680    98177355.11144
  20784629.420   109223997.58109  20784624.900    85109616.11749
  21253822.000   111689740.22609  21253817.280    87031016.71948
  20479538.320   107620747.67609  20479538.040    83860350.50449
  22158590.280   116444202.58809  22158588.980    90735754.45647
 15 02 16 03 48 30.0000000  0 10G01G04G11G14G16G18G19G22G27G32
  23604909.280   124044647.03608  23604911.200    96658171.37246
  21364139.280   112269363.11809  21364137.660    87482635.55048
  22669596.560   119129558.72708  22669593.840    92828228.73246
  24209264.480   127220544.04108  24209262.660    99132885.50745
  22272921.740   117044998.29409  22272919.020    91203896.09948
  23992199.680   126079963.43608  23992197.280    98244139.95745
  20778516.780   109191874.95809  20778512.180    85084585.50249
  21262399.920   111734817.48709  21262395.240    87066141.86148
  20481704.480   107632130.95209  20481704.160    83869220.57649
  22139431.660   116343523.29409  22139430.340    90657303.08547
 15 02 16 03 49  0.0000000  0 10G01G04G11G14G16G18G19G22G27G32
  23591266.360   123972953.18108  23591268.280    96602306.05946
  21354795.660   112220262.11109  21354794.020    87444375.03548
  22655385.100   119054877.33408  22655382.420    92770035.46446
  24196890.440   127155518.58707  24196888.680    99082216.33645
  22290495.320   117137348.46109  22290492.660    91275857.26248
  24008544.280   126165854.83308  24008541.920    98311068.27945
  20772457.980   109160035.31609  20772453.320    85059775.39549
  21271062.920   111780341.91909  21271058.240    87101615.44348
  20483941.320   107643885.42909  20483940.920    83878379.89849
  22120333.800   116243163.28109  22120332.400    90579100.50747
 15 02 16 03 49 30.0000000  0 10G01G04G11G14G16G18G19G22G27G32
  23577652.780   123901413.50908  23577654.700    96546560.89746
  21345500.640   112171416.45909  21345498.960    87406313.50448
  22641198.400   118980326.07508  22641195.800    92711943.60446
  24184547.260   127090655.31407  24184545.640    99031673.54245
  22308123.680   117229986.63009  22308121.080    91348042.84547
  24024922.280   126251921.71008  24024919.900    98378133.34745
  20766451.920   109128473.06509  20766447.220    85035181.44049
  21279809.340   111826304.76409  21279804.640    87137430.65148
  20486247.660   107656005.14109  20486247.200    83887823.82749
  22101295.880   116143118.34209  22101294.420    90501143.43547
 15 02 16 03 50  0.0000000  0 10G01G04G11G14G16G18G19G22G27G32
  23564069.380   123830032.66708  23564071.320    96490939.51146
  21336255.040   112122830.64209  21336253.360    87368454.44548
  22627037.400   118905910.03008  22627034.860    92653957.10446
  24172236.460   127025961.99907  24172234.980    98981263.20045
  22325807.240   117322914.53909  22325804.640    91420454.20447
  24041334.220   126338166.65808  24041331.800    98445337.18045
  20760499.720   109097194.08009  20760495.000    85010808.21549
  21288639.780   111872709.08909  21288635.020    87173589.86748
  20488624.500   107668495.60809  20488624.060    83897556.65749
  22082319.200   116043395.65709  22082317.740    90423437.48447
 15 02 16 03 50 30.0000000  0 10G01G04G11G14G16G18G19G22G27G32
  23550515.820   123758808.73908  23550517.840    96435440.38946
  21327058.480   112074502.50609  21327056.820    87330796.16748
  22612901.900   118831627.90208  22612899.440    92596074.95746
  24159958.160   126961439.71707  24159956.920    98930986.11545
  22343545.060   117416127.35209  22343542.420    91493087.56048
  24057779.280   126424585.77208  24057776.900    98512676.71145
  20754601.380   109066198.21809  20754596.620    84986655.59949
  21297553.520   111919551.11209  21297548.720    87210090.13448
  20491071.740   107681355.78609  20491071.260    83907577.56749
  22063404.040   115943996.13509  22063402.520    90345983.33247
 15 02 16 03 51  0.0000000  0 10G01G04G11G14G16G18G19G22G27G32
  23536992.280   123687742.40308  23536994.380    96380064.05847
  21317911.140   112026432.79709  21317909.480    87293339.26748
  22598792.120   118757480.67308  22598789.740    92538297.92246
  24147713.060   126897092.17807  24147711.940    98880845.21145
  22361336.860   117509623.60509  22361334.180    91565941.78647
  24074257.140   126511177.36608  24074254.720    98580150.66245
  20748757.240   109035487.29409  20748752.500    84962725.01549
  21306550.320   111966829.70909  21306545.480    87246930.59848
  20493589.640   107694587.26209  20493589.120    83917887.79949
  22044551.000   115844923.28509  22044549.580    90268783.73947
 15 02 16 03 51 30.0000000  0 10G01G04G11G14G16G18G19G22G27G32
  23523498.560   123616832.48608  23523500.700    96324809.61446
  21308812.680   111978620.10409  21308811.000    87256082.63848
  22584707.880   118683467.54508  22584705.500    92480625.38546
  24135501.480   126832920.78307  24135500.500    98830841.54445
  22379181.940   117603399.35809  22379179.100    91639013.80647
  24090767.160   126597938.12008  24090764.740    98647756.40345
  20742967.480   109005061.86609  20742962.720    84939016.89149
  21315629.680   112014542.00509  21315624.780    87284109.01248
  20496178.160   107708189.71109  20496177.600    83928487.10649
  22025760.460   115746178.42609  22025759.000    90191839.71747
 15 02 16 03 52  0.0000000  0 10G01G04G11G14G16G18G19G22G27G32
  23510034.800   123546080.01608  23510036.880    96269677.84246
  21299763.280   111931065.42009  21299761.660    87219027.06248
  22570649.540   118609590.36208  22570647.100    92423058.77446
  24123324.440   126768929.87408  24123323.380    98780978.50745
  22397079.820   117697452.84009  22397076.840    91712302.23547
  24107309.140   126684867.26608  24107306.780    98715493.35744
  20737232.440   108974923.91409  20737227.640    84915532.77349
  21324791.480   112062687.43409  21324786.560    87321624.92948
  20498837.620   107722165.03109  20498837.020    83939376.95549
  22007033.080   115647765.34009  22007031.580    90115154.21747
 15 02 16 03 52 30.0000000  0 10G01G04G11G14G16G18G19G22G27G32
  23496600.520   123475482.94708  23496602.520    96214667.16946
  21290762.620   111883766.81609  21290761.040    87182171.03048
  22556616.780   118535847.40509  22556614.340    92365596.75246
  24111181.960   126705120.00208  24111180.660    98731256.52645
  22415029.600   117791779.45809  22415026.560    91785803.49847
  24123882.400   126771960.69508  24123879.940    98783358.32445
  20731552.000   108945073.09209  20731547.180    84892272.39249
  21334034.900   112111261.90809  21334029.980    87359475.16848
  20501567.740   107736512.06609  20501567.200    83950556.44949
  21988368.940   115549684.64909  21988367.460    90038727.72247
 15 02 16 03 53  0.0000000  0 10G01G04G11G14G16G18G19G22G27G32
  23483196.440   123405044.50108  23483198.480    96159780.10846
  21281811.280   111836727.08909  21281809.640    87145516.71148
  22542610.220   118462242.27308  22542607.760    92308242.14346
  24099075.120   126641497.39208  24099073.620    98681680.46945
  22433031.300   117886379.27209  22433028.340    91859517.65047
  24140487.040   126859219.34008  24140484.720    98851352.05444
  20725927.000   108915513.94909  20725922.220    84869239.30449
  21343360.200   112160266.97109  21343355.360    87397660.93648
  20504369.320   107751234.84709  20504368.880    83962028.73949
  21969769.140   115451942.22909  21969767.700    89962564.83347
 15 02 16 03 53 30.0000000  0 10G01G04G11G14G16G18G19G22G27G32
  23469822.020   123334761.83908  23469824.160    96105014.43246
  21272908.700   111789943.52609  21272907.000    87109062.00348
  22528629.400   118388772.78608  22528626.920    92250993.22546
  24087003.980   126578062.41908  24087002.260    98632250.61245
  22451084.040   117981247.25809  22451081.200    91933440.75047
  24157122.280   126946638.64907  24157120.080    98919470.95444
  20720357.240   108886245.21709  20720352.580    84846432.50149
  21352766.480   112209697.81109  21352761.740    87436178.47548
  20507242.040   107766331.43609  20507241.660    83973792.30849
  21951233.700   115354537.89209  21951232.240    89886665.37047
 15 02 16 03 54  0.0000000  0 10G01G04G11G14G16G18G19G22G27G32
  23456477.520   123264636.07008  23456479.780    96050371.00946
  21264055.020   111743417.01109  21264053.340    87072807.58648
  22514674.800   118315440.75509  22514672.200    92193851.40746
  24074969.240   126514818.92408  24074967.220    98582969.98344
  22469187.500   118076381.64509  22469184.660    92007571.45647
  24173787.920   127034217.50508  24173785.880    98987714.17744
  20714843.240   108857269.30609  20714838.660    84823853.87649
  21362253.680   112259553.84809  21362249.000    87475027.34248
  20510186.320   107781803.79809  20510185.960    83985848.69149
  21932763.260   115257475.34009  21932761.840    89811032.24747
 15 02 16 03 54 30.0000000  0 10G01G04G11G14G16G18G19G22G27G32
  23443163.300   123194669.40108  23443165.660    95995851.56947
  21255250.620   111697149.73709  21255248.980    87036755.18548
  22500746.820   118242248.74408  22500744.180    92136818.69646
  24062971.840   126451772.00708  24062969.680    98533842.48845
  22487341.500   118171781.99309  22487338.760    92081909.39147
  24190484.060   127121956.14908  24190482.100    99056081.91944
  20709385.660   108828589.88409  20709381.140    84801506.28349
  21371821.880   112309835.38609  21371817.260    87514207.76348
  20513202.680   107797654.94509  20513202.340    83998200.22649
  21914358.860   115160759.56609  21914357.400    89735669.32447
 15 02 16 03 55  0.0000000  0 10G01G04G11G14G16G18G19G22G27G32
  23429878.440   123124857.37708  23429880.820    95941452.61146
  21246494.680   111651137.04809  21246493.040    87000901.14448
  22486844.700   118169192.78909  22486842.060    92079892.01346
  24051011.520   126388920.03508  24051009.360    98484866.91944
  22505544.720   118267441.39509  22505542.160    92156449.17947
  24207209.420   127209848.06008  24207207.360    99124569.09244
  20703983.980   108800203.96709  20703979.480    84779387.39249
  21381469.960   112360536.05209  21381465.240    87553714.77248
  20516290.480   107813881.27509  20516290.140    84010844.11649
  21896020.100   115064388.66009  21896018.640    89660575.13747
 15 02 16 03 55 30.0000000  0 10G01G04G11G14G16G18G19G22G27G32
  23416623.360   123055201.76108  23416625.740    95887175.54146
  21237787.500   111605380.82909  21237785.880    86965246.97248
  22472968.980   118096275.21509  22472966.220    92023073.14246
  24039089.240   126326267.99408  24039087.180    98436047.15345
  22523797.100   118363358.60709  22523794.620    92231189.87847
  24223963.920   127297893.06108  24223961.840    99193175.56144
  20698638.740   108772114.54109  20698634.220    84757499.53449
  21391197.900   112411655.99409  21391193.000    87593548.50148
  20519450.220   107830485.36909  20519449.820    84023782.36549
  21877747.800   114968367.09209  21877746.360    89585753.15648
 15 02 16 03 56  0.0000000  0 10G01G04G11G14G16G18G19G22G27G32
  23403398.460   122985704.83608  23403400.940    95833022.13247
  21229129.500   111559882.97409  21229127.900    86929794.12048
  22459120.100   118023498.76009  22459117.220    91966364.25547
  24027206.000   126263820.98108  24027204.040    98387387.14545
  22542098.400   118459533.05009  22542096.020    92306131.00047
  24240747.580   127386091.48408  24240745.420    99261901.57345
  20693350.720   108744325.56909  20693346.180    84735845.79849
  21401005.680   112463195.69809  21401000.680    87633709.31748
  20522682.440   107847470.35309  20522681.980    84037017.41149
  21859542.940   114872699.74609  21859541.540    89511207.20148
 15 02 16 03 56 30.0000000  0 10G01G04G11G14G16G18G19G22G27G32
  23390203.060   122916362.90108  23390205.700    95778989.49247
  21220520.020   111514639.81409  21220518.380    86894539.72448
  22445297.560   117950860.38009  22445294.520    91909762.94746
  24015361.660   126201578.27308  24015359.640    98338886.33445
  22560447.560   118555958.68609  22560445.320    92381267.86247
  24257559.180   127474437.16008  24257557.040    99330742.30944
  20688119.500   108716834.73609  20688114.840    84714424.37049
  21410892.240   112515149.45409  21410887.180    87674192.76948
  20525986.500   107864833.30609  20525986.020    84050546.97449
  21841405.260   114777385.55509  21841403.920    89436936.43448
 15 02 16 03 57  0.0000000  0 10G01G04G11G14G16G18G19G22G27G32
  23377037.480   122847177.72908  23377040.200    95725079.01446
  21211959.360   111469653.19009  21211957.740    86859485.24248
  22431501.640   117878362.50209  22431498.640    91853271.12246
  24003557.080   126139544.57908  24003555.160    98290548.41546
  22578844.400   118652634.53609  22578842.160    92456599.69547
  24274398.920   127562930.63008  24274396.620    99399698.21944
  20682945.620   108689645.32509  20682940.900    84693237.82149
  21420857.460   112567517.08009  21420852.440    87714998.72248
  20529362.940   107882576.85109  20529362.520    84064373.10649
  21823335.620   114682428.94809  21823334.280    89362944.29947
 15 02 16 03 57 30.0000000  0 10G01G04G11G14G16G18G19G22G27G32
  23363902.080   122778150.80208  23363904.720    95671291.83246
  21203447.620   111424924.29609  21203446.100    86824631.57548
  22417732.760   117806006.99608  22417729.840    91796890.22546
  23991793.060   126077724.30508  23991791.200    98242376.79145
  22597288.620   118749559.27409  22597286.320    92532125.46747
  24291266.600   127651570.71307  24291264.300    99468768.36345
  20677829.580   108662760.15909  20677824.820    84672288.34549
  21430901.300   112620298.20209  21430896.340    87756126.86748
  20532812.200   107900703.26109  20532811.920    84078497.57449
  21805334.720   114587834.00309  21805333.400    89289233.97947
 15 02 16 03 58  0.0000000  0 10G01G04G11G14G16G18G19G22G27G32
  23350796.380   122709279.94708  23350798.960    95617626.26847
  21194984.460   111380450.81809  21194983.080    86789976.94648
  22403990.780   117733792.41208  22403987.840    91740619.14746
  23980069.780   126016118.18908  23980067.820    98194372.03244
  22615779.300   118846728.03809  22615776.880    92607841.39647
  24308161.460   127740353.42307  24308159.360    99537949.65544
  20672771.220   108636178.37409  20672766.500    84651575.27449
  21441023.140   112673488.96409  21441018.200    87797574.22248
  20536334.100   107919211.18609  20536333.880    84092919.33049
  21787402.680   114493601.17009  21787401.460    89215805.83647
 15 02 16 03 58 30.0000000  0 10G01G04G11G14G16G18G19G22G27G32
  23337720.120   122640563.85508  23337722.800    95564081.28647
  21186569.800   111336231.51009  21186568.380    86755520.36348
  22390275.400   117661717.99008  22390272.580    91684457.28646
  23968387.540   125954727.89308  23968385.460    98146535.44145
  22634315.600   118944136.62109  22634313.100    92683744.19247
  24325082.840   127829275.43108  24325080.760    99607239.50644
  20667770.620   108609900.16409  20667765.900    84631098.75249
  21451222.320   112727086.25609  21451217.380    87839338.34648
  20539928.560   107938100.07209  20539928.320    84107637.93449
  21769539.780   114399731.69309  21769538.680    89142660.81148
 15 02 16 03 59  0.0000000  0 10G01G04G11G14G16G18G19G22G27G32
  23324673.480   122572003.11208  23324676.120    95510657.37147
  21178203.540   111292266.76109  21178202.120    86721262.14348
  22376586.940   117589785.00408  22376584.100    91628405.62346
  23956747.040   125893556.95408  23956744.980    98098869.79644
  22652897.180   119041783.17809  22652894.640    92759832.43247
  24342030.440   127918335.23407  24342028.420    99676636.69644
  20662828.260   108583927.79009  20662823.520    84610860.54249
  21461498.640   112781088.77709  21461493.640    87881418.24048
  20543595.780   107957371.31909  20543595.500    84122654.48949
  21751746.720   114306228.85209  21751745.640    89069801.48848
 15 02 16 03 59 30.0000000  0 10G01G04G11G14G16G18G19G22G27G32
  23311657.280   122503602.33808  23311659.780    95457358.09647
  21169886.640   111248561.19309  21169885.160    86687205.87748
  22362926.320   117517998.34008  22362923.520    91572467.98346
  23945149.620   125832612.81007  23945147.720    98051380.88145
  22671524.460   119139669.75709  22671521.900    92836107.68647
  24359004.780   128007535.69407  24359002.760    99746143.52144
  20657945.240   108558267.34909  20657940.500    84590865.39149
  21471852.600   112835498.93309  21471847.500    87923815.76748
  20547336.800   107977030.30209  20547336.420    84137973.16449
  21734024.840   114213099.74709  21734023.720    88997233.38048
 15 02 16 04 00  0.0000000  0 10G01G04G11G14G16G18G19G22G27G32
  23298670.360   122435355.86508  23298672.780    95404179.07547
  21161618.060   111205109.10509  21161616.520    86653347.12448
  22349292.600   117446352.98908  22349289.780    91516640.44946
  23933594.780   125771892.70708  23933593.040    98004066.57845
  22690195.600   119237787.11009  22690192.960    92912562.77547
  24376004.360   128096869.08207  24376002.420    99815753.92244
  20653120.700   108532914.32509  20653116.020    84571109.79749
  21482282.780   112890309.41309  21482277.600    87966525.23448
  20551150.680   107997072.13009  20551150.220    84153590.17549
  21716373.540   114120341.39209  21716372.280    88924954.16948
 15 02 16 04 00 30.0000000  0 10G01G04G11G14G16G18G19G22G27G32
  23285713.720   122367268.06608  23285716.020    95351123.68147
  21153398.440   111161914.53409  21153396.840    86619689.03948
  22335686.780   117374854.01908  22335683.940    91460926.97747
  23922084.100   125711404.08508  23922082.480    97956932.61845
  22708911.160   119336138.11809  22708908.500    92989199.93247
  24393029.700   128186337.83107  24393027.740    99885469.79244
  20648355.860   108507874.88509  20648351.160    84551598.55549
  21492789.640   112945522.65909  21492784.360    88009548.54948
  20555038.440   108017501.91509  20555037.900    84169509.48049
  21698794.140   114027960.71709  21698792.780    88852969.25048
 15 02 16 04 01  0.0000000  0 10G01G04G11G14G16G18G19G22G27G32
  23272786.000   122299332.09208  23272788.200    95298186.60447
  21145226.500   111118970.77309  21145224.880    86586226.39148
  22322107.580   117303495.24608  22322104.860    91405322.76947
  23910616.780   125651142.87208  23910615.160    97909975.85545
  22727669.280   119434712.94809  22727666.700    93066011.49047
  24410079.200   128275933.51407  24410077.200    99955284.56944
  20643649.640   108483143.49309  20643644.920    84532327.34649
  21503371.420   113001129.63709  21503365.980    88052878.66948
  20558998.800   108038313.55109  20558998.200    84185726.33749
  21681285.760   113935953.42009  21681284.320    88781275.27748
 15 02 16 04 01 30.0000000  0 10G01G04G11G14G16G18G19G22G27G32
  23259887.920   122231551.92208  23259890.060    95245370.92647
  21137103.060   111076281.80009  21137101.420    86552962.28248
  22308556.040   117232281.43609  22308553.360    91349831.50247
  23899194.120   125591116.07108  23899192.320    97863201.73245
  22746470.200   119533512.67809  22746467.600    93142998.30547
  24427153.220   128365657.73708  24427151.060   100025199.50944
  20639003.100   108458725.54509  20638998.300    84513300.37649
  21514028.460   113057132.47909  21514022.880    88096517.25648
  20563032.700   108059511.84109  20563032.080    84202244.47949
  21663849.660   113844326.05909  21663848.200    88709877.36248
 15 02 16 04 02  0.0000000  0 10G01G04G11G14G16G18G19G22G27G32
  23247019.780   122163929.06108  23247021.860    95192677.82547
  21129028.340   111033848.66609  21129026.640    86519897.52148
  22295032.500   117161214.58008  22295029.760    91294454.74847
  23887816.860   125531328.09508  23887815.120    97816613.72046
  22765313.720   119632536.07809  22765310.980    93220159.41247
  24444251.660   128455510.23107  24444249.420   100095214.38645
  20634416.720   108434624.04509  20634411.940    84494519.98649
  21524760.800   113113531.20709  21524755.140    88140464.32048
  20567140.560   108081098.98309  20567140.020    84219065.61649
  21646486.600   113753082.71509  21646485.140    88638778.68148
 15 02 16 04 02 30.0000000  0 10G01G04G11G14G16G18G19G22G27G32
  23234181.040   122096460.65908  23234183.020    95140105.08347
  21121001.760   110991668.86309  21121000.040    86487030.17348
  22281536.440   117090292.52708  22281533.840    91239190.83547
  23876485.120   125471779.21808  23876483.480    97770212.05346
  22784198.680   119731777.30709  22784195.900    93297490.24447
  24461373.640   128545486.25707  24461371.520   100165325.55744
  20629890.220   108410837.54509  20629885.500    84475985.06749
  21535567.420   113170320.82709  21535561.820    88184715.98148
  20571321.980   108103072.87709  20571321.500    84236188.13349
  21629196.540   113662223.05509  21629195.080    88567978.97548
 15 02 16 04 03  0.0000000  0 10G01G04G11G14G16G18G19G22G27G32
  23221371.940   122029148.12708  23221373.800    95087653.78147
  21113023.620   110949743.40209  21113021.840    86454360.99548
  22268068.340   117019517.14408  22268065.760    91184041.20946
  23865199.680   125412473.48908  23865197.980    97723999.80945
  22803124.980   119831235.55609  22803122.160    93374990.18147
  24478518.940   128635585.17007  24478516.820   100235532.44544
  20625424.160   108387368.81909  20625419.620    84457697.75549
  21546448.320   113227500.88109  21546442.840    88229271.86348
  20575577.420   108125435.66209  20575577.040    84253613.67449
  21611980.220   113571750.97909  21611978.740    88497481.27848
 15 02 16 04 03 30.0000000  0 10G01G04G11G14G16G18G19G22G27G32
  23208592.480   121961991.58208  23208594.280    95035324.03947
  21105093.940   110908072.52909  21105092.120    86421890.19748
  22254628.300   116948889.04209  22254625.620    91129006.32847
  23853961.000   125353414.05108  23853959.420    97677979.49645
  22822092.020   119930908.02209  22822089.140    93452657.04547
  24495687.220   128725805.09007  24495685.280   100305833.62844
  20621018.960   108364219.63909  20621014.460    84439659.44149
  21557403.140   113285069.46709  21557397.800    88274130.50348
  20579907.040   108148188.15209  20579906.760    84271342.87949
  21594838.180   113481669.16909  21594836.640    88427287.68548
 15 02 16 04 04  0.0000000  0 10G01G04G11G14G16G18G19G22G27G32
  23195842.740   121894991.51408  23195844.540    94983116.24347
  21097212.700   110866656.51209  21097210.940    86389618.00848
  22241216.480   116878409.40809  22241213.800    91074087.16947
  23842769.800   125294604.26608  23842768.200    97632153.71445
  22841099.380   120030792.39909  22841096.500    93530489.04147
  24512878.280   128816144.82007  24512876.380   100376228.19044
  20616674.980   108341392.16209  20616670.560    84421871.81449
  21568431.640   113343025.11109  21568426.440    88319290.75048
  20584311.080   108171331.57309  20584310.780    84289376.71549
  21577771.020   113391980.74109  21577769.440    88357400.63047
 15 02 16 04 04 30.0000000  0 10G01G04G11G14G16G18G19G22G27G32
  23183122.580   121828146.88008  23183124.320    94931029.54247
  21089379.740   110825494.29509  21089378.040    86357543.57048
  22227832.880   116808077.96209  22227830.140    91019283.45847
  23831626.460   125236045.93408  23831624.720    97586523.83745
  22860146.400   120130885.01209  22860143.440    93608483.29847
  24530091.540   128906601.09307  24530089.680   100446713.55744
  20612392.260   108318886.39009  20612387.820    84404334.85349
  21579533.220   113401364.88609  21579528.200    88364750.31248
  20588789.360   108194865.51909  20588789.140    84307714.85349
  21560779.040   113302687.03909  21560777.360    88287821.13648
 15 02 16 04 05  0.0000000  0 10G01G04G11G14G16G18G19G22G27G32
  23170431.700   121761455.85008  23170433.260    94879062.53447
  21081594.800   110784584.06409  21081593.040    86325665.49548
  22214477.320   116737893.89209  22214474.480    90964594.59046
  23820531.260   125177740.22008  23820529.380    97541090.81745
  22879232.160   120231181.13209  22879229.220    93686636.13747
  24547326.440   128997170.62607  24547324.460   100517287.16144
  20608170.800   108296702.20709  20608166.300    84387048.49049
  21590707.180   113460084.90509  21590702.300    88410506.17348
  20593341.780   108218788.91309  20593341.580    84326356.46049
  21543862.180   113213788.77509  21543860.600    88218549.79548
 15 02 16 04 05 30.0000000  0 10G01G04G11G14G16G18G19G22G27G32
  23157770.140   121694918.88008  23157771.600    94827215.57547
  21073857.820   110743925.96809  21073856.040    86293983.88648
  22201149.840   116667858.00909  22201147.080    90910021.21847
  23809484.880   125119690.72008  23809483.020    97495857.45145
  22898356.240   120331678.92409  22898353.320    93764946.10547
  24564582.640   129087851.64708  24564580.420   100587947.64644
  20604010.900   108274841.37009  20604006.260    84370014.08249
  21601953.260   113519183.80309  21601948.460    88456557.26748
  20597968.580   108243102.86909  20597968.380    84345302.41049
  21527021.120   113125288.89709  21527019.600    88149588.88748
 15 02 16 04 06  0.0000000  0 10G01G04G11G14G16G18G19G22G27G32
  23145138.500   121628539.07408  23145139.940    94775491.08247
  21066169.440   110703523.34509  21066167.680    86262501.34548
  22187851.360   116597974.10909  22187848.660    90855566.26147
  23798488.320   125061903.06608  23798486.420    97450828.11845
  22917518.800   120432378.79109  22917515.840    93843413.54847
  24581860.260   129178645.22007  24581857.900   100658695.84844
  20599913.400   108253308.50009  20599908.660    84353235.22849
  21613271.700   113578662.58909  21613266.860    88502904.37948
  20602670.480   108267811.19409  20602670.240    84364555.64549
  21510256.960   113037192.98009  21510255.440    88080942.73948
 15 02 16 04 06 30.0000000  0 10G01G04G11G14G16G18G19G22G27G32
  23132536.240   121562313.55908  23132537.660    94723886.82147
  21058529.020   110663372.86609  21058527.260    86231215.27048
  22174581.420   116528240.04009  22174578.680    90801228.04147
  23787541.500   125004377.29108  23787539.620    97406002.85545
  22936718.720   120533275.08809  22936715.820    93922034.05847
  24599158.460   129269547.01307  24599156.020   100729528.36644
  20595878.000   108232102.33509  20595873.220    84336710.95649
  21624661.560   113638516.67809  21624656.700    88549543.92748
  20607447.000   108292911.61409  20607446.740    84384114.41149
  21493569.600   112949500.57709  21493568.100    88012611.02348
 15 02 16 04 07  0.0000000  0 10G01G04G11G14G16G18G19G22G27G32
  23119963.340   121496242.58408  23119964.720    94672402.98347
  21050936.660   110623474.92709  21050934.860    86200125.98748
  22161340.080   116458656.67109  22161337.320    90747007.26847
  23776645.180   124947116.75608  23776643.300    97361384.26845
  22955955.480   120634365.20209  22955952.660    94000805.57347
  24616476.880   129360555.40407  24616474.360   100800444.00043
  20591905.020   108211224.40009  20591900.280    84320442.44149
  21636122.460   113698744.05609  21636117.580    88596474.35148
  20612298.260   108318405.07609  20612298.020    84403979.44649
  21476959.600   112862214.51609  21476958.080    87944595.93248
 15 02 16 04 07 30.0000000  0 10G01G04G11G14G16G18G19G22G27G32
  23107419.700   121430325.49208  23107421.060    94621039.05347
  21043392.220   110583828.86609  21043390.400    86169232.96948
  22148127.520   116389223.96809  22148124.780    90692903.87947
  23765799.800   124890123.84708  23765797.980    97316974.22645
  22975228.520   120735645.72909  22975225.760    94079725.48247
  24633815.120   129451667.92307  24633812.380   100871440.71344
  20587994.620   108190675.31109  20587989.980    84304430.17249
  21647653.980   113759342.39309  21647649.100    88643693.83848
  20617224.320   108344291.59609  20617224.060    84424150.76149
  21460427.320   112775336.54909  21460425.700    87876898.83348
 15 02 16 04 08  0.0000000  0 10G01G04G11G14G16G18G19G22G27G32
  23094905.580   121364563.61008  23094906.940    94569796.06747
  21035895.920   110544435.79309  21035894.140    86138537.09748
  22134944.000   116319943.99209  22134941.320    90638919.52447
  23755006.020   124833402.33408  23755004.160    97272775.67546
  22994537.560   120837115.50309  22994534.820    94158792.85347
  24651172.960   129542883.72007  24651170.100   100942517.95544
  20584147.400   108170458.30409  20584142.800    84288676.66649
  21659255.980   113820310.86509  21659251.040    88691201.74148
  20622225.520   108370573.09509  20622225.280    84444629.85949
  21443973.380   112688870.40609  21443971.740    87809522.65248
 15 02 16 04 08 30.0000000  0 10G01G04G11G14G16G18G19G22G27G32
  23082421.060   121298957.54308  23082422.460    94518674.50147
  21028447.900   110505296.35209  21028446.180    86108038.84548
  22121789.820   116250818.21309  22121787.060    90585055.30547
  23744264.500   124776955.87708  23744262.720    97228791.45845
  23013882.200   120938772.41208  23013879.460    94238006.03347
  24668550.160   129634201.69607  24668547.360   101013674.78943
  20580363.680   108150575.25209  20580359.180    84273183.38949
  21670928.160   113881648.08509  21670923.120    88738996.97648
  20627302.120   108397250.80309  20627301.820    84465417.68649
  21427598.340   112602819.16809  21427596.760    87742469.76848
 15 02 16 04 09  0.0000000  0 10G01G04G11G14G16G18G19G22G27G32
  23069965.940   121233505.31408  23069967.180    94467672.80146
  21021047.700   110466408.37009  21021046.000    86077736.54648
  22108664.900   116181845.42009  22108661.820    90531310.28847
  23733575.500   124720785.52808  23733573.820    97185022.39645
  23033261.500   121040611.60709  23033258.760    94317361.26446
  24685946.060   129725618.07507  24685943.220   101084908.33543
  20576643.420   108131025.59009  20576639.020    84257949.89949
  21682669.740   113943350.17109  21682664.640    88787076.53148
  20632453.840   108424323.41109  20632453.520    84486513.23249
  21411302.360   112517183.25209  21411300.720    87675740.50548
 15 02 16 04 09 30.0000000  0 10G01G04G11G14G16G18G19G22G27G32
  23057539.960   121168206.31708  23057541.080    94416790.48847
  21013695.280   110427771.29709  21013693.560    86047629.74248
  22095568.900   116113025.42109  22095565.820    90477684.34347
  23722939.520   124664893.32608  23722937.820    97141470.04345
  23052674.880   121142629.99909  23052672.140    94396856.12747
  24703360.160   129817130.26907  24703357.480   101156216.51843
  20572986.860   108111810.29309  20572982.460    84242976.95049
  21694480.220   114005414.65409  21694475.100    88835438.46448
  20637680.740   108451790.83709  20637680.340    84507916.42249
  21395085.780   112431964.46009  21395084.100    87609336.27448
 15 02 16 04 10  0.0000000  0 10G01G04G11G14G16G18G19G22G27G32
  23045143.300   121103062.17808  23045144.560    94366028.86647
  21006390.900   110389386.70209  21006389.160    86017719.68948
  22082502.360   116044360.47109  22082499.320    90424179.21647
  23712357.420   124609284.02308  23712355.440    97098138.11445
  23072122.140   121244826.15309  23072119.380    94476489.50046
  24720792.460   129908738.35107  24720789.780   101227599.42144
  20569394.540   108092932.39209  20569390.100    84228266.90649
  21706359.540   114067840.92909  21706354.440    88884082.31648
  20642983.220   108479655.39009  20642982.740    84529629.06049
  21378949.340   112347166.83009  21378947.600    87543260.21948
 15 02 16 04 10 30.0000000  0 10G01G04G11G14G16G18G19G22G27G32
  23032776.060   121038072.50808  23032777.540    94315387.61447
  20999134.560   110351254.12309  20999132.740    85988006.01148
  22069465.460   115975851.10109  22069462.240    90370795.30647
  23701829.640   124553959.93408  23701827.540    97055028.45145
  23091602.660   121347197.50208  23091599.900    94556259.39146
  24738242.620   130000439.88407  24738240.100   101299055.13644
  20565866.640   108074393.01609  20565862.160    84213820.64749
  21718307.240   114130626.68909  21718302.120    88933006.28648
  20648361.280   108507917.24909  20648360.800    84551651.29249
  21362893.420   112262792.35109  21362891.660    87477513.90148
 15 02 16 04 11  0.0000000  0 10G01G04G11G14G16G18G19G22G27G32
  23020437.800   120973234.60908  23020439.340    94264864.62347
  20991925.620   110313370.53009  20991923.700    85958486.33748
  22056457.640   115907495.41609  22056454.540    90317531.17047
  23691356.120   124498921.17308  23691354.060    97012141.13445
  23111115.500   121449738.38109  23111112.760    94636161.38546
  24755709.720   130092230.15907  24755707.400   101370580.01144
  20562402.900   108056190.80309  20562398.400    84199637.10649
  21730322.400   114193767.08109  21730317.340    88982206.59148
  20653814.480   108536574.26309  20653814.060    84573981.43149
  21346917.980   112178840.75709  21346916.240    87412097.09948
 15 02 16 04 11 30.0000000  0 10G01G04G11G14G16G18G19G22G27G32
  23008128.760   120908550.07008  23008130.140    94214461.11547
  20984764.340   110275737.81609  20984762.380    85929162.16448
  22043479.620   115839295.74109  22043476.680    90264388.59147
  23680937.760   124444172.18308  23680935.760    96969479.60145
  23130660.380   121552447.27709  23130657.560    94716194.31546
  24773193.800   130184109.37507  24773191.400   101442174.18744
  20559003.820   108038328.55909  20558999.360    84185718.48349
  21742405.060   114257261.91909  21742399.980    89031683.08848
  20659343.260   108565628.61909  20659342.920    84596621.19549
  21331023.740   112095315.93909  21331021.960    87347012.84148
 15 02 16 04 12  0.0000000  0 10G01G04G11G14G16G18G19G22G27G32
  22995848.880   120844019.26208  22995850.180    94164177.40547
  20977650.820   110238356.10809  20977648.780    85900033.57748
  22030531.560   115771252.90409  22030528.440    90211368.20447
  23670575.120   124389716.01608  23670573.060    96927046.24745
  23150236.900   121655322.61309  23150234.060    94796356.92546
  24790694.600   130276075.92507  24790692.260   101513836.42743
  20555669.860   108020808.47309  20555665.360    84172066.48249
  21754554.940   114321109.78609  21754549.820    89081434.67048
  20664947.820   108595081.20309  20664947.540    84619571.25949
  21315211.220   112012220.65909  21315209.420    87282263.30148
 15 02 16 04 12 30.0000000  0 10G01G04G11G14G16G18G19G22G27G32
  22983598.260   120779642.27108  22983599.540    94114013.55547
  20970585.060   110201225.46409  20970583.020    85871100.63548
  22017613.480   115703368.03209  22017610.240    90158470.92947
  23660268.720   124335555.96208  23660266.760    96884843.64245
  23169844.580   121758361.59309  23169841.700    94876647.05846
  24808211.780   130368128.19207  24808209.380   101585565.46544
  20552401.360   108003632.16109  20552396.780    84158682.35749
  21766771.560   114385308.41809  21766766.400    89131459.58748
  20670628.320   108624932.71909  20670628.100    84642832.17849
  21299480.900   111929557.34009  21299479.140    87217850.35748
 15 02 16 04 13  0.0000000  0 10G01G04G11G14G16G18G19G22G27G32
  22971377.000   120715419.02708  22971378.280    94063969.50147
  20963567.040   110164345.72809  20963565.040    85842363.19448
  22004725.600   115635641.81309  22004722.460    90105697.27447
  23650019.180   124281694.55508  23650017.320    96842873.74946
  23189482.920   121861561.32509  23189480.040    94957062.45446
  24825744.800   130460264.06407  24825742.240   101657359.64544
  20549198.480   107986800.78209  20549193.860    84145567.00549
  21779054.520   114449855.83509  21779049.380    89181756.27348
  20676384.920   108655183.58509  20676384.620    84666404.28249
  21283833.180   111847328.13509  21283831.400    87153775.67648
 15 02 16 04 13 30.0000000  0 10G01G04G11G14G16G18G19G22G27G32
  22959184.900   120651349.27708  22959186.200    94014045.06647
  20956596.740   110127716.59909  20956594.760    85813821.03648
  21991867.940   115568074.63509  21991864.940    90053047.55947
  23639827.020   124228134.66308  23639825.220    96801138.79646
  23209151.240   121964918.61109  23209148.280    95037600.61346
  24843293.280   130552481.72007  24843290.600   101729217.57344
  20546061.420   107970315.56209  20546056.820    84132721.38749
  21791403.380   114514749.69709  21791398.300    89232322.91948
  20682217.580   108685834.13409  20682217.240    84690287.82649
  21268268.500   111765535.27609  21268266.700    87090041.00548
 15 02 16 04 14  0.0000000  0 10G01G04G11G14G16G18G19G22G27G32
  22947021.500   120587430.52508  22947022.800    93964238.28447
  20949673.640   110091335.62609  20949671.700    85785472.23648
  21979040.180   115500664.98709  21979037.260    90000520.57947
  23629692.320   124174876.35008  23629690.480    96759638.84046
  23228848.640   122068428.90209  23228845.640    95118257.99746
  24860856.420   130644776.77507  24860853.540   101801135.75344
  20542989.940   107954175.29909  20542985.460    84120144.57149
  21803817.320   114579985.73909  21803812.320    89283156.19948
  20688125.960   108716882.37109  20688125.500    84714481.25549
  21252786.820   111684178.42309  21252784.960    87026646.07348
 15 02 16 04 14 30.0000000  0 10G01G04G11G14G16G18G19G22G27G32
  22934887.640   120523666.56608  22934888.820    93914552.10647
  20942798.460   110055206.52409  20942796.580    85757319.69948
  21966243.180   115433417.06509  21966240.360    89948119.63047
  23619616.300   124121926.24508  23619614.280    96718379.04045
  23248575.300   122172093.05809  23248572.320    95199035.26546
  24878434.620   130737151.26806  24878431.880   101873115.90544
  20539985.120   107938385.20509  20539980.700    84107840.61249
  21816296.580   114645565.31309  21816291.660    89334257.16148
  20694110.780   108748332.52009  20694110.280    84738987.87449
  21237389.320   111603263.77509  21237387.380    86963595.72048
 15 02 16 04 15  0.0000000  0 10G01G04G11G14G16G18G19G22G27G32
  22922782.980   120460055.97208  22922784.040    93864985.45147
  20935970.860   110019327.54109  20935969.080    85729362.07548
  21953476.900   115366330.23109  21953474.120    89895844.20447
  23609599.160   124069285.57708  23609597.040    96677360.36146
  23268330.400   122275906.60209  23268327.380    95279928.96046
  24896027.320   130829602.21407  24896025.180   101945155.58943
  20537047.020   107922945.32209  20537042.600    84095809.54549
  21828840.600   114711485.25109  21828835.780    89385623.35548
  20700171.900   108780183.70309  20700171.340    84763806.98549
  21222076.000   111522792.10309  21222074.180    86900890.55448
 15 02 16 04 15 30.0000000  0 10G01G04G11G14G16G18G19G22G27G32
  22910707.180   120396597.47808  22910708.260    93815537.32047
  20929190.720   109983697.72509  20929188.920    85701598.59248
  21940741.320   115299404.46709  21940738.500    89843694.27847
  23599641.260   124016956.23108  23599639.120    96636584.26945
  23288113.080   122379865.37609  23288110.080    95360935.80446
  24913633.960   130922126.50906  24913632.020   102017252.45144
  20534175.680   107907856.10509  20534171.200    84084051.72449
  21841448.820   114777742.38809  21841444.140    89437252.28948
  20706309.180   108812435.16709  20706308.560    84788937.99649
  21206847.220   111442764.52909  21206845.420    86838531.41648
 15 02 16 04 16  0.0000000  0 10G01G04G11G14G16G18G19G22G27G32
  22898660.540   120333292.01308  22898661.560    93766208.41347
  20922458.100   109948317.64709  20922456.340    85674029.71648
  21928036.600   115232640.79209  21928033.800    89791670.65947
  23589743.180   123964941.58308  23589741.080    96596053.40346
  23307923.180   122483968.51208  23307920.220    95442055.14646
  24931254.340   131014723.18207  24931252.640   102089405.69843
  20531371.460   107893119.69309  20531366.940    84072568.81349
  21854121.020   114844335.45909  21854116.460    89489142.98748
  20712522.840   108845088.26509  20712522.220    84814381.96849
  21191703.500   111363184.08509  21191701.820    86776520.70548
 15 02 16 04 16 30.0000000  0  9G01G04G11G14G16G19G22G27G32
  22886642.200   120270134.87308  22886643.060    93716995.08647
  20915772.080   109913182.63509  20915770.420    85646651.79348
  21915362.120   115166035.97109  21915359.360    89739770.81547
  23579904.560   123913239.69808  23579902.520    96555766.24146
  23327759.320   122588208.44409  23327756.440    95523281.08247
  20528633.760   107878732.92209  20528629.180    84061358.35049
  21866855.940   114911257.72309  21866851.380    89541290.20648
  20718812.060   108878138.78109  20718811.540    84840135.61749
  21176644.460   111284048.31609  21176642.800    86714856.48848
 15 02 16 04 17  0.0000000  0 10G01G03G04G11G14G16G19G22G27G32
  22874653.200   120207132.04808  22874653.980    93667902.02547
  24634999.120   129457794.47006  24635000.560   100876206.26146
  20909133.860   109878298.75809  20909132.260    85619469.57448
  21902719.140   115099596.72509  21902716.400    89688000.01447
  23570127.140   123861859.39008  23570125.000    96515729.66845
  23347622.060   122692588.09908  23347619.240    95604615.88446
  20525963.980   107864703.02509  20525959.340    84050425.98249
  21879654.240   114978513.14109  21879649.700    89593697.03548
  20725178.160   108911593.14809  20725177.720    84866203.96449
  21161671.640   111205365.39009  21161669.900    86653545.14448
 15 02 16 04 17 30.0000000  0 10G01G03G04G11G14G16G19G22G27G32
  22862695.420   120144293.41708  22862696.200    93618936.88847
  24614431.980   129349713.77406  24614433.700   100791987.61546
  20902545.280   109843675.70509  20902543.620    85592490.58248
  21890109.720   115033333.45609  21890106.880    89636366.31847
  23560413.320   123810813.47108  23560411.180    96475953.64945
  23367512.660   122797114.38308  23367509.820    95686064.94346
  20523364.240   107851041.32609  20523359.560    84039780.49849
  21892517.440   115046109.60609  21892512.880    89646369.59748
  20731623.060   108945461.67809  20731622.680    84892595.02249
  21146787.240   111127147.52409  21146785.500    86592596.16948
 15 02 16 04 18  0.0000000  0 10G01G03G04G11G14G16G19G22G27G32
  22850764.040   120081593.44208  22850764.740    93570079.79747
  24593882.140   129241723.69107  24593883.780   100707839.59347
  20896001.520   109809287.88009  20895999.800    85565694.89048
  21877529.100   114967221.57509  21877526.140    89584850.59747
  23550758.760   123760078.95408  23550756.800    96436420.27846
  23387425.980   122901759.98508  23387423.100    95767606.98946
  20520829.960   107837723.63609  20520825.300    84029403.08849
  21905440.320   115114019.73809  21905435.760    89699286.59148
  20738142.000   108979719.26509  20738141.680    84919289.24849
  21131986.840   111049371.27809  21131985.160    86531991.32148
 15 02 16 04 18 30.0000000  0 10G01G03G04G11G14G16G19G22G27G32
  22838861.400   120019044.82008  22838862.040    93521340.64247
  24573352.560   129133839.12407  24573354.140   100623773.75047
  20889504.920   109775148.08709  20889503.160    85539092.47548
  21864979.740   114901274.38509  21864976.800    89533463.21647
  23541166.480   123709671.55308  23541164.640    96397141.81046
  23407363.900   123006534.62808  23407360.940    95849249.59646
  20518363.880   107824764.35909  20518359.240    84019304.95649
  21918424.860   115182253.94309  21918420.320    89752456.10448
  20744737.460   109014378.99109  20744737.260    84946296.82649
  21117273.360   110972051.60009  21117271.740    86471742.24848
 15 02 16 04 19  0.0000000  0 10G01G03G04G11G14G16G19G22G27G32
  22826987.500   119956647.43208  22826988.160    93472719.34247
  24552843.500   129026062.03608  24552844.920   100539791.65847
  20883055.440   109741256.15109  20883053.740    85512683.19348
  21852461.960   114835492.75809  21852458.960    89482204.84147
  23531637.020   123659593.67908  23531635.140    96358120.12146
  23427325.760   123111435.33608  23427322.940    95930990.41446
  20515966.160   107812164.44209  20515961.540    84009486.84049
  21931470.720   115250810.09009  21931466.100    89805876.48048
  20751409.520   109049441.18909  20751409.400    84973618.01749
  21102647.140   110895190.46909  21102645.560    86411850.47548
 15 02 16 04 19 30.0000000  0 10G01G03G04G11G14G16G19G22G27G32
  22815142.660   119894402.86408  22815143.340    93424217.11647
  24532355.420   128918396.11508  24532356.720   100455896.20947
  20876653.460   109707613.48009  20876651.760    85486468.14348
  21839976.040   114769878.77909  21839972.980    89431077.10047
  23522171.120   123609849.64008  23522169.100    96319358.53246
  23447311.420   123216460.79608  23447308.580    96012828.44346
  20513637.420   107799926.89109  20513632.840    83999951.09349
  21944577.760   115319687.71409  21944573.060    89859547.35848
  20758158.560   109084907.82809  20758158.440    85001254.36249
  21088108.900   110818791.56509  21088107.340    86352318.88248
