     2.11           OBSERVATION DATA    G                   RINEX VERSION / TYPE
SPIDER V4,0,0,3554                      2015 03 12 00:00    PGM / RUN BY / DATE 
EECH                                                        MARKER NAME         
EECH                                                        MARKER NUMBER       
                                                            OBSERVER / AGENCY   
462240              LEICA GRX1200PRO    8.20/2.127          REC # / TYPE / VERS 
103299              LEIAT504                                ANT # / TYPE        
  5154282.7593   121017.3605  3742656.9418                  APPROX POSITION XYZ 
        0.0590        0.0000        0.0000                  ANTENNA: DELTA H/E/N
     1     1                                                WAVELENGTH FACT L1/2
     4    C1    L1    P2    L2                              # / TYPES OF OBSERV 
    30.000                                                  INTERVAL            
  2015    02    16    07    04    0.0000000     GPS         TIME OF FIRST OBS   
  2015    02    16    12    49   30.0000000     GPS         TIME OF LAST OBS    
    16                                                      LEAP SECONDS        
    19                                                      # OF SATELLITES     
   G 1   366   366   366   366                              PRN / # OF OBS      
   G 2   362   362   362   362                              PRN / # OF OBS      
   G 3   469   469   469   469                              PRN / # OF OBS      
   G 4   227   227   227   227                              PRN / # OF OBS      
   G 5   189   189   189   189                              PRN / # OF OBS      
   G 6   574   574   574   574                              PRN / # OF OBS      
   G 7   450   450   449   449                              PRN / # OF OBS      
   G 9   680   680   680   680                              PRN / # OF OBS      
   G10   513   513   513   513                              PRN / # OF OBS      
   G11   266   266   266   266                              PRN / # OF OBS      
   G13   117   117   117   117                              PRN / # OF OBS      
   G17   427   427   427   427                              PRN / # OF OBS      
   G19    53    53    53    53                              PRN / # OF OBS      
   G20   661   661   661   661                              PRN / # OF OBS      
   G23   573   573   573   573                              PRN / # OF OBS      
   G28    93    93    93    93                              PRN / # OF OBS      
   G30   337   337   337   337                              PRN / # OF OBS      
   G31    62    62    61    61                              PRN / # OF OBS      
   G32   242   242   242   242                              PRN / # OF OBS      
BIT 2 OF LLI FLAGS DATA COLLECTED UNDER A/S CONDITION       COMMENT             
SNR is mapped to RINEX snr flag value [2-9]                 COMMENT             
Lx:     = 25dBHz -> 1; 26-27dBHz -> 2; 28-31dBHz -> 3       COMMENT             
       32-35dBHz -> 4; 36-38dBHz -> 5; 39-41dBHz -> 6       COMMENT             
       42-44dBHz -> 7; 45-48dBHz -> 8; >=49dBHz -> 9        COMMENT             
                                                            END OF HEADER       
 15 02 16 07 04  0.0000000  0  9G01G03G04G11G17G19G23G28G32
  20463476.720   107536289.58909  20463480.400    83794524.37349
  20485213.820   107650520.49709  20485216.840    83883535.64049
  21301084.980   111937949.56609  21301086.860    87224378.89648
  20549779.220   107989810.55909  20549779.520    84147902.65749
  23195957.300   121895575.98208  23195957.880    94983567.41447
  24059546.340   126433748.84607  24059545.880    98519796.97046
  22588951.400   118705733.40608  22588949.940    92497971.79147
  24088514.360   126585990.52606  24088516.920    98638430.59344
  21358149.320   112237825.24909  21358150.620    87458047.41348
 15 02 16 07 04 30.0000000  0  9G01G03G04G11G17G19G23G28G32
  20463394.360   107535856.59009  20463397.980    83794186.93649
  20482866.620   107638185.71709  20482869.580    83873924.10149
  21311260.100   111991419.82009  21311261.900    87266043.98448
  20558225.880   108034198.30909  20558226.220    84182490.46549
  23180059.500   121812032.71608  23180060.040    94918468.73847
  24080050.900   126541501.53007  24080050.820    98603759.96746
  22571444.780   118613735.47608  22571443.520    92426285.09147
  24097253.320   126631919.27806  24097254.900    98674224.63744
  21371020.720   112305464.74709  21371022.040    87510753.46248
 15 02 16 07 05  0.0000000  0  9G01G03G04G11G17G19G23G28G32
  20463369.040   107535723.40909  20463372.640    83794083.12649
  20480580.160   107626170.29709  20480583.140    83864561.41749
  21321488.860   112045172.01209  21321490.560    87307928.76448
  20566753.700   108079012.20009  20566754.060    84217410.33349
  23164222.540   121728809.33908  23164223.040    94853619.31947
  24100576.740   126649366.26407  24100577.200    98687810.31546
  22553984.560   118521981.57408  22553983.640    92354788.53347
  24106051.040   126678151.07806  24106051.240    98710249.34044
  21383929.160   112373298.94409  21383930.500    87563611.22348
 15 02 16 07 05 30.0000000  0  9G01G03G04G11G17G19G23G28G32
  20463401.760   107535895.12209  20463405.360    83794216.88449
  20478355.140   107614477.66709  20478358.160    83855450.25749
  21331772.000   112099210.08809  21331773.640    87350036.31048
  20575363.380   108124256.13809  20575363.780    84252665.31049
  23148447.960   121645913.29608  23148448.340    94789024.97747
  24121124.280   126757345.12807  24121125.080    98771949.52145
  22536571.980   118430478.20808  22536571.480    92283487.20347
  24114907.560   126724689.52506  24114907.600    98746512.98544
  21396875.040   112441330.28609  21396876.440    87616622.60748
 15 02 16 07 06  0.0000000  0  9G01G03G04G11G17G19G23G28G32
  20463492.220   107536370.15909  20463495.740    83794587.00849
  20476190.920   107603104.56109  20476194.000    83846588.08049
  21342109.100   112153531.75509  21342110.680    87392364.83148
  20584054.300   108169927.18609  20584054.780    84288253.08749
  23132735.740   121563344.17908  23132735.840    94724685.37347
  24141692.680   126865433.25107  24141693.720    98856173.92546
  22519207.060   118339225.21608  22519206.960    92212380.97847
  24123821.540   126771529.41406  24123822.240    98783011.49144
  21409857.620   112509554.31209  21409859.060    87669784.13348
 15 02 16 07 06 30.0000000  0  9G01G03G04G11G17G19G23G28G32
  20463641.040   107537152.19809  20463644.580    83795196.35449
  20474087.880   107592052.91209  20474091.020    83837976.38749
  21352500.640   112208139.57409  21352502.240    87434916.33148
  20592826.920   108216027.66509  20592827.480    84324175.49549
  23117086.780   121481107.85308  23117086.800    94660605.09446
  24162282.220   126973631.43307  24162283.380    98940484.07446
  22501890.700   118248227.58508  22501890.980    92141473.73347
  24132792.660   126818671.26506  24132793.500    98819745.35244
  21422877.080   112577971.85509  21422878.500    87723096.44948
 15 02 16 07 07  0.0000000  0  9G01G03G04G11G17G19G23G28G32
  20463848.720   107538243.32409  20463852.240    83796046.54749
  20472046.100   107581323.16209  20472049.300    83829615.51449
  21362946.840   112263034.48209  21362948.460    87477691.53648
  20601681.400   108262558.28709  20601682.000    84360433.07849
  23101501.820   121399207.78908  23101501.780    94596786.81847
  24182892.580   127081938.50507  24182893.800    99024879.07246
  22484623.640   118157489.01908  22484624.220    92070768.36347
  24141820.560   126866113.67306  24141821.160    98856713.39944
  21435933.320   112646582.39409  21435934.640    87776559.14948
 15 02 16 07 07 30.0000000  0  9G01G03G04G11G17G19G23G28G32
  20464115.060   107539642.69609  20464118.600    83797136.93049
  20470065.100   107570912.81809  20470068.280    83821503.53649
  21373447.400   112318214.82909  21373449.000    87520689.15948
  20610617.360   108309516.92709  20610617.900    84397024.18049
  23085980.900   121317644.94308  23085981.000    94533231.32346
  24203522.880   127190350.34707  24203524.080    99109355.67846
  22467405.960   118067009.83108  22467406.640    92000265.09547
  24150904.740   126913852.39906  24150905.280    98893912.35344
  21449025.600   112715382.23309  21449026.840    87830169.35848
 15 02 16 07 08  0.0000000  0  9G01G03G04G11G17G19G23G28G32
  20464439.940   107541349.72609  20464443.540    83798467.04449
  20468144.440   107560819.50609  20468147.580    83813638.58849
  21384001.920   112373678.75409  21384003.520    87563907.75648
  20619634.460   108356901.76809  20619634.980    84433947.39249
  23070524.280   121236420.18808  23070524.540    94469939.27946
  24224172.400   127298863.37906  24224173.580    99193911.14245
  22450237.900   117976791.36908  22450238.480    91929964.99747
  24160044.720   126961883.31806  24160044.820    98931338.98944
  21462153.240   112784367.96109  21462154.440    87883924.42148
 15 02 16 07 08 30.0000000  0  9G01G03G04G11G17G19G23G28G32
  20464824.320   107543369.50609  20464827.920    83800040.86949
  20466284.760   107551046.72209  20466287.840    83806023.41149
  21394611.140   112429430.38509  21394612.820    87607350.53048
  20628733.360   108404716.35009  20628733.840    84471205.46449
  23055133.360   121155540.64908  23055133.680    94406916.23347
  24244841.300   127407479.68906  24244842.860    99278547.11746
  22433120.580   117886839.64708  22433120.940    91859872.74047
  24169240.680   127010208.17806  24169240.860    98968994.63244
  21475316.780   112853542.05309  21475317.920    87937826.26448
 15 02 16 07 09  0.0000000  0  9G01G03G04G11G17G19G23G28G32
  20465267.380   107545698.05709  20465271.040    83801855.29149
  20464484.960   107541588.73509  20464488.000    83798653.52949
  21405274.120   112485464.67809  21405275.880    87651013.56348
  20637913.020   108452955.27709  20637913.420    84508794.18649
  23039807.640   121075003.62808  23039807.920    94344160.08247
  24265528.640   127516192.11907  24265530.380    99363257.95646
  22416053.640   117797152.31408  22416053.640    91789986.50447
  24178491.060   127058819.34506  24178491.380    99006873.40445
  21488514.860   112922897.64609  21488516.020    87991869.53648
 15 02 16 07 09 30.0000000  0  9G01G03G04G11G17G19G23G28G32
  20465769.560   107548337.42309  20465773.400    83803911.89849
  20462745.080   107532445.88309  20462748.200    83791529.20649
  21415991.080   112541782.83309  21415992.920    87694897.78848
  20647173.500   108501619.03909  20647173.860    84546713.95449
  23024547.840   120994812.74308  23024548.160    94281673.62147
  24286234.260   127624999.62506  24286235.940    99448042.88546
  22399037.640   117707732.67208  22399037.280    91720308.86847
  24187795.680   127107715.61306  24187796.600    99044974.29845
  21501747.240   112992434.18509  21501748.500    88046053.80348
 15 02 16 07 10  0.0000000  0 10G01G03G04G09G11G17G19G23G28G32
  20466331.820   107551292.27609  20466335.760    83806214.34549
  20461065.780   107523621.15909  20461068.980    83784652.77849
  21426762.800   112598388.25109  21426764.620    87739005.86548
  24712117.900   129863053.77705  24712122.080   101191997.35545
  20656515.540   108550711.14409  20656515.900    84584967.49749
  23009355.180   120914974.68208  23009355.620    94219462.10547
  24306958.100   127733903.45606  24306959.600    99532902.85944
  22382073.860   117618587.05508  22382073.180    91650844.74447
  24197154.880   127156898.24406  24197156.360    99083298.35744
  21515014.340   113062153.51809  21515015.680    88100380.51248
 15 02 16 07 10 30.0000000  0 10G01G03G04G09G11G17G19G23G28G32
  20466952.580   107554554.52609  20466956.600    83808756.32149
  20459445.200   107515104.79609  20459448.440    83778016.63049
  21437587.420   112655271.82909  21437589.240    87783330.66448
  24690524.160   129749576.90605  24690528.140   101103573.76644
  20665937.200   108600222.01309  20665937.580    84623547.35649
  22994228.420   120835483.01108  22994229.060    94157520.51347
  24327698.140   127842892.94706  24327699.440    99617829.57746
  22365160.980   117529708.68208  22365160.120    91581588.86147
  24206566.560   127206355.49306  24206567.640    99121836.39944
  21528314.180   113132044.92509  21528315.560    88154841.31148
 15 02 16 07 11  0.0000000  0 10G01G03G04G09G11G17G19G23G28G32
  20467633.920   107558135.04509  20467637.980    83811546.30149
  20457885.100   107506905.94809  20457888.280    83771627.89449
  21448466.920   112712443.53309  21448468.700    87827879.98848
  24668937.500   129636136.70805  24668941.340   101015178.74345
  20675440.260   108650160.75909  20675440.660    84662460.61649
  22979169.840   120756349.77308  22979170.720    94095858.22347
  24348455.900   127951975.41206  24348457.020    99702828.75446
  22348301.220   117441109.83208  22348300.420    91512550.79847
  24216031.820   127256094.87606  24216032.320    99160594.27444
  21541648.340   113202116.53009  21541649.740    88209442.51448
 15 02 16 07 11 30.0000000  0 10G01G03G04G09G11G17G19G23G28G32
  20468375.500   107562031.82209  20468379.460    83814582.71549
  20456384.620   107499020.88009  20456387.820    83765483.67149
  21459400.660   112769900.17309  21459402.360    87872651.34048
  24647357.480   129522732.69306  24647361.460   100926811.89645
  20685024.100   108700524.05009  20685024.480    84701704.69748
  22964179.600   120677575.36708  22964180.560    94034475.53847
  24369230.360   128061146.11206  24369231.560    99787896.67246
  22331494.520   117352789.90408  22331493.840    91443730.07547
  24225549.620   127306110.95306  24225550.100    99199567.71843
  21555015.920   113272363.66308  21555017.360    88264180.48548
 15 02 16 07 12  0.0000000  0 10G01G03G04G09G11G17G19G23G28G32
  20469177.280   107566244.77809  20469181.120    83817865.50649
  20454943.500   107491447.84109  20454946.700    83759582.57749
  21470388.360   112827640.83708  21470390.080    87917644.00448
  24625784.500   129409366.29906  24625788.620   100838474.37344
  20694688.480   108751310.61209  20694688.840    84741278.60549
  22949257.960   120599161.17308  22949258.840    93973373.53647
  24390020.800   128170401.53406  24390022.280    99873030.61445
  22314741.040   117264749.98308  22314740.540    91375127.54147
  24235119.260   127356400.04506  24235119.900    99238753.96644
  21568416.420   113342783.52909  21568417.820    88319053.05548
 15 02 16 07 12 30.0000000  0 10G01G03G04G09G11G17G19G23G28G32
  20470039.100   107570773.15309  20470042.840    83821394.07349
  20453561.300   107484184.35209  20453564.480    83753922.69949
  21481429.700   112885663.56709  21481431.440    87962856.46248
  24604218.740   129296038.27405  24604223.020   100750166.79544
  20704432.980   108802518.20809  20704433.380    84781180.58548
  22934404.980   120521107.62908  22934405.660    93912552.55447
  24410826.900   128279737.73706  24410828.600    99958227.49946
  22298040.940   117176991.07408  22298040.740    91306743.96847
  24244740.000   127406958.15305  24244740.780    99278149.78744
  21581849.180   113413372.71309  21581850.480    88374057.57348
 15 02 16 07 13  0.0000000  0 10G01G03G04G09G11G17G19G23G28G32
  20470961.220   107575618.57709  20470964.940    83825169.70549
  20452238.040   107477230.38409  20452241.180    83748504.00549
  21492524.900   112943969.09509  21492526.660    88008289.28548
  24582660.860   129182751.80705  24582665.440   100661891.55344
  20714257.660   108854147.13909  20714258.040    84821410.88448
  22919621.420   120443418.61208  22919621.820    93852015.63347
  24431648.380   128389153.41606  24431649.900   100043486.30246
  22281394.880   117089516.02708  22281394.900    91238581.57747
  24254411.420   127457783.03305  24254412.440    99317753.53444
  21595313.900   113484130.15809  21595315.160    88429193.20348
 15 02 16 07 13 30.0000000  0 10G01G03G04G09G11G17G19G23G28G32
  20471943.920   107580782.23509  20471947.580    83829193.30049
  20450973.600   107470585.35009  20450976.680    83743326.04249
  21503673.880   113002557.23609  21503675.680    88053942.32948
  24561111.500   129069509.60506  24561116.300   100573650.80744
  20724162.380   108906196.75009  20724162.840    84861968.97548
  22904907.720   120366096.63208  22904907.860    93791764.70547
  24452484.680   128498646.56006  24452485.800   100128805.45946
  22264803.360   117002327.42708  22264803.560    91170642.40047
  24264133.280   127508872.58206  24264134.400    99357563.48745
  21608810.300   113555054.46009  21608811.680    88484458.85048
 15 02 16 07 14  0.0000000  0 10G01G03G04G09G11G17G19G23G28G32
  20472987.600   107586266.35309  20472991.200    83833466.60449
  20449768.060   107464249.84509  20449771.140    83738389.27049
  21514876.860   113061429.25109  21514878.720    88099816.56548
  24539571.240   128956315.40806  24539576.320   100485447.49445
  20734147.320   108958668.01609  20734147.820    84902855.63348
  22890264.580   120289145.83408  22890264.700    93731803.02947
  24473335.560   128608216.61106  24473336.240   100214184.53345
  22248267.160   116915429.11208  22248267.400    91102929.42747
  24273905.680   127560225.37406  24273906.680    99397578.54644
  21622338.320   113626145.16809  21622339.920    88539854.16648
 15 02 16 07 14 30.0000000  0 10G01G03G04G09G11G17G19G23G28G32
  20474092.340   107592071.55109  20474095.900    83837990.09249
  20448621.120   107458222.76109  20448624.260    83733692.82249
  21526133.800   113120584.82809  21526135.700    88145911.75648
  24518040.540   128843171.36005  24518045.860   100397283.20844
  20744212.300   109011559.91709  20744212.820    84944070.06048
  22875692.420   120212568.36908  22875692.640    93672132.24147
  24494200.320   128717860.85106  24494201.040   100299621.45745
  22231786.600   116828822.76908  22231786.720    91035443.97447
  24283727.720   127611838.81905  24283728.860    99437796.72445
  21635897.740   113697400.34109  21635899.480    88595377.63448
 15 02 16 07 15  0.0000000  0 10G01G03G04G09G11G17G19G23G28G32
  20475257.880   107598196.61809  20475261.460    83842762.85149
  20447532.300   107452501.18609  20447535.520    83729234.44049
  21537444.400   113180021.72309  21537446.160    88192226.15448
  24496519.620   128730077.88605  24496525.080   100309158.38245
  20754356.840   109064869.71309  20754357.300    84985610.12248
  22861191.240   120136364.46408  22861191.660    93612752.55047
  24515078.340   128827575.22106  24515079.200   100385113.01146
  22215361.720   116742508.70408  22215361.560    90968186.26047
  24293598.180   127663707.91906  24293599.300    99478214.09244
  21649487.840   113768816.11509  21649489.580    88651026.24548
 15 02 16 07 15 30.0000000  0 10G01G03G04G09G11G17G19G23G28G32
  20476485.160   107604646.10209  20476488.780    83847788.38649
  20446502.220   107447087.95809  20446505.460    83725016.32049
  21548809.180   113239743.20909  21548810.800    88238762.32248
  24475009.480   128617041.00106  24475015.020   100221077.64845
  20764581.500   109118600.28609  20764581.900    85027478.05648
  22846762.240   120060540.45808  22846762.900    93553668.87747
  24535969.900   128937360.88606  24535970.980   100470660.10445
  22198993.540   116656492.71008  22198993.020    90901160.80847
  24303517.460   127715833.81906  24303518.060    99518831.51543
  21663108.840   113840394.36508  21663110.580    88706801.44948
 15 02 16 07 16  0.0000000  0 10G01G03G04G09G11G17G19G23G28G32
  20477773.760   107611417.80409  20477777.420    83853065.01049
  20445530.140   107441979.21209  20445533.300    83721035.46349
  21560227.440   113299746.12909  21560229.000    88285517.79748
  24453509.960   128504060.14506  24453515.500   100133040.59545
  20774885.580   109172748.19809  20774885.960    85069671.18948
  22832405.440   119985095.88508  22832406.320    93494880.87147
  24556874.060   129047212.68406  24556875.260   100556258.73246
  22182681.860   116570774.17708  22182681.120    90834367.14647
  24313484.500   127768210.87106  24313484.680    99559644.70144
  21676759.740   113912130.40508  21676761.560    88762699.60048
 15 02 16 07 16 30.0000000  0 10G01G03G04G09G11G17G19G23G28G32
  20479123.560   107618511.10909  20479127.260    83858592.23849
  20444615.500   107437172.62309  20444618.620    83717290.05249
  21571698.880   113360028.72408  21571700.380    88332491.18948
  24432021.460   128391140.12906  24432025.760   100045059.84244
  20785268.620   109227311.23909  20785268.980    85112187.80548
  22818121.020   119910031.65208  22818122.060    93436389.23847
  24577790.080   129157126.86606  24577791.480   100641905.96045
  22166426.860   116485353.79608  22166426.060    90767805.80247
  24323498.580   127820834.83306  24323498.540    99600650.29443
  21690440.080   113984021.01908  21690441.920    88818718.19748
 15 02 16 07 17  0.0000000  0 11G01G03G04G09G11G17G19G23G28G31G32
  20480536.200   107625934.72409  20480539.940    83864376.83749
  20443759.640   107432675.19509  20443762.740    83713785.54549
  21583225.000   113420598.73909  21583226.480    88379688.54348
  24410545.560   128278283.32406  24410550.200    99957119.45344
  20795731.980   109282296.52209  20795732.340    85155033.43848
  22803911.040   119835358.17108  22803912.060    93378202.07747
  24598719.080   129267109.26506  24598720.680   100727606.36046
  22150230.500   116400241.54908  22150229.780    90701484.56147
  24333560.880   127873711.15006  24333560.920    99641852.53343
  24485123.740   128670202.34006  24485128.980   100262517.10843
  21704151.060   114056072.29008  21704152.820    88874861.98348
 15 02 16 07 17 30.0000000  0 11G01G03G04G09G11G17G19G23G28G31G32
  20482013.220   107633696.66909  20482017.040    83870425.08349
  20442963.820   107428493.31209  20442966.880    83710526.92249
  21594807.120   113481463.05609  21594808.680    88427115.22548
  24389084.840   128165513.29806  24389089.340    99869246.91045
  20806276.960   109337710.76109  20806277.380    85198213.31548
  22789777.340   119761085.31808  22789778.240    93320327.08847
  24619661.980   129377164.64006  24619663.860   100813363.61746
  22134094.640   116315446.81708  22134094.080    90635410.74447
  24343671.960   127926843.73806  24343672.320    99683254.45045
  24478528.060   128635541.70505  24478533.540   100235508.91645
  21717893.680   114128289.83309  21717895.340    88931135.33648
 15 02 16 07 18  0.0000000  0 11G01G03G04G09G11G17G19G23G28G31G32
  20483548.020   107641761.74009  20483551.840    83876709.52149
  20442221.020   107424590.00009  20442224.100    83707485.36249
  21606438.320   113542585.27209  21606439.940    88474742.86048
  24367631.500   128052776.40706  24367636.080    99781399.98045
  20816896.500   109393516.68609  20816896.960    85241698.40848
  22775713.400   119687178.96208  22775714.280    93262737.69547
  24640611.640   129487254.76106  24640613.600   100899147.94546
  22118012.920   116230936.13009  22118012.440    90569558.25647
  24353824.360   127980194.41906  24353825.180    99724826.34944
  24472005.560   128601264.48606  24472010.820   100208799.43345
  21731660.720   114200635.71209  21731662.300    88987508.68348
 15 02 16 07 18 30.0000000  0 11G01G03G04G09G11G17G19G23G28G31G32
  20485145.640   107650156.77509  20485149.340    83883251.08049
  20441536.080   107420990.48509  20441539.200    83704680.52849
  21618123.580   113603991.48108  21618125.240    88522591.80347
  24346191.720   127940110.98706  24346196.480    99693608.76744
  20827595.520   109449739.93709  20827595.940    85285508.69348
  22761724.940   119613668.07308  22761725.640    93205456.45247
  24661572.260   129597403.42306  24661574.340   100984977.89146
  22101990.480   116146737.15409  22101990.060    90503948.67647
  24364022.600   128033786.28306  24364023.820    99766586.14944
  24465562.240   128567397.03306  24465565.640   100182403.81144
  21745456.820   114273134.40409  21745458.380    89044001.11548
 15 02 16 07 19  0.0000000  0 11G01G03G04G09G11G17G19G23G28G31G32
  20486805.020   107658876.62109  20486808.680    83890045.74549
  20440907.620   107417687.85009  20440910.860    83702107.03349
  21629861.580   113665675.13208  21629863.360    88570656.93448
  24324765.000   127827513.63105  24324770.060    99605870.56945
  20838372.680   109506373.67309  20838373.060    85329638.83848
  22747811.120   119540548.95008  22747811.640    93148480.47947
  24682542.360   129707602.52106  24682544.500   101070847.14445
  22086026.580   116062846.18009  22086026.220    90438579.09047
  24374265.000   128087610.55806  24374266.520    99808527.01544
  24459196.320   128533936.42506  24459199.060   100156324.98344
  21759280.500   114345778.08609  21759282.100    89100606.53248
 15 02 16 07 19 30.0000000  0 12G01G03G04G09G11G17G19G20G23G28G31G32
  20488525.820   107667919.67509  20488529.540    83897092.25049
  20440335.040   107414678.85409  20440338.360    83699762.34649
  21641651.900   113727633.57208  21641653.740    88618936.17247
  24303351.280   127714984.23506  24303356.380    99518185.34645
  20849227.320   109563414.55009  20849227.620    85374086.22348
  22733971.700   119467821.61808  22733972.260    93091809.78847
  24703521.320   129817847.33406  24703523.360   101156752.01346
  24524177.520   128875416.09205  24524175.860   100422390.60644
  22070121.160   115979262.95708  22070120.860    90373449.31047
  24384550.660   128141662.20206  24384552.380    99850645.09843
  24452906.320   128500886.09605  24452909.940   100130571.48244
  21773131.020   114418562.76609  21773132.660    89157321.80448
 15 02 16 07 20  0.0000000  0 12G01G03G04G09G11G17G19G20G23G28G31G32
  20490310.420   107677297.96909  20490314.240    83904399.98349
  20439820.280   107411973.84209  20439823.640    83697654.53249
  21653496.620   113789877.97708  21653498.580    88667438.25547
  24281953.060   127602536.42706  24281958.060    99430563.70245
  20860161.380   109620873.29709  20860161.700    85418859.23048
  22720209.320   119395499.66808  22720209.920    93035455.00047
  24724510.820   129928146.87606  24724512.860   101242699.51845
  24507877.800   128789758.74805  24507876.420   100355644.56344
  22054276.880   115896001.11908  22054276.600    90308569.96447
  24394881.240   128195949.82506  24394883.000    99892947.02744
  24446697.540   128468263.78906  24446699.060   100105148.08844
  21787010.180   114491497.96009  21787011.820    89214154.37548
 15 02 16 07 20 30.0000000  0 12G01G03G04G09G11G17G19G20G23G28G31G32
  20492159.560   107687015.10509  20492163.380    83911971.75049
  20439363.700   107409574.76609  20439367.080    83695785.10649
  21665396.220   113852410.73708  21665398.280    88716165.02948
  24260571.280   127490175.42106  24260576.320    99343009.69645
  20871175.280   109678751.78709  20871175.640    85463959.30548
  22706525.060   119323588.41808  22706525.640    92979420.23247
  24745510.820   130038501.85106  24745512.920   101328690.23045
  24491600.860   128704220.90205  24491600.280   100288991.61944
  22038494.640   115813065.38908  22038494.340    90243944.72747
  24405256.680   128250473.56905  24405258.620    99935432.99843
  24440568.740   128436060.60405  24440571.540   100080054.67245
  21800918.280   114564584.90408  21800919.820    89271105.19848
 15 02 16 07 21  0.0000000  0 11G01G03G04G09G11G17G19G20G23G28G32
  20494068.280   107697045.47009  20494072.120    83919787.59249
  20438960.160   107407454.26509  20438963.500    83694132.74749
  21677345.700   113915205.21809  21677347.780    88765095.73348
  24239201.460   127377877.23906  24239206.500    99255504.67045
  20882263.900   109737022.86509  20882264.320    85509365.29948
  22692914.420   119252063.98208  22692914.880    92923686.87547
  24766515.840   130148883.33306  24766518.080   101414701.56745
  24475341.300   128618776.44705  24475341.680   100222411.40044
  22022769.880   115730431.51508  22022769.500    90179554.70147
  24415671.660   128305204.04806  24415673.580    99978080.01044
  21814849.800   114637795.29708  21814851.320    89328152.20448
 15 02 16 07 21 30.0000000  0 11G01G03G04G09G11G17G19G20G23G28G32
  20496043.040   107707422.99009  20496046.920    83927873.93949
  20438615.860   107405644.66709  20438619.120    83692722.65449
  21689351.180   113978294.15208  21689353.320    88814255.87148
  24217850.540   127265677.30506  24217855.460    99168076.20145
  20893433.400   109795718.98409  20893433.900    85555102.48948
  22679384.100   119180961.99108  22679384.600    92868282.70847
  24787531.800   130259322.22506  24787534.140   101500757.63044
  24459105.300   128533458.81604  24459106.760   100155930.04741
  22007109.300   115648134.84008  22007108.820    90115427.43247
  24426131.720   128360171.55605  24426133.600   100020911.76544
  21828810.800   114711160.78108  21828812.420    89385320.06348
 15 02 16 07 22  0.0000000  0 11G01G03G04G09G11G17G19G20G23G28G32
  20498083.160   107718143.69609  20498087.060    83936227.70349
  20438329.660   107404140.31609  20438332.880    83691550.41249
  21701411.600   114041672.28908  21701413.840    88863641.36748
  24196517.900   127153573.39106  24196522.860    99080722.55945
  20904682.580   109854834.37309  20904683.220    85601166.38248
  22665933.720   119110279.68308  22665934.280    92813205.55447
  24808557.400   130369811.66406  24808559.620   101586853.07545
  24442892.380   128448263.76005  24442894.720   100089544.18144
  21991512.400   115566172.43309  21991511.780    90051560.62747
  24436635.380   128415368.78305  24436637.080   100063922.48443
  21842800.040   114784674.83108  21842801.860    89442603.67448
 15 02 16 07 22 30.0000000  0 11G01G03G04G09G11G17G19G20G23G28G32
  20500182.660   107729176.37809  20500186.560    83944824.56549
  20438095.220   107402908.30709  20438098.440    83690590.38349
  21713521.000   114105307.76308  21713523.240    88913227.40447
  24175197.940   127041535.81406  24175202.920    98993420.61945
  20916005.280   109914336.06809  20916006.020    85647531.29448
  22652557.500   119039987.37308  22652558.240    92758432.29847
  24829586.120   130480317.35806  24829588.260   101672961.20345
  24426697.260   128363159.65105  24426700.000   100023229.18644
  21975973.520   115484514.82309  21975972.840    89987931.33147
  24447176.200   128470760.81105  24447177.940   100107084.99144
  21856811.240   114858303.87608  21856813.120    89499976.91548
 15 02 16 07 23  0.0000000  0 11G01G03G04G09G11G17G19G20G23G28G32
  20502347.380   107740551.70109  20502351.260    83953688.41749
  20437918.100   107401977.66109  20437921.360    83689865.17849
  21725685.020   114169229.91708  21725687.160    88963036.82147
  24153896.920   126929596.90606  24153901.740    98906195.56944
  20927407.200   109974253.50909  20927407.980    85694220.17248
  22639261.720   118970117.66108  22639262.540    92703988.34547
  24850623.180   130590867.07206  24850625.360   101759103.63744
  24410525.640   128278176.57106  24410528.000    99957008.53044
  21960498.760   115403193.89309  21960498.060    89924564.36847
  24457759.460   128526374.99405  24457760.860   100150420.56641
  21870849.700   114932076.11908  21870851.660    89557461.73548
 15 02 16 07 23 30.0000000  0 11G01G03G04G09G11G17G19G20G23G28G32
  20504576.080   107752263.36209  20504579.940    83962814.35649
  20437796.860   107401340.38109  20437800.100    83689368.57349
  21737902.200   114233431.34508  21737904.260    89013063.85047
  24132613.620   126817752.00506  24132618.320    98819043.77845
  20938886.680   110034578.20309  20938887.440    85741226.38648
  22626045.480   118900666.01408  22626046.360    92649870.14147
  24871666.900   130701451.46806  24871669.080   101845273.06345
  24394375.980   128193307.76606  24394377.860    99890876.94944
  21945087.080   115322204.61009  21945086.480    89861455.84547
  24468383.280   128582201.39305  24468384.140   100193921.56644
  21884913.740   115005982.81408  21884915.700    89615051.31648
 15 02 16 07 24  0.0000000  0 10G01G03G04G09G11G17G19G20G23G32
  20506868.180   107764308.34209  20506872.000    83972200.02849
  20437730.600   107400991.87709  20437733.820    83689096.98749
  21750171.780   114297907.92608  21750173.740    89063305.28947
  24111347.880   126705999.66306  24111352.440    98731964.08345
  20950442.860   110095305.78709  20950443.540    85788546.53848
  22612908.560   118831630.89208  22612909.380    92596076.51147
  24892715.960   130812064.59205  24892718.180   101931464.89045
  24378247.320   128108550.00306  24378248.840    99824831.86044
  21929738.120   115241545.19409  21929737.680    89798604.35248
  21899002.320   115080018.72608  21899004.320    89672741.58448
 15 02 16 07 24 30.0000000  0 10G01G03G04G09G11G17G19G20G23G32
  20509224.860   107776692.62409  20509228.660    83981850.08349
  20437720.120   107400936.38709  20437723.300    83689053.71749
  21762494.660   114362664.60908  21762496.620    89113765.00147
  24090101.080   126594347.50406  24090105.900    98644962.47645
  20962076.500   110156440.62309  20962077.180    85836184.03648
  22599852.400   118763019.69308  22599853.060    92542613.20248
  24913770.960   130922709.16105  24913773.320   102017681.19444
  24362140.660   128023908.60306  24362142.080    99758877.41144
  21914453.260   115161222.89209  21914453.000    89736015.55747
  21913116.160   115154187.36908  21913118.140    89730535.27048
 15 02 16 07 25  0.0000000  0 11G01G03G04G09G11G17G19G20G23G28G32
  20511645.580   107789413.65409  20511649.400    83991762.53749
  20437764.600   107401169.77309  20437767.740    83689235.55449
  21774870.100   114427697.70208  21774872.100    89164440.08148
  24068873.240   126482794.68306  24068878.160    98558038.24545
  20973786.760   110217978.24409  20973787.440    85884135.39348
  22586876.720   118694831.32208  22586877.320    92489479.38647
  24934831.080   131033379.78505  24934833.300   102103917.80244
  24346055.480   127939380.65606  24346057.000    99693011.40644
  21899232.360   115081236.60109  21899232.120    89673688.58148
  24500488.440   128750927.64405  24500490.420   100325411.85944
  21927254.280   115228483.75108  21927256.280    89788428.51248
 15 02 16 07 25 30.0000000  0 11G01G03G04G09G11G17G19G20G23G28G32
  20514129.740   107802468.20509  20514133.600    84001934.88249
  20437863.060   107401687.14709  20437866.220    83689638.68449
  21787297.300   114493002.80508  21787299.340    89215327.11348
  24047663.840   126371339.51106  24047668.900    98471190.12345
  20985572.800   110279914.01309  20985573.460    85932396.99248
  22573981.140   118627064.42408  22573981.900    92436673.98947
  24955894.960   131144070.25705  24955897.220   102190169.90144
  24329991.300   127854962.58106  24329992.780    99627230.98645
  21884075.020   115001584.13109  21884074.600    89611621.72847
  24511267.080   128807565.09706  24511268.860   100369544.86243
  21941415.660   115302902.44508  21941417.720    89846417.04948
 15 02 16 07 26  0.0000000  0 11G01G03G04G09G11G17G19G20G23G28G32
  20516678.560   107815862.25809  20516682.440    84012371.77549
  20438016.320   107402492.83609  20438019.520    83690266.47749
  21799777.200   114558585.02808  21799779.340    89266430.08048
  24026474.420   126259989.76606  24026479.680    98384424.14045
  20997435.420   110342252.22109  20997436.080    85980972.17848
  22561167.160   118559726.62808  22561168.020    92384202.95447
  24976963.280   131254783.83605  24976965.740   102276439.97344
  24313949.080   127770659.80705  24313950.480    99561540.46245
  21868982.580   114922272.90009  21868981.980    89549820.76848
  24522083.380   128864400.25806  24522084.780   100413831.90043
  21955601.040   115377447.09608  21955603.060    89904503.74148
 15 02 16 07 26 30.0000000  0 11G01G03G04G09G11G17G19G20G23G28G32
  20519292.380   107829597.62009  20519296.240    84023074.61849
  20438224.520   107403587.03409  20438227.740    83691119.08149
  21812309.940   114624444.90508  21812312.100    89317749.41648
  24005305.720   126148748.78606  24005311.200    98297742.91345
  21009374.600   110404992.92809  21009375.280    86029861.00148
  22548435.480   118492821.13508  22548436.240    92332068.77347
  24998035.660   131365519.07305  24998038.280   102362726.92943
  24297929.120   127686473.81005  24297930.260    99495940.93744
  21853955.620   114843306.06009  21853954.980    89488288.18247
  24532936.300   128921431.29705  24532937.280   100458271.54644
  21969810.320   115452117.13308  21969812.280    89962688.12448
 15 02 16 07 27  0.0000000  0 11G01G03G04G09G11G17G19G20G23G28G32
  20521971.220   107843674.82809  20521975.060    84034043.83349
  20438487.460   107404968.63609  20438490.660    83692195.63549
  21824895.440   114690581.87008  21824897.580    89369284.66047
  23984158.240   126037618.85706  23984163.960    98211148.21046
  21021390.160   110468135.03809  21021390.900    86079062.60448
  22535786.500   118426350.17008  22535787.040    92280273.17747
  25019111.740   131476273.75905  25019114.540   102449029.04644
  24281931.260   127602404.85605  24281932.180    99430432.68543
  21838994.460   114764685.35909  21838993.940    89427025.31547
  24543825.160   128978655.22005  24543826.480   100502861.50944
  21984043.180   115526910.81508  21984045.080    90020968.85448
 15 02 16 07 27 30.0000000  0 10G01G03G04G09G11G17G19G20G23G32
  20524714.680   107858091.47609  20524718.480    84045277.56149
  20438804.300   107406633.66209  20438807.520    83693493.05849
  21837533.040   114756992.55208  21837535.140    89421033.20247
  23963031.880   125926599.23006  23963037.560    98124639.45946
  21033481.300   110531674.26509  21033482.100    86128573.66448
  22523219.960   118360312.65108  22523220.520    92228815.36648
  25040190.520   131587042.31105  25040193.480   102535341.93343
  24265955.140   127518449.94505  24265956.040    99365013.27043
  21824098.960   114686409.62209  21824098.560    89366031.26248
  21998298.720   115601823.47108  21998300.600    90079342.30748
 15 02 16 07 28  0.0000000  0 10G01G03G04G09G11G17G19G20G23G32
  20527523.300   107872850.58209  20527527.140    84056778.12849
  20439175.300   107408583.43309  20439178.580    83695012.35649
  21850223.080   114823678.64708  21850225.080    89472996.34847
  23941927.400   125815694.53906  23941933.040    98038220.26846
  21045648.280   110595611.85409  21045649.100    86178395.13348
  22510736.760   118294713.51008  22510737.480    92177699.13247
  25061272.100   131697825.01204  25061275.220   102621665.87844
  24250001.180   127434611.79205  24250002.420    99299684.85745
  21809270.040   114608483.35309  21809269.740    89305309.51048
  22012577.040   115676855.76608  22012578.880    90137808.98847
 15 02 16 07 28 30.0000000  0 10G01G03G04G09G11G17G19G20G23G32
  20530396.940   107887951.63609  20530400.900    84068545.15349
  20439600.120   107410815.85909  20439603.460    83696751.90049
  21862965.320   114890638.84509  21862967.200    89525173.07747
  23920845.080   125704906.04706  23920850.640    97951891.59646
  21057890.720   110659945.81609  21057891.520    86228525.46748
  22498337.140   118229553.62208  22498338.040    92126925.17248
  25082355.580   131808618.43004  25082358.840   102707998.10945
  24234069.380   127350889.38906  24234071.120    99234446.57644
  21794507.800   114530907.25509  21794507.520    89244860.61448
  22026877.500   115752005.02508  22026879.420    90196366.78647
 15 02 16 07 29  0.0000000  0 10G01G03G04G09G11G17G19G20G23G32
  20533336.040   107903396.69009  20533340.020    84080580.22549
  20440078.840   107413331.33609  20440082.200    83698712.00349
  21875759.840   114957873.80008  21875761.660    89577563.90048
  23899785.540   125594237.41806  23899791.080    97865656.34746
  21070208.640   110724676.73309  21070209.400    86278965.09748
  22486021.840   118164836.23408  22486022.880    92076496.00648
  25103440.620   131919421.43304  25103444.060   102794337.84345
  24218160.060   127267284.33106  24218162.440    99169299.74345
  21779812.800   114453684.48309  21779812.540    89184687.03148
  22041200.060   115827270.92508  22041202.120    90255015.47647
 15 02 16 07 29 30.0000000  0 10G01G03G04G09G11G17G19G20G23G32
  20536340.500   107919184.95009  20536344.440    84092882.74049
  20440611.040   107416127.55909  20440614.340    83700890.86949
  21888606.200   115025381.79108  21888608.160    89630167.46347
  23878749.000   125483689.61406  23878754.480    97779515.22046
  21082601.540   110789801.51609  21082602.240    86329711.65248
  22473791.000   118100562.43908  22473792.140    92026412.51948
  25124526.780   132030230.54104  25124530.480   102880682.33445
  24202272.820   127183795.45206  24202274.740    99104243.45543
  21765185.200   114376815.66009  21765184.840    89124789.26448
  22055544.260   115902650.64108  22055546.400    90313752.86047
 15 02 16 07 30  0.0000000  0 10G01G03G04G09G11G17G19G20G23G32
  20539411.700   107935324.02009  20539415.680    84105458.60549
  20441197.800   107419210.43109  20441200.980    83703293.09549
  21901505.680   115093169.30708  21901507.880    89682988.83547
  23857737.080   125373271.85006  23857742.780    97693475.43445
  21095070.540   110855326.37209  21095071.260    86380769.95748
  22461646.360   118036741.72208  22461647.600    91976682.07248
  25145613.500   132141082.20104  25145619.800   102967107.01844
  24186408.780   127100429.92705  24186410.480    99039283.29544
  21750626.700   114300309.37309  21750626.160    89065173.99148
  22069911.180   115978149.40408  22069913.320    90372583.00847
 15 02 16 07 30 30.0000000  0  9G01G03G04G09G11G17G20G23G32
  20542544.740   107951788.08609  20542548.740    84118287.71649
  20441833.840   107422552.63109  20441836.980    83705897.38849
  21914453.240   115161209.30208  21914455.600    89736006.94747
  23836745.340   125262960.11806  23836751.280    97607518.25345
  21107610.400   110921223.78109  21107611.160    86432118.54948
  22449583.200   117973349.43108  22449584.480    91927285.45948
  24170562.840   127017161.48005  24170564.620    98974398.71243
  21736132.520   114224141.40109  21736131.880    89005822.34348
  22084295.400   116053739.21708  22084297.580    90431484.10347
 15 02 16 07 31  0.0000000  0 10G01G03G04G09G11G17G20G23G31G32
  20545746.640   107968614.15009  20545750.660    84131398.89849
  20442525.840   107426189.53609  20442529.020    83708731.32349
  21927455.700   115229537.71408  21927458.140    89789249.78647
  23815781.220   125152793.03706  23815787.200    97521673.79546
  21120227.780   110987528.95909  21120228.660    86483784.87548
  22437608.980   117910424.15708  22437610.220    91878252.76048
  24154742.620   126934026.87406  24154744.480    98909618.48943
  21721709.820   114148349.83809  21721709.240    88946763.99648
  24330892.620   127859703.43215                                
  22098703.580   116129454.97408  22098705.820    90490483.32047
 15 02 16 07 31 30.0000000  0 10G01G03G04G09G11G17G20G23G31G32
  20549013.580   107985782.05909  20549017.600    84144776.46349
  20443269.760   107430099.39509  20443273.040    83711777.94749
  21940509.020   115298133.34808  21940511.420    89842700.86347
  23794841.240   125042752.21306  23794847.100    97435927.68445
  21132918.620   111054220.20709  21132919.640    86535752.03648
  22425720.100   117847947.17108  22425721.200    91829569.39048
  24138944.360   126851005.78505  24138946.240    98844926.68645
  21707355.140   114072915.96609  21707354.700    88887984.37348
  24326607.920   127837184.01005  24326605.740    99613411.69141
  22113131.500   116205274.27908  22113133.840    90549563.24147
 15 02 16 07 32  0.0000000  0 10G01G03G04G09G11G17G20G23G31G32
  20552346.420   108003296.09909  20552350.380    84158423.73649
  20444066.200   107434284.95509  20444069.580    83715039.39949
  21953613.880   115366999.48608  21953616.180    89896362.72047
  23773926.520   124932843.61207  23773932.080    97350284.62046
  21145683.420   111121299.62909  21145684.500    86588021.68048
  22413917.640   117785924.47308  22413918.580    91781239.98948
  24123168.500   126768101.73906  24123170.400    98780326.13143
  21693069.540   113997845.00209  21693069.200    88829487.53048
  24322408.060   127815116.33705  24322412.020    99596208.34243
  22127579.620   116281199.34608  22127581.960    90608725.56647
 15 02 16 07 32 30.0000000  0 10G01G03G04G09G11G17G20G23G31G32
  20555747.260   108021167.54409  20555751.200    84172349.50549
  20444917.040   107438755.89709  20444920.400    83718523.23049
  21966772.180   115436146.10508  21966774.420    89950243.12847
  23753039.400   124823080.30107  23753044.740    97264754.78445
  21158524.020   111188777.12509  21158525.100    86640601.49848
  22402204.020   117724368.75108  22402204.840    91733274.47647
  24107416.880   126685325.61506  24107418.740    98715825.19645
  21678855.520   113923149.51509  21678855.120    88771283.25448
  24318300.860   127793532.79505  24318305.480    99579388.73643
  22142049.660   116357239.29208  22142051.900    90667977.40247
 15 02 16 07 33  0.0000000  0  9G01G03G04G09G11G17G20G23G32
  20559211.320   108039371.50209  20559215.340    84186534.37849
  20445817.220   107443485.81009  20445820.500    83722208.85449
  21979978.900   115505547.33808  21979981.120    90004321.93147
  23732175.420   124713439.06206  23732180.600    97179320.06346
  21171435.320   111256626.16709  21171436.360    86693470.83448
  22390574.760   117663256.50108  22390575.580    91685654.52147
  24091684.780   126602652.51206  24091686.700    98651404.54344
  21664708.460   113848805.97909  21664708.020    88713353.23948
  22156536.520   116433367.04608  22156538.560    90727297.66047
 15 02 16 07 33 30.0000000  0 10G01G03G04G09G11G17G20G23G31G32
  20562743.340   108057932.40109  20562747.440    84200997.38949
  20446770.980   107448497.53409  20446774.260    83726114.06949
  21993238.500   115575226.40208  21993240.660    90058617.23447
  23711339.660   124603946.06607  23711344.600    97094000.83446
  21184421.580   111324869.04609  21184422.500    86746647.05848
  22379034.860   117602613.83808  22379035.720    91638400.48247
  24075976.860   126520106.16006  24075978.640    98587082.66144
  21650633.180   113774839.93109  21650632.760    88655717.37348
  24310345.660   127751728.92005  24310347.640    99546810.38644
  22171044.360   116509604.99108  22171046.200    90786703.77947
 15 02 16 07 34  0.0000000  0 10G01G03G04G09G11G17G20G23G31G32
  20566342.460   108076845.83609  20566346.600    84215735.10649
  20447777.180   107453785.11409  20447780.500    83730234.23249
  22006549.980   115645178.00508  22006552.160    90113124.90347
  23690531.580   124494598.64606  23690536.320    97008795.08045
  21197481.620   111393499.44909  21197482.400    86800125.25648
  22367583.780   117542437.72608  22367584.560    91591509.98647
  24060292.200   126437681.78206  24060294.120    98522855.83244
  21636629.080   113701248.18309  21636628.720    88598373.16448
  24306504.240   127731537.77804  24306506.140    99531077.08844
  22185571.840   116585946.56708  22185573.580    90846190.66047
 15 02 16 07 34 30.0000000  0 10G01G03G04G09G11G17G20G23G31G32
  20570007.940   108096107.95309  20570012.140    84230744.52449
  20448834.780   107459343.18109  20448838.140    83734565.16749
  22019912.200   115715396.82708  22019914.480    90167840.80947
  23669750.760   124385394.72106  23669755.320    96923701.10045
  21210614.340   111462512.13009  21210615.080    86853901.32248
  22356221.060   117482725.93208  22356221.700    91544981.29948
  24044629.820   126355375.14206  24044631.960    98458720.73445
  21622695.720   113628028.18209  21622695.380    88541318.62248
  24302751.720   127711814.97105  24302753.260    99515708.62143
  22200117.820   116662385.85108  22200119.540    90905753.66947
 15 02 16 07 35  0.0000000  0 10G01G03G04G09G11G17G20G23G31G32
  20573739.760   108115718.63909  20573744.000    84246025.55549
  20449943.580   107465170.10409  20449946.920    83739105.60249
  22033325.000   115785881.92108  22033327.420    90222764.18147
  23648997.580   124276335.89607  23649001.920    96838720.18946
  21223819.400   111531905.13609  21223820.200    86907973.75148
  22344946.900   117423479.70608  22344947.520    91498815.38848
  24028989.740   126273185.84306  24028991.800    98394677.09245
  21608833.380   113555181.16109  21608833.020    88484554.71248
  24299088.260   127692561.40905  24299090.300    99500705.86643
  22214681.960   116738920.80208  22214683.740    90965391.23047
 15 02 16 07 35 30.0000000  0 10G01G03G04G09G11G17G20G23G31G32
  20577539.000   108135683.41409  20577543.220    84261582.49949
  20451104.360   107471269.83409  20451107.620    83743858.61849
  22046789.340   115856637.60008  22046791.860    90277898.40947
  23628273.500   124167429.47407  23628277.580    96753858.02946
  21237097.520   111601682.30609  21237098.440    86962345.52748
  22333762.640   117364706.17508  22333763.360    91453017.81948
  24013373.060   126191119.26506  24013374.820    98330729.09744
  21595043.260   113482713.58109  21595042.900    88428086.47848
  24295514.180   127673783.57205  24295517.160    99486092.76544
  22229264.840   116815554.76708  22229266.800    91025105.93147
 15 02 16 07 36  0.0000000  0 10G01G03G04G09G11G17G20G23G31G32
  20581404.740   108155997.91509  20581408.980    84277411.96049
  20452315.980   107477636.53309  20452319.140    83748819.66149
  22060304.240   115927658.39808  22060306.760    90333239.23147
  23607577.920   124058672.79707  23607581.820    96669112.57346
  21250447.540   111671837.32609  21250448.580    87017011.72348
  22322667.780   117306402.48208  22322668.740    91407586.35548
  23997778.740   126109170.36306  23997780.380    98266872.79844
  21581324.680   113410622.23309  21581324.320    88371911.41748
  24292031.340   127655478.27905  24292033.820    99471828.96441
  22243865.440   116892281.39508  22243867.500    91084892.84747
 15 02 16 07 36 30.0000000  0 10G01G03G04G09G11G17G20G23G31G32
  20585338.420   108176669.58809  20585342.720    84293519.72849
  20453579.480   107484276.14709  20453582.660    83753993.36849
  22073870.780   115998950.84508  22073873.360    90388791.72647
  23586912.620   123950075.19807  23586916.520    96584491.07546
  21263870.620   111742376.01709  21263871.740    87071976.89648
  22311664.000   117248577.36708  22311665.140    91362527.80848
  23982208.040   126027346.33706  23982209.800    98203113.77144
  21567679.400   113338915.96009  21567679.080    88316036.41448
  24288639.300   127637653.98905  24288641.860    99457939.93043
  22258484.780   116969106.20408  22258486.920    91144756.26347
 15 02 16 07 37  0.0000000  0 10G01G03G04G09G11G17G20G23G31G32
  20589339.060   108197692.86709  20589343.360    84309901.47549
  20454893.560   107491181.58909  20454896.800    83759374.20949
  22087487.760   116070508.16308  22087490.400    90444550.61047
  23566276.760   123841632.79007  23566280.760    96499990.50046
  21277365.320   111813290.88709  21277366.480    87127235.19148
  22300750.520   117191226.72908  22300751.780    91317838.98948
  23966659.940   125945641.46606  23966661.780    98139447.61144
  21554106.560   113267590.22009  21554106.220    88260457.92248
  24285337.940   127620305.70105  24285340.880    99444421.79743
  22273121.320   117046021.52508  22273123.520    91204690.20847
 15 02 16 07 37 30.0000000  0 10G01G03G04G09G11G17G20G23G31G32
  20593406.600   108219067.73409  20593410.860    84326557.19349
  20456257.940   107498351.33309  20456261.200    83764960.99749
  22101154.960   116142329.08808  22101157.600    90500514.89747
  23545670.700   123733347.31907  23545674.960    96415612.22146
  21290931.280   111884580.24109  21290932.500    87182785.28548
  22289927.720   117134352.17908  22289928.960    91273521.15448
  23951134.420   125864054.93306  23951136.140    98075873.66344
  21540606.340   113196646.24809  21540605.980    88205176.90548
  24282127.640   127603434.43105  24282130.620    99431275.42244
  22287774.720   117123025.41508  22287776.980    91264693.17147
 15 02 16 07 38  0.0000000  0 10G01G03G04G09G11G17G20G23G31G32
  20597541.920   108240798.48809  20597546.080    84343490.22249
  20457673.160   107505788.19409  20457676.400    83770755.93049
  22114872.920   116214416.97308  22114875.580    90556687.20647
  23525095.680   123625224.88607  23525100.120    96331361.00146
  21304568.980   111956246.76409  21304570.260    87238629.27948
  22279196.600   117077959.39208  22279197.740    91229578.71448
  23935632.460   125782591.19706  23935633.900    98012395.44144
  21527179.820   113126089.63809  21527179.480    88150197.74048
  24279009.100   127587045.48905  24279011.920    99418504.79644
  22302445.320   117200120.15708  22302447.700    91324766.93047
 15 02 16 07 38 30.0000000  0 10G01G03G04G09G11G17G20G23G31G32
  20601744.900   108262885.08209  20601749.020    84360700.52449
  20459138.940   107513490.68109  20459142.160    83776757.85449
  22128641.380   116286770.59808  22128644.040    90613066.58847
  23504551.960   123517267.27107  23504556.640    96247238.20546
  21318278.000   112028288.38409  21318279.320    87294765.55148
  22268557.420   117022049.76708  22268558.440    91186012.74648
  23920154.060   125701254.79606  23920155.860    97949040.52244
  21513827.220   113055921.46909  21513826.880    88095521.25748
  24275982.500   127571139.76505  24275984.980    99406110.78543
  22317132.900   117277303.90808  22317135.340    91384910.03547
 15 02 16 07 39  0.0000000  0 10G01G03G04G09G11G17G20G23G31G32
  20606015.360   108285326.48809  20606019.520    84378187.30449
  20460654.760   107521456.23509  20460657.960    83782964.76049
  22142460.080   116359388.09108  22142462.680    90669651.58247
  23484039.600   123409475.25307  23484044.520    96163244.49446
  21332057.920   112100702.32909  21332059.260    87351191.94648
  22258010.220   116966623.64408  22258011.160    91142823.54148
  23904697.940   125620034.28206  23904700.220    97885751.80944
  21500548.640   112986141.83409  21500548.280    88041147.51848
  24273047.920   127555716.96904  24273049.780    99394093.05544
  22331836.860   117354573.52108  22331839.340    91445120.05047
 15 02 16 07 39 30.0000000  0 10G01G03G04G09G11G17G20G23G31G32
  20610354.080   108308126.53909  20610358.260    84395953.54549
  20462221.040   107529687.28609  20462224.320    83789378.54849
  22156329.480   116432272.02608  22156332.080    90726444.19047
  23463559.760   123301854.39706  23463564.900    96079384.12146
  21345909.060   112173490.41409  21345910.420    87407909.87348
  22247555.960   116911686.24708  22247556.920    91100015.16948
  23889265.600   125538938.10706  23889268.300    97822559.94145
  21487345.020   112916755.82009  21487344.580    87987080.49848
  24270206.020   127540781.64304  24270210.400    99382442.08243
  22346557.560   117431931.04008  22346560.020    91505398.55547
 15 02 16 07 40  0.0000000  0 10G01G03G04G09G11G17G20G23G31G32
  20614760.340   108331281.33709  20614764.520    84413996.20849
  20463836.820   107538178.46209  20463840.220    83795995.02649
  22170248.560   116505417.14008  22170251.220    90783440.32247
  23443112.220   123194402.62707  23443117.380    95995655.50846
  21359830.360   112246646.90609  21359831.700    87464914.87848
  22237194.180   116857235.20108  22237195.160    91057585.76148
  23873856.200   125457961.82206  23873858.900    97759461.51845
  21474215.760   112847760.54709  21474215.220    87933317.95548
  24267456.360   127526330.82904  24267455.880    99371180.70044
  22361293.920   117509370.69408  22361296.300    91565741.08247
 15 02 16 07 40 30.0000000  0  9G01G03G04G09G11G17G20G23G32
  20619234.360   108354792.67309  20619238.620    84432316.70549
  20465502.200   107546930.17109  20465505.660    83802814.52849
  22184217.540   116578824.41008  22184220.220    90840640.72147
  23422697.600   123087123.60207  23422702.640    95912061.53146
  21373821.840   112320172.17009  21373823.140    87522207.23848
  22226925.560   116803273.60408  22226926.420    91015537.75047
  23858470.260   125377107.52606  23858472.480    97696458.14544
  21461161.400   112779158.99409  21461160.800    87879862.20848
  22376045.840   117586892.33308  22376048.260    91626147.47947
 15 02 16 07 41  0.0000000  0  9G01G03G04G09G11G17G20G23G32
  20623776.340   108378660.95409  20623780.600    84450915.32549
  20467217.000   107555941.32009  20467220.440    83809836.18249
  22198236.240   116652493.14208  22198238.960    90898044.85747
  23402316.380   122980019.41107  23402321.300    95828603.78146
  21387883.260   112394064.78109  21387884.440    87579785.83748
  22216750.540   116749803.34208  22216751.260    90973872.59748
  23843107.640   125296374.89207  23843109.260    97633549.57744
  21448182.220   112710952.81109  21448181.580    87826714.53748
  22390813.140   117664494.42708  22390815.500    91686616.57747
 15 02 16 07 41 30.0000000  0  9G01G03G04G09G11G17G20G23G32
  20628387.320   108402891.66309  20628391.580    84469796.36049
  20468981.980   107565215.97609  20468985.380    83817063.16949
  22212305.480   116726427.57808  22212308.260    90955656.02747
  23381969.860   122873097.44007  23381974.700    95745288.03546
  21402015.240   112468328.19409  21402016.260    87637653.36848
  22206670.340   116696831.11608  22206670.980    90932595.52348
  23827769.160   125215769.26106  23827770.280    97570739.98244
  21435279.480   112643148.39409  21435278.800    87773879.92548
  22405596.460   117742180.74108  22405598.820    91747151.29847
 15 02 16 07 42  0.0000000  0  9G01G03G04G09G11G17G20G23G32
  20633066.600   108427481.28009  20633070.880    84488957.06649
  20470796.120   107574749.22809  20470799.520    83824491.66849
  22226424.480   116800623.33508  22226427.320    91013470.83247
  23361657.640   122766355.94107  23361662.420    95662112.92746
  21416216.780   112542957.23109  21416217.740    87695805.80748
  22196684.540   116644355.02808  22196685.140    90891705.05548
  23812453.860   125135286.87706  23812455.000    97508026.39145
  21422452.780   112575743.56009  21422452.060    87721356.68348
  22420394.740   117819945.90908  22420397.180    91807747.45147
 15 02 16 07 42 30.0000000  0  9G01G03G04G09G11G17G20G23G32
  20637814.200   108452429.81309  20637818.460    84508397.44649
  20472659.140   107584539.66109  20472662.520    83832120.55349
  22240592.980   116875079.06008  22240595.860    91071488.22047
  23341380.060   122659796.78307  23341384.960    95579079.87646
  21430487.540   112617950.20209  21430488.540    87754241.82548
  22186793.400   116592376.64508  22186794.040    90851202.40648
  23797161.840   125054927.34806  23797163.380    97445408.57844
  21409702.300   112508739.49009  21409701.600    87669145.72648
  22435207.720   117897788.20308  22435210.240    91868403.70047
 15 02 16 07 43  0.0000000  0  9G01G03G04G09G11G17G20G23G32
  20642630.100   108477737.25409  20642634.320    84528117.49249
  20474570.800   107594585.83409  20474574.200    83839948.72249
  22254810.740   116949793.89308  22254813.760    91129707.50047
  23321137.460   122553421.75407  23321142.440    95496190.30946
  21444827.140   112693304.97209  21444828.160    87812959.77148
  22176997.180   116540897.20808  22176997.880    90811088.56248
  23781893.240   124974690.33706  23781895.240    97382886.19744
  21397028.180   112442137.23109  21397027.600    87617247.87448
  22450035.120   117975705.69908  22450037.580    91929118.56847
 15 02 16 07 43 30.0000000  0  9G01G03G04G09G11G17G20G23G32
  20647514.400   108503404.30309  20647518.680    84548117.75349
  20476531.060   107604887.15609  20476534.480    83847975.71149
  22269077.740   117024767.17408  22269080.800    91188128.17347
  23300930.400   122447233.43107  23300935.380    95413446.22246
  21459235.300   112769020.41909  21459236.380    87871958.75548
  22167296.300   116489918.81908  22167297.040    90771365.12348
  23766648.300   124894576.27806  23766650.480    97320459.63745
  21384430.840   112375938.48309  21384430.380    87565664.44048
  22464876.600   118053697.41708  22464879.000    91989891.26447
 15 02 16 07 44  0.0000000  0  9G01G03G04G09G11G17G20G23G32
  20652467.600   108529433.44509  20652471.940    84568400.15849
  20478540.080   107615444.68009  20478543.520    83856202.33049
  22283394.300   117100000.73708  22283397.300    91246751.65547
  23280759.680   122341236.16207  23280764.700    95330850.99347
  21473712.160   112845097.16309  21473713.340    87931239.27948
  22157691.320   116439444.77808  22157692.300    90732034.69248
  23751427.380   124814587.55706  23751429.340    97258130.73745
  21371911.060   112310147.02809  21371910.720    87514398.37848
  22479732.240   118131764.06208  22479734.540    92050722.34447
 15 02 16 07 44 30.0000000  0  9G01G03G04G09G11G17G20G23G32
  20657490.120   108555826.60309  20657494.440    84588966.20849
  20480598.020   107626258.97809  20480601.460    83864629.04649
  22297760.520   117175495.05808  22297763.380    91305578.33547
  23260626.020   122235433.61407  23260630.940    95248407.51546
  21488257.920   112921535.68009  21488259.260    87990801.69848
  22148183.020   116389478.80808  22148184.220    90693100.14748
  23736230.380   124734725.54306  23736232.120    97195900.59845
  21359469.420   112244765.98409  21359469.180    87463452.11648
  22494602.140   118209905.80108  22494604.280    92111611.94147
 15 02 16 07 45  0.0000000  0  9G01G03G04G09G11G17G20G23G32
  20662581.640   108582582.58509  20662585.960    84609814.97849
  20482704.300   107637327.49109  20482707.800    83873253.84549
  22312175.900   117251247.99208  22312178.740    91364606.50947
  23240529.520   122129826.52107  23240534.340    95166116.32746
  21502871.960   112998332.78909  21502873.440    88050643.53848
  22138771.420   116340021.02608  22138772.700    90654561.60348
  23721056.940   124654989.08206  23721058.560    97133768.28545
  21347105.860   112179795.03009  21347105.680    87412825.40648
  22509485.720   118288119.72008  22509487.840    92172557.77047
 15 02 16 07 45 30.0000000  0  9G01G03G04G09G11G17G20G23G32
  20667742.200   108609701.52409  20667746.560    84630946.57149
  20484858.700   107648649.03709  20484862.280    83882075.81649
  22326640.140   117327258.60308  22326643.080    91423835.46347
  23220470.620   122024416.86607  23220475.320    95083979.00146
  21517553.960   113075486.81509  21517555.500    88110763.50348
  22129457.000   116291073.24808  22129458.160    90616420.46148
  23705907.160   124575378.06906  23705908.720    97071733.73144
  21334820.640   112115235.57609  21334820.420    87362519.33948
  22524382.760   118366404.17008  22524384.920    92233558.56147
 15 02 16 07 46  0.0000000  0  9G01G03G04G09G11G17G20G23G32
  20672971.740   108637182.54309  20672976.040    84652360.30349
  20487060.840   107660221.35809  20487064.460    83891093.19949
  22341153.060   117403525.03308  22341156.140    91483263.78247
  23200449.580   121919205.63507  23200454.140    95001996.27946
  21532303.340   113152995.03109  21532304.860    88171159.44348
  22120239.680   116242635.28408  22120240.720    90578676.58548
  23690780.980   124495891.17006  23690782.480    97009795.88844
  21322613.740   112051087.80009  21322613.460    87312534.06648
  22539292.860   118444756.71508  22539295.060    92294612.40847
 15 02 16 07 46 30.0000000  0  9G01G03G04G09G11G17G20G23G32
  20678270.040   108665025.05809  20678274.320    84674055.72449
  20489310.420   107672042.56809  20489313.960    83900304.51349
  22355714.440   117480045.33608  22355717.540    91542889.91447
  23180466.560   121814194.09607  23180471.020    94920169.15446
  21547119.640   113230854.92909  21547121.160    88231829.42848
  22111119.520   116194708.11808  22111120.620    90541330.72348
  23675678.460   124416527.75906  23675680.100    96947954.26244
  21310485.220   111987352.05209  21310484.880    87262869.84148
  22554215.500   118523175.10008  22554217.740    92355717.56347
 15 02 16 07 47  0.0000000  0  9G01G03G04G09G11G17G20G23G32
  20683637.020   108693228.64109  20683641.340    84696032.49249
  20491607.100   107684110.92509  20491610.500    83909708.40749
  22370324.100   117556818.30908  22370327.120    91602712.93947
  23160521.860   121709383.70907  23160526.300    94838498.78446
  21562002.480   113309064.26309  21562003.920    88292771.72248
  22102096.560   116147292.53708  22102097.900    90504383.49248
  23660599.560   124337286.72106  23660601.360    96886208.01045
  21298435.280   111924029.21109  21298434.900    87213527.36248
  22569150.280   118601657.13708  22569152.520    92416872.31547
 15 02 16 07 47 30.0000000  0 10G01G03G04G09G11G17G20G23G31G32
  20689074.240   108721801.21809  20689078.540    84718296.80049
  20493952.040   107696433.03009  20493955.320    83919310.02649
  22384983.120   117633850.45208  22384985.980    91662737.91047
  23140617.320   121604784.25407  23140621.820    94756992.76746
  21576953.000   113387629.40309  21576954.420    88353991.26048
  22093172.660   116100397.81208  22093174.200    90467842.13648
  23645545.640   124258176.43506  23645547.460    96824563.64145
  21286465.620   111861128.26009  21286465.180    87164513.63248
  24237494.800   127368894.89304  24237498.900    99248495.74541
  22584098.380   118680209.24908  22584100.660    92478081.69247
 15 02 16 07 48  0.0000000  0 10G01G03G04G09G11G17G20G23G31G32
  20694582.660   108750747.70309  20694586.940    84740852.45649
  20496345.880   107709012.53909  20496349.120    83929112.21549
  22399692.100   117711145.84408  22399694.820    91722968.00947
  23120754.140   121500402.50707  23120758.640    94675656.37346
  21591971.740   113466553.12009  21591973.200    88415490.20148
  22084349.240   116054030.51408  22084350.780    90431711.76948
  23630517.240   124179201.27606  23630519.260    96763024.58945
  21274577.340   111798654.90109  21274576.900    87115833.09048
  24236262.320   127362418.17504  24236266.360    99243448.79645
  22599060.260   118758834.64308  22599062.740    92539348.14847
 15 02 16 07 48 30.0000000  0 10G01G03G04G09G11G17G20G23G31G32
  20700158.480   108780048.48609  20700162.760    84763684.18949
  20498784.600   107721828.53509  20498787.940    83939098.68949
  22414447.060   117788683.77708  22414449.860    91783387.10047
  23100928.900   121396220.79807  23100933.460    94594475.87246
  21607054.580   113545813.76109  21607056.080    88477251.67848
  22075622.680   116008171.90008  22075623.980    90395977.77648
  23615510.480   124100341.37106  23615512.720    96701575.32045
  21262766.960   111736590.87209  21262766.560    87067471.50748
  24235124.500   127356437.91004  24235127.960    99238788.79244
  22614032.120   118837512.13808  22614034.680    92600655.20647
 15 02 16 07 49  0.0000000  0  9G01G03G04G09G11G17G20G23G32
  20705802.480   108809707.62709  20705806.740    84786795.16449
  20501268.840   107734883.80409  20501272.320    83949271.60749
  22429248.780   117866467.28808  22429251.700    91843997.55646
  23081142.780   121292245.00507  23081147.360    94513455.80746
  21622202.040   113625413.85709  21622203.500    88539277.66948
  22066994.060   115962827.38908  22066995.040    90360644.36148
  23600526.180   124021600.47906  23600528.660    96640218.75745
  21251035.460   111674941.25009  21251035.100    87019432.83648
  22629014.500   118916244.29608  22629016.940    92662004.86947
 15 02 16 07 49 30.0000000  0  9G01G03G04G09G11G17G20G23G32
  20711518.040   108839742.84809  20711522.300    84810199.19949
  20503801.860   107748194.84009  20503805.380    83959643.82949
  22444100.420   117944513.02808  22444103.420    91904812.34747
  23061399.660   121188494.80607  23061404.160    94432611.53447
  21637417.200   113705369.40809  21637418.580    88601580.65348
  22058466.820   115918015.94408  22058467.680    90325726.33148
  23585568.160   123942996.26006  23585570.820    96578968.71445
  21239386.400   111613724.79009  21239386.060    86971731.70948
  22644010.220   118995047.26808  22644012.620    92723409.72547
 15 02 16 07 50  0.0000000  0  9G01G03G04G09G11G17G20G23G32
  20717302.580   108870140.59609  20717306.780    84833885.71749
  20506380.800   107761746.78309  20506384.240    83970203.75449
  22458999.140   118022806.35108  22459002.220    91965820.07447
  23041697.280   121084958.53607  23041701.820    94351933.94447
  21652697.080   113785665.07809  21652698.360    88664148.65448
  22050038.580   115873725.21508  22050039.480    90291214.06448
  23570633.900   123864515.07007  23570636.220    96517814.52745
  21227817.380   111552929.06109  21227817.040    86924358.40548
  22659016.460   119073905.82008  22659018.900    92784857.88847
 15 02 16 07 50 30.0000000  0 10G01G03G04G09G11G17G20G23G31G32
  20723157.520   108900908.11109  20723161.720    84857860.36549
  20509006.760   107775545.71509  20509010.100    83980956.12549
  22473946.140   118101353.49208  22473949.320    92027025.57147
  23022037.540   120981645.32507  23022042.020    94271430.18846
  21668042.740   113866306.19309  21668043.840    88726985.83247
  22041711.020   115829963.62608  22041711.940    90257114.09448
  23555724.540   123786163.94907  23555726.380    96456761.69044
  21216329.960   111492562.18609  21216329.660    86877319.27748
  24231542.600   127337611.41505  24231545.960    99224101.67343
  22674034.460   119152825.77208  22674036.900    92846353.88947
 15 02 16 07 51  0.0000000  0 10G01G03G04G09G11G17G20G23G31G32
  20729082.320   108932043.11909  20729086.660    84882121.37549
  20511678.980   107789588.08409  20511682.260    83991898.19649
  22488940.900   118180150.92808  22488944.040    92088426.09946
  23002420.320   120878554.83707  23002424.620    94191099.97746
  21683453.260   113947288.75408  21683454.320    88790089.08148
  22033484.080   115786730.51208  22033484.940    90223425.94148
  23540839.320   123707940.48106  23540840.840    96395808.33844
  21204923.920   111432622.98609  21204923.620    86830613.41848
  24230890.200   127334185.18205  24230894.080    99221431.78541
  22689063.360   119231803.26408  22689065.940    92907894.71847
 15 02 16 07 51 30.0000000  0 10G01G03G04G09G11G17G20G23G31G32
  20735077.120   108963545.93709  20735081.480    84906668.99549
  20514397.260   107803873.01509  20514400.600    84003029.28349
  22503983.240   118259198.06208  22503986.200    92150021.20146
  22982845.880   120775689.27008  22982850.140    94110945.03346
  21698928.380   114028611.13509  21698929.480    88853457.11747
  22025358.000   115744027.35808  22025358.880    90190150.74248
  23525978.100   123629844.84206  23525979.720    96334954.60245
  21193599.480   111373112.69609  21193599.160    86784241.77648
  24230335.520   127331272.16305  24230339.220    99219161.88042
  22704102.980   119310837.26308  22704105.840    92969479.56747
 15 02 16 07 52  0.0000000  0 10G01G03G04G09G11G17G20G23G31G32
  20741141.880   108995416.33709  20741146.220    84931503.04149
  20517161.400   107818399.08409  20517164.900    84014348.26349
  22519072.880   118338493.69408  22519075.700    92211809.92546
  22963314.440   120673050.37408  22963318.760    94030966.71347
  21714467.780   114110271.38008  21714468.960    88917088.43048
  22017332.840   115701854.93708  22017333.880    90157289.08248
  23511140.780   123551876.36406  23511143.060    96274199.91145
  21182356.880   111314032.41109  21182356.460    86738205.20248
  24229878.920   127328873.25006  24229882.160    99217292.43943
  22719153.080   119389925.99108  22719156.140    93031107.09447
 15 02 16 07 52 30.0000000  0 10G01G03G04G09G11G17G20G23G31G32
  20747276.340   109027653.34709  20747280.680    84956622.76249
  20519971.040   107833164.13409  20519974.680    84025853.46349
  22534209.340   118418035.72108  22534212.100    92273790.65646
  22943826.220   120570639.06108  22943830.620    93951165.74347
  21730070.840   114192266.37908  21730072.220    88980980.57348
  22009408.740   115660213.60008  22009409.940    90124841.26248
  23496327.640   123474033.82106  23496330.400    96213543.36545
  21171196.060   111255381.94609  21171195.500    86692503.54748
  24229520.220   127326987.74606  24229523.600    99215823.10144
  22734213.180   119469066.99908  22734216.300    93092775.35847
 15 02 16 07 53  0.0000000  0 10G01G03G04G09G11G17G20G23G31G32
  20753480.600   109060256.79109  20753484.920    84982028.00849
  20522826.000   107848166.83209  20522829.600    84037543.85149
  22549392.420   118497822.96408  22549395.160    92335962.47047
  22924381.600   120468457.11908  22924386.020    93871543.51247
  21745737.220   114274594.13008  21745738.780    89045132.00848
  22001586.040   115619104.49508  22001587.200    90092808.16348
  23481538.800   123396317.25407  23481541.500    96152984.99545
  21160117.160   111197162.47709  21160116.600    86647137.73348
  24229259.480   127325615.69805  24229262.820    99214753.96643
  22749282.920   119548258.74408  22749286.060    93154483.16047
 15 02 16 07 53 30.0000000  0 10G01G03G04G09G11G17G20G23G31G32
  20759755.840   109093233.08409  20759760.100    85007723.79049
  20525727.280   107863412.42509  20525730.740    84049423.50349
  22564623.040   118577860.71208  22564625.940    92398329.47847
  22904982.180   120366512.87008  22904986.540    93792106.49647
  21761467.920   114357259.59808  21761469.560    89109546.59947
  21993865.980   115578534.84908  21993867.100    90061195.41348
  23466775.320   123318733.12707  23466777.740    96092529.82745
  21149121.620   111139381.20209  21149121.180    86602113.36548
  24229096.940   127324763.98305  24229100.940    99214090.28443
  22764363.260   119627506.24208  22764366.440    93216234.38446
 15 02 16 07 54  0.0000000  0 10G01G03G04G09G11G17G20G23G31G32
  20766101.240   109126578.22309  20766105.440    85033706.98549
  20528673.800   107878895.74609  20528677.140    84061488.40049
  22579900.320   118658143.87808  22579903.440    92460887.71847
  22885627.580   120264804.27608  22885631.940    93712853.12647
  21777261.780   114440256.52708  21777263.400    89174219.47747
  21986247.920   115538501.92008  21986249.220    90030000.90248
  23452036.180   123241277.08307  23452037.980    96032174.47845
  21138208.960   111082035.03109  21138208.640    86557428.03948
  24229033.000   127324429.19805  24229037.320    99213829.33742
  22779453.180   119706804.02608  22779456.320    93278024.79547
 15 02 16 07 54 30.0000000  0 10G01G03G04G09G11G17G20G23G31G32
  20772516.800   109160292.25309  20772521.080    85059977.62049
  20531665.260   107894615.70409  20531668.540    84073737.68149
  22595224.200   118738671.46108  22595227.460    92523636.41646
  22866318.140   120163333.23507  22866322.520    93633784.85247
  21793118.440   114523583.41208  21793119.980    89239149.46247
  21978732.300   115499007.07008  21978733.680    89999225.66448
  23437321.140   123163948.91806  23437322.440    95971918.77445
  21127379.400   111025125.08309  21127379.140    86513082.64048
  24229067.760   127324611.91305  24229071.600    99213971.72044
  22794552.500   119786150.83908  22794555.540    93339853.41946
 15 02 16 07 55  0.0000000  0 10G01G03G04G09G11G17G20G23G31G32
  20779003.120   109194378.07109  20779007.460    85086537.96549
  20534702.060   107910574.08509  20534705.280    84086172.76149
  22610595.000   118819445.34208  22610598.320    92586577.03346
  22847054.760   120062104.66207  22847059.240    93554905.51247
  21809038.100   114607241.33308  21809039.540    89304337.39947
  21971319.900   115460054.27508  21971321.260    89968872.80648
  23422630.700   123086751.63806  23422632.140    95911765.05545
  21116633.720   110968655.38909  21116633.400    86469080.28748
  24229201.600   127325315.60405  24229204.360    99214520.04743
  22809661.380   119865548.25008  22809664.420    93401721.45647
 15 02 16 07 55 30.0000000  0 10G01G03G04G09G11G17G20G23G31G32
  20785559.480   109228831.99609  20785563.860    85113385.14949
  20537783.280   107926766.08509  20537786.460    84098789.88149
  22626011.800   118900461.07808  22626015.220    92649706.10046
  22827837.100   119961116.81407  22827841.780    93476213.76047
  21825019.620   114691224.73508  21825021.060    89369778.95247
  21964010.100   115421641.00908  21964011.460    89938940.37648
  23407964.520   123009681.45106  23407966.500    95851710.40046
  21105971.220   110912622.97709  21105970.840    86425418.67548
  24229433.920   127326536.70105  24229436.620    99215471.49644
  22824778.860   119944991.16208  22824781.960    93463624.94247
 15 02 16 07 56  0.0000000  0 10G01G03G04G09G11G17G20G23G31G32
  20792185.960   109263654.59109  20792190.400    85140519.59849
  20540908.880   107943191.14509  20540912.080    84111588.60849
  22641474.460   118981717.96508  22641477.980    92713023.09046
  22808665.760   119860372.16407  22808670.620    93397711.51147
  21841062.860   114775532.30708  21841064.280    89435473.10847
  21956803.320   115383769.16108  21956804.640    89909429.80548
  23393322.960   122932738.62207  23393325.240    95791754.98245
  21095392.180   110857029.59909  21095391.780    86382099.17748
  24229764.820   127328276.34905  24229768.200    99216827.08444
  22839904.940   120024478.82308  22839908.000    93525563.30146
 15 02 16 07 56 30.0000000  0 10G01G03G04G09G11G17G20G23G31G32
  20798882.640   109298846.18909  20798887.140    85167941.58749
  20544078.680   107959848.53809  20544081.980    84124568.37749
  22656982.900   119063215.29108  22656986.420    92776527.44046
  22789541.300   119759873.07907  22789546.180    93319400.58747
  21857167.560   114860162.54808  21857168.920    89501418.69247
  21949699.900   115346440.16609  21949701.140    89880342.22748
  23378705.940   122855923.44607  23378708.060    95731899.02145
  21084896.840   110801876.52809  21084896.400    86339122.76048
  24230194.760   127330535.30205  24230197.680    99218587.19943
  22855039.400   120104010.34008  22855042.380    93587535.83646
 15 02 16 07 57  0.0000000  0 10G01G03G04G09G11G17G20G23G31G32
  20805650.020   109334408.98509  20805654.480    85195652.82649
  20547292.900   107976739.39409  20547296.360    84137730.06649
  22672537.440   119144954.42008  22672540.880    92840220.19446
  22770464.480   119659623.62108  22770469.200    93241284.16947
  21873333.820   114945116.04008  21873335.140    89567616.15647
  21942700.400   115309656.91809  21942701.540    89851679.92748
  23364113.440   122779238.10007  23364115.220    95672144.22145
  21074485.900   110747166.79509  21074485.340    86296491.79948
  24230724.260   127333316.21905  24230726.760    99220754.16243
  22870182.320   120183586.58108  22870185.300    93649543.23146
 15 02 16 07 57 30.0000000  0 10G01G03G04G09G11G17G20G23G31G32
  20812488.760   109370346.44609  20812493.160    85223656.00649
  20550551.960   107993866.06909  20550555.580    84151075.50949
  22688138.380   119226937.55608  22688141.700    92904103.08346
  22751436.240   119559629.23708  22751440.780    93163366.50147
  21889561.840   115030394.28308  21889563.160    89634066.68247
  21935805.600   115273424.10209  21935806.660    89823446.53048
  23349545.880   122702685.91806  23349547.600    95612493.22145
  21064160.180   110692904.87609  21064159.500    86254209.79248
  24231353.620   127336622.65104  24231356.520    99223330.55741
  22885334.180   120263209.76408  22885337.160    93711587.21046
 15 02 16 07 58  0.0000000  0 10G01G03G04G09G11G17G20G23G31G32
  20819398.500   109406657.19109  20819402.960    85251950.06649
  20553855.400   108011226.15509  20553859.180    84164602.83449
  22703785.340   119309162.45508  22703788.580    92968174.37447
  22732456.660   119459890.57208  22732461.060    93085648.11147
  21905850.980   115115994.01508  21905852.320    89700767.71747
  21929015.480   115237741.56608  21929016.480    89795641.92048
  23335003.160   122626265.73906  23335005.120    95552945.02945
  21053919.660   110639090.58509  21053918.920    86212276.58448
  24232082.380   127340453.63804  24232084.040    99226331.72741
  22900494.500   120342877.22908  22900497.400    93773665.67946
 15 02 16 07 58 30.0000000  0 10G01G03G04G09G11G17G20G23G31G32
  20826378.700   109443338.47409  20826383.260    85280532.84349
  20557202.600   108028815.90409  20557206.400    84178309.11849
  22719477.520   119391625.29408  22719480.780    93032431.05646
  22713525.540   119360406.86708  22713529.920    93008128.38947
  21922200.420   115201910.76808  21922201.760    89767715.77547
  21922329.760   115202607.78308  21922330.760    89768264.91648
  23320485.160   122549975.04906  23320487.360    95493497.74345
  21043763.980   110585722.02709  21043763.220    86170690.70548
  24232910.720   127344807.10605  24232911.780    99229723.99344
  22915662.420   120422585.08708  22915665.260    93835775.62046
 15 02 16 07 59  0.0000000  0 10G01G03G04G09G11G17G20G23G31G32
  20833428.820   109480386.91309  20833433.440    85309401.72849
  20560592.720   108046630.91609  20560596.460    84192190.91949
  22735214.040   119474321.64508  22735217.460    93096869.70447
  22694642.580   119261176.64708  22694647.020    92930806.18047
  21938609.200   115288139.47908  21938610.500    89834906.93147
  21915748.080   115168020.39309  21915749.040    89741313.66248
  23305991.340   122473809.66906  23305993.660    95434148.08245
  21033692.600   110532796.50709  21033691.820    86129450.04248
  24233838.080   127349679.70105  24233839.200    99233520.74143
  22930837.080   120502328.65207  22930839.920    93897913.41046
 15 02 16 07 59 30.0000000  0 10G01G03G04G09G11G17G20G23G31G32
  20840550.000   109517808.71109  20840554.580    85338561.53249
  20564026.700   108064676.34509  20564030.380    84206252.27249
  22750996.100   119557256.78308  22750999.640    93161494.40946
  22675809.440   119162208.13608  22675813.920    92853687.89347
  21955078.100   115374684.36608  21955079.440    89902344.46047
  21909271.540   115133986.01408  21909272.520    89714793.34248
  23291522.760   122397775.94807  23291524.780    95374901.04344
  21023706.900   110480321.34909  21023706.080    86088560.30948
  24234865.580   127355078.00704  24234866.700    99237727.08443
  22946019.540   120582112.93908  22946022.480    93960082.91746
 15 02 16 08 00  0.0000000  0  9G01G03G04G09G11G17G20G23G32
  20847741.700   109555601.18709  20847746.240    85368010.18349
  20567503.860   108082948.52709  20567507.460    84220490.30549
  22766823.020   119640427.09208  22766826.540    93226302.36846
  22657025.980   119063500.67408  22657030.500    92776773.01647
  21971606.320   115461541.02208  21971607.800    89970024.93047
  21902900.080   115100504.08908  21902901.140    89688703.50048
  23277078.540   122321871.18806  23277080.380    95315754.49346
  21013806.640   110428294.90309  21013805.740    86048020.22548
  22961209.040   120661934.24307  22961212.040    94022281.25146
 15 02 16 08 00 30.0000000  0  9G01G03G04G09G11G17G20G23G32
  20855005.320   109593771.35009  20855009.780    85397753.12949
  20571025.240   108101453.53009  20571028.860    84234909.75549
  22782695.800   119723838.36208  22782699.220    93291298.09746
  22638293.940   118965063.17908  22638298.540    92700068.49647
  21988194.820   115548714.59308  21988196.500    90037952.32047
  21896635.200   115067582.26908  21896636.280    89663050.10948
  23262659.960   122246102.64406  23262662.240    95256714.09845
  21003993.280   110376725.05409  21003992.360    86007835.93148
  22976406.740   120741798.35108  22976409.680    94084512.96246
 15 02 16 08 01  0.0000000  0 10G01G03G04G09G11G17G20G23G31G32
  20862340.260   109632316.44109  20862344.720    85427788.22049
  20574590.180   108120187.54209  20574593.820    84249507.66649
  22798613.580   119807486.98708  22798617.060    93356478.77646
  22619613.160   118866894.98608  22619617.780    92623573.82747
  22004842.780   115636200.62808  22004844.660    90106123.20647
  21890476.520   115035218.18508  21890477.560    89637831.30148
  23248267.080   122170467.45807  23248269.460    95197777.57245
  20994266.500   110325610.39309  20994265.620    85968006.32648
  24238548.100   127374427.28904  24238552.460    99252822.20645
  22991611.840   120821701.35207  22991614.700    94146774.96146
 15 02 16 08 01 30.0000000  0 10G01G03G04G09G11G17G20G23G31G32
  20869744.340   109671225.05509  20869748.860    85458106.57949
  20578196.440   108139138.25309  20578200.020    84264274.42149
  22814574.140   119891360.62408  22814577.720    93421834.78446
  22600981.780   118768986.52008  22600986.440    92547281.53147
  22021547.760   115723985.87808  22021549.740    90174527.23547
  21884422.180   115003402.25808  21884423.280    89613039.63848
  23233897.600   122094954.23007  23233899.960    95138936.10445
  20984624.160   110274939.73309  20984623.460    85928522.68848
  24239975.180   127381924.88804  24239979.200    99258664.47644
  23006821.920   120901630.75107  23006824.780    94209057.53046
 15 02 16 08 02  0.0000000  0 10G01G03G04G09G11G17G20G23G31G32
  20877220.240   109710510.85109  20877224.720    85488718.84749
  20581846.380   108158318.41309  20581849.880    84279219.97249
  22830579.980   119975471.79708  22830583.640    93487375.87346
  22582402.860   118671353.64208  22582407.560    92471203.97847
  22038312.000   115812082.05108  22038313.940    90243173.53947
  21878474.940   114972148.98808  21878476.160    89588686.40348
  23219553.900   122019576.63707  23219556.160    95080200.32446
  20975069.080   110224727.64409  20975068.540    85889396.38148
  24241503.260   127389953.34706  24241506.500    99264920.31243
  23022039.460   120981599.06407  23022042.220    94271370.42046
 15 02 16 08 02 30.0000000  0 10G01G03G04G09G11G17G20G23G31G32
  20884767.760   109750173.05009  20884772.220    85519624.41649
  20585539.600   108177726.28609  20585543.080    84294342.95549
  22846630.800   120059818.79008  22846634.420    93553100.73146
  22563876.600   118573997.51508  22563881.280    92395342.06447
  22055134.960   115900486.74308  22055136.820    90312060.26247
  21872634.700   114941458.31708  21872636.080    89564771.56848
  23205235.720   121944334.05107  23205237.780    95021569.75045
  20965601.360   110174974.48909  20965600.860    85850627.68948
  24243132.580   127398512.31006  24243134.980    99271589.68145
  23037264.100   121061604.54907  23037266.780    94333712.28046
 15 02 16 08 03  0.0000000  0 11G01G03G04G06G09G11G17G20G23G31G32
  20892384.560   109790199.21809  20892388.980    85550813.59849
  20589273.580   108197348.55509  20589277.060    84309632.99549
  22862724.040   120144388.42208  22862727.520    93618999.06846
  24647818.400   129525153.99805  24647822.600   100928730.23645
  22545401.000   118476907.72108  22545405.660    92319687.69247
  22072013.900   115989185.54408  22072015.620    90381176.15847
  21866899.420   114911319.05509  21866900.840    89541286.38748
  23190940.800   121869213.95707  23190942.760    94963034.61045
  20956218.740   110125668.63009  20956218.240    85812207.54148
  24244860.080   127407589.36705  24244862.360    99278662.62645
  23052493.260   121141633.66307  23052495.940    94396072.56146
 15 02 16 08 03 30.0000000  0 11G01G03G04G06G09G11G17G20G23G31G32
  20900074.100   109830607.71109  20900078.500    85582300.69949
  20593051.680   108217202.63009  20593055.200    84325103.66149
  22878862.900   120229197.57908  22878866.200    93685084.05446
  24629354.620   129428127.41105  24629359.260   100853125.06045
  22526979.940   118380104.54208  22526984.560    92244256.65147
  22088951.980   116078195.31308  22088953.640    90450534.36447
  21861272.680   114881750.29708  21861274.140    89518245.76448
  23176672.720   121794234.49407  23176674.640    94904609.04845
  20946924.940   110076829.67109  20946924.440    85774151.20948
  24246689.520   127417203.20706  24246691.840    99286153.90444
  23067730.240   121221703.69207  23067733.060    94458464.69546
 15 02 16 08 04  0.0000000  0 11G01G03G04G06G09G11G17G20G23G31G32
  20907834.060   109871386.33209  20907838.480    85614076.20049
  20596871.440   108237275.47309  20596874.960    84340744.80649
  22895044.860   120314233.53308  22895048.140    93751345.76746
  24610885.840   129331075.55905  24610890.980   100777500.27744
  22508611.480   118283577.86208  22508616.060    92169041.06547
  22105946.540   116167501.87408  22105948.160    90520123.82547
  21855752.360   114852740.80608  21855753.760    89495640.94848
  23162429.220   121719383.84207  23162431.320    94846283.90546
  20937717.780   110028446.02309  20937717.340    85736449.66748
  24248618.780   127427341.74506  24248621.360    99294054.04244
  23082972.520   121301801.55507  23082975.460    94520878.53346
 15 02 16 08 04 30.0000000  0 11G01G03G04G06G09G11G17G20G23G31G32
  20915665.220   109912539.36809  20915669.700    85646143.47149
  20600733.460   108257570.48609  20600737.040    84356559.05149
  22911270.420   120399499.32708  22911273.840    93817786.55546
  24592413.440   129234003.99904  24592418.920   100701860.09344
  22490296.860   118187334.01808  22490301.380    92094045.86847
  22122998.100   116257107.85208  22122999.700    90589946.59947
  21850339.480   114824295.89808  21850340.820    89473476.05048
  23148211.080   121644666.35507  23148213.340    94788062.52246
  20928598.280   109980522.84309  20928597.880    85699106.92548
  24250648.740   127438009.28306  24250651.320    99302366.36744
  23098220.700   121381930.36508  23098223.560    94583316.46646
 15 02 16 08 05  0.0000000  0 11G01G03G04G06G09G11G17G20G23G31G32
  20923567.580   109954066.93709  20923572.220    85678502.56849
  20604637.640   108278086.96909  20604641.240    84372545.87649
  22927539.540   120484994.30608  22927543.080    93884405.94946
  24573937.440   129136914.04304  24573943.200   100626205.53845
  22472036.560   118091375.08608  22472041.000    92019272.69547
  22140106.280   116347011.42408  22140107.820    90660001.26347
  21845034.160   114796416.11708  21845035.500    89451751.51848
  23134018.200   121570082.25107  23134020.520    94729945.05745
  20919566.600   109933061.13809  20919566.260    85662123.78748
  24252779.440   127449206.68306  24252782.140    99311091.57345
  23113474.680   121462089.36708  23113477.360    94645777.93446
 15 02 16 08 05 30.0000000  0 10G01G03G04G06G09G11G17G20G23G32
  20931540.860   109995966.90009  20931545.600    85711151.85149
  20608583.360   108298821.89209  20608587.000    84388702.91749
  22943851.720   120570715.41408  22943855.360    93951201.54646
  24555457.860   129039804.82305  24555463.940   100550536.04144
  22453830.540   117995701.02308  22453834.880    91944721.49147
  22157270.300   116437208.59008  22157271.840    90730284.71647
  21839836.260   114769100.88908  21839837.580    89430466.89548
  23119850.160   121495629.26607  23119852.260    94671929.77246
  20910622.500   109886059.48609  20910622.140    85625499.12748
  23128733.720   121542275.49707  23128736.360    94708260.54446
 15 02 16 08 06  0.0000000  0 11G01G03G04G06G09G11G17G20G23G31G32
  20939585.720   110038242.68109  20939590.500    85744093.97949
  20612571.160   108319777.91709  20612574.840    84405032.25049
  22960207.360   120656664.84008  22960211.120    94018175.03546
  24536975.840   128942681.03705  24536981.980   100474855.15645
  22435679.800   117900317.25008  22435684.000    91870396.49547
  22174490.580   116527701.43108  22174492.140    90800798.54447
  21834746.680   114742354.79808  21834747.980    89409625.75848
  23105707.800   121421311.17207  23105709.640    94614019.57845
  20901766.820   109839522.38509  20901766.400    85589236.45548
  24257341.500   127473201.28005  24257344.640    99329779.65144
  23143998.120   121622491.22707  23144001.060    94770766.20446
 15 02 16 08 06 30.0000000  0 11G01G03G04G06G09G11G17G20G23G31G32
  20947701.120   110080889.32509  20947705.940    85777325.08549
  20616599.960   108340949.27509  20616603.680    84421529.37449
  22976605.280   120742836.88507  22976609.220    94085321.99146
  24518490.480   128845539.09705  24518496.580   100399160.16344
  22417583.620   117805220.84808  22417587.820    91796295.44047
  22191765.780   116618482.87308  22191767.340    90871537.27047
  21829764.580   114716173.36209  21829765.900    89389224.61548
  23091590.280   121347122.97807  23091591.620    94556210.62845
  20892998.760   109793445.71609  20892998.240    85553332.57648
  24259773.940   127485983.39005  24259777.840    99339739.72845
  23159266.980   121702730.69507  23159270.320    94833290.36646
 15 02 16 08 07  0.0000000  0 11G01G03G04G06G09G11G17G20G23G31G32
  20955888.380   110123913.56409  20955893.240    85810850.42149
  20620670.880   108362341.86509  20620674.600    84438198.88549
  22993046.740   120829237.27508  22993050.800    94152646.88446
  24500002.940   128748387.04705  24500009.240   100323457.24445
  22399543.720   117710420.58108  22399547.900    91722425.12147
  22209096.840   116709557.90508  22209098.360    90942504.75947
  21824891.420   114690564.25309  21824892.720    89369269.43448
  23077498.680   121273071.47207  23077500.080    94498508.21345
  20884319.760   109747837.24509  20884319.180    85517793.51348
  24262308.360   127499286.73005  24262313.260    99350093.25145
  23174541.560   121782999.69307  23174545.200    94895837.52946
 15 02 16 08 07 30.0000000  0 11G01G03G04G06G09G11G17G20G23G31G32
  20964145.700   110167305.72409  20964150.620    85844662.43749
  20624781.960   108383945.26109  20624785.640    84455032.66549
  23009529.840   120915855.43908  23009533.820    94220141.45746
  24481511.920   128651216.51205  24481518.300   100247739.94444
  22381558.620   117615908.79408  22381562.780    91648779.61147
  22226481.620   116800915.46708  22226483.140    91013692.39647
  21820125.440   114665518.43908  21820126.740    89349753.16848
  23063431.120   121199147.22807  23063433.160    94440904.95746
  20875728.120   109702687.87509  20875727.460    85482612.19848
  24264943.200   127513128.63806  24264946.020    99360897.74444
  23189819.960   121863287.71207  23189823.560    94958399.50545
 15 02 16 08 08  0.0000000  0 11G01G03G04G06G09G11G17G20G23G31G32
  20972474.920   110211075.85509  20972479.860    85878768.98349
  20628934.980   108405768.76609  20628938.560    84472037.96049
  23026056.100   121002700.40207  23026060.040    94287812.77746
  24463019.700   128554035.02805  24463025.000   100171996.20144
  22363630.700   117521697.63308  22363634.820    91575368.34947
  22243921.700   116892563.79308  22243923.260    91085106.61047
  21815468.620   114641046.96808  21815470.060    89330684.46748
  23049389.640   121125360.21806  23049392.360    94383408.62346
  20867225.920   109658008.60409  20867225.240    85447797.18648
  24267676.300   127527499.10015  24267682.520    99372103.07354
  23205103.900   121943604.00307  23205107.140    95020983.55245
 15 02 16 08 08 30.0000000  0 10G01G03G04G06G09G11G17G20G23G32
  20980874.880   110255217.87409  20980879.820    85913165.31749
  20633128.520   108427805.51309  20633132.080    84489209.42449
  23042624.100   121089765.25207  23042628.000    94355655.43946
  24444525.460   128456845.78205  24444531.120   100096264.28344
  22345759.220   117427783.02608  22345763.240    91502188.17347
  22261415.560   116984494.49808  22261417.160    91156740.85447
  21810920.120   114617144.54709  21810921.500    89312059.17748
  23035373.320   121051705.04007  23035376.340    94326014.98346
  20858812.140   109613793.91309  20858811.480    85413344.19248
  23220392.000   122023941.49007  23220394.920    95083584.10545
 15 02 16 08 09  0.0000000  0 10G01G03G04G06G09G11G17G20G23G32
  20989346.280   110299735.37909  20989351.180    85947854.23949
  20637363.100   108450058.34409  20637366.680    84506549.26849
  23059234.380   121177052.65207  23059238.260    94423671.49446
  24426029.520   128359649.81505  24426035.600   100020527.15445
  22327945.260   117334170.57308  22327949.200    91429243.44347
  22278963.660   117076709.75308  22278965.280    91228596.83747
  21806480.800   114593815.53409  21806482.020    89293880.70748
  23021383.060   120978185.20407  23021385.660    94268726.83445
  20850487.620   109570048.39609  20850487.040    85379256.79149
  23235684.660   122104303.02207  23235687.480    95146203.38646
 15 02 16 08 09 30.0000000  0 10G01G03G04G06G09G11G17G20G23G32
  20997888.660   110344626.13309  20997893.580    85982834.00049
  20641638.180   108472524.37009  20641641.860    84524055.23749
  23075886.380   121264559.51807  23075890.260    94491858.56946
  24407532.220   128262446.43106  24407538.480    99944784.24644
  22310188.800   117240860.15508  22310192.720    91356534.06847
  22296565.200   117169205.80208  22296566.880    91300671.60947
  21802150.500   114571059.00809  21802151.580    89276148.31648
  23007418.380   120904798.62307  23007420.280    94211542.53745
  20842252.160   109526770.78809  20842251.620    85345533.98649
  23250981.140   122184685.65507  23250984.080    95208839.09846
 15 02 16 08 10  0.0000000  0 10G01G03G04G06G09G11G17G20G23G32
  21006502.280   110389891.25409  21006507.240    86018105.48149
  20645953.940   108495203.99609  20645957.680    84541727.65349
  23092580.140   121352285.49107  23092583.980    94560216.39446
  24389034.120   128165238.13306  24389040.380    99869037.49845
  22292490.460   117147854.91908  22292494.360    91284062.49847
  22314219.960   117261981.77708  22314221.700    91372964.50747
  21797929.400   114548876.35508  21797930.380    89258863.12648
  22993479.200   120831546.22507  22993480.620    94154462.75046
  20834106.120   109483963.06709  20834105.560    85312177.32048
  23266281.520   122265089.60807  23266284.540    95271491.42046
 15 02 16 08 10 30.0000000  0 10G01G03G04G06G09G11G17G20G23G32
  21015187.240   110435530.75909  21015192.160    86053668.68949
  20650310.300   108518096.52109  20650314.020    84559565.96149
  23109315.620   121440230.40908  23109319.440    94628744.81346
  24370535.400   128068026.48006  24370541.700    99793288.13644
  22274850.580   117055156.92408  22274854.480    91211830.34547
  22331927.660   117355036.18708  22331929.440    91445474.37247
  21793817.560   114527268.56108  21793818.620    89242025.85548
  22979565.280   120758428.60407  22979566.980    94097487.97546
  20826049.560   109441625.68709  20826049.020    85279187.16248
  23281585.840   122345514.28907  23281588.760    95334159.89046
 15 02 16 08 11  0.0000000  0 10G01G03G04G06G09G11G17G20G23G32
  21023943.100   110481542.71109  21023947.980    86089522.11649
  20654706.680   108541199.35409  20654710.360    84577568.15349
  23126092.200   121528391.02807  23126095.900    94697441.31046
  24352035.980   127970810.93106  24352042.360    99717535.75545
  22257269.200   116962766.25608  22257273.080    91139837.66247
  22349687.620   117448365.18608  22349689.400    91518198.20347
  21789814.780   114506234.54008  21789816.040    89225635.67648
  22965676.600   120685443.94707  22965678.680    94040616.82145
  20818082.340   109399757.70009  20818081.800    85246562.76149
  23296893.600   122425956.91907  23296896.380    95396842.36546
 15 02 16 08 11 30.0000000  0 10G01G03G04G06G09G11G17G20G23G32
  21032769.860   110527927.14909  21032774.640    86125665.79749
  20659143.000   108564511.85509  20659146.620    84595733.72449
  23142909.720   121616766.69908  23142913.340    94766305.37746
  24333536.280   127873593.14806  24333542.540    99641781.59045
  22239746.700   116870685.08608  22239750.680    91068086.14448
  22367499.580   117541967.22708  22367501.300    91591134.80546
  21785921.340   114485774.92708  21785922.760    89209693.11448
  22951813.480   120612592.52607  22951815.740    93983849.48845
  20810204.620   109358359.96009  20810204.080    85214304.79449
  23312204.600   122506416.81207  23312207.320    95459538.32045
 15 02 16 08 12  0.0000000  0 10G01G03G04G06G09G11G17G20G23G32
  21041667.740   110574685.41409  21041672.440    86162100.78449
  20663619.240   108588034.78409  20663622.880    84614063.26049
  23159768.080   121705357.76607  23159771.660    94835337.27746
  24315036.840   127776375.95606  24315042.760    99566027.94046
  22222283.800   116778916.81208  22222287.860    90996578.42348
  22385363.380   117635841.79008  22385365.020    91664283.75846
  21782137.760   114465891.80109  21782139.180    89194199.74748
  22937976.040   120539875.78607  22937978.060    93927187.10645
  20802416.840   109317434.61909  20802416.200    85182414.93849
  23327519.020   122586894.72407  23327521.680    95522248.31646
 15 02 16 08 12 30.0000000  0 10G01G03G04G06G09G11G17G20G23G32
  21050637.220   110621820.11109  21050641.940    86198829.06949
  20668135.860   108611770.05809  20668139.580    84632558.26549
  23176667.620   121794165.84208  23176671.280    94904538.28746
  24296538.220   127679163.57806  24296543.940    99490278.02845
  22204881.300   116687466.06008  22204885.480    90925318.13548
  22403279.180   117729989.78408  22403280.820    91737645.76247
  21778464.480   114446588.81308  21778465.940    89179158.44148
  22924164.760   120467296.77307  22924166.460    93870632.02745
  20794719.580   109276985.12609  20794718.880    85150895.85749
  23342837.160   122667392.45807  23342839.840    95584973.77445
 15 02 16 08 13  0.0000000  0 10G01G03G04G06G09G11G17G20G23G32
  21059677.880   110669329.08109  21059682.680    86235848.99349
  20672692.360   108635714.92209  20672696.120    84651216.57949
  23193607.920   121883187.75407  23193611.540    94973905.92046
  24278040.160   127581955.39006  24278045.840    99414531.35645
  22187539.180   116596332.74808  22187543.480    90854305.18048
  22421246.240   117824407.51908  22421247.960    91811217.96347
  21774901.240   114427864.38308  21774902.820    89164567.95248
  22910379.160   120394853.56807  22910380.920    93814182.77445
  20787112.540   109237009.74309  20787111.800    85119746.21049
  23358158.360   122747907.26406  23358161.320    95647712.48946
 15 02 16 08 13 30.0000000  0 10G01G03G04G06G09G11G17G20G23G32
  21068789.340   110717209.99509  21068794.220    86273158.74949
  20677288.200   108659866.46009  20677292.040    84670035.92949
  23210588.380   121972420.55507  23210591.980    95043437.89746
  24259542.720   127484750.63706  24259548.440    99338787.36045
  22170257.420   116505516.60508  22170261.780    90783539.38448
  22439263.820   117919090.73508  22439265.660    91884997.01147
  21771447.840   114409716.46008  21771449.440    89150426.69148
  22896618.960   120322544.08307  22896621.040    93757837.72546
  20779595.480   109197507.12909  20779594.660    85088964.95249
  23373482.320   122828436.11307  23373485.600    95710462.13945
 15 02 16 08 14  0.0000000  0 10G01G03G04G06G09G11G17G20G23G32
  21077971.880   110765464.21709  21077976.720    86310759.38849
  20681923.580   108684225.46809  20681927.480    84689016.94649
  23227609.020   122061864.72207  23227612.740    95113134.54245
  24241046.460   127387552.38405  24241052.320    99263048.44745
  22153036.700   116415021.09708  22153041.040    90713023.42148
  22457331.880   118014039.14908  22457333.820    91958982.70847
  21768104.740   114392147.78108  21768106.260    89136736.78448
  22882884.620   120250369.89707  22882887.020    93701598.10346
  20772168.780   109158479.46009  20772167.960    85058553.76949
  23388809.300   122908979.73107  23388812.720    95773223.30645
 15 02 16 08 14 30.0000000  0 10G01G03G04G06G09G11G17G20G23G32
  21087225.620   110814092.34709  21087230.360    86348651.39149
  20686598.420   108708791.94709  20686602.400    84708159.63249
  23244669.780   122151519.84107  23244673.700    95182995.58846
  24222551.720   127290362.82605  24222557.780    99187316.31846
  22135877.480   116324848.86608  22135881.700    90642759.35948
  22475450.320   118109251.82408  22475452.260    92033174.32947
  21764871.980   114375159.19408  21764873.420    89123498.90648
  22869176.180   120178331.94507  22869178.780    93645464.63846
  20764832.680   109119928.00709  20764831.880    85028513.68049
  23404139.200   122989538.20107  23404142.660    95835996.07645
 15 02 16 08 15  0.0000000  0 10G01G03G04G06G09G11G17G20G23G32
  21096551.520   110863099.68009  21096556.200    86386838.87649
  20691313.660   108733570.69709  20691317.660    84727467.72149
  23261771.600   122241390.41207  23261775.720    95253024.49246
  24204058.020   127193189.96805  24204065.960    99111610.43645
  22118781.160   116235007.34008  22118785.240    90572752.99148
  22493619.740   118204732.33708  22493621.720    92107574.63947
  21761750.800   114358756.98909  21761752.240    89110717.94448
  22855494.840   120106435.89907  22855497.200    93589441.75646
  20757588.340   109081859.02009  20757587.660    84998849.53249
  23419472.800   123070116.12407  23419476.260    95898783.98246
 15 02 16 08 15 30.0000000  0 10G01G03G04G06G09G11G17G20G23G32
  21105947.060   110912472.93009  21105951.680    86425311.49549
  20696066.660   108758547.88609  20696070.620    84746930.44349
  23278911.780   122331462.37707  23278916.040    95323210.29945
  24185567.780   127096020.20805  24185575.360    99035893.74244
  22101745.560   116145485.31008  22101749.620    90502995.57548
  22511837.340   118300465.87708  22511839.340    92182172.13347
  21758738.760   114342928.10409  21758740.220    89098383.74048
  22841838.080   120034668.65807  22841839.900    93533519.25946
  20750433.420   109044259.73209  20750432.840    84969551.38849
  23434807.540   123150699.83107  23434811.000    95961576.40746
 15 02 16 08 16  0.0000000  0 10G01G03G04G06G09G11G17G20G23G32
  21115413.700   110962220.13109  21115418.340    86464075.49449
  20700858.840   108783731.02509  20700862.800    84766553.64149
  23296091.720   122421742.74107  23296095.960    95393558.51045
  24167080.080   126998867.30406  24167087.740    98960190.85045
  22084772.640   116056292.81408  22084776.800    90433494.92448
  22530104.260   118396458.58508  22530106.280    92256971.56646
  21755837.480   114327681.46509  21755838.940    89086503.22248
  22828207.360   119963038.36007  22828208.900    93477703.48346
  20743369.560   109007138.91309  20743369.000    84940626.07249
  23450144.760   123231296.70907  23450148.240    96024379.07845
 15 02 16 08 16 30.0000000  0 10G01G03G04G06G09G11G17G20G23G32
  21124950.280   111012335.46509  21124955.040    86503126.34549
  20705689.040   108809113.75609  20705693.060    84786332.36449
  23313310.060   122512224.77407  23313314.280    95464063.87245
  24148594.140   126901721.01305  24148601.540    98884492.44146
  22067861.820   115967426.21508  22067866.140    90364248.23748
  22548419.020   118492702.65008  22548421.000    92331966.87346
  21753046.000   114313012.02609  21753047.420    89075072.46748
  22814601.700   119891539.88107  22814603.360    93421990.41446
  20736395.800   108970491.43609  20736395.200    84912069.59249
  23465483.200   123311900.32706  23465486.840    96087186.99546
 15 02 16 08 17  0.0000000  0 10G01G03G04G06G09G11G17G20G23G32
  21134558.460   111062827.08609  21134563.320    86542470.41448
  20710558.740   108834703.86609  20710562.800    84806272.68049
  23330568.160   122602915.81607  23330572.420    95534732.08945
  24130111.860   126804594.50506  24130118.960    98808809.43445
  22051015.000   115878895.68908  22051019.440    90295263.42848
  22566782.860   118589204.99608  22566784.780    92407163.45246
  21750366.100   114298928.50409  21750367.280    89064098.27448
  22801022.560   119820181.68407  22801024.600    93366386.67146
  20729513.860   108934326.31609  20729513.200    84883888.98849
  23480824.300   123392518.56506  23480828.260    96150006.29945
 15 02 16 08 17 30.0000000  0 10G01G03G04G06G09G11G17G20G23G32
  21144237.700   111113691.61709  21144242.560    86582105.07749
  20715467.180   108860497.40309  20715471.140    84826371.51249
  23347865.260   122693811.88407  23347869.420    95605560.09845
  24111632.620   126707480.99506  24111639.840    98733130.46545
  22034231.980   115790699.91408  22034236.380    90226539.46648
  22585194.940   118685960.64108  22585196.720    92482557.39946
  21747797.040   114285427.80609  21747798.040    89053578.23948
  22787469.380   119748960.61607  22787471.840    93310889.77646
  20722723.180   108898640.77909  20722722.460    84856082.08849
  23496167.480   123473147.28806  23496171.640    96212833.78245
 15 02 16 08 18  0.0000000  0 10G01G03G04G06G09G11G17G20G23G32
  21153987.320   111164926.18709  21153992.220    86622028.06348
  20720413.700   108886491.10509  20720417.480    84846626.31449
  23365200.600   122784909.10607  23365204.700    95676544.84645
  24093157.140   126610389.47206  24093163.740    98657474.71745
  22017512.600   115702838.17808  22017516.800    90158075.78948
  22603654.240   118782964.84408  22603655.960    92558145.02446
  21745338.460   114272508.02508  21745339.480    89043510.85948
  22773941.940   119677874.23007  22773944.420    93255497.81546
  20716023.280   108863432.67909  20716022.600    84828647.21549
  23511512.160   123553783.23807  23511516.260    96275666.91745
 15 02 16 08 18 30.0000000  0 10G01G03G04G06G09G11G17G20G23G32
  21163807.180   111216529.73709  21163812.080    86662238.57648
  20725397.960   108912683.42909  20725401.720    84867035.88849
  23382573.820   122876205.51007  23382577.980    95747684.76646
  24074685.180   126513315.65006  24074691.100    98581832.76645
  22000856.920   115615311.46608  22000860.940    90089873.17748
  22622160.380   118880214.90608  22622162.040    92633924.23646
  21742990.240   114260168.61608  21742991.460    89033895.72948
  22760440.340   119606922.12607  22760442.600    93200210.48845
  20709414.160   108828701.76109  20709413.500    84801584.17949
  23526858.000   123634424.95207  23526861.860    96338504.49246
 15 02 16 08 19  0.0000000  0 10G01G03G04G06G09G11G17G20G23G32
  21173698.580   111268509.13209  21173703.480    86702741.95248
  20730421.200   108939080.86509  20730425.060    84887605.30049
  23399986.180   122967707.32807  23399990.280    95818984.77945
  24056217.980   126416268.27006  24056223.480    98506211.44046
  21984266.580   115528128.75308  21984270.560    90021938.62348
  22640714.380   118977716.43508  22640716.020    92709899.40046
  21740753.800   114248416.88008  21740755.320    89024738.52648
  22746965.700   119536111.24607  22746967.660    93145033.22246
  20702897.300   108794455.63009  20702896.600    84774898.88849
  23542206.080   123715078.97907  23542209.920    96401351.68945
 15 02 16 08 19 30.0000000  0 10G01G03G04G06G09G11G17G20G23G32
  21183660.820   111320861.18309  21183665.820    86743535.71248
  20735482.800   108965679.83909  20735486.700    84908331.75749
  23417436.920   123059410.42707  23417440.740    95890441.65546
  24037755.240   126319246.02906  24037760.680    98430609.68846
  21967741.520   115441288.95908  21967745.460    89954271.26748
  22659315.180   119075464.36108  22659316.940    92786066.54046
  21738628.660   114237250.15308  21738630.480    89016037.17248
  22733517.260   119465438.81507  22733519.200    93089963.82146
  20696472.160   108760691.53909  20696471.460    84748589.22149
  23557555.640   123795741.61606  23557559.640    96464205.56445
 15 02 16 08 20  0.0000000  0 10G01G03G04G06G09G11G17G20G23G32
  21193693.980   111373585.66809  21193698.940    86784619.69448
  20740582.640   108992479.76009  20740586.540    84929214.80949
  23434925.640   123151313.79807  23434929.380    95962054.53846
  24019297.400   126222250.54706  24019303.000    98355028.79145
  21951282.060   115354793.92008  21951285.960    89886872.56248
  22677962.480   119173456.83408  22677964.400    92862424.25346
  21736615.040   114226668.90508  21736616.940    89007792.04648
  22720094.980   119394905.05307  22720097.100    93035002.50046
  20690138.840   108727410.03309  20690138.180    84722655.61049
  23572906.680   123876412.25506  23572910.820    96527065.69245
 15 02 16 08 20 30.0000000  0 10G01G03G04G06G09G11G17G20G23G32
  21203797.340   111426678.70509  21203802.180    86825990.86348
  20745719.940   109019476.33109  20745723.760    84950251.08949
  23452451.580   123243412.56107  23452455.200    96033819.68845
  24000844.320   126125279.87206  24000849.860    98279467.26945
  21934887.880   115268641.89708  21934891.720    89819741.13648
  22696655.340   119271688.27108  22696657.320    92938968.15746
  21734712.340   114216669.63209  21734714.160    89000000.40848
  22706698.340   119324506.22007  22706700.580    92980146.31446
  20683896.760   108694607.79709  20683896.140    84697095.44749
  23588258.440   123957086.72306  23588262.820    96589928.82145
 15 02 16 08 21  0.0000000  0 10G01G03G04G06G09G11G17G20G23G32
  21213971.380   111480143.56209  21213976.200    86867651.75848
  20750895.240   109046672.45809  20750899.000    84971442.87149
  23470015.220   123335709.52707  23470018.740    96105739.33445
  23982397.000   126028339.12106  23982402.380    98203929.05645
  21918559.880   115182838.18508  21918563.800    89752881.13948
  22715394.060   119370160.51308  22715396.080    93015699.70046
  21732921.080   114207255.96608  21732922.760    88992665.08748
  22693328.300   119254246.26507  22693330.360    92925398.35046
  20677746.780   108662289.20209  20677746.120    84671912.14349
  23603611.560   124037767.82207  23603616.100    96652797.09845
 15 02 16 08 21 30.0000000  0 10G01G03G04G06G09G11G17G20G23G32
  21224215.800   111533978.12909  21224220.620    86909600.73248
  20756108.040   109074065.69909  20756111.760    84992788.24649
  23487615.840   123428201.53807  23487619.580    96177810.87946
  23963955.300   125931428.21106  23963960.740    98128414.10145
  21902298.160   115097382.78708  21902302.220    89686292.55748
  22734177.980   119468869.98208  22734180.020    93092616.10046
  21731240.980   114198426.62408  21731242.560    88985785.08448
  22679984.540   119184123.79708  22679986.260    92870757.49846
  20671688.460   108630452.33209  20671687.820    84647104.20849
  23618965.640   124118453.26607  23618970.200    96715668.77745
 15 02 16 08 22  0.0000000  0 10G01G03G04G06G09G11G17G20G23G32
  21234530.800   111588183.34209  21234535.660    86951838.52848
  20761358.480   109101656.69809  20761362.200    85014287.72549
  23505253.560   123520888.87807  23505257.660    96250034.68945
  23945519.760   125834550.04806  23945525.400    98052924.66446
  21886103.320   115012278.76208  21886107.520    89619977.76748
  22753006.840   119567815.65808  22753008.900    93169716.55546
  21729672.280   114190182.81009  21729673.860    88979361.34548
  22666667.080   119114140.27707  22666668.780    92816224.91246
  20665722.120   108599098.94309  20665721.480    84622673.01149
  23634320.580   124199143.51606  23634325.000    96778544.23545
 15 02 16 08 22 30.0000000  0 10G01G03G04G06G09G11G17G20G23G32
  21244916.440   111642759.68609  21244921.320    86994365.51448
  20766646.600   109129445.68809  20766650.280    85035941.48049
  23522928.380   123613771.15707  23522932.800    96322410.35146
  23927090.960   125737707.05406  23927096.800    97977462.60746
  21869975.920   114927528.69208  21869980.240    89553938.78048
  22771880.380   119666996.54308  22771882.580    93247000.28047
  21728215.260   114182525.55409  21728216.740    88973394.65448
  22653376.100   119044296.16007  22653377.880    92761800.95346
  20659847.940   108568230.14809  20659847.320    84598619.41649
  23649676.300   124279838.87606  23649680.780    96841423.60346
 15 02 16 08 23  0.0000000  0 10G01G03G04G06G09G11G17G20G23G32
  21255372.060   111697703.87509  21255376.900    87037179.14348
  20771971.740   109157429.03309  20771975.340    85057746.66749
  23540639.640   123706844.25507  23540644.280    96394934.71446
  23908668.820   125640897.94707  23908674.680    97902026.95346
  21853915.680   114843131.36708  21853920.080    89488174.65748
  22790797.720   119766407.65508  22790800.020    93324463.41446
  21726869.240   114175452.14708  21726870.700    88967882.89448
  22640111.160   118974588.78508  22640113.080    92707483.54346
  20654065.500   108537843.37309  20654064.860    84574941.40149
  23665032.200   124360535.66006  23665037.020    96904304.10045
 15 02 16 08 23 30.0000000  0 10G01G03G04G06G09G11G17G20G23G32
  21265897.720   111753016.26609  21265902.520    87080279.67748
  20777333.900   109185606.79909  20777337.460    85079703.36149
  23558387.220   123800107.61307  23558392.000    96467607.35046
  23890253.660   125544125.10007  23890259.460    97826619.55046
  21837923.020   114759089.21908  21837927.500    89422687.30048
  22809758.640   119866047.81708  22809761.060    93402105.02146
  21725634.420   114168963.08708  21725635.820    88962826.46848
  22626872.420   118905018.91508  22626874.460    92653273.29446
  20648375.060   108507939.72209  20648374.340    84551639.86849
  23680388.560   124441234.20006  23680393.600    96967185.94245
 15 02 16 08 24  0.0000000  0 10G01G03G04G06G09G11G17G20G23G32
  21276493.480   111808697.13709  21276498.260    87123667.33248
  20782733.040   109213979.05609  20782736.620    85101811.61049
  23576170.980   123893561.14607  23576175.780    96540428.11945
  23871845.760   125447390.87506  23871851.560    97751242.22846
  21821998.400   114675404.68708  21822002.840    89357478.60848
  22828762.980   119965915.99608  22828765.380    93479924.30746
  21724510.900   114163058.99508  21724512.320    88958225.87848
  22613660.160   118835587.64408  22613662.260    92599171.02746
  20642776.700   108478519.96009  20642775.920    84528715.38249
  23695745.360   124521934.39206  23695750.260    97030069.05745
 15 02 16 08 24 30.0000000  0 10G01G03G04G06G09G11G17G20G23G32
  21287159.480   111864747.14309  21287164.240    87167342.61848
  20788169.200   109242546.16509  20788172.820    85124071.68049
  23593990.980   123987204.45607  23593995.640    96613396.84046
  23853445.660   125350697.98807  23853451.420    97675897.10946
  21806142.400   114592080.47708  21806146.680    89292550.67348
  22847810.540   120066011.27608  22847812.920    93557920.55046
  21723498.940   114157741.36108  21723500.340    88954082.26748
  22600474.580   118766296.23108  22600476.620    92545177.71846
  20637270.600   108449585.31509  20637269.860    84506168.89949
  23711102.600   124602636.68206  23711107.280    97092953.82445
 15 02 16 08 25  0.0000000  0 10G01G03G04G06G09G11G17G20G23G32
  21297894.840   111921161.58609  21297899.580    87211301.88148
  20793641.440   109271303.32109  20793645.100    85146479.84649
  23611846.080   124081032.20607  23611850.460    96686509.27045
  23835053.000   125254043.83706  23835058.740    97600582.17446
  21790354.520   114509114.04808  21790358.620    89227901.52448
  22866900.040   120166326.85308  22866902.380    93636088.45246
  21722597.700   114153005.66308  21722599.180    88950392.09448
  22587314.860   118697140.50308  22587316.680    92491290.14446
  20631855.960   108421131.60209  20631855.380    84483997.16949
  23726459.600   124683336.23306  23726463.640    97155836.48744
 15 02 16 08 25 30.0000000  0 10G01G03G04G06G09G11G17G20G23G32
  21308700.920   111977947.75109  21308705.640    87255550.79248
  20799151.220   109300257.51109  20799154.900    85169041.53149
  23629737.340   124175050.86507  23629741.580    96759770.42145
  23816669.600   125157437.79706  23816675.240    97525304.73746
  21774636.420   114426514.69908  21774640.480    89163538.41548
  22886032.620   120266869.20208  22886035.100    93714433.05846
  21721808.720   114148859.63708  21721810.340    88947161.39448
  22574182.420   118628128.12208  22574183.920    92437514.27746
  20626534.400   108393166.96509  20626533.960    84462206.53049
  23741817.520   124764040.11906  23741820.980    97218722.51644
 15 02 16 08 26  0.0000000  0 10G01G03G04G06G09G11G17G20G23G32
  21319577.020   112035101.91409  21319581.780    87300086.45448
  20804697.780   109329404.87209  20804701.460    85191753.74149
  23647664.060   124269256.13807  23647668.280    96833177.00345
  23798294.920   125060878.31506  23798300.720    97450063.59046
  21758987.760   114344280.89508  21758991.940    89099460.16548
  22905207.260   120367632.82108  22905209.880    93792950.09346
  21721131.280   114145299.81008  21721132.960    88944387.49748
  22561076.420   118559255.79007  22561077.800    92383847.55546
  20621305.340   108365688.06709  20621304.960    84440794.39749
  23757175.460   124844744.52606  23757178.600    97281608.94845
 15 02 16 08 26 30.0000000  0 10G01G03G04G06G09G11G17G20G23G32
  21330523.120   112092623.80309  21330527.920    87344908.66448
  20810281.040   109358744.95209  20810284.740    85214616.12849
  23665626.000   124363646.65707  23665630.300    96906727.95645
  23779929.420   124964367.30306  23779935.400    97374860.21446
  21743408.920   114262414.43708  21743413.280    89035668.16148
  22924423.680   120468616.13108  22924426.460    93871638.30946
  21720565.440   114142326.16408  21720566.960    88942070.37248
  22547996.980   118490524.09307  22547998.520    92330290.43246
  20616168.840   108338695.34009  20616168.420    84419761.11649
  23772533.240   124925448.93306  23772536.480    97344495.39044
 15 02 16 08 27  0.0000000  0 10G01G03G04G06G09G11G17G20G23G32
  21341538.820   112150511.70209  21341543.680    87390016.06948
  20815900.600   109388275.86809  20815904.280    85237627.19949
  23683622.800   124458220.14607  23683627.100    96980421.43645
  23761573.240   124867905.17607  23761579.420    97299694.91046
  21727900.080   114180915.71008  21727904.500    88972162.68448
  22943681.260   120569815.37308  22943684.140    93950494.77446
  21720110.960   114139937.52408  21720112.340    88940209.06848
  22534944.000   118421931.66007  22534945.780    92276841.77746
  20611124.700   108312187.76209  20611124.200    84399105.85449
  23787890.640   125006151.64506  23787894.140    97407380.46744
 15 02 16 08 27 30.0000000  0 10G01G03G04G06G09G11G17G20G23G32
  21352623.900   112208764.18009  21352628.800    87435407.57048
  20821556.140   109417996.08409  20821559.860    85260785.78049
  23701654.080   124552974.52607  23701658.380    97054255.87345
  23743226.580   124771492.73706  23743232.880    97224568.33046
  21712461.400   114099785.35908  21712465.820    88908944.25348
  22962979.380   120671227.88108  22962982.380    94029517.39846
  21719767.560   114138132.82408  21719769.060    88938802.77748
  22521917.540   118353477.70308  22521919.460    92223501.05146
  20606172.760   108286164.66309  20606172.120    84378828.12349
  23803247.380   125086851.02106  23803251.180    97470262.97245
 15 02 16 08 28  0.0000000  0 10G01G03G04G06G09G11G17G20G23G32
  21363778.500   112267382.19109  21363783.540    87481083.89948
  20827247.780   109447906.43209  20827251.660    85284092.53649
  23719719.900   124647909.82607  23719724.220    97128231.30145
  23724889.940   124675133.12807  23724896.220    97149482.93046
  21697093.360   114019026.46008  21697097.820    88846015.28448
  22982318.200   120772853.28308  22982321.140    94108705.94546
  21719535.480   114136913.17808  21719537.160    88937852.39748
  22508917.940   118285164.20208  22508919.820    92170269.77046
  20601313.180   108260627.14309  20601312.440    84358928.76949
  23818603.600   125167548.01506  23818607.560    97533143.63144
 15 02 16 08 28 30.0000000  0 10G01G03G04G06G09G11G17G20G23G32
  21375002.620   112326365.55209  21375007.840    87527044.91548
  20832975.500   109478006.62109  20832979.560    85307547.21549
  23737819.920   124743025.18807  23737824.320    97202347.03645
  23706563.740   124578828.47807  23706570.000    97074440.35046
  21681796.500   113938640.96308  21681800.960    88783377.27548
  23001697.180   120874689.77208  23001700.020    94188058.94946
  21719414.820   114136278.76108  21719416.540    88937358.04348
  22495945.120   118216991.07308  22495946.980    92117147.89546
  20596546.080   108235575.76909  20596545.260    84339408.23649
  23833959.180   125248242.34806  23833963.320    97596022.21745
 15 02 16 08 29  0.0000000  0 10G01G03G04G06G09G11G17G20G23G32
  21386296.800   112385716.88709  21386302.060    87573292.65348
  20838739.920   109508299.18609  20838744.040    85331151.78049
  23755954.480   124838322.67907  23755959.060    97276604.68646
  23688248.860   124482583.56006  23688255.100    96999444.31646
  21666571.620   113858633.52108  21666576.100    88721033.84948
  23021116.540   120976738.29608  23021119.240    94267577.18646
  21719406.020   114136232.29108  21719407.660    88937321.80348
  22482999.640   118148961.97208  22483001.600    92064138.21446
  20591872.060   108211013.61709  20591871.200    84320268.91449
  23849314.680   125328936.65206  23849319.140    97658900.75645
 15 02 16 08 29 30.0000000  0 10G01G03G04G06G09G11G17G20G23G32
  21397660.060   112445431.03209  21397665.280    87619823.10248
  20844540.040   109538778.89409  20844544.120    85354902.16549
  23774122.520   124933796.39207  23774127.320    97350999.64745
  23669944.900   124386395.54307  23669951.080    96924492.62346
  21651418.080   113779001.07008  21651422.600    88658982.62148
  23040574.960   121078992.40308  23040577.680    94347255.59646
  21719508.260   114136769.02709  21719509.780    88937739.99248
  22470080.580   118081072.19308  22470082.620    92011237.09346
  20587290.300   108186936.17709  20587289.400    84301507.27949
  23864669.060   125409625.66206  23864673.820    97721775.17444
 15 02 16 08 30  0.0000000  0 10G01G03G04G06G09G11G17G20G23G32
  21409092.880   112505510.48409  21409098.020    87666638.20448
  20850376.320   109569448.22609  20850380.360    85378800.30349
  23792324.400   125029448.03707  23792329.360    97425533.29345
  23651652.740   124290269.24406  23651658.720    96849589.04845
  21636336.780   113699748.24108  21636341.240    88597227.19248
  23060072.560   121181453.28707  23060075.420    94427095.14946
  21719721.960   114137891.61808  21719723.440    88938614.70448
  22457188.700   118013325.01608  22457190.740    91958447.10046
  20582801.400   108163346.62809  20582800.480    84283125.83449
  23880022.920   125490311.98606  23880027.940    97784647.49345
 15 02 16 08 30 30.0000000  0 10G01G03G04G06G09G11G17G20G23G32
  21420594.360   112565950.68609  21420599.480    87713734.41448
  20856247.800   109600302.56809  20856251.820    85402842.61949
  23810559.220   125125272.51907  23810564.240    97500201.60745
  23633371.860   124194202.45006  23633377.640    96774731.84746
  21621327.220   113620872.64108  21621331.620    88535765.71748
  23079608.340   121284114.71108  23079611.400    94507090.96446
  21720046.300   114139595.97108  21720047.860    88939942.75248
  22444323.120   117945716.47807  22444325.180    91905765.14146
  20578404.460   108140240.76509  20578403.600    84265121.29049
  23895375.500   125570990.99606  23895380.660    97847514.13144
 15 02 16 08 31  0.0000000  0 10G01G03G04G06G09G11G17G20G23G32
  21432165.080   112626754.77209  21432170.220    87761114.16048
  20862155.080   109631344.99809  20862159.060    85427031.48249
  23828827.340   125221272.13707  23828832.400    97575006.34945
  23615103.260   124098200.63507  23615108.940    96699925.28546
  21606390.420   113542379.39608  21606394.740    88474602.16848
  23099182.660   121386978.20208  23099185.780    94587244.23346
  21720481.900   114141885.16908  21720483.560    88941726.49848
  22431484.540   117878250.47507  22431486.800    91853194.25646
  20574100.260   108117622.41709  20574099.460    84247496.61849
  23910727.420   125651665.81106  23910732.660    97910377.50145
 15 02 16 08 31 30.0000000  0 10G01G03G04G06G09G11G17G20G23G32
  21443804.600   112687920.35609  21443809.780    87808775.58648
  20868097.640   109662573.15409  20868101.620    85451365.08449
  23847128.300   125317443.91107  23847133.300    97649945.26145
  23596846.980   124002263.69607  23596852.700    96625169.26546
  21591526.280   113464268.22508  21591530.580    88413736.35948
  23118794.820   121490040.04508  23118797.920    94667552.06246
  21721028.440   114144757.27708  21721030.220    88943964.46248
  22418672.880   117810925.31808  22418675.280    91800733.11346
  20569888.420   108095489.53509  20569887.700    84230250.22849
  23926078.320   125732334.16606  23926083.640    97973235.85145
 15 02 16 08 32  0.0000000  0 10G01G03G04G06G09G11G17G20G23G32
  21455512.560   112749445.63009  21455517.780    87856717.28548
  20874075.160   109693985.29409  20874079.200    85475842.04149
  23865461.620   125413785.25107  23865466.500    97725016.25745
  23578603.220   123906392.27707  23578608.980    96550464.28246
  21576734.940   113386539.46708  21576739.280    88353168.52048
  23138444.240   121593297.13808  23138447.220    94748012.03746
  21721685.620   114148210.39308  21721687.380    88946655.14648
  22405888.060   117743740.00208  22405890.300    91748380.93346
  20565768.800   108073841.08209  20565768.100    84213381.32749
  23941427.720   125812994.44106  23941432.980    98036087.87844
 15 02 16 08 32 30.0000000  0 11G01G03G04G06G09G10G11G17G20G23G32
  21467290.800   112811340.45509  21467296.080    87904946.96148
  20880089.600   109725591.30809  20880093.680    85500470.06749
  23883829.040   125510305.42607  23883833.780    97800226.64545
  23560374.220   123810598.66907  23560380.140    96475819.94946
  21562018.720   113309205.05108  21562023.080    88292907.96948
  24419381.200   128324704.60205  24419385.240    99993282.97644
  23158132.400   121696757.97108  23158135.300    94828630.74946
  21722455.220   114152254.74708  21722456.920    88949806.55148
  22393132.000   117676705.05908  22393133.860    91696145.93146
  20561743.300   108052687.24509  20561742.680    84196897.83149
  23956777.540   125893656.40606  23956782.380    98098941.22845
 15 02 16 08 33  0.0000000  0 11G01G03G04G06G09G10G11G17G20G23G32
  21479136.540   112873589.90309  21479141.820    87953452.96348
  20886138.060   109757376.28009  20886142.240    85525237.54349
  23902227.540   125606988.82206  23902232.100    97875564.20744
  23542157.520   123714870.30406  23542163.680    96401226.43946
  21547375.060   113232252.14308  21547379.480    88232944.68548
  24402971.520   128238478.79205  24402978.180    99926094.07044
  23177856.100   121800405.86608  23177858.940    94909395.22346
  21723334.500   114156875.58408  21723336.060    88953407.16548
  22380401.700   117609806.33508  22380403.360    91644017.08146
  20557809.220   108032013.59909  20557808.620    84180788.51349
  23972124.680   125974305.33005  23972129.180    98161784.40244
 15 02 16 08 33 30.0000000  0 11G01G03G04G06G09G10G11G17G20G23G32
  21491051.200   112936201.80809  21491056.460    88002241.40448
  20892222.120   109789348.11009  20892226.320    85550150.62949
  23920658.440   125703842.59107  23920662.940    97951034.50744
  23523955.300   123619217.52607  23523961.480    96326691.83946
  21532805.780   113155690.69008  21532810.320    88173286.43448
  24386580.060   128152345.00104  24386587.380    99858976.86545
  23197616.600   121904247.44707  23197619.280    94990310.63545
  21724325.080   114162080.79408  21724326.460    88957463.12348
  22367698.780   117543052.48108  22367700.600    91592001.14047
  20553968.160   108011828.85009  20553967.520    84165060.14949
  23987470.540   126054949.17505  23987475.120    98224623.61944
 15 02 16 08 34  0.0000000  0 11G01G03G04G06G09G10G11G17G20G23G32
  21503032.080   112999162.13908  21503037.400    88051301.33448
  20898339.120   109821492.86009  20898343.280    85575198.46149
  23939118.980   125800852.21907  23939123.480    98026626.26345
  23505765.400   123523628.70207  23505771.440    96252207.03746
  21518308.720   113079508.71208  21518313.280    88113923.87448
  24370206.800   128066296.65405  24370210.020    99791942.74844
  23217410.820   122008267.27507  23217413.640    95071364.93246
  21725424.220   114167856.48508  21725425.540    88961963.61948
  22355020.860   117476430.01108  22355022.900    91540087.57146
  20550217.480   107992118.97209  20550216.760    84149701.80949
  24002812.880   126135574.03705  24002817.700    98287448.08445
 15 02 16 08 34 30.0000000  0 11G01G03G04G06G09G10G11G17G20G23G32
  21515082.960   113062489.99809  21515088.300    88100647.66548
  20904492.700   109853829.75209  20904496.840    85600396.01949
  23957612.560   125898035.91006  23957617.180    98102353.67545
  23487591.860   123428125.50007  23487597.760    96177788.97446
  21503888.020   113003727.43509  21503892.480    88054873.55148
  24353849.700   127980339.93906  24353853.180    99724963.50444
  23237242.340   122112482.89707  23237245.300    95152571.79545
  21726635.580   114174222.01408  21726636.920    88966923.72548
  22342371.840   117409958.91008  22342373.900    91488291.94647
  20546560.960   107972903.76909  20546560.200    84134728.93449
  24018155.420   126216199.14005  24018160.460    98350272.72145
 15 02 16 08 35  0.0000000  0 11G01G03G04G06G09G10G11G17G20G23G32
  21527201.760   113126174.46709  21527207.120    88150271.86948
  20910680.780   109886347.96409  20910684.900    85625734.86349
  23976137.060   125995382.34507  23976141.760    98178207.86244
  23469433.000   123332699.45007  23469438.880    96103431.02146
  21489542.040   112928337.99509  21489546.260    87996128.55548
  24337510.000   127894472.01306  24337513.100    99658053.46044
  23257108.860   122216882.08807  23257111.860    95233921.69546
  21727957.060   114181166.32608  21727958.380    88972334.83348
  22329749.780   117343629.12408  22329751.620    91436606.42646
  20542996.640   107954172.95009  20542995.840    84120133.49049
  24033496.060   126296813.77205  24033501.240    98413089.16443
 15 02 16 08 35 30.0000000  0 11G01G03G04G06G09G10G11G17G20G23G32
  21539389.520   113190221.51509  21539394.940    88200178.59048
  20916904.520   109919053.62909  20916908.560    85651219.77049
  23994693.420   126092896.63306  23994698.360    98254192.86945
  23451290.440   123237359.10507  23451296.400    96029139.88646
  21475272.180   112853348.50409  21475276.220    87937695.21148
  24321187.880   127808699.55006  24321191.140    99591217.80144
  23277011.260   122321469.50107  23277014.360    95315418.25246
  21729389.880   114188695.61409  21729391.260    88978201.76648
  22317155.960   117277447.60908  22317157.540    91385036.43046
  20539525.680   107935932.90509  20539524.900    84105920.47149
  24048835.920   126377424.20605  24048841.040    98475902.38245
 15 02 16 08 36  0.0000000  0 11G01G03G04G06G09G10G11G17G20G23G32
  21551645.140   113254625.13108  21551650.580    88250363.17448
  20923162.840   109951940.88309  20923166.760    85676846.17949
  24013280.500   126190572.40306  24013285.600    98330303.68344
  23433163.500   123142101.02907  23433169.480    95954912.83746
  21461077.640   112778755.00009  21461081.480    87879570.42648
  24304882.620   127723017.86805  24304886.520    99524452.86744
  23296948.100   122426237.94307  23296951.260    95397055.92545
  21730932.900   114196803.98408  21730934.400    88984519.92148
  22304589.200   117211408.99008  22304590.740    91333577.78846
  20536147.000   107918177.91909  20536146.260    84092085.41949
  24064173.960   126458024.68405  24064178.980    98538707.79845
 15 02 16 08 36 30.0000000  0 11G01G03G04G06G09G10G11G17G20G23G32
  21563968.480   113319384.32009  21563973.920    88300824.82348
  20929455.540   109985008.86109  20929459.420    85702613.41249
  24031897.900   126288407.72606  24031903.140    98406538.85645
  23415052.500   123046926.74607  23415058.420    95880751.09246
  21446958.560   112704558.59709  21446962.280    87821755.06648
  24288594.640   127637426.28906  24288599.560    99457758.12544
  23316918.900   122531184.71107  23316922.160    95478832.49945
  21732585.920   114205490.44208  21732587.520    88991288.55148
  22292049.500   117145513.07008  22292051.120    91282230.32947
  20532860.600   107900907.51309  20532859.900    84078627.95249
  24079509.720   126538614.22705  24079514.780    98601504.72345
 15 02 16 08 37  0.0000000  0 11G01G03G04G06G09G10G11G17G20G23G32
  21576359.240   113384497.81209  21576364.720    88351562.55748
  20935782.420   110018256.53309  20935786.360    85728520.65849
  24050545.360   126386400.95206  24050550.620    98482897.07844
  23396957.680   122951837.59907  23396963.440    95806655.67846
  21432915.100   112630760.05009  21432918.740    87764249.72848
  24272324.300   127551924.58906  24272329.480    99391133.43244
  23336923.120   122636307.32607  23336926.540    95560746.11645
  21734348.700   114214753.83808  21734350.400    88998506.73448
  22279536.920   117079759.56308  22279538.660    91230993.85847
  20529666.280   107884120.99109  20529665.620    84065547.54049
  24094843.240   126619192.04505  24094848.300    98664292.51344
 15 02 16 08 37 30.0000000  0 11G01G03G04G06G09G10G11G17G20G23G32
  21588817.960   113449968.35208  21588823.440    88402578.50748
  20942143.980   110051686.80409  20942148.000    85754570.20349
  24069223.280   126484554.00306  24069228.620    98559379.79444
  23378880.020   122856838.96707  23378885.680    95732630.77646
  21418948.300   112557364.22309  21418951.900    87707058.19648
  24256071.800   127466516.72806  24256076.680    99324581.90043
  23356961.080   122741607.38507  23356964.600    95642797.98145
  21736221.760   114224596.79208  21736223.400    89006176.53448
  22267052.240   117014152.11308  22267054.040    91179871.20547
  20526564.680   107867821.78409  20526564.020    84052846.84549
  24110175.280   126699761.11905  24110180.000    98727073.45644
 15 02 16 08 38  0.0000000  0 11G01G03G04G06G09G10G11G17G20G23G32
  21601344.000   113515792.83108  21601349.520    88453870.26048
  20948539.740   110085296.78909  20948543.760    85780759.79049
  24087931.140   126582863.42807  24087936.420    98635984.34645
  23360819.460   122761930.30507  23360825.080    95658675.99846
  21405057.940   112484370.08309  21405061.560    87650179.67748
  24239836.620   127381200.22905  24239840.860    99258101.55143
  23377032.000   122847080.36907  23377035.460    95724984.61345
  21738204.640   114235016.26408  21738206.180    89014295.55248
  22254594.960   116948688.59108  22254596.660    91128860.68346
  20523555.160   107852006.78109  20523554.500    84040523.46249
  24125505.180   126780318.45605  24125509.800    98789845.31744
 15 02 16 08 38 30.0000000  0 11G01G03G04G06G09G10G11G17G20G23G32
  21613937.240   113581970.58908  21613942.760    88505437.29948
  20954969.580   110119086.05709  20954973.540    85807089.07448
  24106668.700   126681327.79507  24106673.820    98712709.67545
  23342776.340   122667113.68407  23342781.980    95584792.94446
  21391244.260   112411779.04609  21391247.940    87593615.25948
  24223618.540   127295975.23305  24223622.500    99191692.45144
  23397135.580   122952724.23107  23397138.980    95807304.36946
  21740297.080   114246011.84508  21740298.700    89022863.48248
  22242164.980   116883368.93408  22242166.720    91077962.27347
  20520637.760   107836675.90909  20520637.020    84028577.32449
  24140832.720   126860863.83005  24140837.140    98852607.88044
 15 02 16 08 39  0.0000000  0 11G01G03G04G06G09G10G11G17G20G23G32
  21626597.920   113648502.94508  21626603.460    88557280.63648
  20961433.840   110153056.21709  20961437.780    85833559.30849
  24125435.920   126779948.00507  24125440.920    98789556.40845
  23324751.420   122572393.04107  23324757.200    95510984.67346
  21377507.900   112339594.49409  21377511.680    87537367.58348
  24207418.380   127210844.39106  24207422.580    99125356.73144
  23417271.720   123058538.87407  23417275.020    95889757.20645
  21742499.260   114257584.55008  21742501.060    89031881.13348
  22229762.820   116818195.61908  22229764.700    91027177.88447
  20517812.880   107821831.06709  20517812.080    84017009.90849
  24156158.200   126941398.98505  24156162.540    98915362.38144
 15 02 16 08 39 30.0000000  0 11G01G03G04G06G09G10G11G17G20G23G32
  21639325.180   113715385.01708  21639330.700    88609396.49948
  20967931.640   110187202.66009  20967935.640    85860166.92549
  24144231.620   126878718.54007  24144236.500    98866520.27745
  23306744.400   122477766.25107  23306750.200    95437249.53547
  21363848.360   112267813.65509  21363852.280    87481434.49048
  24191235.760   127125803.65006  24191240.240    99059091.24344
  23437439.160   123164518.07807  23437442.400    95972338.28345
  21744810.280   114269729.43008  21744812.240    89041344.65648
  22217387.820   116753164.53708  22217389.880    90976504.31847
  20515079.620   107807467.78609  20515078.820    84005817.74749
  24171480.900   127021919.27606  24171485.080    98978105.34845
 15 02 16 08 40  0.0000000  0 11G01G03G04G06G09G10G11G17G20G23G32
  21652120.080   113782622.46808  21652125.600    88661789.26748
  20974464.180   110221531.29509  20974468.160    85886916.49948
  24163056.680   126977644.31506  24163061.700    98943605.11445
  23288756.880   122383241.65807  23288762.680    95363594.01847
  21350267.100   112196444.20109  21350271.160    87425821.95348
  24175071.600   127040859.47306  24175076.080    98992901.01144
  23457638.640   123270666.35007  23457641.960    96055051.09346
  21747231.300   114282452.21808  21747233.280    89051258.48848
  22205041.160   116688282.14808  22205043.400    90925946.60847
  20512439.160   107793592.15609  20512438.360    83995005.56749
  24186801.760   127102430.72605  24186806.040    99040841.40245
 15 02 16 08 40 30.0000000  0 11G01G03G04G06G09G10G11G17G20G23G32
  21664981.300   113850208.64308  21664986.900    88714453.77448
  20981030.180   110256035.81009  20981034.140    85913803.11848
  24181909.760   127076718.39206  24181915.000    99020805.54045
  23270788.140   122288815.37007  23270793.900    95290015.11547
  21336763.320   112125481.61109  21336767.500    87370526.45748
  24158924.620   126956006.46705  24158929.080    98926781.84444
  23477868.620   123376975.51007  23477871.980    96137889.29745
  21749761.120   114295746.30708  21749763.020    89061617.46948
  22192721.760   116623542.98308  22192724.040    90875500.50146
  20509890.360   107780197.89609  20509889.500    83984568.48749
  24202119.760   127182927.14706  24202124.080    99103565.76945
 15 02 16 08 41  0.0000000  0 11G01G03G04G06G09G10G11G17G20G23G32
  21677910.920   113918154.22308  21677916.600    88767398.32948
  20987631.740   110290727.13409  20987635.760    85940835.28849
  24200792.980   127175950.70407  24200798.360    99098129.24144
  23252840.640   122194500.78207  23252846.480    95216523.24647
  21323339.500   112054938.57209  21323343.660    87315557.87348
  24142796.960   126871256.29505  24142801.520    98860742.78843
  23498131.100   123483455.34307  23498134.460    96220860.46745
  21752401.800   114309622.28309  21752403.500    89072429.88748
  22180431.860   116558959.12808  22180434.080    90825175.41547
  20507435.320   107767296.18709  20507434.380    83974515.21149
  24217436.820   127263419.58405  24217441.300    99166286.99745
 15 02 16 08 41 30.0000000  0 11G01G03G04G06G09G10G11G17G20G23G32
  21690905.980   113986443.38508  21690911.660    88820610.61848
  20994265.820   110325589.85909  20994270.020    85968001.02349
  24219703.260   127275324.88806  24219708.900    99175563.44945
  23234911.900   122100284.89007  23234917.900    95143108.29946
  21309992.980   111984801.38409  21309997.060    87260905.54248
  24126686.260   126786594.19005  24126690.900    98794772.33245
  23518422.920   123590088.59407  23518426.180    96303951.18145
  21755150.280   114324064.26109  21755151.760    89083683.34248
  22168168.460   116494514.92008  22168170.540    90774959.16047
  20505071.040   107754871.65209  20505070.100    83964833.75949
  24232750.080   127343892.59105  24232754.860    99228993.08844
 15 02 16 08 42  0.0000000  0 11G01G03G04G06G09G10G11G17G20G23G32
  21703966.800   114055077.92708  21703972.420    88874092.03048
  21000932.900   110360626.10109  21000937.280    85995301.96148
  24238640.860   127374842.37907  24238646.720    99253109.34245
  23217002.760   122006172.27107  23217009.060    95069773.83947
  21296724.300   111915073.83509  21296728.440    87206572.41749
  24110593.160   126702022.75006  24110597.560    98728872.55644
  23538744.100   123696875.83607  23538747.160    96387161.86946
  21758006.680   114339073.79908  21758008.120    89095379.05848
  22155932.100   116430213.42808  22155934.100    90724854.11246
  20502797.980   107742926.62809  20502797.100    83955525.95649
  24248060.180   127424348.48206  24248065.400    99291685.83945
 15 02 16 08 42 30.0000000  0 11G01G03G04G06G09G10G11G17G20G23G32
  21717094.080   114124061.56808  21717099.560    88927845.46348
  21007633.860   110395839.96409  21007638.280    86022741.29548
  24257606.360   127474506.16307  24257612.400    99330769.21945
  23199114.480   121912169.46307  23199120.940    94996524.93946
  21283534.680   111845761.74309  21283538.860    87152563.02249
  24094518.300   126617546.86905  24094522.380    98663047.25444
  23559095.020   123803819.55707  23559097.860    96470494.50645
  21760971.580   114354654.48708  21760973.120    89107519.83048
  22143723.960   116366059.64808  22143725.880    90674864.15747
  20500616.860   107731464.82509  20500616.080    83946594.68849
  24263368.200   127504857.43506  24263373.360    99354478.53244
 15 02 16 08 43  0.0000000  0 11G01G03G04G06G09G10G11G17G20G23G32
  21730288.020   114193395.58408  21730293.380    88981871.93248
  21014369.000   110431233.11409  21014373.440    86050320.33649
  24276599.940   127574317.16706  24276606.060    99408543.83445
  23181247.960   121818280.59007  23181254.480    94923364.81546
  21270424.760   111776868.42809  21270428.900    87098879.94149
  24078461.540   126533168.66705  24078465.780    98597298.07345
  23579475.620   123910919.65307  23579478.300    96553948.99145
  21764045.300   114370807.47608  21764046.960    89120106.53848
  22131544.500   116302055.85208  22131546.320    90624991.08147
  20498528.000   107720487.85709  20498527.260    83938041.21349
  24278673.060   127585288.17305  24278679.220    99417139.42343
 15 02 16 08 43 30.0000000  0 11G01G03G04G06G09G10G11G17G20G23G32
  21743547.620   114263074.87108  21743552.860    89036167.43648
  21021137.400   110466800.82909  21021141.800    86078035.39349
  24295620.340   127674269.43206  24295626.600    99486428.50945
  23163402.700   121724503.45507  23163409.260    94850291.75647
  21257393.940   111708390.85909  21257397.960    87045520.82248
  24062422.100   126448884.46405  24062426.920    98531622.14945
  23599884.720   124018170.01007  23599887.500    96637520.54245
  21767227.080   114387527.76109  21767228.760    89133135.29548
  22119392.880   116238197.91708  22119394.660    90575231.66547
  20496530.540   107709991.29709  20496529.800    83929862.08149
  24293976.480   127665704.05806  24293981.780    99479800.99944
 15 02 16 08 44  0.0000000  0  9G01G03G04G06G09G11G17G20G23
  21756873.320   114333101.80308  21756878.500    89090733.82148
  21027939.600   110502545.89309  21027943.820    86105888.63848
  24314667.900   127774365.03506  24314674.360    99564424.91545
  23145579.800   121630843.16807  23145586.380    94777309.74747
  21244443.000   111640333.39709  21244446.840    86992489.05748
  23620322.620   124125571.55007  23620325.600    96721209.93345
  21770517.240   114404817.39808  21770518.880    89146607.70048
  22107269.600   116174489.18508  22107271.420    90525588.51447
  20494625.060   107699977.88209  20494624.260    83922059.42649
 15 02 16 08 44 30.0000000  0 11G01G03G04G06G09G10G11G17G20G23G32
  21770263.460   114403467.58208  21770268.680    89145564.25348
  21034773.980   110538460.00909  21034777.980    86133873.61348
  24333741.040   127874594.65206  24333747.580    99642525.69045
  23127778.080   121537293.93807  23127784.620    94704414.27847
  21231570.700   111572689.35809  21231574.480    86939779.43948
  24030399.320   126280601.56206  24030401.460    98400479.21045
  23640787.440   124233114.43507  23640790.580    96805009.45945
  21773913.960   114422667.47408  21773915.580    89160516.83048
  22095173.200   116110922.08208  22095174.980    90476055.72547
  20492809.940   107690439.30709  20492809.100    83914626.78349
  24324572.800   127826495.81205  24324578.420    99605094.55144
 15 02 16 08 45  0.0000000  0 11G01G03G04G06G09G10G11G17G20G23G32
  21783719.160   114474177.86808  21783724.540    89200663.09748
  21041641.600   110574549.20409  21041645.540    86161995.01049
  24352840.800   127974963.45506  24352847.380    99720734.90144
  23109999.060   121443864.24007  23110005.560    94631611.94646
  21218778.540   111505466.37709  21218782.360    86887397.92648
  24014414.480   126196600.20106  24014416.660    98335023.67444
  23661279.920   124340802.96507  23661283.320    96888922.45445
  21777418.300   114441083.40408  21777420.000    89174866.88948
  22083105.040   116047503.18708  22083106.800    90426638.42547
  20491086.280   107681381.52309  20491085.440    83907568.77149
  24339866.640   127906862.45706  24339872.100    99667717.73744
 15 02 16 08 45 30.0000000  0 11G01G03G04G06G09G10G11G17G20G23G32
  21797240.900   114545234.75708  21797246.400    89256032.05148
  21048543.020   110610816.14009  21048546.940    86190254.91748
  24371967.340   128075473.07106  24371973.760    99799053.86744
  23092243.720   121350559.18807  23092250.160    94558906.73346
  21206067.240   111438668.62509  21206071.160    86835347.75749
  23998448.320   126112698.52806  23998450.840    98269645.87044
  23681800.320   124448638.21407  23681803.860    96972949.77945
  21781030.720   114460066.97508  21781032.520    89189659.26648
  22071065.760   115984235.87808  22071067.380    90377339.25447
  20489454.600   107672807.15509  20489453.780    83900887.44549
  24355158.100   127987216.81506  24355163.500    99730331.36744
 15 02 16 08 46  0.0000000  0 11G01G03G04G06G09G10G11G17G20G23G32
  21810827.880   114616634.15708  21810833.440    89311667.88948
  21055477.560   110647257.16809  21055481.500    86218650.47248
  24391119.760   128176118.84506  24391126.000    99877478.94944
  23074511.880   121257377.62207  23074518.280    94486297.73747
  21193436.420   111372294.03609  21193440.520    86783627.32048
  23982500.240   126028893.44306  23982503.580    98204343.28644
  23702347.760   124556615.05407  23702351.160    97057087.41344
  21784750.540   114479614.24908  21784752.280    89204890.88748
  22059054.600   115921116.90908  22059056.080    90328155.67447
  20487914.100   107664711.81709  20487913.300    83894579.39449
  24370446.460   128067555.26106  24370451.600    99792932.60443
 15 02 16 08 46 30.0000000  0 11G01G03G04G06G09G10G11G17G20G23G32
  21824480.060   114688376.15908  21824485.560    89367570.70748
  21062445.300   110683872.86009  21062449.360    86247182.13149
  24410297.960   128276900.38306  24410304.280    99956009.86644
  23056804.160   121164322.60208  23056810.380    94413787.33646
  21180886.580   111306344.72809  21180890.780    86732238.26748
  23966570.840   125945186.11706  23966574.980    98139116.89245
  23722921.880   124664731.97007  23722925.060    97141334.18244
  21788577.620   114499724.91509  21788579.180    89220561.49948
  22047071.780   115858147.58508  22047073.280    90279088.72047
  20486464.920   107657096.50909  20486464.180    83888645.38649
  24385731.720   128147878.54406  24385736.640    99855522.01744
 15 02 16 08 47  0.0000000  0 11G01G03G04G06G09G10G11G17G20G23G32
  21838197.040   114760458.99108  21838202.460    89423739.08048
  21069446.000   110720662.00209  21069450.140    86275848.94848
  24429501.620   128377815.61906  24429507.740   100034644.93943
  23039120.700   121071395.34007  23039126.800    94341376.50547
  21168417.820   111240820.97009  21168422.020    86681180.81448
  23950660.040   125861575.92006  23950664.780    98073966.13844
  23743522.100   124772986.22907  23743525.180    97225688.00345
  21792511.460   114520396.96308  21792512.880    89236669.57048
  22035117.220   115795327.34008  22035118.960    90230137.92147
  20485106.880   107649960.08109  20485106.200    83883084.53349
  24401013.720   128228185.53606  24401018.360    99918098.74943
 15 02 16 08 47 30.0000000  0 11G01G03G04G06G09G10G11G17G20G23G32
  21851978.480   114832880.82108  21851983.940    89480171.61648
  21076479.480   110757623.26009  21076483.680    86304649.86948
  24448730.300   128478862.09806  24448736.320   100113382.29145
  23021461.680   120978597.02007  23021467.740    94269066.14347
  21156030.100   111175722.90209  21156034.220    86630455.06748
  23934767.840   125778062.07406  23934772.640    98008890.49644
  23764147.820   124881375.00907  23764151.080    97310146.64945
  21796551.540   114541628.10808  21796553.080    89253213.30948
  22023190.860   115732655.46408  22023192.960    90181302.71747
  20483839.640   107643300.79009  20483839.000    83877895.46949
  24416292.260   128308474.98505  24416297.080    99980661.79443
 15 02 16 08 48  0.0000000  0 11G01G03G04G06G09G10G11G17G20G23G32
  21865824.480   114905641.74308  21865830.000    89536868.38648
  21083545.860   110794757.32109  21083550.180    86333585.44848
  24467983.960   128580039.36106  24467989.860   100192221.53344
  23003827.720   120885930.76507  23003833.900    94196858.70847
  21143723.820   111111052.70109  21143727.860    86580062.71149
  23918894.320   125694645.85106  23918898.640    97943890.87445
  23784799.000   124989897.27707  23784802.540    97394709.31245
  21800697.900   114563418.27808  21800699.740    89270192.64648
  22011293.160   115670133.21708  22011295.400    90132584.09847
  20482663.280   107637119.05809  20482662.640    83873078.51849
  24431567.440   128388747.65605  24431572.840   100043211.79043
 15 02 16 08 48 30.0000000  0 11G01G03G04G06G09G10G11G17G20G23G32
  21879734.680   114978739.87508  21879740.180    89593827.90248
  21090644.900   110832062.82909  21090649.240    86362654.62348
  24487262.060   128681345.28805  24487267.760   100271161.02444
  22986219.140   120793397.72007  22986225.420    94124755.05947
  21131499.000   111046810.43409  21131502.960    86530003.80449
  23903039.360   125611326.54106  23903043.300    97878966.76144
  23805474.980   125098549.74407  23805478.720    97479373.41445
  21804950.480   114585765.55009  21804952.420    89287606.09248
  21999423.960   115607759.97408  21999426.140    90083981.59147
  20481577.540   107631413.10909  20481576.760    83868632.30449
  24446839.220   128469002.24505  24446844.960   100105747.66443
 15 02 16 08 49  0.0000000  0 11G01G03G04G06G09G10G11G17G20G23G32
  21893708.600   115052173.13608  21893714.140    89651048.57248
  21097776.360   110869538.33609  21097780.640    86391856.26748
  24506564.260   128782777.21306  24506569.940   100350198.71844
  22968636.220   120700998.93407  22968642.460    94052756.01947
  21119355.600   110982996.07609  21119359.500    86480278.33449
  23887202.820   125528103.42706  23887206.620    97814117.64744
  23826175.260   125207329.17007  23826179.000    97564136.44245
  21809308.660   114608667.37908  21809310.640    89305451.64648
  21987583.020   115545534.84708  21987584.980    90035494.49547
  20480581.980   107626181.23009  20480581.160    83864555.49449
  24462107.620   128549237.42705  24462113.320   100168268.40345
 15 02 16 08 49 30.0000000  0 11G01G03G04G06G09G10G11G17G20G23G32
  21907746.800   115125944.46408  21907752.440    89708532.65848
  21104940.820   110907187.32109  21104945.020    86421193.09948
  24525890.880   128884337.56005  24525896.720   100429336.47044
  22951079.980   120608740.32707  22951086.120    93980866.23347
  21107294.500   110919614.51509  21107298.340    86430890.10949
  23871384.980   125444980.43406  23871389.120    97749346.50944
  23846900.120   125316237.59907  23846903.800    97648999.96045
  21813772.820   114632126.23008  21813774.720    89323731.24048
  21975770.940   115483461.63808  21975772.680    89987125.76347
  20479677.280   107621426.83609  20479676.460    83860850.75449
  24477373.260   128629456.87605  24477378.740   100230776.90444
 15 02 16 08 50  0.0000000  0 11G01G03G04G06G09G10G11G17G20G23G32
  21921849.280   115200053.38708  21921854.960    89766279.81348
  21112138.280   110945009.96309  21112142.500    86450665.24848
  24545241.660   128986025.51805  24545247.440   100508573.70343
  22933550.940   120516624.62907  22933556.960    93909087.81047
  21095316.040   110856667.37509  21095319.900    86381840.38349
  23855586.080   125361958.38606  23855590.480    97684654.04044
  23867649.160   125425273.38106  23867652.780    97733962.74845
  21818342.760   114656141.60308  21818344.660    89342444.50148
  21963988.000   115421541.72008  21963989.560    89938876.48347
  20478863.480   107617149.88709  20478862.660    83857518.03949
  24492635.840   128709660.66506  24492641.240   100293273.19544
 15 02 16 08 50 30.0000000  0 11G01G03G04G06G09G10G11G17G20G23G32
  21936015.240   115274496.18208  21936021.000    89824287.12748
  21119368.180   110983003.14209  21119372.460    86480270.27148
  24564615.860   129087836.77005  24564621.580   100587906.94743
  22916048.980   120424651.16707  22916054.980    93837420.19347
  21083419.860   110794152.83209  21083423.800    86333127.74649
  23839805.900   125279034.79906  23839810.280    97620038.30545
  23888421.260   125534431.61706  23888425.080    97819020.92744
  21823017.800   114680709.27508  21823019.720    89361588.10748
  21952233.700   115359772.14908  21952235.220    89890744.35047
  20478139.840   107613346.83309  20478139.060    83854554.60249
  24507894.800   128789845.85305  24507900.040   100355755.01344
 15 02 16 08 51  0.0000000  0 11G01G03G04G06G09G10G11G17G20G23G32
  21950244.180   115349269.89008  21950249.980    89882552.30148
  21126630.060   111021164.56809  21126634.380    86510006.39949
  24584012.900   129189768.15904  24584018.900   100667333.85743
  22898574.220   120332820.20008  22898580.200    93765863.62447
  21071605.860   110732069.96909  21071609.880    86284751.48149
  23824044.500   125196207.99306  23824048.220    97555497.90944
  23909215.840   125643708.27207  23909219.820    97904171.40945
  21827797.380   114705826.07408  21827799.240    89381159.60648
  21940507.620   115298150.87008  21940509.280    89842727.78547
  20477505.820   107610014.86509  20477505.060    83851958.23949
  24523149.760   128870010.47605  24523154.900   100418220.80344
 15 02 16 08 51 30.0000000  0 11G01G03G04G06G09G10G11G17G20G23G32
  21964536.760   115424377.90008  21964542.500    89941077.97148
  21133924.720   111059498.36809  21133929.160    86539876.84948
  24603433.300   129291822.61905  24603439.360   100746856.71441
  22881127.800   120241138.23707  22881133.740    93694423.14947
  21059875.060   110670424.18109  21059879.160    86236715.80449
  23808302.560   125113482.40506  23808305.700    97491036.46544
  23930033.540   125753105.82107  23930037.640    97989416.06345
  21832682.000   114731495.13308  21832683.880    89401161.44348
  21928810.640   115236682.81008  21928812.500    89794830.59747
  20476962.160   107607157.95409  20476961.420    83849732.05249
  24538401.260   128950158.37704  24538406.820   100480673.54544
 15 02 16 08 52  0.0000000  0 11G01G03G04G06G09G10G11G17G20G23G32
  21978892.540   115499817.77808  21978898.220    89999862.24548
  21141251.900   111098002.67509  21141256.420    86569880.16848
  24622876.600   129393997.40405  24622882.880   100826473.22243
  22863709.780   120149605.98707  22863715.780    93623099.33147
  21048227.440   110609214.99609  21048231.460    86189020.33849
  23792579.360   125030856.95706  23792582.660    97426653.05844
  23950873.740   125862620.96507  23950877.780    98074752.36245
  21837671.140   114757713.51408  21837673.020    89421591.31248
  21917142.520   115175367.14808  21917144.680    89747052.16147
  20476508.500   107604774.04909  20476507.760    83847874.43949
  24553649.480   129030288.05905  24553655.300   100543112.11545
 15 02 16 08 52 30.0000000  0 11G01G03G04G06G09G10G11G17G20G23G32
  21993311.120   115575587.55708  21993316.820    90058903.57848
  21148611.360   111136676.24609  21148615.800    86600015.37848
  24642342.340   129496289.84004  24642348.840   100906181.47641
  22846320.420   120058224.72207  22846326.540    93551893.15247
  21036662.920   110548442.42909  21036666.800    86141665.09949
  23776874.960   124948331.20506  23776879.000    97362347.30644
  23971735.800   125972250.33307  23971739.780    98160177.67645
  21842764.400   114784478.58108  21842766.240    89442447.17048
  21905503.220   115114203.34608  21905505.640    89699392.05447
  20476144.560   107602861.40009  20476143.740    83846384.04149
  24568894.220   129110398.30805  24568899.860   100605535.50144
 15 02 16 08 53  0.0000000  0 11G01G03G04G06G09G10G11G17G20G23G32
  22007792.320   115651686.58508  22007798.100    90118201.45848
  21156002.960   111175519.15109  21156007.380    86630282.53948
  24661829.960   129598698.87304  24661836.860   100985980.59144
  22828960.340   119966997.00908  22828966.560    93480806.63347
  21025181.640   110488107.79109  21025185.500    86094651.10949
  23761189.800   124865905.52706  23761194.460    97298119.54745
  23992619.260   126081992.33707  23992623.200    98245690.75445
  21847961.620   114811789.39508  21847963.380    89463728.28448
  21893892.940   115053191.31508  21893895.340    89651850.20547
  20475870.160   107601419.38209  20475869.260    83845260.37649
  24584135.160   129190489.33405  24584140.900   100667943.97443
 15 02 16 08 53 30.0000000  0 11G01G03G04G06G09G10G11G17G20G23G32
  22022335.860   115728113.52708  22022341.780    90177754.86048
  21163426.620   111214530.82609  21163430.980    86660681.21348
  24681339.300   129701223.24105  24681346.800   101065869.51645
  22811629.860   119875924.72208  22811636.120    93409841.24747
  21013783.740   110428211.79709  21013787.660    86047978.92549
  23745523.960   124783580.00207  23745528.540    97233969.86644
  24013523.580   126191844.48907  24013527.560    98331289.65944
  21853262.400   114839644.55908  21853264.100    89485433.54748
  21882311.980   114992332.06608  21882314.080    89604427.41447
  20475685.200   107600447.10009  20475684.180    83844502.74449
  24599372.400   129270560.54605  24599378.220   100730336.90544
 15 02 16 08 54  0.0000000  0 11G01G03G04G06G09G10G11G17G20G23G32
  22036941.660   115804867.50808  22036947.580    90237563.09848
  21170882.360   111253711.08109  21170886.660    86691211.24648
  24700870.460   129803861.21505  24700878.280   101145846.99845
  22794329.540   119785010.24108  22794335.620    93338998.81747
  21002469.440   110368755.44609  21002473.480    86001649.33149
  23729877.420   124701355.09807  23729881.340    97169898.54045
  24034448.300   126301805.16806  24034452.400    98416973.12944
  21858666.360   114868042.55008  21858668.100    89507561.79348
  21870760.160   114931625.52808  21870761.840    89557123.60847
  20475589.600   107599944.36409  20475588.540    83844110.99149
  24614605.800   129350611.96705  24614611.700   100792714.49543
 15 02 16 08 54 30.0000000  0 11G01G03G04G06G09G10G11G17G20G23G32
  22051609.900   115881949.36108  22051615.740    90297626.82448
  21178370.420   111293061.52209  21178374.800    86721873.89948
  24720423.600   129906613.54406  24720431.600   101225913.63343
  22777060.000   119694257.65708  22777065.820    93268282.53247
  20991239.340   110309741.57909  20991243.500    85955664.53049
  23714250.140   124619232.62706  23714253.600    97105907.05045
  24055393.620   126411874.09806  24055397.880    98502740.96544
  21864173.660   114896983.79908  21864175.500    89530113.34548
  21859237.700   114871073.59908  21859239.100    89509940.27247
  20475583.460   107599911.85909  20475582.420    83844085.67149
  24629835.460   129430645.23304  24629841.820   100855077.88045
 15 02 16 08 55  0.0000000  0 11G01G03G04G06G09G10G11G17G20G23G32
  22066340.020   115959356.39908  22066345.840    90357943.93747
  21185890.580   111332580.24009  21185894.960    86752667.67548
  24739998.120   130009476.94806  24740005.920   101306066.75944
  22759821.380   119603667.63008  22759826.900    93197692.90947
  20980093.340   110251169.41309  20980097.520    85910023.91349
  23698641.900   124537211.50606  23698645.280    97041994.54944
  24076358.740   126522047.40906  24076363.180    98588590.11245
  21869783.820   114926465.35208  21869785.820    89553085.93548
  21847744.300   114810675.18308  21847745.700    89462876.56747
  20475666.320   107600347.39709  20475665.340    83844425.05449
  24645061.480   129510658.61605  24645068.280   100917425.80544
 15 02 16 08 55 30.0000000  0 11G01G03G04G06G09G10G11G17G20G23G32
  22081131.600   116037086.60008  22081137.400    90418512.86447
  21193442.560   111372265.99709  21193446.980    86783591.59848
  24759593.380   130112449.16805  24759601.200   101386304.65243
  22742613.820   119513241.32608  22742619.160    93127230.87947
  20969031.400   110193038.92809  20969035.560    85864727.46849
  23683052.800   124455290.94206  23683056.360    96978160.37045
  24097343.300   126632322.31906  24097347.900    98674518.44744
  21875496.320   114956484.49008  21875498.440    89576477.41448
  21836279.940   114750429.82208  21836281.560    89415932.13247
  20475837.800   107601248.89809  20475836.920    83845127.53549
  24660283.520   129590650.91804  24660290.740   100979757.29944
 15 02 16 08 56  0.0000000  0 11G01G03G04G06G09G10G11G17G20G23G32
  22095984.820   116115141.23208  22095990.700    90479334.59547
  21201026.760   111412120.86909  21201031.220    86814647.30848
  24779209.500   130215531.00305  24779216.960   101466628.02344
  22725438.240   119422983.46208  22725443.540    93056900.08147
  20958054.200   110135353.29809  20958058.280    85819777.66949
  23667483.460   124373473.73606  23667487.120    96914406.75745
  24118347.420   126742698.93906  24118352.060    98760526.00745
  21881311.300   114987041.73808  21881313.480    89600288.19748
  21824845.180   114690339.83108  21824846.900    89369108.76747
  20476098.280   107602618.03409  20476097.420    83846194.40349
  24675501.940   129670624.33405  24675509.080   101042074.10744
 15 02 16 08 56 30.0000000  0 10G01G03G06G09G10G11G17G20G23G32
  22110899.020   116193516.08908  22110904.960    90540405.83947
  21208642.500   111452141.47009  21208646.960    86845832.15348
  22708294.560   119332893.08308  22708299.820    92986699.81147
  20947161.320   110078110.26709  20947165.240    85775172.75549
  23651933.240   124291756.97306  23651937.140    96850731.37545
  24139370.160   126853172.22906  24139374.580    98846608.87445
  21887227.900   115018133.09708  21887230.080    89624515.16148
  21813439.560   114630402.55508  21813441.200    89322404.40047
  20476447.000   107604450.92309  20476446.140    83847622.62549
  24690716.380   129750575.57805  24690723.180   101104373.69041
 15 02 16 08 57  0.0000000  0 10G01G03G06G09G10G11G17G20G23G32
  22125874.360   116272211.72208  22125880.360    90601727.05847
  21216290.040   111492329.22209  21216294.440    86877147.24748
  22691183.600   119242974.14008  22691188.820    92916633.12647
  20936353.160   110021312.33309  20936356.920    85730914.67449
  23636402.600   124210142.50206  23636406.700    96787135.70645
  24160411.040   126963741.65606  24160415.440    98932766.68044
  21893245.980   115049758.38708  21893248.120    89649158.18248
  21802063.440   114570620.23308  21802064.960    89275820.78747
  20476884.160   107606748.46309  20476883.320    83849412.92349
  24705926.840   129830506.22905  24705933.660   101166657.17843
 15 02 16 08 57 30.0000000  0 10G01G03G06G09G10G11G17G20G23G32
  22140911.400   116351231.29408  22140917.380    90663300.68147
  21223970.120   111532688.13109  21223974.480    86908595.71348
  22674106.500   119153233.17108  22674111.640    92846705.10947
  20925630.580   109964964.54809  20925634.240    85687007.35849
  23620892.220   124128635.01806  23620896.300    96723623.37945
  24181470.480   127074409.51606  24181475.100    99019001.16945
  21899366.140   115081920.07908  21899368.140    89674219.17348
  21790717.520   114510997.06108  21790718.920    89229361.17847
  20477410.440   107609513.95509  20477409.600    83851567.84549
  24721134.040   129910420.33605  24721140.820   101228927.74643
 15 02 16 08 58  0.0000000  0 11G01G03G04G06G09G10G11G17G20G23G32
  22156007.940   116430563.52208  22156013.900    90725117.93148
  21231680.820   111573207.74409  21231685.100    86940169.40148
  24857874.280   130629003.77805  24857882.160   101788868.31341
  22657061.680   119063662.25908  22657066.800    92776909.63647
  20914991.800   109909057.54509  20914995.500    85643443.50249
  23605400.400   124047224.59406  23605404.440    96660186.69545
  24202546.380   127185163.62706  24202551.160    99105302.86244
  21905586.180   115114606.40208  21905588.160    89699688.97248
  21779399.980   114451523.47508  21779401.360    89183018.12847
  20478023.700   107612736.36409  20478022.820    83854078.81149
  24736336.200   129990307.55304  24736343.080   101291177.34341
 15 02 16 08 58 30.0000000  0 10G01G03G04G06G09G10G11G17G20G23
  22171165.920   116510219.31208  22171171.980    90787187.30547
  21239424.300   111613899.83809  21239428.600    86971877.48948
  24877589.900   130732608.01104  24877596.700   101869598.67143
  22640051.940   118974275.71908  22640056.980    92707257.81147
  20904439.320   109853604.17209  20904443.120    85600233.11049
  23589929.360   123965923.54906  23589933.040    96596835.29344
  24223640.600   127296014.04606  24223645.460    99191679.58544
  21911908.080   115147827.76708  21911910.120    89725575.69248
  21768113.120   114392211.54008  21768114.620    89136801.04647
  20478726.000   107616426.79909  20478725.160    83856954.47149
 15 02 16 08 59  0.0000000  0  9G01G03G06G09G10G11G17G20G23
  22186385.920   116590200.77108  22186392.040    90849510.45047
  21247201.160   111654767.43409  21247205.540    87003722.33448
  22623078.280   118885079.06408  22623083.260    92637753.94547
  20893973.880   109798608.40209  20893977.760    85557379.28649
  23574479.620   123884735.11106  23574483.200    96533571.61045
  24244753.400   127406961.64806  24244758.440    99278132.07144
  21918332.100   115181585.88108  21918334.120    89751880.66948
  21756857.820   114333065.08908  21756859.440    89090712.91247
  20479517.760   107620587.72809  20479517.040    83860196.75449
 15 02 16 08 59 30.0000000  0 10G01G03G06G09G10G11G17G20G23G32
  22201661.040   116670471.87108  22201667.220    90912059.29247
  21255004.800   111695775.46609  21255009.140    87035676.60048
  22606134.620   118796039.73208  22606139.460    92568372.67247
  20883588.980   109744036.15909  20883592.920    85514855.47749
  23559044.580   123803624.89806  23559048.540    96470368.84845
  24265877.760   127517969.86606  24265882.820    99364631.78544
  21924851.160   115215843.72008  21924853.180    89778575.05948
  21745627.600   114274049.61608  21745629.240    89044726.83847
  20480392.240   107625183.46209  20480391.640    83863777.83649
  24781921.800   130229874.67504  24781925.420   101477844.21744
 15 02 16 09 00  0.0000000  0  9G01G03G06G09G10G11G17G20G23
  22217001.020   116751083.60608  22217007.220    90974873.55647
  21262845.000   111736975.76109  21262849.380    87067780.67348
  22589231.220   118707212.09908  22589236.040    92499156.35547
  20873294.740   109689940.26209  20873298.720    85472702.84249
  23543634.440   123722645.40306  23543638.720    96407267.97845
  24287023.260   127629088.52106  24287028.060    99451217.54543
  21931475.040   115250652.29708  21931477.020    89805698.58648
  21734432.280   114215217.43408  21734433.840    88998883.59247
  20481359.180   107630264.95709  20481358.640    83867737.42749
 15 02 16 09 00 30.0000000  0  9G01G03G06G09G10G11G17G20G23
  22232397.520   116831992.39108  22232403.740    91037919.29447
  21270713.680   111778325.76209  21270718.160    87100001.40748
  22572360.580   118618556.14608  22572365.440    92430073.84147
  20863083.340   109636279.06109  20863087.280    85430888.92349
  23528241.300   123641754.74406  23528245.920    96344236.31844
  24308181.440   127740273.48907  24308186.020    99537854.97044
  21938195.200   115285967.14208  21938197.160    89833216.59648
  21723263.780   114156526.54208  21723265.320    88953150.44147
  20482410.420   107635789.06909  20482409.800    83872041.91949
 15 02 16 09 01  0.0000000  0 10G01G03G06G09G10G11G17G20G23G32
  22247852.480   116913208.47608  22247858.680    91101204.47947
  21278612.940   111819836.62209  21278617.560    87132347.49148
  22555525.280   118530085.58708  22555530.140    92361135.76247
  20852957.040   109583064.71709  20852960.880    85389423.18449
  23512867.380   123560964.15506  23512871.900    96281282.65744
  24329353.860   127851533.62806  24329358.200    99624550.96144
  21945013.580   115321798.16008  21945015.580    89861136.82548
  21712124.400   114097989.17808  21712125.980    88907536.91147
  20483547.860   107641766.10409  20483547.140    83876699.33149
  24827470.220   130469231.42704  24827476.860   101664361.88945
 15 02 16 09 01 30.0000000  0 10G01G03G06G09G10G11G17G20G23G32
  22263369.280   116994749.41608  22263375.400    91164742.80847
  21286546.420   111861526.87809  21286550.980    87164833.36448
  22538729.180   118441821.46208  22538734.040    92292358.53447
  20842919.400   109530316.61009  20842923.220    85348320.74949
  23497516.220   123480292.78607  23497520.440    96218421.90845
  24350543.620   127962885.63006  24350547.900    99711318.54444
  21951933.400   115358162.00708  21951935.400    89889472.25748
  21701017.840   114039624.47308  21701019.540    88862057.94547
  20484774.920   107648213.94109  20484774.080    83881723.60949
  24842643.500   130548976.93504  24842650.820   101726496.67941
 15 02 16 09 02  0.0000000  0  9G01G03G06G09G10G11G17G20G23
  22278945.260   117076601.31508  22278951.280    91228523.43547
  21294511.620   111903383.65409  21294516.040    87197448.99248
  22521970.320   118353753.36308  22521975.360    92223734.06647
  20832968.200   109478022.74809  20832971.980    85307572.26549
  23482185.480   123399728.38706  23482189.320    96155644.52544
  24371748.020   128074315.06606  24371752.340    99798146.43644
  21958951.820   115395044.00008  21958953.900    89918211.44648
  21689941.580   113981418.74408  21689943.420    88816702.84148
  20486088.940   107655118.95509  20486088.020    83887104.13149
 15 02 16 09 02 30.0000000  0 10G01G03G06G09G10G11G17G20G23G32
  22294576.240   117158742.16208  22294582.080    91292529.22547
  21302504.440   111945385.94909  21302508.800    87230178.00648
  22505245.260   118265862.89508  22505250.540    92155248.01747
  20823099.680   109426163.07409  20823103.440    85267162.10649
  23466871.160   123319250.31707  23466874.640    96092934.38645
  24392962.840   128185799.15306  24392967.420    99885016.99844
  21966064.660   115432422.05008  21966066.680    89947337.18348
  21678891.980   113923352.72008  21678893.860    88771456.59547
  20487485.740   107662459.20409  20487484.800    83892823.80249
  24872982.420   130708404.35104  24872988.200   101850734.51443
 15 02 16 09 03  0.0000000  0 10G01G03G06G09G10G11G17G20G23G32
  22310268.360   117241204.34408  22310274.060    91356785.39947
  21310531.280   111987567.08809  21310535.640    87263046.39448
  22488560.900   118178185.90208  22488566.280    92086928.29747
  20813320.260   109374771.70409  20813324.040    85227116.86649
  23451579.660   123238892.24007  23451583.220    96030317.74844
  24414194.120   128297369.28206  24414198.920    99971954.54346
  21973277.900   115470327.65708  21973279.800    89976874.01148
  21667875.400   113865459.90408  21667877.280    88726345.32047
  20488971.580   107670267.37309  20488970.660    83898908.08749
  24888144.280   130788082.64404  24888150.300   101912821.28641
 15 02 16 09 03 30.0000000  0 10G01G03G06G09G10G11G17G20G23G32
  22326018.560   117323971.70708  22326024.160    91421279.37047
  21318589.300   112029912.00709  21318593.660    87296042.39148
  22471914.740   118090709.86708  22471920.120    92018765.17147
  20803627.160   109323834.38509  20803631.020    85187425.43549
  23436308.260   123158639.91106  23436311.680    95967783.52345
  24435438.620   128409008.58206  24435443.580   100058945.98945
  21980588.340   115508743.81008  21980590.120    90006808.66448
  21656889.100   113807726.11908  21656890.960    88681357.96547
  20490543.500   107678527.73709  20490542.600    83905344.73649
  24903301.920   130867738.37704  24903308.240   101974890.50844
 15 02 16 09 04  0.0000000  0  9G01G03G06G09G11G17G20G23G32
  22341826.840   117407044.03108  22341832.380    91486010.97347
  21326678.640   112072421.52809  21326683.020    87329166.64348
  22455307.480   118003438.18508  22455312.760    91950761.27147
  20794020.860   109273352.79609  20794024.680    85148089.11149
  24456696.040   128520715.87706  24456701.140   100145990.44645
  21987995.860   115547669.91808  21987997.640    90037140.67348
  21645933.140   113750152.39708  21645935.060    88636495.34748
  20492201.400   107687240.06009  20492200.540    83912133.57249
  24918455.840   130947372.26204  24918461.960   102036942.69044
 15 02 16 09 04 30.0000000  0 10G01G03G06G09G10G11G17G20G23G32
  22357693.560   117490423.57908  22357699.160    91550981.96147
  21334799.920   112115098.94009  21334804.260    87362421.72248
  22438740.140   117916376.58308  22438745.340    91882921.08247
  20784502.100   109223330.99609  20784505.840    85109111.07149
  23405825.300   122998448.23706  23405829.120    95842960.30245
  24477966.460   128632492.54406  24477971.720   100233088.95545
  21995500.700   115587107.53508  21995502.560    90067871.25348
  21635008.360   113692742.83508  21635010.360    88591760.63848
  20493945.720   107696406.66509  20493944.920    83919276.40049
  24933606.020   131026987.63905  24933612.280   102098980.49943
 15 02 16 09 05  0.0000000  0 11G01G03G06G07G09G10G11G17G20G23G32
  22373619.220   117574112.91408  22373624.940    91616194.35747
  21342953.840   112157947.91609  21342958.180    87395810.48748
  22422213.920   117829531.37808  22422219.160    91815249.52247
  24672436.740   129654530.42006                                
  20775071.660   109173773.44409  20775075.440    85070494.80149
  23390617.180   122918528.57506  23390621.160    95780685.27946
  24499250.540   128744340.46706  24499255.760   100320242.96644
  22003103.180   115627058.64508  22003105.180    90099001.94448
  21624115.680   113635501.54608  21624117.680    88547157.05347
  20495777.040   107706030.45309  20495776.260    83926775.47649
  24948753.560   131106588.57506  24948759.900   102161007.03044
 15 02 16 09 05 30.0000000  0 11G01G03G06G07G09G10G11G17G20G23G32
  22389598.120   117658081.99608  22389603.880    91681624.73247
  21351134.900   112200939.51609  21351139.220    87429310.38248
  22405723.860   117742876.09808  22405729.260    91747725.95647
  24653542.580   129555241.69805  24653550.220   100952173.65544
  20765724.160   109124651.86909  20765728.000    85032218.27149
  23375426.820   122838690.39006  23375431.100    95718477.63546
  24520542.320   128856228.53806  24520547.540   100407428.25744
  22010797.360   115667492.18108  22010799.420    90130508.56648
  21613249.680   113578400.14208  21613251.680    88502662.46248
  20497689.700   107716081.56309  20497688.860    83934607.52549
  24963892.780   131186145.95505  24963899.480   102222999.58944
 15 02 16 09 06  0.0000000  0 11G01G03G06G07G09G10G11G17G20G23G32
  22405635.480   117742358.35308  22405641.260    91747294.54347
  21359348.580   112244102.31009  21359352.860    87462943.68948
  22389275.880   117656441.90208  22389281.460    91680374.66447
  24634634.780   129455880.37606  24634642.480   100874749.18544
  20756465.220   109075995.64309  20756469.000    84994304.36449
  23360257.400   122758972.66607  23360261.340    95656359.93246
  24541846.960   128968183.86306  24541852.100   100494665.94745
  22018588.500   115708435.55808  22018590.600    90162412.47148
  21602415.980   113521468.20908  21602417.900    88458299.93647
  20499688.980   107726587.87109  20499688.080    83942794.27649
  24979029.040   131265688.58905  24979036.220   102284980.66444
 15 02 16 09 06 30.0000000  0 11G01G03G06G07G09G10G11G17G20G23G32
  22421729.820   117826934.47308  22421735.660    91813197.94447
  21367593.620   112287429.94909  21367597.880    87496705.44048
  22372869.320   117570224.95308  22372875.000    91613192.65448
  24615712.520   129356442.71606  24615720.200   100797265.30043
  20747293.740   109027799.05909  20747297.440    84956748.61249
  23345108.780   122679364.59806  23345112.440    95594327.72145
  24563162.820   129080198.36806  24563168.020   100581949.76644
  22026475.080   115749879.84108  22026477.180    90194706.69048
  21591613.360   113464699.58808  21591615.220    88414064.65747
  20501773.400   107737541.72409  20501772.520    83951329.75649
  24994161.360   131345210.06105  24994168.760   102346945.22845
 15 02 16 09 07  0.0000000  0 11G01G03G06G07G09G10G11G17G20G23G32
  22437880.880   117911809.29708  22437886.920    91879334.08047
  21375870.000   112330922.48508  21375874.300    87530595.67948
  22356504.640   117484227.86608  22356510.360    91546181.95747
  24596776.300   129256931.44906  24596783.680   100719724.07944
  20738209.800   108980062.86609  20738213.460    84919551.61849
  23329980.540   122599866.72906  23329984.080    95532381.35446
  24584489.580   129192270.11106  24584494.560   100669278.17544
  22034456.740   115791823.55908  22034458.860    90227390.06548
  21580841.920   113408094.86308  21580843.620    88369957.09747
  20503942.860   107748942.52109  20503942.040    83960213.49449
  25009289.720   131424710.80205  25009297.420   102408893.59343
 15 02 16 09 07 30.0000000  0 11G01G03G06G07G09G10G11G17G20G23G32
  22454088.260   117996980.28708  22454094.560    91945700.97947
  21384177.420   112374578.48209  21384181.880    87564613.30448
  22340182.000   117398451.74608  22340187.660    91479343.43448
  24577826.320   129157347.84906  24577833.380   100642126.49844
  20729213.240   108932786.23309  20729216.940    84882712.73749
  23314872.900   122520478.19606  23314876.340    95470520.20545
  24605826.500   129304395.46006  24605831.440   100756648.35644
  22042532.780   115834263.39608  22042534.940    90260460.03147
  21570101.460   113351653.48508  21570103.040    88325976.82847
  20506197.000   107760787.96509  20506196.200    83969443.70249
  25024413.820   131504189.17805  25024421.680   102470824.58644
 15 02 16 09 08  0.0000000  0 10G01G03G06G07G09G10G11G17G20G23
  22470351.540   118082444.65808  22470358.040    92012296.49847
  21392515.660   112418396.42909  21392520.180    87598757.12648
  22323901.540   117312897.56908  22323907.200    91412677.88748
  24558862.660   129057692.81406  24558869.520   100564473.31445
  20720304.000   108885968.31809  20720307.760    84846231.29649
  23299786.180   122441197.95707  23299789.500    95408743.42845
  24627173.100   129416571.18906  24627177.960   100844057.79445
  22050702.520   115877195.64308  22050704.660    90293913.69148
  21559391.860   113295374.16308  21559393.340    88282122.82047
  20508535.180   107773075.17109  20508534.420    83979018.13349
 15 02 16 09 08 30.0000000  0 10G01G03G06G07G09G10G11G17G20G23
  22486671.400   118168205.56808  22486677.900    92079123.09347
  21400885.540   112462380.50809  21400890.000    87633030.38448
  22307664.720   117227572.13108  22307670.280    91346190.58247
  24539886.820   128957973.44506  24539893.500   100486770.05944
  20711483.080   108839613.94709  20711486.800    84810111.05649
  23284721.200   122362030.52407  23284724.480    95347054.59345
  24648529.720   129528799.61306  24648534.520   100931508.28544
  22058966.540   115920623.17508  22058968.580    90327753.29047
  21548713.980   113239261.52508  21548715.420    88238398.69948
  20510958.040   107785807.49109  20510957.320    83988939.40149
 15 02 16 09 09  0.0000000  0 10G01G03G06G07G09G10G11G17G20G23
  22503046.220   118254255.27608  22503052.700    92146174.71347
  21409285.820   112506524.22208  21409290.280    87667428.03448
  22291470.660   117142471.47908  22291476.100    91279878.42947
  24520897.880   128858186.05206  24520904.400   100409013.82145
  20702749.180   108793717.19309  20702752.920    84774347.39449
  23269676.480   122282969.82906  23269680.040    95285448.91445
  24669894.700   129641072.35506  24669899.700   101018993.30944
  22067323.200   115964537.31008  22067325.080    90361972.04747
  21538066.660   113183309.50908  21538068.160    88194799.73648
  20513464.160   107798977.45909  20513463.460    83999201.69749
 15 02 16 09 09 30.0000000  0 10G01G03G06G07G09G10G11G17G20G23
  22519476.540   118340596.35708  22519482.960    92213453.36847
  21417717.220   112550831.37809  21417721.740    87701953.02948
  22275320.540   117057601.93708  22275325.980    91213746.36547
  24501897.080   128758337.14406  24501903.700   100331209.59845
  20694103.200   108748282.37709  20694106.960    84738943.68649
  23254652.680   122204020.21007  23254656.680    95223929.80245
  24691268.420   129753391.33706  24691273.680   101106514.34844
  22075772.760   116008939.60008  22075774.620    90396571.18348
  21527450.860   113127523.16708  21527452.480    88151329.87348
  20516054.120   107812587.86109  20516053.420    84009807.17949
 15 02 16 09 10  0.0000000  0 10G01G03G06G07G09G10G11G17G20G23
  22535962.240   118427228.51008  22535968.660    92280958.83947
  21426179.860   112595302.83308  21426184.400    87736606.05248
  22259215.040   116972966.91008  22259220.420    91147797.03347
  24482885.060   128658430.24606  24482891.880   100253360.24344
  20685545.420   108703310.97109  20685549.160    84703901.06949
  23239650.180   122125182.94906  23239654.280    95162498.21545
  24712650.580   129865755.39806  24712656.160   101194070.55144
  22084315.000   116053829.17208  22084316.960    90431550.02548
  21516866.780   113071903.31708  21516868.420    88107989.75148
  20518727.880   107826638.45209  20518727.180    84020755.66149
 15 02 16 09 10 30.0000000  0 10G01G03G06G07G09G10G11G17G20G23
  22552502.260   118514145.86108  22552508.560    92348686.55747
  21434673.000   112639934.02609  21434677.460    87771383.55948
  22243153.740   116888564.33308  22243159.040    91082028.82347
  24463861.680   128558463.64606  24463868.660   100175464.39645
  20677075.000   108658798.86009  20677078.720    84669216.33849
  23224668.380   122046454.09606  23224672.280    95101151.12845
  24734040.180   129978158.22406  24734045.940   101281656.91644
  22092948.680   116099199.62708  22092950.900    90466903.59048
  21506313.760   113016446.19208  21506315.220    88064776.41747
  20521484.340   107841123.66309  20521483.640    84032042.79949
 15 02 16 09 11  0.0000000  0 10G01G03G06G07G09G10G11G17G20G23
  22569096.600   118601348.95008  22569102.820    92416636.92747
  21443196.860   112684726.64508  21443201.300    87806286.85548
  22227137.420   116804398.47608  22227142.720    91016445.08648
  24444827.780   128458441.55506  24444835.020   100097525.30745
  20668692.420   108614748.30009  20668696.100    84634891.25549
  23209707.820   121967835.77307  23209711.400    95039890.16745
  24755437.180   130090599.60606  24755442.960   101369273.33044
  22101673.760   116145050.37408  22101676.200    90502631.38948
  21495792.080   112961154.14308  21495793.400    88021691.71047
  20524323.700   107856044.23209  20524322.960    84043669.18049
 15 02 16 09 11 30.0000000  0 10G01G03G06G07G09G10G11G17G20G23
  22585745.320   118688838.18308  22585751.540    92484810.25147
  21451751.680   112729682.34908  21451756.180    87841317.22548
  22211167.020   116720473.51808  22211172.240    90951049.04547
  24425784.140   128358368.24606  24425791.520   100019546.34145
  20660398.080   108571161.41709  20660401.740    84600927.47749
  23194768.720   121889329.94907  23194772.260    94978716.86345
  24776841.520   130203078.81606  24776847.240   101456919.19944
  22110490.240   116191381.05508  22110492.680    90538733.18248
  21485302.160   112906029.33908  21485303.460    87978737.32147
  20527245.980   107871400.55009  20527245.220    84055635.10149
 15 02 16 09 12  0.0000000  0 10G01G03G06G07G09G10G11G17G20G23
  22602448.220   118776612.15808  22602454.520    92553205.47446
  21460337.420   112774801.05608  21460342.060    87876474.59848
  22195242.940   116636791.97808  22195248.080    90885842.69248
  24406731.320   128258246.67006  24406738.820    99941529.75945
  20652192.100   108528038.61909  20652195.720    84567325.30949
  23179851.000   121810937.15407  23179854.820    94917631.60946
  24798252.660   130315594.26705  24798258.440   101544593.32544
  22119397.620   116238189.40108  22119399.980    90575207.18248
  21474844.100   112851072.24408  21474845.480    87935913.62747
  20530250.940   107887191.50009  20530250.200    84067939.70149
 15 02 16 09 12 30.0000000  0 10G01G03G06G07G09G10G11G17G20G23
  22619204.460   118864666.64908  22619210.860    92621819.27747
  21468953.660   112820079.73709  21468958.380    87911756.63448
  22179364.980   116553353.33708  22179370.160    90820825.61448
  24387669.460   128158076.71806  24387676.900    99863475.45246
  20644073.920   108485377.36109  20644077.580    84534082.78349
  23164954.300   121732654.56907  23164958.280    94856632.26045
  24819669.860   130428141.11506  24819675.600   101632291.86445
  22128394.960   116285470.54708  22128397.260    90612049.58548
  21464417.380   112796280.44608  21464419.020    87893218.74448
  20533337.780   107903412.94609  20533337.080    84080579.75849
 15 02 16 09 13  0.0000000  0 10G01G03G06G07G09G10G11G17G20G23
  22636013.840   118953000.66807  22636020.360    92690650.88947
  21477600.460   112865518.75108  21477605.200    87947163.61148
  22163533.840   116470160.47908  22163539.080    90756000.05348
  24368599.120   128057861.11607  24368606.380    99785385.59045
  20636043.680   108443178.34909  20636047.440    84501200.43849
  23150079.020   121654483.23107  23150082.620    94795719.56645
  24841092.720   130540717.74506  24841098.760   101720013.68944
  22137481.900   116333222.46808  22137484.120    90649258.82547
  21454022.300   112741654.72508  21454024.160    87850653.26848
  20536506.340   107920064.05909  20536505.700    84093554.62549
 15 02 16 09 13 30.0000000  0 10G01G03G06G07G09G10G11G17G20G23
  22652876.540   119041614.75708  22652883.080    92759700.75146
  21486278.140   112911119.97108  21486282.900    87982696.97348
  22147750.420   116387217.82408  22147755.620    90691369.44748
  24349520.980   127957604.35907  24349527.920    99707263.67345
  20628101.860   108401443.89509  20628105.680    84468680.08649
  23135225.280   121576425.50007  23135228.400    94734895.43145
  24862521.200   130653323.86506  24862527.340   101807758.43644
  22146658.460   116381444.86308  22146660.540    90686834.67247
  21443659.400   112687197.77308  21443661.380    87808219.30348
  20539756.840   107937145.53109  20539756.220    84106864.83449
 15 02 16 09 14  0.0000000  0 10G01G03G06G07G09G10G11G17G20G23
  22669792.940   119130510.57408  22669799.380    92828970.12047
  21494987.240   112956886.31108  21494992.040    88018359.00348
  22132015.580   116304530.84508  22132020.820    90626938.06148
  24330435.960   127857312.12806  24330442.700    99629114.11245
  20620249.160   108360177.33409  20620252.880    84436524.32249
  23120393.440   121498484.74206  23120396.620    94674162.42046
  24883955.520   130765960.55206  24883961.720   101895527.00744
  22155924.680   116430138.53408  22155926.720    90724777.75347
  21433329.260   112632912.75208  21433331.300    87765919.30148
  20543089.620   107954659.17709  20543088.980    84120511.79849
 15 02 16 09 14 30.0000000  0 10G01G03G06G07G09G10G11G17G20G23
  22686762.340   119219684.55108  22686768.660    92898456.24746
  21503727.340   113002815.53908  21503732.160    88054147.96548
  22116329.380   116222099.83008  22116334.740    90562706.13748
  24311344.180   127756985.15906  24311350.800    99550937.44745
  20612485.060   108319376.78209  20612488.760    84404731.69049
  23105583.040   121420658.76806  23105586.760    94613518.83545
  24905394.900   130878623.80405  24905401.100   101983316.26044
  22165279.640   116479299.16508  22165281.720    90763084.69347
  21423031.600   112578798.01008  21423033.560    87723751.99948
  20546504.020   107972601.51309  20546503.320    84134492.81049
 15 02 16 09 15  0.0000000  0 10G01G03G06G07G09G10G11G17G20G23
  22703783.280   119309129.63208  22703789.520    92968153.62546
  21512497.280   113048901.97208  21512502.180    88090059.41248
  22100691.260   116139921.67508  22100696.700    90498671.24148
  24292245.340   127656620.36606  24292251.660    99472731.32446
  20604808.580   108279036.87809  20604812.280    84373298.01349
  23090793.920   121342942.57907  23090797.940    94552960.80946
  24926837.780   130991305.91405  24926843.840   102071120.20243
  22174721.940   116528918.73608  22174724.100    90801749.24347
  21412765.480   112524848.60408  21412767.300    87681713.52648
  20549998.720   107990965.80209  20549997.960    84148802.63949
 15 02 16 09 15 30.0000000  0 10G01G03G06G07G09G10G11G17G20G23
  22720856.200   119398848.08008  22720862.480    93038064.02247
  21521297.780   113095149.18208  21521302.800    88126096.14448
  22085102.560   116058002.46708  22085107.940    90434838.11548
  24273140.500   127556224.43507  24273146.660    99394500.92445
  20597220.540   108239161.57609  20597224.220    84342226.35849
  23076026.980   121265340.55307  23076030.980    94492491.73745
  24948284.580   131104008.66305  24948290.700   102158940.19644
  22184251.820   116578998.70108  22184254.040    90840772.54648
  21402531.540   112471068.66908  21402533.300    87639807.11548
  20553574.100   108009754.37509  20553573.320    84163443.07149
 15 02 16 09 16  0.0000000  0 10G01G03G06G07G09G10G11G17G20G23
  22737981.180   119488840.46507  22737987.660    93108187.85047
  21530129.280   113141559.13308  21530134.400    88162259.68648
  22069564.040   115976346.69108  22069569.340    90371210.26048
  24254030.580   127455801.74006  24254036.540    99316249.65446
  20589721.340   108199753.08009  20589725.000    84311518.45149
  23061282.100   121187854.79007  23061286.020    94432113.26145
  24969734.960   131216731.82505  24969741.540   102246776.22543
  22193869.280   116629538.70308  22193871.460    90880154.30348
  21392330.200   112417460.66408  21392332.020    87598034.66248
  20557230.320   108028967.93309  20557229.520    84178414.67349
 15 02 16 09 16 30.0000000  0 10G01G03G06G07G09G10G11G17G20G23
  22755157.700   119579103.88107  22755164.420    93178522.89247
  21538991.560   113188130.30508  21538996.640    88198548.85548
  22054075.820   115894955.38208  22054081.120    90307788.48648
  24234915.760   127355353.54706  24234921.520    99237978.50345
  20582310.720   108160810.19309  20582314.420    84281173.35649
  23046559.020   121110484.23007  23046562.720    94371824.54345
  24991188.800   131329472.02605  24991195.440   102334625.39341
  22203573.640   116680535.15908  22203575.800    90919891.76148
  21382161.340   112364023.72708  21382163.280    87556395.51348
  20560966.820   108048603.66209  20560966.080    84193715.24349
 15 02 16 09 17  0.0000000  0  9G01G03G06G07G09G10G17G20G23
  22772385.540   119669636.80208  22772392.420    93249067.92946
  21547884.460   113234862.50808  21547889.580    88234963.48848
  22038638.380   115813830.90908  22038643.700    90244574.63148
  24215796.540   127254882.33506  24215802.240    99159689.37346
  20574988.700   108122332.94409  20574992.460    84251191.10949
  23031857.880   121033229.06807  23031861.260    94311625.72845
  22213364.380   116731985.29908  22213366.520    90959982.72847
  21372025.160   112310758.12808  21372027.120    87514889.87848
  20564783.340   108068660.02209  20564782.700    84209343.57649
 15 02 16 09 17 30.0000000  0  9G01G03G06G07G09G10G17G20G23
  22789664.720   119760439.23807  22789671.600    93319822.97746
  21556808.320   113281757.18908  21556813.380    88271504.73948
  22023252.360   115732977.24308  22023257.800    90181571.78948
  24196673.780   127154392.38606  24196679.540    99081385.64846
  20567755.680   108084323.11509  20567759.460    84221573.07549
  23017179.100   120956091.30407  23017182.240    94251518.39845
  22223241.200   116783888.32008  22223243.400    91000426.59747
  21361922.080   112257666.02908  21361923.960    87473519.42648
  20568680.040   108089137.44209  20568679.460    84225300.00949
 15 02 16 09 18  0.0000000  0  9G01G03G06G07G09G10G17G20G23
  22806994.300   119851506.15907  22807001.040    93390784.13346
  21565762.460   113328810.76608  21565767.400    88308169.79248
  22007917.660   115652393.32908  22007923.240    90118779.15348
  24177547.300   127053882.72006  24177553.180    99003066.55545
  20560610.980   108046777.19509  20560614.720    84192316.52849
  23002522.120   120879067.74207  23002525.180    94191500.06645
  22233203.100   116836238.67508  22233205.480    91041219.03347
  21351851.400   112204744.26708  21351853.200    87432281.69548
  20572656.000   108110031.09509  20572655.400    84241580.78249
 15 02 16 09 18 30.0000000  0  9G01G03G06G07G09G10G17G20G23
  22824374.600   119942839.85307  22824381.280    93461953.15547
  21574747.500   113376026.88908  21574752.380    88344961.50248
  21992635.480   115572085.33808  21992641.200    90056201.52448
  24158418.440   126953359.95306  24158424.180    98924737.24545
  20553555.320   108009699.13109  20553558.960    84163424.54449
  22987887.520   120802162.64107  22987890.700    94131574.02445
  22243250.300   116889036.91808  22243252.760    91082360.46347
  21341813.940   112151997.29808  21341815.700    87391180.17748
  20576711.620   108131343.07809  20576710.920    84258187.52449
 15 02 16 09 19  0.0000000  0  9G01G03G06G07G09G10G17G20G23
  22841804.820   120034435.95907  22841811.520    93533326.65646
  21583762.880   113423402.69208  21583767.720    88381877.64748
  21977405.800   115492052.95308  21977411.500    89993838.66248
  24139287.100   126852823.94806  24139292.560    98846397.58345
  20546588.100   107973086.20909  20546591.720    84134894.99849
  22973274.740   120725373.11007  22973278.180    94071738.04245
  22253381.900   116942278.18408  22253384.260    91123847.11147
  21331809.220   112099422.46808  21331810.960    87350212.80048
  20580846.040   108153069.26809  20580845.300    84275117.02549
 15 02 16 09 19 30.0000000  0  9G01G03G06G07G09G10G17G20G23
  22859284.820   120126293.88707  22859291.560    93604904.17646
  21592808.880   113470939.00208  21592813.600    88418918.88648
  21962229.300   115412299.53208  21962234.800    89931693.16548
  24120153.880   126752278.29906  24120159.200    98768050.44845
  20539709.560   107936939.42309  20539713.180    84106728.67849
  22958684.380   120648700.96007  22958688.040    94011993.52446
  22263597.440   116995960.99908  22263599.740    91165677.82647
  21321837.520   112047021.07808  21321839.240    87309380.56848
  20585059.140   108175209.21609  20585058.460    84292368.93649
 15 02 16 09 20  0.0000000  0  9G01G03G06G07G09G10G17G20G23
  22876814.240   120218411.27807  22876820.920    93676683.88746
  21601885.300   113518634.94908  21601889.860    88456084.48848
  21947106.200   115332826.69808  21947111.560    89869766.30648
  24101019.180   126651724.90506  24101024.420    98689697.26545
  20532919.580   107901258.04009  20532923.180    84078924.99949
  22944116.340   120572145.66907  22944120.060    93952340.05146
  22273896.240   117050081.87308  22273898.560    91207849.86547
  21311898.980   111994793.40109  21311900.540    87268683.68348
  20589350.500   108197760.70209  20589349.920    84309941.52049
 15 02 16 09 20 30.0000000  0  9G01G03G06G07G09G10G17G20G23
  22894392.680   120310786.28307  22894399.300    93748664.32946
  21610991.920   113566490.13208  21610996.460    88493374.17148
  21932036.860   115253636.62108  21932042.200    89808059.78648
  24081883.440   126551165.87106  24081888.560    98611339.71545
  20526218.060   107866041.80109  20526221.720    84051483.77449
  22929570.660   120495707.18107  22929574.400    93892777.60345
  22284277.860   117104638.34008  22284280.380    91250361.34247
  21301993.540   111942739.17908  21301994.920    87228121.95248
  20593719.860   108220721.89909  20593719.280    84327833.35849
 15 02 16 09 21  0.0000000  0  9G01G03G06G07G09G10G17G20G23
  22912020.580   120403421.30708  22912027.080    93820847.38146
  21620129.500   113614508.41808  21620134.140    88530790.95048
  21917022.400   115174735.66408  21917027.840    89746578.54048
  24062747.780   126450608.30306  24062752.980    98532983.31045
  20519605.820   107831294.60809  20519609.520    84024408.03549
  22915047.960   120419389.48907  22915051.660    93833309.28045
  22294742.780   117159631.55108  22294745.360    91293213.13547
  21292122.020   111890863.24309  21292123.300    87187699.13848
  20598167.680   108244095.44309  20598167.080    84346046.50149
 15 02 16 09 21 30.0000000  0  9G01G03G06G07G09G10G17G20G23
  22929698.180   120496317.27007  22929704.520    93893233.77046
  21629298.620   113662692.29508  21629303.260    88568336.77148
  21902063.780   115096128.85108  21902069.400    89685326.50648
  24043613.200   126350057.08206  24043618.580    98454631.84945
  20513083.380   107797019.09309  20513087.080    83997699.82749
  22900548.800   120343195.77607  22900552.380    93773937.57645
  22305290.860   117215061.52808  22305293.500    91336405.28147
  21282284.880   111839168.35809  21282286.140    87147417.40848
  20602694.200   108267882.32609  20602693.480    84364581.72749
 15 02 16 09 22  0.0000000  0  9G01G03G06G07G09G10G17G20G23
  22947423.120   120589462.27507  22947429.420    93965814.20046
  21638497.220   113711031.27808  21638501.940    88606003.46348
  21887159.640   115017808.19708  21887165.380    89624297.45148
  24024478.380   126249504.75306  24024483.940    98376279.54745
  20506648.780   107763204.82109  20506652.440    83971351.02849
  22886071.480   120267116.24207  22886074.860    93714654.82845
  22315919.540   117270915.35608  22315922.240    91379927.69047
  21272480.220   111787644.48209  21272481.500    87107268.93148
  20607297.040   108292070.49309  20607296.320    84383429.63849
 15 02 16 09 22 30.0000000  0  9G01G03G06G07G09G10G17G20G23
  22965196.400   120682861.34907  22965202.780    94038592.62546
  21647726.580   113759532.02008  21647731.400    88643796.19948
  21872311.860   114939782.90208  21872317.580    89563498.54248
  24005345.160   126148960.63006  24005350.820    98297933.62245
  20500303.220   107729858.46309  20500306.900    83945366.83849
  22871617.160   120191157.59707  22871620.380    93655466.31245
  22326629.620   117327196.89308  22326632.320    91423783.37747
  21262709.500   111736299.01308  21262710.780    87067259.47048
  20611977.360   108316665.75109  20611976.700    84402594.76649
 15 02 16 09 23  0.0000000  0  9G01G03G06G07G09G10G17G20G23
  22983017.440   120776511.26007  22983023.920    94111566.50146
  21656986.380   113808192.71908  21656991.220    88681713.57548
  21857520.540   114862053.67808  21857526.120    89502930.33248
  23986213.720   126048425.58206  23986219.700    98219594.78745
  20494046.360   107696978.25509  20494050.060    83919745.87249
  22857185.480   120115318.70407  22857188.780    93596371.08946
  22337420.460   117383902.15808  22337423.100    91467969.24047
  21252972.480   111685130.76109  21252973.760    87027388.10348
  20616734.500   108341664.75109  20616733.900    84422074.49849
 15 02 16 09 23 30.0000000  0  9G01G03G06G07G09G10G17G20G23
  23000886.340   120870413.10507  23000893.040    94184736.66446
  21666277.140   113857016.04208  21666282.000    88719757.68248
  21842786.540   114784625.69108  21842792.080    89442596.85448
  23967085.100   125947905.11206  23967091.140    98141267.33245
  20487878.800   107664566.88109  20487882.380    83894490.22549
  22842777.100   120039602.68407  22842780.620    93537371.59546
  22348291.960   117441031.30908  22348294.520    91512485.39647
  21243269.780   111634142.89109  21243271.040    86987657.28848
  20621568.580   108367068.35209  20621568.060    84441869.49449
 15 02 16 09 24  0.0000000  0  9G01G03G06G07G09G10G17G20G23
  23018801.760   120964559.32007  23018808.660    94258097.25446
  21675597.640   113905996.04408  21675602.620    88757923.87048
  21828109.180   114707495.52008  21828114.760    89382495.44548
  23947958.880   125847396.23706  23947964.740    98062948.88445
  20481799.240   107632618.34609  20481802.780    83869595.23649
  22828390.980   119964003.82507  22828394.700    93478463.42746
  22359242.280   117498575.62608  22359244.920    91557325.07047
  21233600.440   111583330.26409  21233601.740    86948063.03448
  20626478.320   108392869.49609  20626477.840    84461974.25949
 15 02 16 09 24 30.0000000  0  9G01G03G06G07G09G10G17G20G23
  23036764.060   121058951.80707  23036771.080    94331649.75146
  21684948.680   113955136.09108  21684953.680    88796214.77348
  21813489.600   114630669.06908  21813495.180    89322630.69248
  23928836.100   125746905.04706  23928841.720    97984644.23544
  20475808.300   107601136.03609  20475811.840    83845063.54549
  22814027.980   119888526.11307  22814031.700    93419649.66246
  22370271.680   117556536.02208  22370274.500    91602488.95747
  21223965.080   111532696.74908  21223966.540    86908608.35648
  20631464.120   108419070.06509  20631463.640    84482390.26249
 15 02 16 09 25  0.0000000  0  9G01G03G06G07G09G10G17G20G23
  23054773.260   121153590.69507  23054780.280    94405394.25345
  21694330.520   114004437.96708  21694335.520    88834631.78848
  21798928.600   114554150.57908  21798934.180    89263005.91148
  23909717.460   125646435.93406  23909723.100    97906356.78745
  20469906.420   107570121.66809  20469910.000    83820896.48749
  22799688.340   119813171.52407  22799692.020    93360931.85445
  22381380.180   117614911.82208  22381383.140    91647976.55347
  21214364.220   111482244.76408  21214365.880    86869295.12148
  20636526.040   108445670.38709  20636525.540    84503117.75549
 15 02 16 09 25 30.0000000  0  9G01G03G06G07G09G10G17G20G23
  23072829.000   121248473.78407  23072836.040    94479329.02745
  21703742.960   114053900.96208  21703747.980    88873174.33148
  21784426.520   114477941.87908  21784432.040    89203622.52948
  23890603.360   125545990.96306  23890609.100    97828088.13845
  20464093.480   107539574.42809  20464097.100    83797093.42649
  22785372.140   119737940.07407  22785375.740    93302309.97346
  22392567.180   117673699.46308  22392570.120    91693785.05547
  21204797.820   111431973.87308  21204799.660    86830123.01448
  20641663.560   108472668.10309  20641663.080    84524154.89949
 15 02 16 09 26  0.0000000  0  9G01G03G06G07G09G10G17G20G23
  23090930.780   121343597.89807  23090937.680    94553451.60946
  21713185.820   114103523.58608  21713190.820    88911841.27848
  21769983.580   114402043.95108  21769989.020    89144481.30748
  23871494.180   125445571.41107  23871499.940    97749839.28945
  20458369.160   107509492.75709  20458372.780    83773653.15649
  22771079.120   119662830.62507  22771082.660    93243783.17046
  22403831.740   117732894.83308  22403834.600    91739911.26547
  21195266.000   111381883.49809  21195267.760    86791091.56548
  20646876.160   108500060.44809  20646875.700    84545499.55749
 15 02 16 09 26 30.0000000  0  9G01G03G06G07G09G10G17G20G23
  23109077.900   121438959.82507  23109084.640    94627759.51346
  21722658.800   114153304.12008  21722663.760    88950631.27748
  21755599.980   114326457.60908  21755605.300    89085582.86348
  23852390.000   125345178.40107  23852395.660    97671611.13045
  20452733.040   107479874.84209  20452736.720    83750574.24649
  22756809.120   119587842.06207  22756812.560    93185350.55746
  22415173.020   117792493.89308  22415175.880    91786352.02347
  21185768.420   111331972.51109  21185770.020    86752199.89948
  20652163.160   108527844.11009  20652162.720    84567149.12749
 15 02 16 09 27  0.0000000  0  9G01G03G06G07G09G10G17G20G23
  23127270.580   121534561.65407  23127277.220    94702254.31346
  21732162.580   114203246.36308  21732167.520    88989547.26448
  21741276.880   114251189.13208  21741282.140    89026932.11248
  23833292.040   125244818.46407  23833297.540    97593408.69846
  20447185.920   107450724.30309  20447189.580    83727859.53749
  22742563.080   119512978.18807  22742566.260    93127015.09746
  22426591.300   117852497.55708  22426594.120    91833108.06547
  21176305.820   111282245.31909  21176307.300    86713451.44848
  20657525.100   108556021.49409  20657524.640    84589105.49849
 15 02 16 09 27 30.0000000  0  9G01G03G06G07G09G10G17G20G23
  23145508.240   121630400.44707  23145514.900    94776933.79446
  21741696.780   114253348.94108  21741701.900    89028588.19748
  21727014.500   114176239.66708  21727019.720    88968529.93548
  23814200.600   125144493.14707  23814206.000    97515233.26445
  20441727.460   107422039.63409  20441731.100    83705507.85149
  22728340.740   119438238.30707  22728343.820    93068776.25346
  22438085.860   117912901.54108  22438088.580    91880176.05847
  21166877.860   111232700.96808  21166879.300    86674845.47348
  20662961.420   108584589.47809  20662960.940    84611366.22549
 15 02 16 09 28  0.0000000  0  9G01G03G06G07G09G10G17G20G23
  23163790.840   121726475.72007  23163797.420    94851797.54646
  21751261.720   114303613.04008  21751266.980    89067754.98948
  21712813.560   114101612.87108  21712818.720    88910379.19648
  23795116.480   125044206.18207  23795121.780    97437087.67945
  20436357.800   107393821.85709  20436361.500    83683519.98849
  22714142.160   119363624.09207  22714145.400    93010635.33546
  22449656.420   117973704.65808  22449658.980    91927555.05947
  21157484.900   111183341.12108  21157486.360    86636383.27148
  20668472.140   108613548.07809  20668471.620    84633931.33449
 15 02 16 09 28 30.0000000  0  9G01G03G06G07G09G10G17G20G23
  23182118.040   121822785.58207  23182124.620    94926844.07845
  21760857.360   114354038.39008  21760862.640    89107047.46148
  21698674.380   114027310.94008  21698679.520    88852481.60948
  23776040.040   124943960.07707  23776045.260    97358973.93745
  20431076.920   107366070.53009  20431080.660    83661895.60049
  22699967.400   119289135.64107  22699970.960    92952592.41946
  22461302.320   118034903.81308  22461304.760    91975242.65347
  21148127.100   111134166.26308  21148128.620    86598065.22848
  20674056.860   108642895.29209  20674056.280    84656799.25749
 15 02 16 09 29  0.0000000  0  9G01G03G06G07G09G10G17G20G23
  23200489.400   121919326.85607  23200495.760    95002070.95045
  21770483.420   114404623.40608  21770488.740    89146464.31948
  21684597.180   113953334.83308  21684602.360    88794837.91048
  23756971.640   124843756.27507  23756976.940    97280893.14946
  20425884.460   107338783.87609  20425888.180    83640633.29949
  22685816.280   119214771.74907  22685820.100    92894646.55446
  22473022.740   118096494.79908  22473025.260    92023235.57647
  21138804.360   111085175.35409  21138805.960    86559890.50448
  20679714.920   108672627.98309  20679714.320    84679967.56049
 15 02 16 09 29 30.0000000  0  9G01G03G06G07G09G10G17G20G23
  23218904.340   122016097.12307  23218910.600    95077476.23446
  21780139.720   114455367.37608  21780145.040    89186005.03348
  21670582.340   113879686.31008  21670587.520    88737449.45648
  23737911.680   124743596.71306  23737916.840    97202846.82746
  20420780.160   107311960.91109  20420783.880    83619732.31849
  22671689.020   119140532.36307  22671692.840    92836797.71446
  22484817.100   118158474.14608  22484819.760    92071531.11347
  21129516.680   111036368.46809  21129518.340    86521859.17348
  20685445.860   108702743.94709  20685445.280    84703434.52049
 15 02 16 09 30  0.0000000  0  9G01G03G06G07G09G10G17G20G23
  23237362.400   122113094.10007  23237368.680    95153058.20046
  21789826.140   114506269.70408  21789831.520    89225669.13148
  21656630.140   113806367.19808  21656635.340    88680317.69648
  23718860.600   124643483.72806  23718865.640    97124836.81546
  20415763.920   107285600.80209  20415767.660    83599192.00849
  22657585.520   119066417.29507  22657589.000    92779045.75445
  22496684.760   118220838.50308  22496687.480    92120126.66347
  21120264.060   110987745.41409  21120265.760    86483971.08548
  20691249.280   108733241.19109  20691248.760    84727198.59049
 15 02 16 09 30 30.0000000  0  9G01G03G06G07G09G10G17G20G23
  23255863.920   122210319.60207  23255870.280    95228818.23846
  21799543.420   114557333.86208  21799548.860    89265459.35148
  21642741.740   113733383.49708  21642747.040    88623447.28748
  23699819.700   124543423.52806  23699824.600    97046867.94345
  20410836.380   107259706.78609  20410840.160    83579014.88349
  22643506.220   118992430.37407  22643509.520    92721393.64346
  22508625.780   118283588.39808  22508628.420    92169022.61147
  21111047.260   110939310.32009  21111048.960    86446229.45948
  20697125.540   108764121.36409  20697125.100    84751261.04649
 15 02 16 09 31  0.0000000  0  9G01G03G06G07G09G10G17G20G23
  23274408.480   122307771.42607  23274414.980    95304754.61146
  21809291.420   114608559.34808  21809296.800    89305375.27148
  21628917.560   113660737.14608  21628922.960    88566839.73948
  23680789.360   124443418.45807  23680794.300    96968942.00345
  20405997.420   107234278.03409  20406001.220    83559200.30149
  22629451.260   118918571.66507  22629454.380    92663841.42946
  22520639.560   118346720.87808  22520642.160    92218216.68647
  21101866.240   110891063.36609  21101867.960    86408634.43348
  20703074.280   108795382.27409  20703073.860    84775620.18549
 15 02 16 09 31 30.0000000  0  9G01G03G06G07G09G10G17G20G23
  23292995.360   122405445.53007  23293002.000    95380864.18446
  21819069.640   114659943.85208  21819074.900    89345415.09848
  21615157.680   113588428.28408  21615163.060    88510495.16748
  23661769.620   124343468.86906  23661774.480    96891059.33246
  20401246.540   107209311.92809  20401250.260    83539746.21749
  22615420.380   118844839.33907  22615423.420    92606387.70946
  22532725.140   118410230.57008  22532727.740    92267704.70447
  21092720.540   110843002.68808  21092722.280    86371184.55948
  20709094.780   108827020.16009  20709094.380    84800273.07349
 15 02 16 09 32  0.0000000  0  9G01G03G06G07G09G10G17G20G23
  23311624.820   122503343.96107  23311631.660    95457148.56946
  21828878.760   114711491.06308  21828883.940    89385581.69848
  21601463.200   113516463.05108  21601468.520    88454418.36448
  23642761.740   124243581.34607  23642766.580    96813225.02645
  20396584.380   107184811.86209  20396588.000    83520655.27949
  22601414.320   118771237.39107  22601417.420    92549035.59346
  22544882.660   118474118.41608  22544885.360    92317487.38947
  21083611.120   110795132.81209  21083612.780    86333883.35548
  20715187.440   108859037.33909  20715187.080    84825221.51749
 15 02 16 09 32 30.0000000  0  9G01G03G06G07G09G10G17G20G23
  23330295.520   122601459.60707  23330302.560    95533602.20446
  21838717.880   114763195.67708  21838722.940    89425870.95948
  21587833.560   113444838.66208  21587838.820    88398607.15048
  23623765.260   124143753.37907  23623770.020    96735437.14146
  20392009.820   107160772.19009  20392013.360    83501923.08349
  22587432.200   118697761.01007  22587435.540    92491781.34046
  22557110.580   118538376.11208  22557113.340    92367558.24947
  21074537.160   110747448.85709  21074538.640    86296727.02248
  20721350.980   108891426.76609  20721350.660    84850460.02549
 15 02 16 09 33  0.0000000  0  9G01G03G06G07G09G10G17G20G23
  23349007.960   122699794.41107  23349015.100    95610226.60446
  21848587.640   114815061.28208  21848592.600    89466285.67148
  21574269.980   113373561.16108  21574275.180    88343066.23848
  23604781.340   124043991.31607  23604786.080    96657700.61646
  20387523.460   107137196.15409  20387527.000    83483552.15849
  22573474.820   118624414.29607  22573478.320    92434628.09346
  22569409.040   118603004.86908  22569411.840    92417918.25047
  21065499.500   110699955.15509  21065500.780    86259718.93348
  20727585.760   108924190.50609  20727585.440    84875990.21349
 15 02 16 09 33 30.0000000  0  9G01G03G06G07G09G10G17G20G23
  23367761.580   122798345.84307  23367768.860    95687019.81146
  21858487.840   114867087.16908  21858492.820    89506825.25748
  21560772.660   113302632.22108  21560777.860    88287796.93648
  23585810.280   123944297.33607  23585815.000    96580017.15946
  20383125.080   107114082.62709  20383128.640    83465541.62649
  22559542.080   118551197.00108  22559545.640    92377575.68246
  22581777.340   118668000.77408  22581780.180    92468564.33847
  21056498.020   110652651.60609  21056499.200    86222859.01448
  20733891.260   108957325.91409  20733890.860    84901810.01349
 15 02 16 09 34  0.0000000  0  9G01G03G06G07G09G10G17G20G23
  23386555.980   122897110.78207  23386563.280    95763979.38946
  21868418.260   114919271.84108  21868423.320    89547488.59148
  21547341.800   113232052.83808  21547347.040    88232800.02248
  23566852.320   123844672.49707  23566857.000    96502387.57845
  20378814.300   107091429.77409  20378817.920    83447890.04849
  22545633.800   118478108.08908  22545637.360    92320623.31046
  22594214.720   118733360.04708  22594217.600    92519493.55547
  21047532.600   110605537.49109  21047533.780    86186146.70348
  20740266.840   108990830.01809  20740266.400    84927917.10749
 15 02 16 09 34 30.0000000  0  9G01G03G06G07G09G10G17G20G23
  23405391.340   122996090.51807  23405398.560    95841106.33346
  21878379.520   114971618.36108  21878384.660    89588278.03648
  21533978.520   113161828.52708  21533983.760    88178079.78648
  23547908.600   123745122.68207  23547913.100    96424816.48045
  20374591.700   107069240.25609  20374595.380    83430599.51049
  22531750.580   118405150.92408  22531754.040    92263773.59146
  22606721.140   118799082.27408  22606724.160    92570705.61947
  21038603.840   110558616.30709  21038605.160    86149584.72748
  20746712.900   109024704.35809  20746712.400    84954312.69149
 15 02 16 09 35  0.0000000  0  9G01G03G06G07G09G10G17G20G23
  23424267.100   123095282.86707  23424274.260    95918398.93446
  21888371.560   115024126.37608  21888376.780    89629193.30748
  21520683.240   113091961.39909  21520688.480    88123637.87048
  23528979.480   123645650.48907  23528983.900    96347305.83245
  20370457.180   107047513.30909  20370460.880    83413669.41649
  22517892.360   118332325.68607  22517895.840    92207026.68946
  22619296.100   118865164.35008  22619299.220    92622198.08047
  21029711.700   110511888.30009  21029713.260    86113173.27848
  20753229.020   109058946.80209  20753228.500    84980995.10749
 15 02 16 09 35 30.0000000  0  9G01G03G06G07G09G10G17G20G23
  23443183.020   123194686.45107  23443190.140    95995856.11445
  21898394.320   115076796.25608  21898399.700    89670234.69848
  21507456.460   113022454.14009  21507461.680    88069476.38448
  23510065.660   123546259.24107  23510070.140    96269858.27846
  20366410.720   107026248.80809  20366414.400    83397099.66449
  22504059.260   118259633.11907  22504063.020    92150383.15345
  22631939.080   118931603.60308  22631942.180    92673968.85747
  21020856.440   110465354.47009  21020858.200    86076913.14348
  20759814.920   109093555.96709  20759814.420    85007963.27449
 15 02 16 09 36  0.0000000  0  9G01G03G06G07G09G10G17G20G23
  23462138.500   123294297.89007  23462145.620    96073475.27846
  21908447.600   115129626.41808  21908453.060    89711400.98848
  21494298.420   112953307.67909  21494303.580    88015596.01548
  23491167.460   123446949.79107  23491171.980    96192474.44346
  20362451.900   107005444.73509  20362455.520    83380888.67849
  22490251.160   118187072.44807  22490255.220    92093842.40246
  22644649.260   118998395.74008  22644652.300    92726014.57847
  21012038.080   110419013.92209  21012039.880    86040803.60548
  20766470.020   109128528.72409  20766469.580    85035214.76449
 15 02 16 09 36 30.0000000  0  9G01G03G06G07G09G10G17G20G23
  23481132.840   123394113.05507  23481139.840    96151253.18646
  21918530.960   115182614.44408  21918536.380    89752690.29348
  21481208.920   112884521.97408  21481214.180    87961996.77248
  23472284.980   123347722.81107  23472289.600    96115154.86746
  20358580.140   106985098.18309  20358583.700    83365034.20849
  22476467.980   118114641.57707  22476471.980    92037402.78846
  22657425.600   119065535.50508  22657428.740    92778331.20447
  21003256.240   110372864.87109  21003258.020    86004843.29048
  20773193.540   109163860.95509  20773193.160    85062746.35649
 15 02 16 09 37  0.0000000  0  9G01G03G06G07G09G10G17G20G23
  23500166.100   123494132.79707  23500173.060    96229190.48546
  21928644.960   115235763.06808  21928650.240    89794104.73348
  21468189.060   112816102.25009  21468194.380    87908682.70048
  23453419.000   123248583.38207  23453423.880    96037903.48546
  20354795.880   106965211.44009  20354799.380    83349538.02949
  22462710.180   118042343.54308  22462714.000    91981066.69346
  22670267.940   119133022.56508  22670271.240    92830918.45847
  20994511.460   110326910.57609  20994513.200    85969034.73948
  20779985.700   109199554.03409  20779985.380    85090559.12249
 15 02 16 09 37 30.0000000  0  9G01G03G06G07G09G10G17G20G23
  23519238.180   123594356.72806  23519245.300    96307286.90746
  21938789.660   115289073.56408  21938794.940    89835645.29748
  21455239.520   112748052.10009  21455244.900    87855656.61748
  23434570.620   123149535.95107  23434575.640    95960723.77746
  20351099.240   106945785.22409  20351102.720    83334400.70449
  22448978.040   117970180.12108  22448981.600    91924835.48846
  22683176.100   119200855.20408  22683179.360    92883774.98047
  20985804.180   110281153.03509  20985805.820    85933379.50248
  20786846.460   109235607.42909  20786846.100    85118652.64449
 15 02 16 09 38  0.0000000  0  9G01G03G06G07G09G10G17G20G23
  23538348.120   123694779.99106  23538355.500    96385538.61446
  21948964.540   115342542.95908  21948969.940    89877309.69248
  21442360.200   112680371.01409  21442365.600    87802918.12748
  23415739.880   123050580.22807  23415744.820    95883615.55046
  20347489.540   106926816.08809  20347493.040    83319619.54949
  22435271.100   117898148.81408  22435274.400    91868707.21346
  22696149.000   119269027.79908  22696152.120    92936896.40347
  20977133.880   110235590.00909  20977135.440    85897875.84048
  20793774.920   109272016.17209  20793774.380    85147023.06248
 15 02 16 09 38 30.0000000  0  9G01G03G06G07G09G10G17G20G23
  23557496.060   123795403.43706  23557503.800    96463946.33646
  21959170.140   115396174.00908  21959175.620    89919100.05148
  21429552.180   112613064.13909  21429557.440    87750471.21948
  23396927.700   122951721.79607  23396932.460    95806583.09946
  20343967.200   106908306.17109  20343970.740    83305196.22549
  22421589.940   117826252.76908  22421592.940    91812684.34946
  22709186.640   119337539.80108  22709189.480    92990282.28847
  20968501.220   110190224.66509  20968502.680    85862526.20848
  20800771.160   109308781.42209  20800770.460    85175671.27649
 15 02 16 09 39  0.0000000  0  9G01G03G06G07G09G10G17G20G23
  23576681.560   123896223.64106  23576689.380    96542507.36845
  21969406.240   115449965.01708  21969411.640    89961015.05547
  21416815.440   112546132.12609  21416820.600    87698316.41448
  23378134.220   122852961.75507  23378138.840    95729627.32546
  20340531.800   106890253.23809  20340535.380    83291128.99249
  22407934.260   117754490.91408  22407937.040    91756766.03746
  22722288.120   119406386.86708  22722290.780    93043929.28547
  20959905.980   110145056.10309  20959907.380    85827329.92648
  20807834.580   109345899.96409  20807833.860    85204594.78248
 15 02 16 09 39 30.0000000  0  9G01G03G06G07G09G10G17G20G23
  23595904.660   123997240.52807  23595912.320    96621221.64046
  21979673.120   115503917.72808  21979678.460    90003056.06347
  21404150.860   112479579.17509  21404155.940    87646456.98448
  23359360.420   122754304.62007  23359364.740    95652751.71546
  20337183.560   106872658.48809  20337187.220    83277418.78349
  22394304.360   117682865.55008  22394307.140    91700954.10046
  22735452.980   119475567.48608  22735455.680    93097836.18947
  20951348.560   110100086.58909  20951350.000    85792288.74348
  20814965.180   109383371.63509  20814964.560    85233793.45449
 15 02 16 09 40  0.0000000  0  9G01G03G06G07G09G10G17G20G23
  23615164.920   124098452.50607  23615172.500    96700087.91146
  21989970.820   115558032.35108  21989976.060    90045223.24347
  21391558.860   112413407.81809  21391563.920    87594894.90048
  23340606.800   122655753.48807  23340610.980    95575958.68446
  20333922.460   106855521.52609  20333926.160    83264065.29449
  22380700.340   117611377.05907  22380703.260    91645248.80346
  22748680.660   119545079.01108  22748683.440    93152000.94447
  20942829.240   110055317.23409  20942830.660    85757403.53348
  20822162.680   109421194.86109  20822162.220    85263266.06348
 15 02 16 09 40 30.0000000  0  9G01G03G06G07G09G10G17G20G23
  23634461.660   124199856.14307  23634469.200    96779103.56446
  22000299.100   115612307.48208  22000304.220    90087515.50148
  21379039.600   112347619.03309  21379044.680    87543630.92248
  23321873.540   122557309.49507  23321877.540    95499249.14346
  20330748.140   106838840.31709  20330751.820    83251066.94349
  22367122.180   117540024.56408  22367125.360    91589649.47246
  22761970.300   119614916.86708  22761973.140    93206419.98547
  20934347.780   110010747.00809  20934349.160    85722673.47648
  20829426.540   109459366.76809  20829426.200    85293010.38048
 15 02 16 09 41  0.0000000  0  9G01G03G06G07G09G10G17G20G23
  23653794.620   124301450.04107  23653802.100    96858267.46946
  22010657.960   115666743.36508  22010663.020    90129933.00948
  21366593.660   112282215.46609  21366598.800    87492667.12248
  23303161.320   122458976.14907  23303165.200    95422625.81046
  20327660.520   106822614.50709  20327664.160    83238423.44949
  22353570.200   117468809.18708  22353573.540    91534156.99546
  22775321.500   119685078.36108  22775324.380    93261091.22047
  20925904.420   109966376.96809  20925905.720    85688099.41748
  20836756.500   109497885.78109  20836756.160    85323025.16948
 15 02 16 09 41 30.0000000  0  9G01G03G06G07G09G10G17G20G23
  23673163.360   124403232.60807  23673170.900    96937578.37846
  22021047.520   115721340.38208  22021052.600    90172476.07648
  21354221.560   112217199.87809  21354226.780    87442005.64048
  23284470.580   122360756.39107  23284474.520    95346090.97446
  20324659.520   106806843.85909  20324663.140    83226134.63649
  22340044.580   117397731.58508  22340047.920    91478771.86146
  22788733.920   119755560.92508  22788736.780    93316012.62746
  20917499.340   109922208.18209  20917500.640    85653682.18148
  20844152.320   109536750.62909  20844151.860    85353309.44348
 15 02 16 09 42  0.0000000  0  9G01G03G06G07G09G10G17G20G23
  23692567.400   124505201.01206  23692575.060    97017034.11746
  22031467.500   115776097.57308  22031472.660    90215143.95347
  21341923.600   112152573.60509  21341928.840    87391647.52048
  23265801.780   122262651.96207  23265805.900    95269646.01646
  20321744.780   106791526.67909  20321748.400    83214199.17549
  22326545.160   117326791.28408  22326548.400    91423493.72046
  22802206.720   119826360.43608  22802209.580    93371181.01147
  20909132.600   109878240.51409  20909133.920    85619421.65648
  20851613.440   109575958.43509  20851612.860    85383860.97048
 15 02 16 09 42 30.0000000  0  9G01G03G06G07G09G10G17G20G23
  23712006.300   124607352.64506  23712014.080    97096632.63045
  22041917.860   115831014.15808  22041923.040    90257936.03847
  21329700.020   112088338.28209  21329705.280    87341594.04148
  23247155.360   122164664.94207  23247159.620    95193292.53746
  20318916.020   106776661.60509  20318919.680    83202616.00549
  22313071.860   117255988.14408  22313074.940    91368322.45546
  22815739.080   119897473.19807  22815742.020    93426593.48547
  20900804.060   109834473.72009  20900805.460    85585317.67148
  20859139.340   109615506.90209  20859138.700    85414677.93948
 15 02 16 09 43  0.0000000  0  9G01G03G06G07G09G10G17G20G23
  23731480.480   124709689.54207  23731488.360    97176375.44645
  22052399.320   115886093.99708  22052404.420    90300855.32647
  21317551.960   112024500.06109  21317557.280    87291849.98148
  23228532.620   122066802.12407  23228537.040    95117035.83746
  20316173.920   106762251.74409  20316177.540    83191387.54549
  22299625.320   117185326.22808  22299628.380    91313261.25346
  22829331.140   119968899.99707  22829334.180    93482250.66647
  20892514.560   109790912.35509  20892516.080    85551373.75748
  20866730.340   109655397.98109  20866729.760    85445761.88648
 15 02 16 09 43 30.0000000  0  9G01G03G06G07G09G10G17G20G23
  23750989.400   124812209.01207  23750997.400    97256260.52446
  22062911.700   115941336.37808  22062916.800    90343901.26948
  21305479.820   111961060.56609  21305485.120    87242416.62248
  23209933.800   121969065.40907  23209938.420    95040877.38246
  20313518.180   106748295.68809  20313521.780    83180512.70349
  22286205.500   117114805.54608  22286208.680    91258310.09546
  22842982.220   120040637.16707  22842985.380    93538149.69147
  20884264.060   109747556.28409  20884265.700    85517589.82248
  20874386.020   109695629.39809  20874385.580    85477111.03248
 15 02 16 09 44  0.0000000  0  9G01G03G06G07G09G10G17G20G23
  23770532.180   124914906.76507  23770540.380    97336284.56946
  22073454.520   115996738.83708  22073459.720    90387071.95947
  21293483.500   111898019.70509  21293488.860    87193293.89049
  23191359.060   121871455.36407  23191363.880    94964817.63546
  20310948.180   106734790.26309  20310951.780    83169988.99949
  22272812.240   117044424.02608  22272815.560    91203467.36846
  22856691.480   120112679.05008  22856694.580    93594286.14646
  20876052.320   109704404.08009  20876054.060    85483964.73248
  20882105.580   109736196.53709  20882105.260    85508721.79048
 15 02 16 09 44 30.0000000  0  9G01G03G06G07G09G10G17G20G23
  23790108.300   125017779.86707  23790116.780    97416445.25846
  22084027.640   116052300.39308  22084032.940    90430366.62147
  21281563.280   111835378.80409  21281568.660    87144482.82149
  23172808.800   121773973.66007  23172813.680    94888857.88046
  20308463.580   106721733.76209  20308467.200    83159815.10049
  22259445.540   116974181.35408  22259448.920    91148732.84346
  22870457.980   120185021.55708  22870460.900    93650656.86446
  20867879.280   109661454.73509  20867881.040    85450497.72248
  20889888.560   109777096.69109  20889888.260    85540592.04048
 15 02 16 09 45  0.0000000  0  9G01G03G06G07G09G10G17G20G23
  23809718.320   125120830.55607  23809727.000    97496744.31846
  22094631.740   116108025.17008  22094637.160    90473788.47647
  21269720.340   111773144.28109  21269725.840    87095988.40649
  23154284.420   121676627.24407  23154289.100    94813003.56346
  20306065.100   106709129.55709  20306068.660    83149993.64049
  22246106.220   116904081.95808  22246109.500    91094109.93346
  22884281.840   120257665.80408  22884284.600    93707262.70546
  20859745.940   109618713.45909  20859747.640    85417192.85048
  20897735.460   109818332.59209  20897735.180    85572723.90848
 15 02 16 09 45 30.0000000  0  9G01G03G06G07G09G10G17G20G23
  23829361.360   125224054.61607  23829370.220    97577178.43345
  22105266.420   116163910.83308  22105271.900    90517335.68248
  21257954.820   111711316.16109  21257960.360    87047810.66649
  23135785.860   121579416.73707  23135790.240    94737255.13446
  20303752.120   106696974.54409  20303755.640    83140522.20149
  22232793.760   116834123.96008  22232796.940    91039597.19946
  22898162.060   120330606.39308  22898164.760    93764099.46347
  20851651.880   109576178.52909  20851653.480    85384048.76348
  20905645.460   109859899.97209  20905645.240    85605114.07148
 15 02 16 09 46  0.0000000  0  9G01G03G06G07G09G10G17G20G23
  23849037.540   125327452.41206  23849046.480    97657747.92446
  22115932.140   116219959.68808  22115937.720    90561010.04548
  21246267.500   111649898.97509  21246273.080    86999953.13349
  23117314.240   121482347.19807  23117318.200    94661616.57546
  20301524.920   106685270.20109  20301528.400    83131401.94449
  22219508.640   116764310.02808  22219511.860    90985196.72646
  22912098.480   120403842.37208  22912101.160    93821166.39946
  20843597.680   109533852.97309  20843599.180    85351067.81948
  20913618.680   109901799.59509  20913618.520    85637763.11548
 15 02 16 09 46 30.0000000  0  9G01G03G06G07G09G10G17G20G23
  23868746.180   125431020.79306  23868755.120    97738450.36545
  22126628.580   116276170.53708  22126634.380    90604810.63948
  21234658.660   111588893.91209  21234664.240    86952416.74149
  23098869.720   121385419.88508  23098873.500    94586088.85846
  20299383.040   106674014.65109  20299386.520    83122631.39149
  22206250.820   116694639.87908  22206254.080    90930908.29746
  22926090.280   120477369.55908  22926093.060    93878460.25247
  20835583.240   109491736.43109  20835584.720    85318249.75048
  20921654.560   109944028.17709  20921654.400    85670668.48948
 15 02 16 09 47  0.0000000  0  9G01G03G06G07G09G10G17G20G23
  23888486.700   125534757.17406  23888495.560    97819283.67045
  22137355.800   116332542.68008  22137361.800    90648736.91848
  21223128.560   111528302.47309  21223134.080    86905202.65949
  23080452.720   121288637.22608  23080456.380    94510673.84946
  20297326.260   106663206.29909  20297329.760    83114209.30349
  22193020.220   116625113.19808  22193023.560    90876731.65846
  22940136.720   120551184.17308  22940139.640    93935978.05747
  20827608.520   109449828.68209  20827610.020    85285594.37148
  20929752.560   109986583.08309  20929752.320    85703828.14348
 15 02 16 09 47 30.0000000  0  9G01G03G06G07G09G10G17G20G23
  23908258.920   125638660.12706  23908267.700    97900246.77644
  22148113.900   116389076.52208  22148119.860    90692789.20647
  21211677.660   111468127.41609  21211683.040    86858313.01349
  23062063.840   121192002.39708  23062067.440    94435374.05846
  20295354.500   106652844.76909  20295358.020    83106135.39049
  22179817.040   116555730.92008  22179820.440    90822667.54746
  22954237.360   120625283.41008  22954240.360    93993717.65547
  20819673.700   109408130.98709  20819675.240    85253102.67848
  20937912.400   110029463.24009  20937912.160    85737241.22348
 15 02 16 09 48  0.0000000  0  9G01G03G06G07G09G10G17G20G23
  23928062.180   125742726.57206  23928070.980    97981337.28145
  22158902.600   116445771.10308  22158908.480    90736966.72948
  21200306.240   111408369.95409  21200311.440    86811748.76849
  23043703.300   121095517.11408  23043707.100    94360190.81447
  20293467.440   106642928.21209  20293470.920    83098408.20149
  22166641.440   116486493.00108  22166644.820    90768715.92846
  22968391.460   120699663.07508  22968394.380    94051675.75946
  20811778.700   109366642.90509  20811780.280    85220774.31048
  20946133.560   110072665.89309  20946133.360    85770905.58948
 15 02 16 09 48 30.0000000  0  9G01G03G06G07G09G10G17G20G23
  23947896.180   125846954.33305  23947905.040    98062553.49746
  22169721.820   116502626.04108  22169727.740    90781269.20548
  21189014.660   111349032.07509  21189019.760    86765511.47249
  23025371.620   120999183.83208  23025375.600    94285126.03847
  20291664.860   106633455.44609  20291668.280    83091026.81649
  22153493.500   116417399.45008  22153496.720    90714876.81846
  22982598.260   120774319.96807  22982601.140    94109849.88846
  20803923.640   109325364.94509  20803925.260    85188609.66748
  20954415.620   110116188.60909  20954415.460    85804819.35548
 15 02 16 09 49  0.0000000  0 10G01G02G03G06G07G09G10G17G20G23
  23967761.940   125951436.83206  23967771.440    98144015.97944
  24871993.020   130703208.47606  24871994.560   101846654.31445
  22180571.780   116559642.87608  22180577.860    90825697.81847
  21177803.580   111290117.49609  21177808.700    86719604.01949
  23007069.780   120903007.07708  23007073.980    94210183.25947
  20289946.800   106624427.16109  20289950.320    83083991.79149
  22140373.480   116348452.12608  22140376.460    90661151.66346
  22996857.400   120849252.25707  22996860.440    94168238.62946
  20796109.060   109284299.25309  20796110.600    85156610.43248
  20962758.660   110160031.34109  20962758.480    85838982.47848
 15 02 16 09 49 30.0000000  0 10G01G02G03G06G07G09G10G17G20G23
  23987655.000   126055975.96506  23987663.940    98225481.10845
  24852342.360   130599943.62206  24852344.080   101766188.28145
  22191451.560   116616816.31408  22191457.680    90870248.46147
  21166672.360   111231623.18409  21166677.640    86674024.05049
  22988797.080   120806984.24408  22988801.560    94135360.43247
  20288312.140   106615837.09109  20288315.760    83077298.23649
  22127280.300   116279646.18408  22127283.120    90607536.64346
  23011167.360   120924451.64407  23011170.620    94226835.47846
  20788334.100   109243441.29909  20788335.540    85124773.07648
  20971161.260   110204186.83709  20971161.040    85873389.31948
 15 02 16 09 50  0.0000000  0 10G01G02G03G06G07G09G10G17G20G23
  24007579.980   126160681.74806  24007588.880    98307069.78245
  24832703.400   130496740.30605  24832705.120   101685770.13345
  22202363.480   116674158.39408  22202369.500    90914930.51747
  21155623.820   111173563.42409  21155629.300    86628782.69049
  22970556.440   120711130.00107  22970561.000    94060668.99447
  20286763.020   106607696.48109  20286766.700    83070954.90249
  22114216.400   116210994.37408  22114219.120    90554041.73546
  23025529.920   120999926.84707  23025533.300    94285647.23947
  20780601.060   109202803.76609  20780602.420    85093107.47748
  20979625.360   110248665.49909  20979625.060    85908047.97648
 15 02 16 09 50 30.0000000  0 10G01G02G03G06G07G09G10G17G20G23
  24027534.880   126265544.08106  24027543.600    98388780.41045
  24813075.460   130393595.48405  24813077.380   101605397.63745
  22213306.460   116731663.92708  22213312.360    90959739.94147
  21144657.440   111115935.29109  21144663.080    86583877.66449
  22952347.560   120615442.27908  22952351.980    93986107.31447
  20285298.300   106599999.19409  20285301.940    83064957.01049
  22101180.820   116142492.18608  22101183.580    90500663.43146
  23039943.460   121075669.80907  23039946.920    94344667.63747
  20772909.040   109162382.17809  20772910.380    85061610.14248
  20988149.620   110293460.34109  20988149.260    85942953.00448
 15 02 16 09 51  0.0000000  0 10G01G02G03G06G07G09G10G17G20G23
  24047518.800   126370559.17206  24047527.320    98470610.08545
  24793458.680   130290509.92805  24793460.840   101525071.30045
  22224280.280   116789331.12508  22224285.900    91004675.36347
  21133773.340   111058739.15909  21133779.020    86539309.25849
  22934170.560   120519921.68908  22934174.760    93911675.88546
  20283917.400   106592742.53209  20283921.000    83059302.46349
  22088173.280   116074138.12408  22088176.220    90447400.55246
  23054406.820   121151675.39207  23054410.460    94403892.66847
  20765257.940   109122175.40209  20765259.280    85030280.19348
  20996733.280   110338567.64509  20996732.900    85978101.51448
 15 02 16 09 51 30.0000000  0 10G01G02G03G06G07G09G10G17G20G23
  24067531.680   126475726.77806  24067540.140    98552558.62645
  24773853.880   130187487.00205  24773856.360   101444793.79145
  22235285.280   116847161.70008  22235290.760    91049738.05247
  21122972.320   111001978.96209  21122977.780    86495080.53949
  22916026.160   120424573.08008  22916030.380    93837378.44647
  20282620.520   106585927.25809  20282624.080    83053991.85849
  22075194.360   116005934.30108  22075197.500    90394254.74747
  23068919.800   121227942.24207  23068923.560    94463321.30247
  20757648.340   109082186.14509  20757649.600    84999119.74448
  21005376.440   110383987.50009  21005376.020    86013493.56948
 15 02 16 09 52  0.0000000  0 10G01G02G03G06G07G09G10G17G20G23
  24087572.920   126581042.87106  24087581.340    98634622.81445
  24754260.980   130084526.72405  24754263.680   101364565.05844
  22246320.960   116905153.60208  22246326.500    91094926.45947
  21112254.300   110945654.84509  21112259.540    86451191.62149
  22897914.540   120329397.04608  22897918.800    93763215.49747
  20281407.100   106579550.42209  20281410.600    83049022.88749
  22062243.860   115937879.62908  22062247.120    90341225.15446
  23083481.560   121304464.81507  23083485.280    94522949.17746
  20750079.820   109042413.08909  20750081.020    84968127.76848
  21014078.360   110429716.00909  21014077.840    86049126.13948
 15 02 16 09 52 30.0000000  0 10G01G02G03G06G07G09G10G17G20G23
  24107642.260   126686506.44006  24107650.940    98716801.96146
  24734680.600   129981632.26706  24734683.600   101284387.62545
  22257387.480   116963307.90808  22257393.100    91140241.41747
  21101619.860   110889770.08409  21101624.960    86407645.06049
  22879836.460   120234397.44508  22879840.720    93689190.00247
  20280277.060   106573612.06909  20280280.580    83044395.59549
  22049322.160   115869975.68708  22049325.420    90288313.02747
  23098091.780   121381241.23307  23098095.300    94582774.86346
  20742552.680   109002857.96709  20742553.920    84937305.60748
  21022838.820   110475752.35909  21022838.320    86084998.58748
 15 02 16 09 53  0.0000000  0 10G01G02G03G06G07G09G10G17G20G23
  24127739.240   126792115.87606  24127748.180    98799094.77646
  24715113.160   129878805.84306  24715116.440   101204263.20245
  22268484.860   117021624.80008  22268490.580    91185683.08347
  21091069.400   110834327.09209  21091074.480    86364442.73549
  22861792.580   120139577.24608  22861796.660    93615304.30747
  20279230.260   106568111.51809  20279233.880    83040109.44649
  22036429.400   115802223.34508  22036432.540    90235519.02547
  23112749.780   121458268.73107  23112753.000    94642796.20446
  20735067.100   108963521.43309  20735068.420    84906653.77148
  21031657.540   110522095.20509  21031657.120    86121109.86348
 15 02 16 09 53 30.0000000  0 10G01G02G03G06G07G09G10G17G20G23
  24147863.700   126897869.89706  24147872.860    98881500.23046
  24695559.380   129776050.60605  24695562.600   101124194.25944
  22279613.340   117080105.18408  22279619.140    91231252.12147
  21080603.540   110779328.83709  21080608.640    86321586.96149
  22843783.460   120044940.05308  22843787.360    93541561.18346
  20278266.820   106563048.67309  20278270.480    83036164.36749
  22023565.660   115734623.93708  22023568.780    90182844.19146
  23127454.860   121535544.50507  23127458.020    94703011.00946
  20727623.460   108924405.13009  20727624.900    84876173.53448
  21040534.260   110568743.04409  21040533.940    86157458.80348
 15 02 16 09 54  0.0000000  0 10G01G02G03G06G07G09G10G17G20G23
  24168014.940   127003764.46406  24168024.040    98964015.18045
  24676019.180   129673366.56606  24676022.380   101044180.78646
  22290772.520   117138746.88408  22290778.380    91276946.89147
  21070222.340   110724775.35509  21070227.460    86279077.75449
  22825809.360   119950486.62108  22825813.120    93467961.23746
  20277386.060   106558420.19209  20277389.740    83032557.75549
  22010730.740   115667175.88608  22010733.860    90130287.31046
  23142206.280   121613063.60207  23142209.480    94763415.39346
  20720221.540   108885507.98209  20720223.080    84845864.06948
  21049468.400   110615692.21909  21049468.100    86194042.54248
 15 02 16 09 54 30.0000000  0 10G01G02G03G06G07G09G10G17G20G23
  24188192.740   127109798.02306  24188202.000    99046638.42045
  24656493.120   129570756.26506  24656496.180   100964224.78345
  22301962.540   117197550.41308  22301968.440    91322767.75547
  21059926.280   110670669.37309  21059931.500    86236917.25149
  22807870.920   119856219.98708  22807874.600    93394506.83146
  20276587.920   106554225.71209  20276591.580    83029289.33149
  21997924.780   115599880.36408  21997928.060    90077849.26847
  23157003.580   121690823.36807  23157006.880    94824007.31046
  20712861.620   108846831.10309  20712863.180    84815726.24348
  21058459.680   110662941.46709  21058459.360    86230860.11948
 15 02 16 09 55  0.0000000  0 10G01G02G03G06G07G09G10G17G20G23
  24208396.940   127215969.89506  24208406.240    99129369.42346
  24636981.720   129468222.82706  24636984.460   100884328.66545
  22313183.640   117256517.01308  22313189.600    91368715.68647
  21049716.020   110617014.21509  21049721.360    86195108.04249
  22789968.860   119762144.25208  22789972.440    93321201.15046
  20275872.360   106550465.43509  20275876.020    83026359.23649
  21985148.080   115532738.97508  21985151.540    90025531.32747
  23171846.180   121768821.70207  23171849.740    94884785.13747
  20705544.000   108808376.25909  20705545.540    84785761.42548
  21067507.940   110710489.95809  21067507.600    86267910.86748
 15 02 16 09 55 30.0000000  0 10G01G02G03G06G07G09G10G17G20G23
  24228627.220   127322279.18106  24228636.440    99212207.53746
  24617485.480   129365769.70206  24617487.980   100804495.13344
  22324435.900   117315647.87108  22324441.960    91414791.57247
  21039592.260   110563813.24509  21039597.620    86153652.74649
  22772104.020   119668263.73208  22772107.480    93248047.55846
  20275239.440   106547139.56509  20275243.080    83023767.65049
  21972401.040   115465753.49808  21972404.640    89973334.88447
  23186733.780   121847056.73407  23186737.640    94945747.41946
  20698269.020   108770145.77309  20698270.520    84755971.42648
  21076613.020   110758337.36109  21076612.720    86305194.53548
 15 02 16 09 56  0.0000000  0 10G01G02G03G06G07G09G10G17G20G23
  24248882.700   127428721.10507  24248891.900    99295148.96645
  24598004.480   129263391.78206  24598007.020   100724720.07645
  22335718.820   117374940.15208  22335725.020    91460993.29547
  21029554.800   110511065.74209  21029560.100    86112550.79649
  22754276.260   119574577.95808  22754279.520    93175045.71346
  20274688.400   106544244.19309  20274692.100    83021511.50749
  21959683.300   115398921.82708  21959686.900    89921258.27246
  23201665.440   121925522.39807  23201669.400    95006889.38746
  20691036.240   108732137.32609  20691037.680    84726354.44648
  21085774.000   110806478.82309  21085773.800    86342707.33348
 15 02 16 09 56 30.0000000  0 10G01G02G03G06G07G09G10G17G20G23
  24269163.040   127535293.93606  24269172.420    99378192.43446
  24578539.360   129161100.93706  24578541.560   100645012.98244
  22347032.540   117434394.21508  22347038.820    91507321.07647
  21019604.040   110458774.12509  21019609.320    86071804.08349
  22736486.200   119481090.26208  22736489.380    93102198.20147
  20274219.160   106541778.56409  20274222.920    83019590.24049
  21946995.180   115332244.77908  21946998.460    89869302.16546
  23216640.520   122004215.66907  23216644.420    95068208.71046
  20683845.960   108694352.32009  20683847.340    84696911.57948
  21094990.680   110854912.98909  21094990.560    86380448.22048
 15 02 16 09 57  0.0000000  0 10G01G02G03G06G07G09G10G17G20G23
  24289468.360   127641998.55106  24289478.020    99461338.58645
  24559090.820   129058897.37606  24559092.880   100565373.90545
  22358377.660   117494012.96008  22358383.880    91553777.16447
  21009740.960   110406943.41609  21009746.240    86031416.52049
  22718734.940   119387806.41708  22718738.100    93029509.51947
  20273832.100   106539744.57409  20273835.860    83018005.31149
  21934337.260   115265726.09008  21934340.120    89817469.44346
  23231658.760   122083136.50607  23231662.640    95129705.36446
  20676698.880   108656794.19609  20676700.200    84667645.50148
  21104263.280   110903641.03609  21104263.180    86418418.11048
 15 02 16 09 57 30.0000000  0 10G01G02G03G06G07G09G10G17G20G23
  24309798.180   127748831.94006  24309808.000    99544585.04345
  24539659.000   128956782.32606  24539660.940   100485803.80145
  22369753.980   117553795.32608  22369759.980    91600360.77947
  20999965.780   110355574.64809  20999971.040    85991388.90449
  22701022.740   119294727.90508  22701025.840    92956980.83747
  20273526.820   106538140.02309  20273530.520    83016755.01549
  21921709.380   115199365.21108  21921711.900    89765759.68747
  23246719.160   122162280.23607  23246723.320    95191375.69446
  20669594.900   108619462.47109  20669596.200    84638555.82148
  21113591.320   110952660.19409  21113591.220    86456614.83048
 15 02 16 09 58  0.0000000  0 10G01G02G03G06G07G09G10G17G20G23
  24330152.180   127855791.11106  24330161.940    99627929.49744
  24520244.120   128854756.62406  24520245.920   100406303.28945
  22381161.220   117613740.30408  22381167.060    91647071.10047
  20990278.760   110304668.93509  20990284.000    85951722.12449
  22683349.960   119201856.74308  22683353.040    92884613.71847
  20273302.860   106536962.92109  20273306.520    83015837.78949
  21909111.320   115133161.86908  21909113.840    89714172.70547
  23261821.260   122241642.92707  23261825.620    95253216.64446
  20662534.080   108582357.58809  20662535.460    84609642.91748
  21122974.260   111001967.42409  21122974.080    86495036.02448
 15 02 16 09 58 30.0000000  0 10G01G02G03G06G07G09G10G17G20G23
  24350530.180   127962876.53706  24350539.840    99711372.34045
  24500847.120   128752825.37906  24500849.260   100326876.40345
  22392599.840   117673850.47108  22392605.740    91693910.13447
  20980680.720   110254230.88909  20980686.080    85912419.75649
  22665717.620   119109198.08208  22665720.620    92812412.18247
  20273160.480   106536214.66709  20273164.140    83015254.73049
  21896543.700   115067119.20308  21896546.480    89662710.92047
  23276965.140   122321223.72107  23276969.480    95315227.55046
  20655516.920   108545482.28109  20655518.380    84580908.89748
  21132412.180   111051563.38209  21132411.880    86533682.20048
 15 02 16 09 59  0.0000000  0 10G01G02G03G06G07G09G10G17G20G23
  24370931.120   128070083.23606  24370940.860    99794909.67345
  24481467.940   128650987.60206  24481470.400   100247522.37945
  22404069.280   117734122.85908  22404075.320    91740875.58847
  20971171.560   110204259.61709  20971176.960    85873481.09649
  22648125.740   119016751.78408  22648128.580    92740376.12547
  20273098.940   106535891.21209  20273102.580    83015002.68249
  21884006.080   115001234.65608  21884009.160    89611372.35347
  23292149.480   122401016.70207  23292153.620    95377403.79246
  20648543.100   108508834.51009  20648544.600    84552352.18049
  21141904.160   111101443.19909  21141903.700    86572549.56948
 15 02 16 09 59 30.0000000  0 10G01G02G03G06G07G09G10G17G20G23
  24391355.260   128177411.49906  24391365.040    99878541.73045
  24462107.420   128549247.64306  24462109.980   100168244.55045
  22415570.000   117794559.78208  22415576.100    91787969.23847
  20961752.000   110154759.46309  20961757.400    85834909.55249
  22630575.240   118924523.23108  22630578.060    92668509.73747
  20273118.500   106535993.71109  20273122.060    83015082.55249
  21871499.140   114935511.56708  21871502.520    89560159.59147
  23307373.860   122481020.66507  23307377.840    95439744.43646
  20641613.200   108472417.53709  20641614.740    84523975.30449
  21151450.200   111151607.50509  21151449.680    86611638.62048
 15 02 16 10 00  0.0000000  0 10G01G02G03G06G07G09G10G17G20G23
  24411801.820   128284857.58606  24411811.660    99962265.61644
  24442765.660   128447606.38706  24442768.300   100089043.64345
  22427101.780   117855159.51308  22427107.860    91835189.75547
  20952422.200   110105730.74409  20952427.500    85796705.35149
  22613066.160   118832512.95208  22613069.220    92596813.41347
  20273218.540   106536519.30909  20273222.060    83015492.11149
  21859022.740   114869948.57208  21859026.240    89509071.58247
  23322637.480   122561231.14107  23322641.360    95502246.00746
  20634727.000   108436230.11509  20634728.560    84495777.31149
  21161049.640   111202052.86309  21161049.160    86650946.67748
 15 02 16 10 00 30.0000000  0 10G01G02G03G06G07G09G10G17G20G23
  24432270.100   128392417.83606  24432279.960   100046078.43344
  24423442.840   128346064.35306  24423445.420   100009920.04845
  22438664.300   117915920.44608  22438670.300    91882535.88547
  20943182.180   110057173.93309  20943187.440    85758868.87349
  22595598.840   118740722.59608  22595602.300    92525288.46047
  20273398.540   106537465.35209  20273402.060    83016229.28149
  21846576.800   114804544.90308  21846580.200    89458107.71647
  23337939.420   122641643.33907  23337943.300    95564904.74046
  20627884.360   108400271.88609  20627885.940    84467757.90349
  21170701.760   111252775.69009  21170701.480    86690470.93748
 15 02 16 10 01  0.0000000  0 10G01G02G03G06G07G09G10G17G20G23
  24452761.260   128500098.75005  24452771.200   100129985.24844
  24404140.960   128244632.16606  24404143.240    99930882.03745
  22450259.180   117976851.14208  22450265.060    91930014.30747
  20934033.880   110009099.52109  20934039.200    85721408.29249
  22578175.480   118649162.94908  22578179.200    92453943.29147
  20273659.900   106538839.15509  20273663.460    83017299.76749
  21834162.940   114739309.72508  21834166.240    89407275.15247
  23353280.620   122722262.07607  23353284.540    95627724.42046
  20621087.080   108364551.74409  20621088.620    84439924.01849
  21180407.960   111303782.96609  21180407.920    86730216.85348
 15 02 16 10 01 30.0000000  0 11G01G02G03G06G07G09G10G17G20G23G30
  24473272.460   128607884.23806  24473282.400   100213973.54344
  24384857.680   128143297.91906  24384859.700    99851920.34645
  22461883.580   118037937.46908  22461889.360    91977613.99147
  20924975.120   109961495.41809  20924980.420    85684314.17049
  22560793.940   118557822.91508  22560797.820    92382769.25547
  20273999.800   106540625.45209  20274003.380    83018691.67649
  21821778.560   114674229.26708  21821781.740    89356563.15147
  23368657.880   122803070.19907  23368661.800    95690691.67846
  20614332.560   108329056.44909  20614334.160    84412265.34149
  21190165.300   111355058.77509  21190165.420    86770172.01248
  24714271.220   129874366.83605  24714280.880   101200843.39844
 15 02 16 10 02  0.0000000  0 11G01G02G03G06G07G09G10G17G20G23G30
  24493805.200   128715782.62306  24493815.300   100298049.84445
  24365595.480   128042074.39806  24365597.220    99773044.94145
  22473539.520   118099189.88907  22473545.240    92025343.09247
  20916008.200   109914374.06909  20916013.480    85647596.22549
  22543456.640   118466715.49808  22543460.620    92311776.46547
  20274419.960   106542833.50809  20274423.580    83020412.23949
  21809425.820   114609315.13508  21809428.920    89305980.75047
  23384072.760   122884075.11707  23384076.480    95753812.27546
  20607622.980   108293797.43109  20607624.700    84384790.77349
  21199975.440   111406611.50609  21199975.560    86810342.95148
  24693597.660   129765727.26705  24693607.500   101116189.45544
 15 02 16 10 02 30.0000000  0 11G01G02G03G06G07G09G10G17G20G23G30
  24514358.720   128823790.36805  24514368.940   100382211.34344
  24346354.500   127940962.32906  24346355.920    99694256.36944
  22485226.740   118160606.86508  22485232.400    92073200.40947
  20907133.240   109867735.91309  20907138.500    85611254.79949
  22526163.960   118375842.28008  22526167.960    92240966.18747
  20274919.900   106545460.64709  20274923.500    83022459.35749
  21797104.520   114544566.19108  21797107.520    89255527.04947
  23399524.180   122965271.81107  23399527.760    95817082.30946
  20600958.220   108258773.96509  20600959.980    84357499.76149
  21209837.700   111458437.75609  21209837.720    86850727.00948
  24672915.000   129657038.96905  24672924.500   101031497.50244
 15 02 16 10 03  0.0000000  0 11G01G02G03G06G07G09G10G17G20G23G30
  24534932.640   128931905.27905  24534942.940   100466456.38044
  24327135.060   127839963.62206  24327136.240    99615556.15545
  22496945.360   118222188.21708  22496950.940    92121185.82247
  20898350.540   109821582.80009  20898355.800    85575291.31949
  22508916.420   118285205.91408  22508920.340    92170340.46647
  20275499.340   106548505.53509  20275502.880    83024831.99549
  21784814.760   114479983.02908  21784817.720    89205202.52847
  23415011.460   123046657.13907  23415015.060    95880499.34646
  20594338.400   108223986.68109  20594340.140    84330392.79048
  21219751.660   111510535.61809  21219751.560    86891322.70948
  24652223.500   129548304.29705  24652232.620   100946769.44444
 15 02 16 10 03 30.0000000  0 11G01G02G03G06G07G09G10G17G20G23G30
  24555526.580   129040125.75905  24555536.860   100550783.66443
  24307937.720   127739081.04306  24307938.700    99536946.42545
  22508695.380   118283934.34508  22508700.900    92169299.62747
  20889660.640   109775917.00909  20889665.860    85539707.57449
  22491714.600   118194809.44508  22491718.420    92099901.69647
  20276158.100   106551967.26109  20276161.600    83027529.45249
  21772556.760   114415566.75708  21772559.700    89155008.06147
  23430534.040   123128227.99307  23430537.740    95944060.94446
  20587763.720   108189436.75209  20587765.380    84303470.76948
  21229717.020   111562903.72609  21229716.840    86932128.98848
  24631523.640   129439526.10905  24631532.760   100862007.42844
 15 02 16 10 04  0.0000000  0 11G01G02G03G06G07G09G10G17G20G23G30
  24576140.040   129148448.80605  24576150.460   100635190.85644
  24288762.760   127638315.90306  24288763.580    99458428.20445
  22520476.540   118345844.43508  22520482.080    92217541.17447
  20881063.660   109730739.69009  20881068.940    85504504.46249
  22474558.840   118104654.63508  22474562.500    92029651.22147
  20276895.780   106555843.84309  20276899.320    83030550.16949
  21760330.380   114351316.99108  21760333.300    89104943.32547
  23446091.140   123209980.63807  23446095.060    96007764.18146
  20581234.220   108155124.23209  20581235.800    84276733.74949
  21239733.280   111615539.34109  21239733.020    86973143.70948
  24610815.600   129330706.08205  24610824.920   100777212.91044
 15 02 16 10 04 30.0000000  0 11G01G02G03G06G07G09G10G17G20G23G30
  24596773.120   129256873.88205  24596783.420   100719677.52344
  24269610.900   127537672.26006  24269611.620    99380004.63546
  22532289.080   118407919.93608  22532294.700    92265911.63847
  20872560.300   109686054.21609  20872565.620    85469684.60849
  22457449.780   118014745.65708  22457453.240    91959592.31847
  20277712.460   106560135.55209  20277716.100    83033894.36449
  21748136.120   114287235.98508  21748139.080    89055010.10647
  23461682.320   123291912.92107  23461686.420    96071607.38946
  20574750.420   108121051.60409  20574751.940    84250183.65149
  21249800.380   111668442.14809  21249800.060    87014366.63348
  24590100.180   129221848.27705  24590109.880   100692388.93145
 15 02 16 10 05  0.0000000  0 11G01G02G03G06G07G09G10G17G20G23G30
  24617424.900   129365397.44105  24617435.000   100804240.93245
  24250482.220   127437150.38606  24250482.980    99301675.97844
  22544132.800   118470159.34408  22544138.500    92314409.82747
  20864150.560   109641861.01209  20864155.940    85435248.33849
  22440387.780   117925084.06908  22440391.140    91889726.19547
  20278607.640   106564839.64609  20278611.360    83037559.89649
  21735973.880   114223322.91908  21735976.860    89005207.73847
  23477306.780   123374020.58207  23477311.120    96135587.27246
  20568312.140   108087217.81509  20568313.620    84223819.67049
  21259917.740   111721609.19709  21259917.440    87055795.45148
  24569377.580   129112953.64305  24569387.700   100607536.21644
 15 02 16 10 05 30.0000000  0 11G01G02G03G06G07G09G10G17G20G23G30
  24638094.680   129474016.05504  24638104.600   100888878.42643
  24231377.020   127336751.43607  24231377.780    99223443.08745
  22556007.480   118532561.32608  22556013.360    92363034.68147
  20855834.680   109598160.62609  20855840.040    85401196.07649
  22423373.000   117835671.18008  22423376.380    91820053.85347
  20279580.800   106569953.46609  20279584.520    83041544.69149
  21723843.540   114159577.07908  21723846.500    88955535.67347
  23492963.800   123456298.53607  23492968.340    96199699.83746
  20561919.260   108053622.48309  20561920.620    84197641.50049
  21270084.760   111775037.02409  21270084.460    87097427.46148
  24548648.400   129004023.33405  24548658.940   100522655.71644
 15 02 16 10 06  0.0000000  0 11G01G02G03G06G07G09G10G17G20G23G30
  24658782.780   129582731.38505  24658792.740   100973591.27144
  24212296.420   127236481.57107  24212297.220    99145310.79045
  22567913.860   118595129.55808  22567919.860    92411789.08547
  20847613.640   109554958.64309  20847619.020    85367532.19649
  22406406.800   117746513.29708  22406410.200    91750580.22747
  20280632.380   106575479.53009  20280636.020    83045850.71449
  21711745.900   114096003.15208  21711748.820    88905997.56747
  23508653.500   123538747.59107  23508658.200    96263945.73146
  20555572.600   108020270.22609  20555573.900    84171652.73449
  21280301.820   111828727.86109  21280301.500    87139264.43048
  24527913.800   128895063.62405  24527924.460   100437752.29244
 15 02 16 10 06 30.0000000  0 11G01G02G03G06G07G09G10G17G20G23G30
  24679488.440   129691538.58105  24679498.580   101058375.74944
  24193240.220   127136340.21707  24193241.220    99067278.62945
  22579851.420   118657861.27308  22579857.540    92460670.87647
  20839487.220   109512254.18609  20839492.620    85334255.98749
  22389489.060   117657610.00708  22389492.380    91681304.99347
  20281761.620   106581413.80209  20281765.200    83050474.82149
  21699680.640   114032599.40208  21699683.540    88856592.07447
  23524374.580   123621361.75107  23524379.400    96328320.30546
  20549271.760   107987158.96009  20549273.080    84145851.75149
  21290567.900   111882676.49109  21290567.660    87181302.26648
  24507173.680   128786074.20105  24507184.200   100352825.66344
 15 02 16 10 07  0.0000000  0 10G02G03G06G07G09G10G17G20G23G30
  24174209.220   127036331.93106  24174210.320    98989350.14045
  22591820.480   118720758.71608  22591826.760    92509681.79547
  20831456.240   109470051.35609  20831461.620    85301370.66149
  22372620.760   117568966.75808  22372624.060    91612232.38147
  20282968.720   106587757.25609  20282972.300    83055417.76949
  21687648.160   113969368.26208  21687651.160    88807321.09047
  23540126.800   123704140.11107  23540131.700    96392822.78746
  20543017.280   107954291.79809  20543018.740    84120240.99049
  21300883.200   111936883.66609  21300883.100    87223541.56848
  24486428.980   128677059.91205  24486439.180   100267879.68145
 15 02 16 10 07 30.0000000  0 10G02G03G06G07G09G10G17G20G23G30
  24155203.460   126936457.15706  24155204.900    98911525.68645
  22603820.740   118783820.17408  22603827.100    92558820.52047
  20823520.800   109428350.26909  20823526.080    85268876.30949
  22355802.100   117480584.56608  22355805.360    91543363.19347
  20284253.140   106594506.92309  20284256.740    83060677.23049
  21675648.240   113906308.76308  21675651.400    88758183.85147
  23555909.460   123787077.72907  23555914.140    96457449.36646
  20536809.060   107921668.02209  20536810.700    84094819.87349
  21311247.100   111991345.98709  21311247.100    87265979.68748
  24465679.820   128568021.57005  24465689.620   100182914.93244
 15 02 16 10 08  0.0000000  0 10G02G03G06G07G09G10G17G20G23G30
  24136223.620   126836718.63906  24136225.320    98833807.42646
  22615852.340   118847046.17808  22615858.640    92608087.46647
  20815681.300   109387153.30309  20815686.540    85236774.78649
  22339033.660   117392466.56508  22339036.860    91474699.86747
  20285614.760   106601662.03209  20285618.360    83066252.62549
  21663681.320   113843422.31108  21663684.500    88709181.46047
  23571722.160   123870171.93707  23571726.400    96522197.96846
  20530647.420   107889288.96409  20530649.200    84069589.45249
  21321659.300   112046062.18909  21321659.420    87308615.64148
  24444926.680   128458962.31605  24444936.140   100097933.87945
 15 02 16 10 08 30.0000000  0 10G02G03G06G07G09G10G17G20G23G30
  24117270.500   126737120.78206  24117272.420    98756198.77246
  22627915.640   118910438.71208  22627921.800    92657484.17647
  20807938.360   109346464.24409  20807943.700    85205069.02549
  22322316.360   117304617.16708  22322319.540    91406245.84247
  20287053.680   106609223.27109  20287057.240    83072144.47849
  21651747.760   113780711.22408  21651750.880    88660315.70547
  23587564.340   123953421.16807  23587568.360    96587067.35446
  20524532.840   107857157.42209  20524534.740    84044551.89549
  21332119.840   112101032.59209  21332120.120    87351449.66948
  24424170.200   128349886.76905  24424179.680   100012940.12945
 15 02 16 10 09  0.0000000  0 10G02G03G06G07G09G10G17G20G23G30
  24098343.920   126637661.72406  24098345.940    98678698.29746
  22640009.740   118973993.27607  22640015.940    92707007.14247
  20800291.640   109306280.49609  20800297.060    85173757.02049
  22305649.920   117217035.11508  22305653.200    91338000.12247
  20288568.700   106617184.87309  20288572.260    83078348.30749
  21639846.920   113718172.11708  21639849.920    88611583.95547
  23603434.420   124036817.91107  23603438.480    96652051.70046
  20518464.740   107825269.82809  20518466.640    84019704.42349
  21342627.500   112156250.57909  21342627.840    87394476.62048
  24403410.120   128240793.02105  24403419.760    99927932.21045
 15 02 16 10 09 30.0000000  0 10G02G03G06G07G09G10G17G20G23G30
  24079445.320   126538349.38106  24079447.300    98601312.12345
  22652135.820   119037715.77808  22652142.060    92756660.97247
  20792742.580   109266609.62109  20792748.000    85142844.66449
  22289035.980   117129728.58308  22289039.360    91269969.09547
  20290160.800   106625551.45509  20290164.380    83084867.68649
  21627980.020   113655811.50208  21627982.960    88562991.28647
  23619332.860   124120364.65607  23619337.040    96717152.93545
  20512444.440   107793632.93209  20512446.260    83995052.30549
  21353183.060   112211720.26109  21353183.380    87437699.69348
  24382648.080   128131689.45105  24382657.920    99842916.64844
 15 02 16 10 10  0.0000000  0 10G02G03G06G07G09G10G17G20G23G30
  24060573.920   126439179.74906  24060575.860    98524037.15545
  22664292.580   119101599.62308  22664298.780    92806440.53447
  20785290.220   109227446.88709  20785295.560    85112328.25249
  22272473.720   117042693.99508  22272477.280    91202149.98547
  20291828.480   106634315.08309  20291832.040    83091696.46749
  21616145.980   113593623.64608  21616148.980    88514533.24347
  23635258.180   124204052.09707  23635262.300    96782363.77046
  20506470.800   107762240.98209  20506472.540    83970591.05349
  21363785.040   112267433.46409  21363785.280    87481112.52848
  24361883.460   128022572.15005  24361893.380    99757890.42545
 15 02 16 10 10 30.0000000  0 10G02G03G06G07G09G10G17G20G23G30
  24041731.680   126340163.45607  24041733.600    98446881.71545
  22676481.560   119165653.24008  22676487.840    92856352.37847
  20777936.440   109188802.52309  20777941.780    85082215.76749
  22255965.400   116955942.48708  22255969.040    91134551.44647
  20293573.120   106643482.96009  20293576.660    83098840.23449
  21604346.600   113531617.82208  21604349.680    88466217.04747
  23651211.380   124287885.35707  23651215.400    96847688.25546
  20500545.560   107731103.41009  20500547.280    83946328.01849
  21374434.700   112323397.07509  21374434.820    87524720.48348
  24341118.300   127913452.13205  24341128.460    99672862.10444
 15 02 16 10 11  0.0000000  0 10G02G03G06G07G09G10G17G20G23G30
  24022917.780   126241296.27207  24022919.720    98369842.44745
  22688701.560   119229870.14208  22688707.960    92906391.44647
  20770680.360   109150671.71209  20770685.700    85052503.45349
  22239510.280   116869470.21408  22239514.020    91067170.49147
  20295393.120   106653047.16709  20295396.700    83106292.83849
  21592580.700   113469788.18608  21592583.860    88418038.14947
  23667190.340   124371854.40007  23667194.400    96913118.55746
  20494667.620   107700214.42709  20494669.300    83922258.68549
  21385130.380   112379602.51109  21385130.380    87568516.89648
  24320351.820   127804325.55306  24320362.200    99587828.69945
 15 02 16 10 11 30.0000000  0 10G02G03G06G07G09G10G17G20G23G30
  24004132.860   126142581.30607  24004134.700    98292921.77844
  22700952.800   119294250.85007  22700959.240    92956558.18347
  20763522.520   109113056.77309  20763527.800    85023193.12149
  22223109.000   116783280.26208  22223112.660    91000009.53248
  20297288.420   106663006.96709  20297292.040    83114053.70849
  21580848.640   113408136.29108  21580851.800    88369997.74247
  23683194.460   124455956.60806  23683198.740    96978652.60046
  20488837.320   107669575.57609  20488838.940    83898384.26049
  21395871.840   112436048.57609  21395871.800    87612500.81048
  24299584.840   127695195.52206  24299595.260    99502792.61644
 15 02 16 10 12  0.0000000  0 10G02G03G06G07G09G10G17G20G23G30
  23985377.760   126044023.22407  23985379.520    98216123.36645
  22713235.700   119358797.75408  22713242.080    93006854.41447
  20756463.600   109075961.77709  20756468.860    84994287.94349
  22206762.440   116697377.81308  22206765.920    90933072.61047
  20299259.160   106673363.38309  20299262.840    83122123.63049
  21569150.960   113346665.20908  21569154.160    88322098.22447
  23699223.680   124540191.18207  23699228.200    97044289.78746
  20483055.180   107639190.00709  20483056.760    83874707.20149
  21406659.180   112492736.17009  21406659.240    87656672.92548
  24278818.140   127586067.01406  24278828.560    99417757.67944
 15 02 16 10 12 30.0000000  0 10G02G03G06G07G09G10G17G20G23G30
  23966652.640   125945622.72107  23966654.320    98139447.74445
  22725549.820   119423509.17307  22725556.280    93057278.83347
  20749503.620   109039386.73509  20749508.860    84965787.90949
  22190470.700   116611763.77608  22190474.100    90866360.41947
  20301304.800   106684113.41009  20301308.560    83130500.26049
  21557487.640   113285373.97708  21557490.820    88274338.84647
  23715277.280   124624553.71106  23715281.860    97110026.65746
  20477321.040   107609056.98509  20477322.580    83851226.92249
  21417491.660   112549661.33709  21417491.820    87701030.15648
  24258051.960   127476940.84806  24258062.300    99332724.60845
 15 02 16 10 13  0.0000000  0 10G02G03G06G07G09G10G17G20G23G30
  23947958.020   125847382.63707  23947959.560    98062897.12545
  22737895.420   119488385.74707  22737901.960    93107831.93447
  20742643.040   109003334.01509  20742648.280    84937694.89549
  22174234.420   116526441.72808  22174237.800    90799875.74547
  20303425.260   106695256.34509  20303429.000    83139183.06449
  21545858.800   113224263.67408  21545861.920    88226720.45947
  23731354.620   124709041.07106  23731359.340    97175860.83846
  20471635.340   107579178.11209  20471636.840    83827944.68549
  21428369.220   112606823.48709  21428369.480    87745572.06148
  24237286.900   127367820.37006  24237297.060    99247695.96945
 15 02 16 10 13 30.0000000  0 10G02G03G06G07G09G10G17G20G23G30
  23929294.320   125749304.75707  23929295.740    97986472.89345
  22750272.420   119553426.73508  22750278.920    93158513.16246
  20735881.940   108967804.63109  20735887.260    84910009.66049
  22158054.000   116441413.46208  22158057.460    90733620.00248
  20305620.120   106706790.14609  20305623.780    83148170.44649
  21534264.560   113163335.01708  21534267.620    88179243.61047
  23747455.100   124793649.56707  23747459.920    97241789.36546
  20465998.020   107549553.64509  20465999.500    83804860.67949
  21439291.460   112664220.00709  21439291.680    87790296.58748
  24216523.300   127258707.63006  24216533.080    99162673.31744
 15 02 16 10 14  0.0000000  0 10G02G03G06G07G09G10G17G20G23G30
  23910662.000   125651391.62507  23910663.200    97910177.03846
  22762680.780   119618632.20307  22762687.100    93209322.55447
  20729220.760   108932800.23009  20729226.080    84882733.50249
  22141930.100   116356681.80108  22141933.460    90667595.37647
  20307889.080   106718713.48009  20307892.700    83157461.36049
  21522704.980   113102588.49108  21522707.920    88131908.67947
  23763578.080   124878376.13306  23763582.960    97307809.92246
  20460409.300   107520184.41309  20460410.740    83781975.55549
  21450257.920   112721848.91209  21450258.020    87835202.19448
  24195761.600   127149605.10106  24195770.680    99077658.60744
 15 02 16 10 14 30.0000000  0 10G02G03G06G07G09G10G17G20G23G30
  23892062.320   125553649.75207  23892063.300    97834014.63445
  22775121.120   119684006.37607  22775127.420    93260263.39647
  20722660.640   108898326.71909  20722665.960    84855871.04049
  22125863.920   116272253.56308  22125867.300    90601807.19648
  20310232.640   106731029.20309  20310236.280    83167058.03749
  21511180.960   113042029.21608  21511183.720    88084719.65547
  23779723.600   124963221.82906  23779728.660    97373923.31846
  20454870.120   107491075.28009  20454871.500    83759293.10949
  21461269.000   112779712.82709  21461269.100    87880290.92348
  24175003.140   127040519.75606  24175011.740    98992657.26445
 15 02 16 10 15  0.0000000  0 10G02G03G06G07G09G10G17G20G23G30
  23873494.700   125456076.34507  23873495.540    97757983.49645
  22787592.540   119749544.07807  22787598.860    93311331.65347
  20716200.880   108864380.50909  20716206.140    84829419.45449
  22109854.980   116188126.03908  22109858.340    90536253.34148
  20312649.640   106743730.75209  20312653.300    83176955.35849
  21499691.660   112981652.68108  21499694.280    88037673.02047
  23795890.140   125048178.09506  23795895.340    97440122.83045
  20449379.680   107462222.44709  20449381.060    83736810.37249
  21472323.520   112837805.02909  21472323.640    87925557.53948
  24154247.460   126931449.01406  24154255.760    98907667.29945
 15 02 16 10 15 30.0000000  0 10G02G03G06G07G09G10G17G20G23G30
  23854960.160   125358676.87907  23854961.060    97682087.90145
  22800095.600   119815248.26707  22800102.020    93362529.63147
  20709842.320   108830966.17709  20709847.580    84803382.31649
  22093904.300   116104305.07508  22093907.720    90470938.35747
  20315140.420   106756819.68709  20315144.020    83187154.54049
  21488237.880   112921462.74208  21488240.460    87990771.78947
  23812077.840   125133244.98807  23812082.920    97506408.56346
  20443938.660   107433629.53609  20443940.080    83714530.17049
  21483421.700   112896126.61409  21483421.880    87971002.88848
  24133495.660   126822398.43606  24133503.900    98822692.97945
 15 02 16 10 16  0.0000000  0 10G02G03G06G07G09G10G17G20G23G30
  23836458.780   125261451.57407  23836459.840    97606328.03346
  22812629.900   119881116.58407  22812636.460    93413855.50247
  20703584.880   108798083.00009  20703590.160    84777759.06949
  22078012.080   116020790.94008  22078015.400    90405862.45948
  20317704.180   106770292.27909  20317707.760    83197652.67449
  21476819.280   112861457.91508  21476821.920    87944014.80147
  23828285.720   125218416.87407  23828290.600    97572776.09946
  20438546.820   107405295.34109  20438548.300    83692451.56249
  21494562.840   112954673.68609  21494563.040    88016623.94148
  24112747.840   126713368.44706  24112756.000    98737734.71645
 15 02 16 10 16 30.0000000  0 10G02G03G06G07G09G10G17G20G23G30
  23817991.220   125164404.11407  23817992.580    97530706.72046
  22825195.740   119947150.46407  22825202.480    93465310.39146
  20697429.140   108765734.00309  20697434.340    84752552.06349
  22062179.100   115937587.96908  22062182.280    90341029.02048
  20320340.980   106784148.64609  20320344.540    83208449.84649
  21465436.380   112801640.58208  21465439.040    87897403.91347
  23844513.240   125303692.05106  23844518.140    97639224.12846
  20433204.560   107377221.88309  20433206.060    83670576.12249
  21505746.840   113013445.69009  21505746.980    88062420.25648
  24092004.620   126604363.14406  24092013.020    98652795.67845
 15 02 16 10 17  0.0000000  0 10G02G03G06G07G09G10G17G20G23G30
  23799558.060   125067537.62507  23799559.800    97455226.45946
  22837793.320   120013350.49707  22837800.120    93516894.74547
  20691375.440   108733921.35509  20691380.560    84727762.99349
  22046405.820   115854698.97608  22046408.960    90276440.23548
  20323050.620   106798387.95009  20323054.200    83219545.40549
  21454089.520   112742012.32808  21454092.220    87850940.35947
  23860759.860   125389067.87106  23860764.920    97705750.59746
  20427912.300   107349410.97909  20427913.720    83648905.26549
  21516973.500   113072441.58509  21516973.480    88108391.03448
  24071266.680   126495385.84506  24071275.400    98567878.42945
 15 02 16 10 17 30.0000000  0 10G02G03G06G07G09G10G17G20G23G30
  23781159.560   124970853.89507  23781161.760    97379888.56646
  22850422.500   120079716.28807  22850429.240    93568608.24647
  20685423.940   108702646.15109  20685429.080    84703392.70449
  22030692.700   115772126.29108  22030695.800    90212097.91648
  20325832.820   106813008.33909  20325836.380    83230937.91849
  21442778.720   112682573.46008  21442781.440    87804624.37447
  23877025.100   125474540.95207  23877030.200    97772352.82345
  20422670.100   107321863.11409  20422671.460    83627439.37949
  21528242.320   113131659.12109  21528242.200    88154534.52248
  24050534.500   126386438.74406  24050543.600    98482984.69745
 15 02 16 10 18  0.0000000  0 10G02G03G06G07G09G10G17G20G23G30
  23762796.300   124874355.97607  23762799.020    97304695.47446
  22863083.300   120146248.48908  22863090.060    93620451.44246
  20679575.160   108671910.67309  20679580.320    84679442.98149
  22015040.400   115689873.34308  22015043.560    90148004.75948
  20328687.400   106828009.17709  20328690.960    83242626.87049
  21431504.320   112623325.65208  21431507.000    87758457.26947
  23893308.380   125560108.55307  23893313.380    97839028.68945
  20417478.300   107294580.07109  20417479.700    83606179.85149
  21539553.160   113191097.62409  21539553.020    88200850.18148
  24029808.840   126277525.28006  24029818.140    98398117.19846
 15 02 16 10 18 30.0000000  0 10G02G03G06G07G09G10G17G20G23G30
  23744468.920   124778046.62307  23744472.060    97229649.30546
  22875775.700   120212947.01007  22875782.480    93672424.21346
  20673829.440   108641716.29609  20673834.520    84655914.89049
  21999449.320   115607942.65208  21999452.640    90084162.71448
  20331614.080   106843388.90309  20331617.620    83254611.05849
  21420266.260   112564269.30308  21420268.980    87712439.36047
  23909608.960   125645767.54906  23909613.840    97905775.76345
  20412337.020   107267562.39409  20412338.500    83585127.11349
  21550905.720   113250755.22309  21550905.580    88247336.57448
  24009090.180   126168648.08707  24009099.500    98313277.94945
 15 02 16 10 19  0.0000000  0 10G02G03G06G07G09G10G17G20G23G30
  23726177.500   124681925.33207  23726180.680    97154749.67646
  22888499.120   120279809.01007  22888505.980    93724524.37046
  20668186.380   108612061.69709  20668191.460    84632807.39649
  21983919.460   115526334.13208  21983923.060    90020571.70848
  20334612.040   106859143.26509  20334615.580    83266887.16249
  21409064.200   112505402.58208  21409066.980    87666569.20847
  23925925.700   125731512.06606  23925930.480    97972589.50245
  20407245.860   107240808.33809  20407247.400    83564279.79949
  21562299.100   113310627.15809  21562298.960    88293989.97548
  23988378.480   126059806.88807  23988387.700    98228466.76345
 15 02 16 10 19 30.0000000  0 10G02G03G06G07G09G10G17G20G23G30
  23707922.800   124585996.60707  23707925.840    97080000.10346
  22901254.140   120346836.69807  22901261.000    93776753.64146
  20662646.720   108582950.56609  20662651.740    84610123.38049
  21968451.900   115445052.19708  21968455.600    89957235.17848
  20337681.420   106875273.08109  20337685.000    83279455.82549
  21397898.860   112446728.83708  21397901.760    87620849.42747
  23942258.540   125817341.05706  23942263.280    98039469.02945
  20402205.360   107214320.92809  20402206.980    83543640.26349
  21573733.360   113370714.15309  21573733.240    88340810.95148
  23967674.440   125951006.74906  23967683.540    98143687.56346
 15 02 16 10 20  0.0000000  0 10G02G03G06G07G09G10G17G20G23G30
  23689705.360   124490262.99007  23689708.020    97005402.58746
  22914040.720   120414029.86307  22914047.400    93829111.85347
  20657210.740   108554384.18309  20657215.720    84587863.85449
  21953047.080   115364099.64508  21953050.840    89894155.31348
  20340821.940   106891776.77009  20340825.580    83292315.81849
  21386770.360   112388248.54808  21386773.340    87575280.39348
  23958606.900   125903251.36806  23958611.580    98106411.94745
  20397215.780   107188100.94709  20397217.420    83523209.11349
  21585208.040   113431013.92009  21585208.020    88387797.72948
  23946978.740   125842250.22006  23946987.560    98058942.35446
 15 02 16 10 20 30.0000000  0 10G02G03G06G07G09G10G17G20G23G30
  23671525.560   124394726.64707  23671527.680    96930958.77746
  22926858.740   120481388.23507  22926865.300    93881598.80446
  20651878.580   108526363.73509  20651883.680    84566029.72549
  21937705.500   115283478.94008  21937709.240    89831334.01548
  20344033.340   106908652.59409  20344036.980    83305465.78649
  21375678.880   112329962.56608  21375681.820    87529862.76447
  23974969.960   125989239.38406  23974974.660    98173415.38245
  20392277.300   107162149.19609  20392278.900    83502986.98249
  21596722.880   113491525.22509  21596723.020    88434949.34048
  23926291.800   125733539.67906  23926300.380    97974232.99845
 15 02 16 10 21  0.0000000  0 10G02G03G06G07G09G10G17G20G23G30
  23653383.780   124299390.31207  23653385.480    96856670.83246
  22939708.300   120548912.26107  22939714.740    93934214.83447
  20646650.640   108498891.07709  20646655.900    84544622.45049
  21922427.560   115203192.56608  21922431.160    89768773.24148
  20347315.400   106925899.56809  20347319.000    83318904.96049
  21364624.660   112271872.05108  21364627.480    87484597.45447
  23991347.400   126075302.40606  23991352.140    98240477.28044
  20387390.060   107136466.70509  20387391.680    83482974.66649
  21608277.720   113552246.68909  21608277.940    88482264.72248
  23905614.220   125624878.27306  23905622.560    97889561.94946
 15 02 16 10 21 30.0000000  0 10G02G03G06G07G09G10G17G20G23G30
  23635280.760   124204258.15207  23635282.200    96782541.96746
  22952589.680   120616603.78907  22952596.160    93986961.36746
  20641527.600   108471969.47709  20641532.960    84523644.57949
  21907214.100   115123245.10808  21907217.540    89706476.55948
  20350668.140   106943518.09409  20350671.720    83332633.65549
  21353608.200   112213979.91108  21353610.880    87439486.71547
  24007739.000   126161439.50007  24007743.700    98307596.87945
  20382554.740   107111056.78509  20382556.320    83463174.73249
  21619872.600   113613178.19009  21619872.820    88529743.76448
  23884946.780   125516270.53206  23884955.020    97804932.72646
 15 02 16 10 22  0.0000000  0 10G02G03G06G07G09G10G17G20G23G30
  23617216.880   124109332.19807  23617218.160    96708573.78946
  22965502.720   120684461.82607  22965509.280    94039837.67146
  20636509.560   108445599.55209  20636514.900    84503096.57249
  21892065.600   115043638.74008  21892068.860    89644445.66448
  20354091.120   106961505.99109  20354094.720    83346650.15749
  21342629.380   112156285.94808  21342632.060    87394530.40647
  24024143.900   126247646.55706  24024148.780    98374771.00444
  20377771.300   107085919.29409  20377772.860    83443587.08549
  21631506.960   113674317.24309  21631507.240    88577384.53148
  23864289.880   125407718.49406  23864298.180    97720346.91345
 15 02 16 10 22 30.0000000  0 10G02G03G06G07G09G10G17G20G23G30
  23599192.520   124014614.30407  23599193.800    96634767.73646
  22978447.320   120752486.17407  22978453.980    94092843.55646
  20631596.620   108419782.16409  20631601.920    84482979.10949
  21876982.320   114964375.30108  21876985.400    89582681.98448
  20357584.000   106979861.29109  20357587.620    83360952.96449
  21331688.340   112098790.68908  21331691.060    87349728.92248
  24040561.340   126333919.78606  24040566.520    98441996.70245
  20373039.860   107061054.88909  20373041.360    83424212.23849
  21643180.400   113735661.61309  21643180.760    88625185.28848
  23843643.920   125299224.29606  23843652.060    97635806.16545
 15 02 16 10 23  0.0000000  0 10G02G03G06G07G09G10G17G20G23G30
  23581208.120   123920107.09707  23581209.480    96561125.83246
  22991423.620   120820676.90107  22991430.380    94145979.08546
  20626789.180   108394518.86209  20626794.480    84463293.40549
  21861964.780   114885457.62708  21861967.760    89521187.72648
  20361146.600   106998582.77309  20361150.200    83375541.10949
  21320785.280   112041495.21108  21320788.120    87305083.11548
  24056990.740   126420256.41606  24056996.280    98509271.78345
  20368360.560   107036464.86209  20368362.000    83405051.19949
  21654892.720   113797210.14409  21654893.120    88673145.13548
  23823009.600   125190790.94307  23823017.520    97551312.83646
 15 02 16 10 23 30.0000000  0 10G02G03G06G07G09G10G17G20G23G30
  23563263.880   123825810.58507  23563265.360    96487648.11346
  23004431.160   120889031.23607  23004437.920    94199242.11446
  20622086.940   108369808.28009  20622092.280    84444038.40249
  21847012.920   114806885.37508  21847015.980    89459962.63148
  20364778.120   107017666.24509  20364781.700    83390411.33249
  21309920.000   111984397.97908  21309922.940    87260591.79048
  24073430.940   126506650.65706  24073436.900    98576591.79544
  20363733.040   107012147.19909  20363734.460    83386102.39149
  21666643.140   113858958.61109  21666643.520    88721260.78548
  23802386.880   125082418.42707  23802394.720    97466866.90246
 15 02 16 10 24  0.0000000  0 10G02G03G06G07G09G10G17G20G23G30
  23545360.900   123731730.47107  23545362.480    96414339.01346
  23017470.520   120957552.46607  23017477.180    94252635.17546
  20617490.780   108345655.03109  20617496.080    84425217.67049
  21832127.880   114728664.60808  21832131.020    89399011.41348
  20368478.860   107037113.58309  20368482.460    83405565.09049
  21299093.300   111927503.20008  21299096.240    87216258.22448
  24089882.180   126593102.69606  24089888.160    98643956.79944
  20359158.120   106988105.86909  20359159.500    83367368.89749
  21678431.860   113920908.17709  21678432.140    88769533.15548
  23781776.940   124974112.79507  23781784.760    97382473.08545
 15 02 16 10 24 30.0000000  0 10G02G03G06G07G09G10G17G20G23G30
  23527498.940   123637865.23507  23527500.560    96341197.36346
  23030540.940   121026236.70707  23030547.380    94306155.27346
  20613000.180   108322056.58209  20613005.420    84406829.24749
  21817309.560   114650794.11308  21817312.740    89338333.12948
  20372247.740   107056919.42809  20372251.440    83420998.21049
  21288304.560   111870807.80208  21288307.400    87172080.01447
  24106343.220   126679605.66705  24106349.060    98711361.51546
  20354635.340   106964338.73309  20354636.680    83348849.07449
  21690257.820   113983053.77409  21690258.040    88817958.27248
  23761179.460   124865872.91107  23761187.400    97298130.48745
 15 02 16 10 25  0.0000000  0 10G02G03G06G07G09G10G17G20G23G30
  23509679.480   123544223.02807  23509681.040    96268229.49946
  23043643.380   121095089.51907  23043649.740    94359806.72546
  20608616.540   108299019.70709  20608621.680    84388878.42249
  21802559.440   114573281.66708  21802562.620    89277933.85848
  20376085.640   107077087.90809  20376089.400    83436713.91249
  21277554.960   111814318.41208  21277557.720    87128062.34147
  24122814.420   126766162.04206  24122820.200    98778807.83445
  20350165.920   106940851.91209  20350167.280    83330547.67149
  21702121.760   114045399.27609  21702122.000    88866539.15648
  23740596.180   124757707.17607  23740603.960    97213845.66845
 15 02 16 10 25 30.0000000  0 10G02G03G06G07G09G10G17G20G23G30
  23491902.300   123450803.12507  23491903.760    96195434.86446
  23056777.120   121164107.54207  23056783.480    94413586.85347
  20604339.280   108276542.34909  20604344.400    84371363.57949
  21787877.280   114496126.40108  21787880.440    89217812.89848
  20379991.680   107097614.17609  20379995.380    83452708.41849
  21266844.040   111758032.42808  21266846.720    87084203.16248
  24139294.620   126852765.35006  24139300.620    98846290.70045
  20345749.320   106917642.76709  20345750.760    83312462.64149
  21714022.780   114107939.44509  21714023.020    88915271.72448
  23720026.840   124649614.87807  23720034.500    97129618.07346
 15 02 16 10 26  0.0000000  0 10G02G03G06G07G09G10G17G20G23G30
  23474168.180   123357609.85307  23474169.620    96122816.80346
  23069942.480   121233292.64607  23069949.140    94467497.21146
  20600169.080   108254627.74209  20600174.200    84354287.24149
  21773263.980   114419333.15108  21773267.160    89157974.03548
  20383965.940   107118498.78509  20383969.540    83468982.15149
  21256172.440   111701953.06809  21256175.120    87040504.99548
  24155783.700   126939414.57306  24155789.860    98913809.35245
  20341386.180   106894714.55309  20341387.680    83294596.51349
  21725961.000   114170674.81009  21725961.240    88964156.40248
  23699472.300   124541600.83706  23699479.920    97045451.45046
 15 02 16 10 26 30.0000000  0 10G02G03G06G07G09G10G17G20G23G30
  23456477.240   123264644.14207  23456478.880    96050376.07246
  23083139.400   121302643.26707  23083146.300    94521536.52947
  20596105.920   108233275.44809  20596111.020    84337649.07049
  21758719.680   114342902.55408  21758722.880    89098417.74848
  20388007.760   107139738.60609  20388011.320    83485532.67749
  21245540.060   111646079.53609  21245542.700    86996967.20948
  24172280.620   127026104.97006  24172286.860    98981360.09644
  20337076.400   106872066.75009  20337077.940    83276948.88149
  21737935.720   114233602.10509  21737935.980    89013190.63148
  23678932.760   124433666.11106  23678940.380    96961346.62645
 15 02 16 10 27  0.0000000  0 10G02G03G06G07G09G10G17G20G23G30
  23438830.040   123171908.62807  23438832.000    95978114.69246
  23096367.940   121372159.39907  23096374.800    94575704.83746
  20592150.020   108212486.75109  20592155.100    84321450.06949
  21744244.900   114266837.35108  21744248.080    89039146.19348
  20392116.860   107161332.23009  20392120.460    83502358.90049
  21234946.980   111590412.80908  21234949.640    86953590.58048
  24188784.920   127112833.61806  24188790.860    99048940.64344
  20332820.200   106849700.29009  20332821.760    83259520.47249
  21749946.600   114296719.81009  21749946.920    89062373.23047
  23658408.800   124325813.64406  23658416.520    96877305.88045
 15 02 16 10 27 30.0000000  0 10G02G03G06G07G09G10G17G20G23G30
  23421227.200   123079406.14707  23421229.340    95906034.91646
  23109628.060   121441841.25107  23109634.800    94630002.26746
  20588301.560   108192263.10409  20588306.740    84305691.36649
  21729840.140   114191140.19108  21729843.380    88980161.42048
  20396293.020   107183278.40409  20396296.720    83519459.84249
  21224393.480   111534954.15709  21224396.200    86910376.07748
  24205296.020   127199597.78506  24205301.540    99116548.86245
  20328617.740   106827616.40809  20328619.380    83242312.25449
  21761993.340   114360026.61009  21761993.780    89111703.17148
  23637901.100   124218046.36206  23637908.880    96793331.49745
 15 02 16 10 28  0.0000000  0 10G02G03G06G07G09G10G17G20G23G30
  23403669.160   122987138.74407  23403671.200    95834138.28546
  23122919.640   121511688.21307  23122926.320    94684428.35347
  20584560.720   108172605.02009  20584566.000    84290373.35649
  21715505.780   114115812.91008  21715509.120    88921464.87648
  20400535.840   107205575.06509  20400539.640    83536833.89849
  21213879.700   111479703.87609  21213882.380    86867323.93448
  24221812.940   127286393.57406  24221818.240    99184181.69344
  20324469.180   106805815.58809  20324470.860    83225324.60249
  21774075.720   114423520.58409  21774076.260    89161178.95847
  23617410.120   124110366.51007  23617417.800    96709425.24645
 15 02 16 10 28 30.0000000  0 10G02G03G06G07G09G10G17G20G23G30
  23386156.540   122895109.16507  23386158.280    95762426.98546
  23136242.740   121581700.67807  23136249.420    94738983.40147
  20580927.800   108153514.09709  20580933.140    84275497.30049
  21701242.460   114040858.53408  21701245.800    88863058.90248
  20404845.180   107228221.14609  20404849.040    83554480.22049
  21203405.920   111424663.63509  21203408.520    86824435.46348
  24238335.160   127373218.35006  24238340.500    99251837.17245
  20320374.780   106784299.10809  20320376.420    83208558.51249
  21786193.540   114487200.14809  21786194.100    89210799.36048
  23596936.400   124002777.26806  23596944.060    96625589.58045
 15 02 16 10 29  0.0000000  0 10G02G03G06G07G09G10G17G20G23G30
  23368689.760   122803320.04707  23368691.120    95690903.06047
  23149597.280   121651878.51807  23149603.960    94793667.31446
  20577403.000   108134991.39709  20577408.340    84261064.01549
  21687050.540   113966279.29908  21687053.820    88804945.23948
  20409220.780   107251215.12109  20409224.640    83572397.61949
  21192972.260   111369834.28709  21192974.800    86781711.32348
  24254862.240   127460069.19605  24254867.960    99319512.94745
  20316334.700   106763067.91109  20316336.240    83192014.71249
  21798346.400   114551063.48809  21798346.940    89260562.96148
  23576480.500   123895281.40807  23576488.100    96541826.65445
 15 02 16 10 29 30.0000000  0 10G02G03G06G07G09G10G17G20G23G30
  23351269.760   122711777.39207  23351270.900    95619571.18446
  23162983.900   121722225.36307  23162990.620    94848482.91846
  20573987.260   108117041.61809  20573992.520    84247077.16149
  21672931.140   113892081.14408  21672934.320    88747128.52548
  20413662.960   107274559.05609  20413666.820    83590587.71649
  21182579.580   111315220.30709  21182582.140    86739155.00748
  24271394.420   127546946.73006  24271400.620    99387209.48545
  20312349.760   106742126.53209  20312351.160    83175696.74049
  21810534.800   114615113.05809  21810535.220    89310471.66848
  23556043.620   123787885.19707  23556051.140    96458141.38646
 15 02 16 10 30  0.0000000  0 10G02G03G06G07G09G10G17G20G23G30
  23333895.960   122620477.93007  23333897.120    95548428.80447
  23176401.500   121792735.65007  23176408.340    94903425.88346
  20570679.760   108099660.33009  20570684.940    84233533.28549
  21658883.760   113818261.31909  21658886.820    88689606.60348
  20418170.440   107298245.98609  20418174.280    83609045.07549
  21172227.000   111260817.32309  21172229.660    86696763.11548
  24287930.160   127633842.18906  24287936.500    99454920.01346
  20308419.060   106721470.46909  20308420.380    83159601.09849
  21822757.320   114679341.84409  21822757.580    89360520.02347
  23535625.340   123680586.06207  23535632.800    96374531.74046
 15 02 16 10 30 30.0000000  0 10G02G03G06G07G09G10G17G20G23G30
  23316569.400   122529427.06507  23316570.740    95477480.13946
  23189850.640   121863411.63407  23189857.620    94958497.96947
  20567481.080   108082850.89609  20567486.260    84220435.01649
  21644909.260   113744824.60009  21644912.300    88632383.21448
  20422743.340   107322276.72509  20422747.140    83627770.32649
  21161915.180   111206628.39909  21161917.840    86654538.01848
  24304469.240   127720755.08106  24304475.780    99522644.11345
  20304543.300   106701103.23909  20304544.600    83143730.51949
  21835013.980   114743750.17309  21835014.040    89410708.27647
  23515226.540   123573389.10307  23515233.820    96291001.70646
 15 02 16 10 31  0.0000000  0 10G02G03G06G07G09G10G17G20G23G30
  23299290.640   122438627.37207  23299292.140    95406727.19546
  23203331.460   121934253.57407  23203338.680    95013699.35646
  20564391.420   108066614.66809  20564396.620    84207783.40849
  21631008.180   113671773.49309  21631011.160    88575460.29248
  20427381.480   107346650.05709  20427385.200    83646762.52549
  21151644.400   111152655.19309  21151646.980    86612480.99548
  24321011.140   127807682.57706  24321017.600    99590379.57945
  20300722.620   106681025.79009  20300723.920    83128085.74649
  21847304.540   114808337.16509  21847304.500    89461035.75747
  23494847.720   123466297.37607  23494854.840    96207553.65945
 15 02 16 10 31 30.0000000  0 10G02G03G06G07G09G10G17G20G23G30
  23282060.240   122348081.56307  23282061.920    95336172.06946
  23216843.940   122005261.33407  23216851.320    95069029.97246
  20561411.040   108050952.58609  20561416.180    84195579.17849
  21617180.940   113599110.66209  21617183.920    88518839.93548
  20432084.520   107371364.41009  20432088.200    83666020.45249
  21141414.820   111098898.49809  21141417.260    86570592.68548
  24337555.340   127894621.65806  24337561.600    99658124.09445
  20296957.320   106661239.21809  20296958.600    83112667.62149
  21859628.580   114873100.98109  21859628.660    89511501.00847
  23474489.420   123359313.59307  23474496.520    96124189.71146
