     2.11           OBSERVATION DATA    G                   RINEX VERSION / TYPE
SPIDER V4,0,0,3554                      2015 03 17 00:00    PGM / RUN BY / DATE 
ABZH                                                        MARKER NAME         
ABZH                                                        MARKER NUMBER       
                                                            OBSERVER / AGENCY   
462405              LEICA GRX1200PRO    8.20/2.127          REC # / TYPE / VERS 
103261              LEIAT504                                ANT # / TYPE        
  5106694.6829   270584.9059  3799508.1083                  APPROX POSITION XYZ 
        0.0770        0.0000        0.0000                  ANTENNA: DELTA H/E/N
     1     1                                                WAVELENGTH FACT L1/2
     4    C1    L1    P2    L2                              # / TYPES OF OBSERV 
    30.000                                                  INTERVAL            
  2015    02    25    00    00    0.0000000     GPS         TIME OF FIRST OBS   
  2015    02    25    23    59   30.0000000     GPS         TIME OF LAST OBS    
    16                                                      LEAP SECONDS        
    30                                                      # OF SATELLITES     
   G 1   818   818   818   818                              PRN / # OF OBS      
   G 2   917   917   911   911                              PRN / # OF OBS      
   G 3   834   834   833   833                              PRN / # OF OBS      
   G 4   834   834   834   834                              PRN / # OF OBS      
   G 5   662   662   662   662                              PRN / # OF OBS      
   G 6   783   783   783   783                              PRN / # OF OBS      
   G 7   660   660   660   660                              PRN / # OF OBS      
   G 9   786   786   786   786                              PRN / # OF OBS      
   G10   769   769   769   769                              PRN / # OF OBS      
   G11   784   784   784   784                              PRN / # OF OBS      
   G12   803   803   803   803                              PRN / # OF OBS      
   G13   806   806   806   806                              PRN / # OF OBS      
   G14   917   917   913   913                              PRN / # OF OBS      
   G15   720   720   720   720                              PRN / # OF OBS      
   G16   676   676   676   676                              PRN / # OF OBS      
   G17   924   924   920   920                              PRN / # OF OBS      
   G18   911   911   911   911                              PRN / # OF OBS      
   G19   768   768   768   768                              PRN / # OF OBS      
   G20   792   792   792   792                              PRN / # OF OBS      
   G21   699   699   698   698                              PRN / # OF OBS      
   G22   760   760   757   757                              PRN / # OF OBS      
   G23   733   733   733   733                              PRN / # OF OBS      
   G24   824   824   824   824                              PRN / # OF OBS      
   G25   832   832   832   832                              PRN / # OF OBS      
   G27   816   816   816   816                              PRN / # OF OBS      
   G28   879   879   877   877                              PRN / # OF OBS      
   G29   744   744   744   744                              PRN / # OF OBS      
   G30   697   697   697   697                              PRN / # OF OBS      
   G31   820   820   819   819                              PRN / # OF OBS      
   G32   746   746   746   746                              PRN / # OF OBS      
BIT 2 OF LLI FLAGS DATA COLLECTED UNDER A/S CONDITION       COMMENT             
SNR is mapped to RINEX snr flag value [2-9]                 COMMENT             
Lx:     = 25dBHz -> 1; 26-27dBHz -> 2; 28-31dBHz -> 3       COMMENT             
       32-35dBHz -> 4; 36-38dBHz -> 5; 39-41dBHz -> 6       COMMENT             
       42-44dBHz -> 7; 45-48dBHz -> 8; >=49dBHz -> 9        COMMENT             
                                                            END OF HEADER       
 15 02 25 00 00  0.0000000  0  8G16G18G21G22G25G27G29G31
  21865728.100   114905182.00108  21865727.140    89536514.08546
  23041599.360   121084464.10607  23041598.940    94351541.44844
  21159503.260   111193945.62308  21159501.620    86644628.59248
  24501036.040   128753819.37906  24501037.840   100327646.17044
  24779537.040   130217325.63705  24779541.120   101468050.03441
  23030223.060   121024652.33007  23030225.120    94304936.90946
  23701847.340   124554039.06206  23701848.600    97055088.87044
  22599508.760   118761211.36708  22599508.060    92541195.31546
 15 02 25 00 00 30.0000000  0  8G16G18G21G22G25G27G29G31
  21851756.400   114831759.94808  21851755.340    89479302.09846
  23028643.200   121016379.42007  23028642.720    94298488.47744
  21164963.640   111222640.02108  21164961.960    86666987.86147
  24483379.500   128661037.63206  24483381.720   100255349.23943
  24798478.660   130316863.53705  24798482.660   101545611.95643
  23017341.740   120956960.76007  23017343.920    94252190.29446
  23716351.380   124630258.34606  23716352.820    97114480.46345
  22616287.840   118849385.12108  22616287.140    92609902.11446
 15 02 25 00 01  0.0000000  0  8G16G18G21G22G25G27G29G31
  21837829.240   114758571.57208  21837828.020    89422272.20346
  23015729.960   120948519.62507  23015729.200    94245610.73144
  21170496.440   111251715.19208  21170494.800    86689643.83647
  24465710.580   128568191.04506  24465713.260   100183001.74444
  24817446.620   130416539.73305  24817450.520   101623281.58441
  23004483.480   120889389.88507  23004485.480    94199537.68945
  23730860.280   124706502.73906  23730861.740    97173891.62744
  22633113.500   118937803.51808  22633112.760    92678799.54846
 15 02 25 00 01 30.0000000  0  7G16G18G21G22G27G29G31
  21823946.840   114685618.61808  21823945.460    89365425.73546
  23002860.100   120880886.80108  23002858.940    94192909.85644
  21176101.220   111281168.69908  21176099.600    86712594.62148
  24448029.680   128475281.50306  24448032.600   100110605.20644
  22991648.000   120821939.12907  22991650.000    94146978.69345
  23745373.840   124782771.58306  23745375.160    97233321.86044
  22649985.000   119026463.16008  22649984.260    92747884.94546
 15 02 25 00 02  0.0000000  0  7G16G18G21G22G27G29G31
  21810108.900   114612899.76108  21810107.500    89308761.69446
  22990033.280   120813480.45607  22990031.960    94140385.45244
  21181777.120   111310995.89708  21181775.500    86735836.59547
  24430336.700   128382308.05406  24430339.580   100038158.82042
  22978834.760   120754605.06207  22978836.840    94094510.61845
  23759891.440   124859061.15307  23759892.260    97292768.23445
  22666901.040   119115357.34808  22666900.280    92817153.13345
 15 02 25 00 02 30.0000000  0  7G16G18G21G22G27G29G31
  21796316.200   114540418.80108  21796314.880    89252283.02246
  22977250.340   120746304.79408  22977248.860    94088040.80044
  21187524.200   111341197.02908  21187522.660    86759369.94648
  24412632.580   128289275.27906  24412635.320    99965666.20944
  22966044.140   120687389.58707  22966046.160    94042134.94445
  23774413.180   124935372.97107  23774413.840    97352231.97144
  22683861.420   119204485.08308  22683860.660    92886603.28946
 15 02 25 00 03  0.0000000  0  7G16G18G21G22G27G29G31
  21782568.560   114468174.87208  21782567.380    89195989.07046
  22964511.180   120679359.57808  22964509.680    94035875.71543
  21193341.600   111371767.87508  21193340.140    86783191.38647
  24394917.160   128196182.41006  24394919.640    99893126.75143
  22953275.540   120620289.81007  22953277.500    93989849.45245
  23788938.720   125011703.91407  23788939.240    97411710.56944
  22700865.180   119293840.80208  22700864.360    92956231.10845
 15 02 25 00 03 30.0000000  0  7G16G18G21G22G27G29G31
  21768867.100   114396173.13009  21768865.920    89139883.81546
  22951816.600   120612649.77707  22951815.280    93983894.08544
  21199229.580   111402709.44008  21199228.140    86807301.68848
  24377191.520   128103034.88006  24377193.780    99820544.66044
  22940529.480   120553308.57907  22940531.360    93937656.31245
  23803468.380   125088056.34207  23803468.740    97471205.93944
  22717912.320   119383424.27508  22717911.460    93026036.39546
 15 02 25 00 04  0.0000000  0  7G16G18G21G22G27G29G31
  21755212.000   114324415.08508  21755210.760    89083968.44846
  22939167.180   120546177.67707  22939166.240    93932097.67744
  21205187.800   111434020.05808  21205186.340    86831699.57847
  24359455.960   128009835.12406  24359457.880    99747921.85343
  22927805.860   120486445.54108  22927807.760    93885555.27245
  23818002.120   125164429.86607  23818002.160    97530717.73744
  22735002.300   119473232.35508  22735001.320    93096016.69745
 15 02 25 00 04 30.0000000  0  7G16G18G21G22G27G29G31
  21741603.840   114252904.09208  21741602.600    89028245.59946
  22926563.820   120479947.40407  22926563.080    93880489.66544
  21211216.240   111465699.68208  21211214.800    86856384.99947
  24341711.100   127916586.37206  24341712.440    99675260.84744
  22915104.960   120419701.72708  22915106.820    93833547.12845
  23832540.020   125240825.78007  23832539.800    97590246.97344
  22752134.760   119563263.32608  22752133.720    93166170.66745
 15 02 25 00 05  0.0000000  0  7G16G18G21G22G27G29G31
  21728043.260   114181642.98609  21728042.020    88972717.46946
  22914006.980   120413961.73107  22914006.440    93829072.29744
  21217314.600   111497746.89308  21217313.160    86881356.84847
  24323957.540   127823291.73806  24323958.400    99602564.11244
  22902426.820   120353078.01708  22902428.720    93781632.56945
  23847082.180   125317244.26906  23847082.020    97649793.78344
  22769309.180   119653514.70508  22769308.040    93236496.39345
 15 02 25 00 05 30.0000000  0  7G16G18G21G22G27G29G31
  21714530.260   114110631.63908  21714529.040    88917383.96446
  22901496.900   120348221.20607  22901496.620    93777845.93044
  21223482.200   111530157.93608  21223480.800    86906612.20347
  24306195.360   127729951.78206  24306196.100    99529832.00943
  22889771.140   120286572.02808  22889773.040    93729809.74345
  23861628.080   125393682.77307  23861627.820    97709356.16943
  22786524.440   119743981.25508  22786523.320    93306989.77746
 15 02 25 00 06  0.0000000  0  7G16G18G21G22G27G29G31
  21701065.560   114039874.30508  21701064.380    88862248.37746
  22889034.460   120282730.58907  22889034.300    93726814.32344
  21229719.260   111562933.78208  21229717.780    86932151.82047
  24288425.360   127636571.28906  24288425.920    99457068.35543
  22877138.360   120220186.22908  22877140.240    93678080.56546
  23876178.100   125470143.47006  23876177.800    97768935.88844
  22803780.480   119834662.63608  22803779.380    93377650.56345
 15 02 25 00 06 30.0000000  0  7G16G18G21G22G27G29G31
  21687649.240   113969371.37808  21687648.180    88807311.02946
  22876619.720   120217490.34807  22876619.560    93675977.80544
  21236025.020   111596070.68508  21236023.460    86957972.78847
  24270647.660   127543150.91806  24270648.280    99384273.59443
  22864528.020   120153918.42708  22864529.800    93626443.33545
  23890732.040   125546624.22107  23890731.580    97828531.21544
  22821076.320   119925553.78708  22821075.360    93448474.82245
 15 02 25 00 07  0.0000000  0  7G16G18G21G22G27G29G31
  21674281.720   113899124.68108  21674280.720    88752573.36146
  22864253.160   120152503.51108  22864252.840    93625338.72744
  21242399.340   111629567.87608  21242397.780    86984074.49547
  24252862.960   127449693.21806  24252863.500    99311449.75843
  22851940.220   120087769.08308  22851941.980    93574898.39845
  23905289.780   125623125.08607  23905289.280    97888142.25844
  22838411.600   120016652.06308  22838410.820    93519460.46746
 15 02 25 00 07 30.0000000  0  7G16G18G21G22G27G29G31
  21660964.080   113829139.55609  21660963.000    88698039.50146
  22851935.640   120087774.70907  22851935.300    93574900.70444
  21248842.260   111663425.77308  21248840.720    87010457.27047
  24235072.220   127356203.39106  24235072.660    99238600.84844
  22839375.360   120021740.72708  22839377.200    93523447.75545
  23919851.660   125699648.60506  23919851.220    97947770.92944
  22855786.320   120107957.05308  22855785.520    93590607.19945
 15 02 25 00 08  0.0000000  0  7G16G18G21G22G27G29G31
  21647695.900   113759414.76709  21647694.760    88643708.50446
  22839667.100   120023303.46607  22839666.680    93524663.38844
  21255352.960   111697639.97608  21255351.480    87037117.68847
  24217275.120   127262680.69706  24217275.500    99165726.28543
  22826832.960   119955830.36408  22826834.780    93472089.06245
  23934417.120   125776191.39407  23934416.880    98007414.59343
  22873199.320   120199463.01508  22873198.560    93661910.49645
 15 02 25 00 08 30.0000000  0  7G16G18G21G22G27G29G31
  21634477.740   113689952.92009  21634476.600    88589582.39846
  22827448.180   119959092.68208  22827447.720    93474629.03944
  21261931.240   111732209.22308  21261929.760    87064054.76647
  24199472.440   127169128.52506  24199472.120    99092828.77144
  22814313.220   119890038.54408  22814314.980    93420822.71346
  23948986.320   125852753.55407  23948986.120    98067073.35343
  22890650.060   120291167.24108  22890649.400    93733368.31845
 15 02 25 00 09  0.0000000  0  7G16G18G21G22G27G29G31
  21621310.180   113620757.00409  21621309.080    88535663.50446
  22815279.480   119895145.79008  22815278.980    93424800.30944
  21268576.920   111767132.57108  21268575.460    87091267.76047
  24181664.660   127075549.70106  24181663.900    99019910.51844
  22801816.160   119824365.73807  22801817.900    93369649.10845
  23963559.300   125929335.59507  23963559.200    98126747.65544
  22908138.060   120383067.29108  22908137.540    93804978.71645
 15 02 25 00 09 30.0000000  0  7G16G18G21G22G27G29G31
  21608194.120   113551831.49209  21608192.960    88481955.31046
  22803161.920   119831467.63507  22803161.440    93375180.98744
  21275290.260   111802411.17908  21275288.760    87118757.58747
  24163852.860   126981949.32906  24163852.280    98946975.40144
  22789341.940   119758814.63607  22789343.960    93318570.31945
  23978136.520   126005940.08106  23978136.520    98186439.44444
  22925663.280   120475162.99308  22925662.900    93876741.57945
 15 02 25 00 10  0.0000000  0  7G16G18G21G22G27G29G31
  21595129.100   113483173.91209  21595127.840    88428455.90146
  22791095.180   119768056.58508  22791094.680    93325769.80144
  21282069.980   111838038.66408  21282068.420    87146519.25947
  24146036.600   126888325.68906  24146036.260    98874022.17343
  22776890.120   119693380.66307  22776892.340    93267582.83646
  23992717.180   126082562.36406  23992717.300    98246145.06344
  22943224.320   120567446.82108  22943224.020    93948651.02246
 15 02 25 00 10 30.0000000  0  7G16G18G21G22G27G29G31
  21582115.540   113414786.70909  21582114.120    88375167.17246
  22779079.760   119704915.16608  22779079.260    93276568.73444
  21288915.860   111874013.71208  21288914.200    87174551.76647
  24128216.500   126794681.49506  24128216.180    98801052.88743
  22764460.700   119628064.15307  22764462.980    93216686.86345
  24007301.300   126159202.05306  24007301.240    98305864.23044
  22960820.780   120659916.31708  22960820.420    94020705.14445
 15 02 25 00 11  0.0000000  0  7G16G18G21G22G27G29G31
  21569154.500   113346675.79509  21569153.000    88322093.73946
  22767116.800   119642049.19508  22767116.160    93227582.26743
  21295828.280   111910338.47008  21295826.580    87202856.76447
  24110393.700   126701023.08206  24110393.260    98728072.52643
  22752054.340   119562868.87207  22752056.620    93165885.35545
  24021889.320   126235863.18806  24021889.160    98365600.16544
  22978452.720   120752571.99908  22978452.220    94092904.34444
 15 02 25 00 11 30.0000000  0  7G16G18G21G22G27G29G31
  21556245.700   113278839.68209  21556244.160    88269234.43246
  22755206.020   119579457.71608  22755205.380    93178809.69844
  21302806.200   111947007.79708  21302804.540    87231430.26247
  24092568.060   126607349.46006  24092567.320    98655080.31943
  22739670.380   119497791.37507  22739672.680    93115175.66645
  24036480.720   126312542.10706  24036480.600    98425349.94343
  22996118.920   120845407.46908  22996118.160    94165243.63244
 15 02 25 00 12  0.0000000  0  7G16G18G21G22G27G29G31
  21543389.820   113211282.11009  21543388.380    88216592.17246
  22743348.320   119517145.09808  22743347.820    93130254.43444
  21309849.720   111984021.80208  21309848.100    87260272.34147
  24074740.200   126513664.24806  24074739.240    98582079.04143
  22727309.100   119432833.12707  22727311.340    93064558.86844
  24051075.900   126389240.21106  24051075.820    98485114.62644
  23013818.980   120938421.39908  23013817.980    94237721.98744
 15 02 25 00 12 30.0000000  0  7G16G18G21G22G27G29G31
  21530587.240   113144004.36909  21530585.880    88164167.96246
  22731544.000   119455112.69908  22731543.480    93081917.52644
  21316958.220   112021377.49008  21316956.600    87289380.67247
  24056910.620   126419970.07206  24056909.460    98509070.82143
  22714970.480   119367993.27307  22714972.640    93014034.33145
  24065674.480   126465956.23506  24065674.420    98544893.32444
  23031552.080   121031609.51608  23031551.040    94310336.07944
 15 02 25 00 13  0.0000000  0  7G16G18G21G22G27G29G31
  21517838.480   113077009.15709  21517837.080    88111963.89946
  22719793.580   119393363.45708  22719793.120    93033801.25044
  21324131.640   112059074.10108  21324129.980    87318754.65847
  24039079.880   126326269.66806  24039078.480    98436057.66344
  22702654.660   119303272.51407  22702656.720    92963602.58145
  24080276.600   126542690.68906  24080276.700    98604686.32143
  23049317.920   121124969.94808  23049316.880    94383084.43544
 15 02 25 00 13 30.0000000  0  7G16G18G21G22G27G29G31
  21505144.140   113010300.33109  21505142.820    88059983.00646
  22708097.840   119331901.32408  22708097.140    92985908.68544
  21331369.900   112097111.44008  21331368.200    87348394.14147
  24021248.680   126232566.98306  24021247.080    98363042.80544
  22690361.820   119238672.46308  22690363.640    92913264.90545
  24094882.420   126619444.59106  24094882.560    98664494.53844
  23067116.360   121218501.26608  23067115.420    94455965.95944
 15 02 25 00 14  0.0000000  0  7G16G18G21G22G27G29G31
  21492503.960   112943875.87309  21492502.640    88008223.68646
  22696456.420   119270724.78408  22696455.440    92938238.68344
  21338671.960   112135483.86708  21338670.200    87378294.72747
  24003416.840   126138860.74606  24003415.180    98290025.13043
  22678091.300   119174189.11008  22678092.840    92863018.14145
  24109491.440   126696214.63006  24109491.520    98724315.28544
  23084945.960   121312196.23908  23084945.040    94528974.98744
 15 02 25 00 14 30.0000000  0  7G16G18G21G22G27G29G31
  21479919.340   112877743.01209  21479917.940    87956691.58146
  22684870.720   119209841.48608  22684869.580    92890797.16444
  21346038.420   112174194.96708  21346036.600    87408459.22747
  23985585.720   126045158.96806  23985584.300    98217010.93444
  22665843.800   119109827.67408  22665845.240    92812866.37945
  24124104.380   126773005.15206  24124104.460    98784152.00544
  23102807.260   121406057.08708  23102806.280    94602113.27044
 15 02 25 00 15  0.0000000  0  7G16G18G21G22G27G29G31
  21467389.940   112811900.11609  21467388.400    87905385.42446
  22673340.440   119149249.60208  22673339.260    92843582.72144
  21353468.180   112213238.83508  21353466.420    87438883.01447
  23967755.220   125951459.97506  23967753.880    98143998.85843
  22653618.800   119045584.24008  22653620.120    92762806.56745
  24138720.520   126849812.44806  24138720.640    98844001.80144
  23120698.900   121500077.11808  23120697.780    94675375.59045
 15 02 25 00 15 30.0000000  0  7G16G18G21G22G27G29G31
  21454916.320   112746350.72709  21454914.680    87854307.97246
  22661866.400   119088953.26208  22661865.160    92796598.57944
  21360961.240   112252615.52508  21360959.580    87469566.14747
  23949926.140   125857767.77206  23949924.860    98070992.11643
  22641416.520   118981460.33708  22641417.820    92712839.90745
  24153340.100   126926637.82106  24153340.060    98903865.68143
  23138620.560   121594255.00708  23138619.220    94748760.91844
 15 02 25 00 16  0.0000000  0  7G16G18G21G22G27G29G31
  21442499.260   112681098.89709  21442497.660    87803462.38946
  22650449.400   119028956.80108  22650448.240    92749848.08744
  21368517.740   112292325.34008  21368516.160    87500508.86047
  23932099.260   125764087.14506  23932098.040    97997994.40043
  22629237.200   118917457.76508  22629238.600    92662967.79845
  24167963.460   127003483.00106  24167963.420    98963744.99144
  23156571.840   121688589.25807  23156570.380    94822268.07545
 15 02 25 00 16 30.0000000  0  7G16G18G21G22G27G29G31
  21430139.120   112616146.25909  21430137.700    87752849.95746
  22639089.800   118969262.00208  22639088.840    92703332.67044
  21376137.200   112332365.69108  21376135.600    87531709.12847
  23914274.980   125670420.18406  23914273.640    97925007.30744
  22617080.900   118853576.31108  22617082.360    92613190.05045
  24182590.420   127080347.30706  24182590.420    99023639.25143
  23174552.000   121783076.63708  23174550.680    94895894.57644
 15 02 25 00 17  0.0000000  0  7G16G18G21G22G27G29G31
  21417835.960   112551493.27609  21417834.740    87702471.01546
  22627787.740   118909869.46808  22627786.900    92657052.80244
  21383818.960   112372733.37608  21383817.340    87563164.46747
  23896453.460   125576767.77506  23896452.000    97852031.53444
  22604947.380   118789814.27808  22604948.840    92563505.36745
  24197220.520   127157228.97006  24197220.740    99083546.98144
  23192560.400   121877712.60807  23192559.400    94969636.85444
 15 02 25 00 17 30.0000000  0  7G16G18G21G22G27G29G31
  21405590.640   112487143.88309  21405589.520    87652328.62446
  22616543.940   118850783.16508  22616543.180    92611011.53744
  21391563.080   112413428.76208  21391561.480    87594875.15547
  23878635.640   125483134.19407  23878633.900    97779070.44643
  22592836.800   118726173.35508  22592838.420    92513915.03345
  24211854.220   127234129.53506  24211854.300    99143469.47443
  23210596.860   121972495.76207  23210596.040    95043493.82744
 15 02 25 00 18  0.0000000  0  7G16G18G21G22G27G29G31
  21393403.240   112423098.93609  21393402.160    87602423.48046
  22605358.620   118792004.01508  22605357.780    92565209.61244
  21399368.920   112454448.45008  21399367.300    87626838.54247
  23860821.580   125389520.47207  23860819.520    97706124.80343
  22580749.080   118662652.12608  22580750.760    92464417.99245
  24226491.160   127311047.34206  24226491.060    99203405.38743
  23228660.500   122067421.74307  23228659.860    95117462.07644
 15 02 25 00 18 30.0000000  0  7G16G18G21G22G27G29G31
  21381274.360   112359361.04509  21381273.220    87552757.58846
  22594232.280   118733534.90008  22594231.200    92519649.27344
  21407236.300   112495791.67408  21407234.720    87659054.03947
  23843011.720   125295930.05607  23843009.500    97633197.33943
  22568684.280   118599251.37608  22568686.020    92415014.81745
  24241131.540   127387983.18206  24241131.220    99263355.38444
  23246751.080   122162488.15707  23246750.340    95191539.77244
 15 02 25 00 19  0.0000000  0  7G16G18G21G22G27G29G31
  21369204.200   112295931.53709  21369202.980    87503331.99446
  22583165.360   118675378.22108  22583164.280    92474332.40344
  21415164.760   112537456.03908  21415163.200    87691519.77847
  23825206.820   125202365.07707  23825204.400    97560289.69443
  22556642.320   118535970.72208  22556644.020    92365705.20845
  24255775.200   127464936.47806  24255774.780    99323318.94744
  23264867.820   122257691.81108  23264867.060    95265724.38044
 15 02 25 00 19 30.0000000  0  7G16G18G21G22G27G29G31
  21357193.420   112232814.16509  21357192.120    87454149.62446
  22572158.500   118617537.24208  22572157.540    92429261.52444
  21423154.240   112579441.17108  21423152.660    87724235.46347
  23807407.380   125108829.35806  23807404.960    97487404.87644
  22544623.400   118472811.35008  22544624.980    92316490.10845
  24270422.320   127541908.36806  24270421.680    99383297.00543
  23283010.320   122353030.63208  23283009.460    95340014.31044
 15 02 25 00 20  0.0000000  0  7G16G18G21G22G27G29G31
  21345241.680   112170006.99809  21345240.340    87405208.97446
  22561211.360   118560010.07708  22561210.420    92384435.18044
  21431203.520   112621740.56208  21431201.940    87757196.02447
  23789613.320   125015321.64807  23789610.800    97414541.83643
  22532626.900   118409769.48008  22532628.320    92267366.58445
  24285072.260   127618894.22006  24285071.460    99443285.96842
  23301177.400   122448498.09208  23301176.280    95414404.49144
 15 02 25 00 20 30.0000000  0  7G16G18G21G22G27G29G31
  21333350.260   112107516.98609  21333348.940    87356515.46646
  22550325.340   118502804.04208  22550324.480    92339859.07444
  21439313.380   112664358.16108  21439311.780    87790404.54146
  23771826.100   124921849.37307  23771823.420    97341706.40843
  22520653.700   118346849.85208  22520655.080    92218338.31545
  24299725.840   127695899.29706  24299725.380    99503289.88443
  23319369.120   122544095.90207  23319367.820    95488896.25544
 15 02 25 00 21  0.0000000  0  7G16G18G21G22G27G29G31
  21321519.580   112045346.19309  21321518.260    87308070.69746
  22539500.920   118445921.08908  22539500.020    92295534.69144
  21447483.380   112707291.80108  21447481.780    87823859.32347
  23754045.980   124828414.84007  23754043.180    97268900.39543
  22508703.660   118284052.42008  22508705.240    92169405.25745
  24314383.120   127772923.44206  24314382.520    99563308.70741
  23337584.920   122639820.75307  23337583.640    95563486.99044
 15 02 25 00 21 30.0000000  0  7G16G18G21G22G27G29G31
  21309749.820   111983495.21109  21309748.440    87259875.13046
  22528738.140   118389361.95408  22528737.140    92251462.65244
  21455712.860   112750538.22108  21455711.340    87857557.83446
  23736273.400   124735019.68007  23736270.560    97196125.04643
  22496776.600   118221375.79108  22496778.380    92120566.33545
  24329043.620   127849964.83206  24329043.000    99623340.89943
  23355823.900   122735668.32807  23355822.900    95638173.37743
 15 02 25 00 22  0.0000000  0  7G16G18G21G22G27G29G31
  21298041.420   111921967.30109  21298040.080    87211931.30846
  22518037.600   118333130.29508  22518036.600    92207645.77744
  21464001.720   112794096.70808  21464000.300    87891499.50846
  23718508.860   124641667.13607  23718506.280    97123382.92944
  22484872.700   118158820.93908  22484874.580    92071822.30945
  24343707.340   127927024.29106  24343706.960    99683387.19643
  23374086.020   122831636.61607  23374085.280    95712953.80244
 15 02 25 00 22 30.0000000  0  7G16G18G21G22G27G29G31
  21286394.340   111860761.69009  21286393.000    87164238.62946
  22507399.200   118277225.45408  22507398.280    92164083.58844
  21472349.200   112837963.03508  21472347.800    87925681.06846
  23700752.500   124548357.29107  23700750.120    97050674.07443
  22472991.540   118096385.48208  22472993.560    92023171.32045
  24358374.040   128004099.09506  24358374.040    99743445.49344
  23392370.120   122927720.26307  23392369.520    95787824.11044
 15 02 25 00 23  0.0000000  0  7G16G18G21G22G27G29G31
  21274809.440   111799882.87109  21274808.080    87116800.58646
  22496823.860   118221652.01908  22496822.980    92120779.62544
  21480755.320   112882137.69308  21480754.020    87960102.87346
  23683005.060   124455094.86106  23683002.940    96978002.16043
  22461133.640   118034071.60508  22461135.680    91974615.07745
  24373044.080   128081191.76105  24373044.320    99803517.67343
  23410676.120   123023918.18507  23410675.440    95862783.49244
 15 02 25 00 23 30.0000000  0  7G16G18G21G22G27G29G31
  21263286.660   111739330.68209  21263285.340    87069617.06446
  22486311.680   118166409.79108  22486310.720    92077733.73944
  21489219.240   112926616.11708  21489218.020    87994761.38346
  23665266.720   124361880.32406  23665264.760    96905367.58344
  22449298.480   117971876.98808  22449300.380    91926151.74145
  24387717.100   128158299.43705  24387717.520    99863601.53043
  23429003.060   123120225.12307  23429002.060    95937827.78444
 15 02 25 00 24  0.0000000  0  7G16G18G21G22G27G29G31
  21251827.460   111679112.13209  21251826.120    87022693.52746
  22475863.880   118111505.70308  22475862.800    92034951.34744
  21497741.680   112971401.75208  21497740.380    88029659.27846
  23647539.060   124268720.92407  23647536.980    96832775.91044
  22437486.940   117909806.46708  22437488.780    91877785.13245
  24402393.860   128235426.98106  24402394.560    99923700.89644
  23447351.020   123216642.82707  23447349.680    96012958.39644
 15 02 25 00 24 30.0000000  0  7G16G18G21G22G27G29G31
  21240431.040   111619223.69109  21240429.680    86976027.21946
  22465479.760   118056936.24608  22465478.680    91992429.70844
  21506321.220   113016487.58108  21506319.880    88064791.09146
  23629821.520   124175613.96307  23629819.160    96760225.15044
  22425698.060   117847854.79608  22425699.740    91829511.09645
  24417073.440   128312568.78606  24417074.460    99983811.33443
  23465718.420   123313163.21508  23465716.840    96088169.03744
 15 02 25 00 25  0.0000000  0  7G16G18G21G22G27G29G31
  21229098.500   111559671.10109  21229097.120    86929622.60646
  22455160.500   118002707.79808  22455159.480    91950173.77144
  21514958.220   113061875.00908  21514956.740    88100157.91246
  23612115.220   124082565.74007  23612112.380    96687720.11244
  22413932.440   117786025.48008  22413934.040    91781332.41745
  24431756.500   128389728.47706  24431757.760   100043935.70843
  23484105.340   123409786.72907  23484103.700    96163460.02644
 15 02 25 00 25 30.0000000  0  7G16G18G21G22G27G29G31
  21217830.560   111500457.98709  21217829.220    86883482.52346
  22444906.700   117948823.71008  22444905.840    91908186.20144
  21523652.620   113107563.88508  21523650.980    88135759.63446
  23594420.920   123989580.65707  23594417.980    96615264.28743
  22402190.460   117724320.28108  22402191.920    91733250.44846
  24446443.140   128466907.28105  24446444.400   100104075.06043
  23502511.340   123506512.16607  23502510.040    96238830.45044
 15 02 25 00 26  0.0000000  0  7G16G18G21G22G27G29G31
  21206626.840   111441582.08009  21206625.520    86837605.19546
  22434717.900   117895281.50408  22434717.160    91866465.01145
  21532403.180   113153548.12008  21532401.440    88171591.49547
  23576738.200   123896656.71607  23576735.200    96542856.10744
  22390471.180   117662734.81008  22390472.620    91685261.78746
  24461132.760   128544100.80906  24461133.720   100164225.81243
  23520935.280   123603331.88007  23520934.380    96314274.29944
 15 02 25 00 26 30.0000000  0  7G16G18G21G22G27G29G31
  21195488.300   111383048.51809  21195487.000    86791994.63446
  22424595.160   117842086.71908  22424594.480    91825014.55444
  21541210.160   113199828.81308  21541208.320    88207654.37346
  23559068.020   123803799.48807  23559064.960    96470499.91544
  22378775.180   117601272.17308  22378776.640    91637368.82745
  24475825.680   128621312.01205  24475826.440   100224390.37443
  23539377.320   123700246.09007  23539376.740    96389791.80644
 15 02 25 00 27  0.0000000  0  7G16G18G21G22G27G29G31
  21184415.500   111324860.30909  21184414.160    86746653.17446
  22414539.160   117789242.27408  22414538.320    91783837.06144
  21550073.400   113246405.19408  21550071.480    88243947.65646
  23541411.220   123711012.68507  23541408.100    96398198.58243
  22367102.740   117539933.25208  22367104.240    91589572.26845
  24490521.980   128698541.68505  24490523.060   100284569.32743
  23557837.100   123797252.57107  23557836.700    96465381.23944
 15 02 25 00 27 30.0000000  0  7G16G18G21G22G27G29G31
  21173407.820   111267014.53409  21173406.560    86701578.55046
  22404549.220   117736745.20008  22404548.380    91742930.25844
  21558991.540   113293270.01208  21558989.460    88280465.69346
  23523767.220   123618293.63307  23523764.080    96325950.04243
  22355452.960   117478713.09308  22355454.400    91541868.24145
  24505220.900   128775784.76306  24505222.220   100344758.66743
  23576313.120   123894343.24707  23576312.580    96541036.22444
 15 02 25 00 28  0.0000000  0  7G16G18G21G22G27G29G31
  21162466.700   111209518.57909  21162465.440    86656776.51346
  22394626.940   117684603.14608  22394626.040    91702300.10644
  21567965.400   113340427.40308  21567963.180    88317211.70746
  23506137.560   123525650.02707  23506134.640    96253760.28243
  22343826.840   117417617.34108  22343828.200    91494261.17245
  24519923.380   128853046.46506  24519924.560   100404962.58644
  23594805.700   123991520.75607  23594805.020    96616758.88044
 15 02 25 00 28 30.0000000  0  7G16G18G21G22G27G29G31
  21151592.520   111152374.08609  21151591.140    86612248.32946
  22384772.620   117632817.76708  22384771.620    91661947.87144
  21576994.440   113387874.90509  21576992.140    88354183.78146
  23488522.940   123433085.40207  23488520.240    96181632.07743
  22332224.320   117356645.49708  22332225.520    91446750.65546
  24534629.320   128930326.25906  24534630.260   100465180.58143
  23613314.040   124088781.29707  23613313.280    96692546.21644
 15 02 25 00 29  0.0000000  0  7G16G18G21G22G27G29G31
  21140785.620   111095583.69509  21140784.240    86567996.08646
  22374986.560   117581391.40108  22374985.580    91621875.37844
  21586078.400   113435611.15308  21586076.100    88391380.85546
  23470923.860   123340602.26707  23470921.380    96109567.37844
  22320645.360   117295798.17508  22320646.580    91399337.16346
  24549338.660   129007624.71805  24549339.600   100525413.14644
  23631837.580   124186122.80707  23631836.820    96768396.66844
 15 02 25 00 29 30.0000000  0  7G16G18G19G21G22G27G31
  21130041.060   111039120.33809  21130039.540    86523998.66246
  22365263.580   117530296.97808  22365262.640    91582061.55244
  24546834.800   128994483.51606  24546833.380   100515177.94143
  21595211.360   113483605.32908  21595209.160    88428778.90246
  23453335.040   123248173.93607  23453332.900    96037545.39244
  22309084.640   117235046.33908  22309086.020    91351998.08146
  23650370.240   124283513.18907  23650369.400    96844285.19744
 15 02 25 00 30  0.0000000  0  7G16G18G19G21G22G27G31
  21119371.600   110983051.96109  21119370.120    86480309.02347
  22355616.700   117479602.75208  22355615.900    91542559.57844
  24531379.740   128913269.72806  24531379.100   100451894.52643
  21604405.400   113531920.64308  21604403.320    88466427.19846
  23435769.820   123155868.94907  23435767.860    95965619.48244
  22297554.720   117174455.96608  22297556.160    91304784.80746
  23668924.040   124381015.30407  23668923.380    96920260.82844
 15 02 25 00 30 30.0000000  0  7G16G18G19G21G22G27G31
  21108768.980   110927334.60109  21108767.540    86436892.90147
  22346037.560   117429264.55908  22346036.860    91503335.02344
  24515938.200   128832125.16506  24515938.200   100388665.02043
  21613651.800   113580510.69809  21613649.760    88504289.57346
  23418219.860   123063643.87807  23418217.920    95893755.85544
  22286046.820   117113981.09708  22286048.200    91257661.54546
  23687489.740   124478580.15507  23687489.660    96996285.30644
 15 02 25 00 31  0.0000000  0  7G16G18G19G21G22G27G31
  21098233.860   110871972.29309  21098232.480    86393753.45247
  22336526.900   117379286.39708  22336526.340    91464391.01144
  24500510.540   128751052.12806  24500510.420   100325491.29744
  21622950.460   113629375.50708  21622948.500    88542366.03946
  23400686.180   122971503.61507  23400684.260    95821958.32244
  22274561.240   117053623.87008  22274562.620    91210629.94746
  23706067.320   124576206.71707  23706067.640    97072357.83744
 15 02 25 00 31 30.0000000  0  7G16G18G19G21G22G27G31
  21087768.020   110816973.87209  21087766.520    86350897.53147
  22327086.480   117329676.89508  22327086.020    91425734.26844
  24485097.680   128670057.33306  24485097.500   100262378.46143
  21632302.100   113678519.23508  21632300.280    88580659.85746
  23383170.500   122879457.37307  23383168.520    95750234.02644
  22263099.280   116993390.97608  22263100.640    91163695.22145
  23724657.440   124673898.78807  23724657.900    97148481.44144
 15 02 25 00 32  0.0000000  0  7G16G18G19G21G22G27G31
  21077371.160   110762338.01709  21077369.660    86308324.14447
  22317716.140   117280435.08408  22317715.560    91387364.05644
  24469699.240   128589137.28006  24469698.740   100199323.94544
  21641705.900   113727936.99208  21641704.220    88619167.19046
  23365672.580   122787504.52307  23365670.460    95678582.51845
  22251660.340   116933279.23208  22251661.720    91116854.91145
  23743259.020   124771650.08107  23743259.520    97224651.17944
 15 02 25 00 32 30.0000000  0  7G16G18G19G21G22G27G31
  21067044.700   110708072.01709  21067043.200    86266038.95547
  22308417.100   117231567.88608  22308416.380    91349285.73344
  24454316.120   128508297.74306  24454315.300   100136332.13243
  21651162.520   113777632.18608  21651160.900    88657890.71646
  23348193.860   122695653.07507  23348191.660    95607010.02344
  22240245.480   116873294.07708  22240246.840    91070113.24045
  23761872.500   124869462.92307  23761872.940    97300868.87443
 15 02 25 00 33  0.0000000  0  7G16G18G19G21G22G27G31
  21056788.460   110654174.88309  21056786.940    86224041.18947
  22299189.080   117183074.49808  22299188.280    91311498.69544
  24438947.640   128427535.19906  24438946.580   100073400.30044
  21660670.960   113827599.85108  21660669.400    88696826.55946
  23330734.260   122603902.58307  23330732.040    95535516.19044
  22228854.200   116813432.63608  22228855.520    91023467.96645
  23780496.520   124967331.43707  23780496.760    97377129.95743
 15 02 25 00 33 30.0000000  0  7G16G18G19G21G22G27G31
  21046603.160   110600650.73609  21046601.720    86182334.06747
  22290033.000   117134958.67608  22290032.040    91274005.84144
  24423594.160   128346851.79706  24423593.260   100010530.12543
  21670231.300   113877840.21608  21670229.780    88735974.88946
  23313294.820   122512258.03307  23313292.520    95464104.90044
  22217486.900   116753696.97408  22217488.200    90976920.70545
  23799130.860   125065254.70107  23799130.900    97453433.71944
 15 02 25 00 34  0.0000000  0  7G16G18G19G21G22G27G31
  21036488.580   110547498.25709  21036487.140    86140916.55547
  22280948.380   117087218.65708  22280947.380    91236805.85544
  24408255.260   128266244.45306  24408254.340    99947719.27343
  21679842.580   113928348.14608  21679841.140    88775331.71346
  23295875.340   122420718.37707  23295873.160    95392775.36144
  22206142.940   116694083.81808  22206144.160    90930468.89045
  23817774.340   125163226.20307  23817774.120    97529775.03743
 15 02 25 00 34 30.0000000  0  7G16G18G19G21G22G27G31
  21026446.020   110494724.34809  21026444.620    86099794.02647
  22271936.680   117039861.91208  22271935.660    91199904.50344
  24392931.660   128185718.11806  24392930.540    99884971.48243
  21689505.460   113979127.21208  21689504.020    88814899.80846
  23278477.260   122329291.09907  23278475.240    95321533.37944
  22194823.120   116634598.19008  22194824.320    90884116.46445
  23836427.520   125261248.15407  23836426.940    97606155.63843
 15 02 25 00 35  0.0000000  0  7G16G18G19G21G22G27G31
  21016476.160   110442332.53809  21016474.840    86058969.24347
  22262998.500   116992891.52708  22262997.460    91163304.20745
  24377623.680   128105274.37206  24377622.700    99822288.09644
  21699219.820   114030176.56608  21699218.380    88854678.52146
  23261101.300   122237980.40607  23261099.420    95250382.24644
  22183527.880   116575241.61408  22183529.060    90837864.59645
  23855090.180   125359318.86607  23855089.240    97682574.25044
 15 02 25 00 35 30.0000000  0  7G16G18G19G21G22G27G31
  21006578.460   110390320.08809  21006577.220    86018440.06447
  22254133.320   116946304.94108  22254132.240    91127002.97444
  24362330.280   128024907.81906  24362329.340    99759664.81044
  21708984.220   114081489.08608  21708982.840    88894662.29346
  23243747.140   122146784.50307  23243745.340    95179320.54544
  22172256.340   116516009.48108  22172257.520    90791709.70445
  23873760.620   125457430.63807  23873759.360    97759024.85544
 15 02 25 00 36  0.0000000  0  7G16G18G19G21G22G27G31
  20996752.240   110338683.17209  20996751.100    85978203.51247
  22245340.360   116900098.05008  22245339.320    91090997.61544
  24347050.780   127944613.06806  24347049.580    99697097.57543
  21718797.440   114133058.22108  21718796.120    88934846.02646
  23226414.260   122055699.92707  23226412.420    95108345.60244
  22161007.360   116456896.21008  22161008.540    90745647.42945
  23892437.000   125555574.89207  23892435.600    97835500.73943
 15 02 25 00 36 30.0000000  0  7G16G18G19G21G22G27G31
  20986999.180   110287431.04209  20986998.160    85938266.78747
  22236621.420   116854279.74808  22236620.340    91055295.05244
  24331786.380   127864397.82106  24331785.120    99634592.24543
  21728660.460   114184888.90608  21728659.140    88975233.56546
  23209104.480   121964736.70807  23209102.540    95037465.22944
  22149782.500   116397909.23308  22149783.700    90699683.56745
  23911120.180   125653755.98307  23911118.920    97912005.36543
 15 02 25 00 37  0.0000000  0  7G16G18G19G21G22G27G31
  20977320.120   110236567.58309  20977319.140    85898632.92747
  22227977.240   116808854.11808  22227976.120    91019898.47944
  24316537.280   127784263.60606  24316536.220    99572149.99744
  21738573.040   114236980.04908  21738571.840    89015824.06346
  23191818.740   121873899.38407  23191816.660    94966682.94844
  22138581.980   116339050.40508  22138583.280    90653819.55846
  23929809.960   125751972.68607  23929809.260    97988537.71944
 15 02 25 00 37 30.0000000  0  7G16G18G19G21G22G27G31
  20967715.180   110186093.38509  20967714.160    85859302.38347
  22219407.740   116763821.23908  22219406.620    90984807.93044
  24301303.320   127704208.79005  24301302.400    99509769.64643
  21748534.880   114289329.79608  21748533.700    89056616.06946
  23174557.160   121783188.95807  23174554.960    94895999.52444
  22127405.580   116280318.26108  22127406.980    90608054.26745
  23948505.700   125850220.51107  23948505.340    98065094.33144
 15 02 25 00 38  0.0000000  0  7G16G18G19G21G22G27G31
  20958185.060   110136012.29509  20958183.980    85820278.15547
  22210913.740   116719185.07808  22210912.680    90950026.50844
  24286084.940   127624235.84205  24286084.080    99447453.12644
  21758545.980   114341938.18708  21758544.760    89097609.61646
  23157320.460   121692610.24307  23157318.260    94825418.76843
  22116253.840   116221715.07508  22116255.300    90562389.45946
  23967207.480   125948498.57607  23967207.280    98141674.52343
 15 02 25 00 38 30.0000000  0  7G16G18G19G21G22G27G31
  20948729.900   110086325.19109  20948728.780    85781560.93447
  22202495.200   116674945.85308  22202494.300    90915554.40644
  24270881.840   127544343.39305  24270880.820    99385199.27244
  21768605.660   114394801.56608  21768604.400    89138801.84746
  23140109.180   121602164.88107  23140106.920    94754941.88044
  22105126.500   116163239.92808  22105127.800    90516824.39946
  23985914.360   126046803.10607  23985914.220    98218275.28943
 15 02 25 00 39  0.0000000  0  7G16G18G19G21G22G27G31
  20939349.580   110037031.00409  20939348.400    85743149.87447
  22194152.100   116631102.79608  22194151.200    90881390.99445
  24255693.440   127464528.38805  24255692.140    99323005.81944
  21778713.060   114447915.83608  21778711.720    89180189.58646
  23122923.240   121511852.35207  23122920.920    94684568.51544
  22094022.880   116104889.78708  22094024.100    90471356.76746
  24004625.160   126145127.98007  24004625.100    98294891.89443
 15 02 25 00 39 30.0000000  0  7G16G18G19G21G22G27G31
  20930044.140   109988130.39509  20930042.940    85705045.50447
  22185884.560   116587656.60908  22185883.640    90847536.82445
  24240519.720   127384789.92806  24240518.140    99260871.98041
  21788867.540   114501277.47308  21788866.060    89221770.08146
  23105762.860   121421674.10907  23105760.600    94614299.78944
  22082942.900   116046663.54508  22082944.060    90425985.67846
  24023338.920   126243468.89306  24023339.000    98371521.02543
 15 02 25 00 40  0.0000000  0  7G16G18G19G21G22G27G31
  20920814.740   109939629.48109  20920813.540    85667252.58847
  22177693.640   116544613.17008  22177692.840    90813996.49744
  24225361.320   127305131.51705  24225359.500    99198800.53944
  21799069.480   114554888.53608  21799067.900    89263544.93046
  23088629.340   121331636.79607  23088627.080    94544140.86844
  22071887.280   115988565.53608  22071888.500    90380714.51446
  24042055.920   126341827.15307  24042056.200    98448163.63343
 15 02 25 00 40 30.0000000  0  7G16G18G19G21G22G27G31
  20911662.560   109891534.00409  20911661.240    85629775.58747
  22169580.360   116501977.30408  22169579.560    90780773.74544
  24210218.740   127225557.03205  24210216.600    99136794.46344
  21809319.280   114608751.05508  21809317.660    89305515.71446
  23071523.780   121241746.41607  23071521.560    94474096.44744
  22060856.680   115930599.42108  22060857.960    90335546.12146
  24060776.300   126440203.28006  24060776.760    98524820.19544
 15 02 25 00 41  0.0000000  0  7G16G18G19G21G22G27G31
  20902586.680   109843839.64109  20902585.200    85592611.14647
  22161543.920   116459745.06208  22161543.080    90747865.53445
  24195090.960   127146060.75306  24195089.020    99074849.34743
  21819615.380   114662857.17008  21819613.720    89347676.32246
  23054445.600   121152000.26308  23054443.500    94404164.41744
  22049850.040   115872759.37608  22049851.400    90290475.96746
  24079498.420   126538588.55607  24079498.960    98601483.89143
 15 02 25 00 41 30.0000000  0  7G16G18G19G21G22G27G31
  20893587.320   109796547.28509  20893585.700    85555759.95247
  22153584.360   116417917.00808  22153583.380    90715272.26044
  24179978.140   127066641.93006  24179976.220    99012964.57643
  21829957.180   114717203.52508  21829955.440    89390024.12746
  23037395.180   121062399.52308  23037393.060    94334345.70544
  22038867.220   115815044.58608  22038868.640    90245503.41746
  24098221.620   126636979.15506  24098222.400    98678151.69843
 15 02 25 00 42  0.0000000  0  7G16G18G19G21G22G27G31
  20884665.980   109749665.27509  20884664.380    85519228.51747
  22145703.140   116376500.77808  22145702.140    90682999.87745
  24164881.080   126987306.07906  24164879.060    98951144.45943
  21840345.580   114771795.02308  21840343.860    89432562.95446
  23020374.080   120972953.02808  23020371.920    94264647.16544
  22027909.440   115757461.34908  22027910.900    90200633.37346
  24116946.580   126735378.51207  24116947.300    98754826.32543
 15 02 25 00 42 30.0000000  0  7G16G18G19G21G22G27G31
  20875822.560   109703192.69409  20875821.020    85483016.11747
  22137900.180   116335496.30708  22137899.260    90651048.34945
  24149799.480   126908051.26606  24149797.340    98889387.54044
  21850779.780   114826627.23408  21850778.080    89475289.35046
  23003382.300   120883660.85808  23003380.200    94195068.88144
  22016976.240   115700007.20108  22016977.720    90155863.92746
  24135672.120   126833780.52207  24135672.660    98831503.03043
 15 02 25 00 43  0.0000000  0  7G16G18G19G21G22G27G31
  20867057.540   109657132.15609  20867056.040    85447124.79447
  22130175.960   116294905.23308  22130174.940    90619418.96245
  24134733.160   126828877.57706  24134731.220    98827693.76543
  21861259.520   114881698.51608  21861257.840    89518202.03646
  22986420.560   120794526.72808  22986418.460    94125613.75244
  22006067.820   115642682.95908  22006069.260    90111195.69946
  24154397.820   126932183.32907  24154398.020    98908180.30444
 15 02 25 00 43 30.0000000  0  7G16G18G19G21G22G27G31
  20858370.380   109611480.95609  20858368.880    85411552.42447
  22122529.880   116254724.63308  22122528.820    90588109.40945
  24119681.600   126749780.69307  24119679.700    98766059.86244
  21871783.540   114937002.51208  21871781.900    89561296.05246
  22969488.460   120705548.37007  22969486.460    94056279.99744
  21995183.220   115585484.21808  21995184.800    90066625.25946
  24173122.220   127030579.30207  24173122.020    98984852.25343
 15 02 25 00 44  0.0000000  0  7G16G18G19G21G22G27G31
  20849762.960   109566248.94509  20849761.520    85376306.70447
  22114963.700   116214964.25408  22114962.720    90557127.31844
  24104646.080   126670768.51506  24104644.220    98704491.96444
  21882353.060   114992545.71708  21882351.500    89604576.46246
  22952588.000   120616736.32108  22952586.060    93987075.82844
  21984324.000   115528419.09908  21984325.720    90022158.95646
  24191846.280   127128973.50607  24191845.640    99061522.85544
 15 02 25 00 44 30.0000000  0  7G16G18G19G21G22G27G31
  20841234.700   109521433.00709  20841233.380    85341385.19947
  22107476.880   116175620.64408  22107475.880    90526469.96445
  24089625.720   126591836.47407  24089623.780    98642986.48844
  21892966.840   115048321.38708  21892965.260    89648038.02246
  22935718.740   120528088.09808  22935716.820    93917999.31444
  21973489.320   115471482.80808  21973491.060    89977793.01846
  24210568.600   127227358.39807  24210567.820    99138186.15144
 15 02 25 00 45  0.0000000  0  7G16G18G19G21G22G27G31
  20832785.900   109477034.39709  20832784.640    85306788.87647
  22100069.600   116136695.02008  22100068.600    90496138.33145
  24074620.600   126512983.44307  24074618.560    98581542.62644
  21903624.180   115104326.24208  21903622.560    89691678.16146
  22918881.100   120439605.91008  22918879.240    93849052.19445
  21962679.020   115414674.81308  21962680.740    89933527.05446
  24229288.460   127325730.09507  24229287.880    99214839.15143
 15 02 25 00 45 30.0000000  0  7G16G18G19G21G22G27G31
  20824417.940   109433060.57809  20824416.700    85272523.55947
  22092743.080   116098194.51008  22092742.260    90466137.93845
  24059631.520   126434215.40307  24059629.640    98520164.92744
  21914325.980   115160564.58008  21914324.280    89735500.23646
  22902076.700   120351298.38608  22902074.900    93780241.16144
  21951894.340   115358001.16008  21951896.000    89889365.76146
  24248006.320   127424091.53406  24248005.840    99291484.19144
 15 02 25 00 46  0.0000000  0  7G16G18G19G21G22G27G31
  20816130.200   109389508.14809  20816128.920    85238586.59347
  22085496.740   116060115.05608  22085496.040    90436465.64945
  24044657.660   126355526.98107  24044655.620    98458849.26543
  21925070.840   115217029.14508  21925069.160    89779498.59546
  22885304.980   120263162.19007  22885303.120    93711563.63045
  21941134.180   115301456.51608  21941135.840    89845305.01946
  24266720.640   127522434.53807  24266720.220    99368114.84144
 15 02 25 00 46 30.0000000  0  7G16G18G19G21G22G27G31
  20807923.680   109346382.29209  20807922.320    85204982.02847
  22078331.500   116022461.72908  22078330.760    90407125.40245
  24029699.480   126276921.47907  24029697.440    98397598.25844
  21935859.060   115273721.59308  21935857.460    89823674.52846
  22868567.080   120175203.65608  22868565.120    93643024.54844
  21930399.280   115245044.48808  21930400.940    89801347.61346
  24285431.400   127620759.38706  24285431.460    99444731.31543
 15 02 25 00 47  0.0000000  0  7G16G18G19G21G22G27G31
  20799798.400   109303683.48109  20799796.980    85171710.22447
  22071247.320   115985234.67108  22071246.520    90378117.31544
  24014756.860   126198397.76507  24014754.760    98336410.93443
  21946690.000   115330638.69508  21946688.480    89868025.51146
  22851863.160   120087424.16908  22851861.120    93574624.98644
  21919689.380   115188763.87008  21919691.080    89757492.60546
  24304137.720   127719062.18006  24304138.420    99521330.58343
 15 02 25 00 47 30.0000000  0  7G16G18G19G21G22G27G31
  20791754.080   109261410.30709  20791752.720    85138770.09047
  22064244.060   115948432.14508  22064243.160    90349440.03445
  23999829.240   126119952.48706  23999827.000    98275284.74344
  21957562.580   115387774.80708  21957561.160    89912547.15046
  22835193.120   119999822.61208  22835190.920    93506364.04545
  21909003.960   115132611.49908  21909005.680    89713737.52546
  24322838.620   127817336.11206  24322839.520    99597907.40143
 15 02 25 00 48  0.0000000  0  7G16G18G19G21G22G27G31
  20783792.560   109219572.34209  20783791.280    85106169.07747
  22057323.300   115912063.34208  22057322.440    90321100.71645
  23984917.940   126041593.26906  23984915.760    98214225.63843
  21968478.180   115445136.62208  21968476.760    89957244.66046
  22818559.000   119912409.71608  22818556.660    93438250.11745
  21898344.480   115076595.38308  21898346.220    89670088.62346
  24341535.060   127915586.64106  24341536.360    99674465.90444
 15 02 25 00 48 30.0000000  0  7G16G18G19G21G22G27G31
  20775913.620   109178168.41509  20775912.360    85073906.27847
  22050484.700   115876126.97408  22050483.940    90293098.36744
  23970022.400   125963317.33206  23970020.440    98153231.43342
  21979435.700   115502719.02008  21979434.360    90002114.05546
  22801960.680   119825185.20308  22801958.240    93370282.98844
  21887710.440   115020712.99408  21887712.140    89626543.91746
  24360226.140   128013808.27506  24360227.400    99751001.90343
 15 02 25 00 49  0.0000000  0  7G16G18G19G21G22G27G31
  20768117.940   109137201.94509  20768116.680    85041984.34547
  22043729.120   115840626.15908  22043728.400    90265435.40745
  23955142.800   125885126.30405  23955141.140    98092303.40843
  21990435.120   115560521.60108  21990433.720    90047155.01946
  22785399.020   119738153.19708  22785396.540    93302465.87344
  21877102.100   114964965.92508  21877103.800    89583104.65346
  24378911.600   128111999.51406  24378912.560    99827514.20243
 15 02 25 00 49 30.0000000  0  7G16G18G19G21G22G27G31
  20760404.980   109096670.04809  20760403.740    85010401.04547
  22037055.780   115805557.67508  22037055.120    90238109.32245
  23940278.520   125807015.58005  23940277.120    98031437.96043
  22001475.020   115618537.33208  22001473.680    90092362.07246
  22768873.660   119651311.67408  22768871.020    93234797.17244
  21866518.660   114909349.76208  21866520.340    89539767.39346
  24397589.880   128210152.47806  24397590.760    99903996.67744
 15 02 25 00 50  0.0000000  0  7G16G18G19G21G22G27G31
  20752775.120   109056575.05009  20752773.900    84979158.19147
  22030465.100   115770923.33908  22030464.420    90211121.53445
  23925429.680   125728985.71505  23925428.920    97970635.48043
  22012555.580   115676766.36508  22012554.280    90137735.33646
  22752385.200   119564663.85308  22752382.420    93167279.41445
  21855960.380   114853865.38708  21855962.020    89496532.82346
  24416260.540   128308265.23006  24416261.300    99980447.75542
 15 02 25 00 50 30.0000000  0  7G16G18G19G21G22G27G31
  20745228.880   109016919.37009  20745227.760    84948257.65947
  22023957.520   115736725.22608  22023956.620    90184473.65145
  23910596.540   125651037.74306  23910595.920    97909896.87643
  22023676.460   115735206.92608  22023675.100    90183273.43345
  22735934.180   119478213.01808  22735931.200    93099915.15444
  21845427.380   114798513.67208  21845428.980    89453401.61546
  24434923.020   128406335.69206  24434923.580   100056865.89644
 15 02 25 00 51  0.0000000  0  7G16G18G19G21G22G27G31
  20737766.780   108977705.98509  20737765.660    84917701.77947
  22017533.440   115702966.01208  22017532.480    90158167.79645
  23895779.160   125573172.36405  23895778.660    97849222.58542
  22034837.440   115793858.08808  22034835.980    90228975.64246
  22719521.320   119391963.00308  22719518.280    93032707.36944
  21834919.820   114743295.99008  21834921.460    89410374.85646
  24453576.920   128504362.08106  24453577.460   100133249.68743
 15 02 25 00 51 30.0000000  0  7G16G18G19G21G22G27G31
  20730389.820   108938939.65909  20730388.640    84887494.25347
  22011193.700   115669650.06408  22011192.660    90132207.33845
  23880978.100   125495393.06705  23880977.800    97788615.35244
  22046038.620   115852720.61508  22046037.120    90274842.53246
  22703147.700   119305919.26808  22703144.760    92965660.33344
  21824438.460   114688215.54908  21824440.060    89367455.03846
  24472222.440   128602344.46406  24472223.320   100209599.15444
 15 02 25 00 52  0.0000000  0  7G16G18G19G21G22G27G31
  20723097.060   108900616.21509  20723095.840    84857631.82847
  22004937.420   115636772.72808  22004936.240    90106588.63744
  23866192.420   125417693.75506  23866192.300    97728070.45143
  22057278.680   115911787.21608  22057277.100    90320868.45546
  22686812.720   119220078.63908  22686809.920    92898771.55644
  21813982.100   114633266.71708  21813983.600    89324637.78746
  24490858.000   128700274.28106  24490859.300   100285907.60243
 15 02 25 00 52 30.0000000  0  7G16G18G19G21G22G27G31
  20715890.060   108862743.20009  20715888.820    84828120.38947
  21998765.980   115604341.32408  21998764.740    90081317.42545
  23851423.140   125340080.23406  23851422.620    97667592.42044
  22068558.340   115971062.16908  22068556.800    90367056.72446
  22670518.000   119134449.49608  22670515.220    92832047.56944
  21803551.900   114578455.54408  21803553.260    89281927.78446
  24509484.240   128798154.60506  24509485.700   100362177.53943
 15 02 25 00 53  0.0000000  0  7G16G18G19G21G22G27G31
  20708768.140   108825317.43709  20708766.960    84798957.46047
  21992678.700   115572352.30208  21992677.460    90056390.92945
  23836669.320   125262547.59507  23836668.520    97607177.42444
  22079876.260   116030538.63708  22079874.800    90413402.00345
  22654263.060   119049029.56508  22654260.340    92765486.61444
  21793147.000   114523777.33109  21793148.240    89239321.39646
  24528099.820   128895977.53206  24528101.120   100438402.66242
 15 02 25 00 53 30.0000000  0  7G16G18G19G21G22G27G31
  20701732.740   108788345.90809  20701731.520    84770148.47247
  21986676.900   115540812.16508  21986675.580    90031814.20145
  23821931.980   125185101.49407  23821931.220    97546829.82944
  22091233.300   116090219.90908  22091231.680    90459906.89445
  22638049.520   118963826.69808  22638046.840    92699094.79844
  21782768.480   114469237.66408  21782769.680    89196822.96946
  24546705.060   128993745.68506  24546706.260   100514585.02644
 15 02 25 00 54  0.0000000  0  7G16G18G19G21G22G27G31
  20694783.640   108751828.03609  20694782.420    84741692.98847
  21980760.200   115509719.99108  21980758.920    90007586.55545
  23807210.600   125107739.70507  23807209.740    97486547.94844
  22102628.640   116150102.23908  22102626.880    90506568.44445
  22621877.440   118878841.46008  22621874.720    92632872.55644
  21772415.940   114414834.62009  21772417.160    89154430.98546
  24565298.940   129091453.90506  24565300.140   100590720.71841
 15 02 25 00 54 30.0000000  0  7G16G18G19G21G22G27G31
  20687921.440   108715766.74509  20687920.180    84713593.27447
  21974929.200   115479078.52308  21974927.980    89983710.09345
  23792505.380   125030463.28407  23792504.440    97426332.56344
  22114062.020   116210184.67308  22114060.220    90553385.91045
  22605747.400   118794077.41008  22605744.540    92566822.66745
  21762089.680   114360569.78708  21762090.920    89112146.69046
  24583881.240   129189101.05406  24583882.000   100666808.84841
 15 02 25 00 55  0.0000000  0  7G16G18G19G21G22G27G31
  20681145.860   108680160.65809  20681144.500    84685848.26847
  21969183.620   115448885.68508  21969182.480    89960183.20445
  23777815.940   124953269.22007  23777814.960    97366181.39844
  22125532.500   116270462.08408  22125530.640    90600355.30845
  22589659.400   118709534.18908  22589656.520    92500944.85544
  21751789.140   114306440.13308  21751790.260    89069967.74646
  24602450.660   129286680.91406  24602451.640   100742844.47242
 15 02 25 00 55 30.0000000  0  7G16G18G19G21G22G27G31
  20674458.100   108645016.06609  20674456.720    84658462.86947
  21963524.440   115419147.02708  21963523.300    89937010.24045
  23763143.080   124876162.54907  23763141.960    97306098.29045
  22137040.780   116330937.95208  22137038.680    90647479.36945
  22573614.860   118625219.29908  22573611.900    92435244.96144
  21741515.360   114252451.00308  21741516.340    89027898.30846
  24621007.560   129384195.85606  24621009.120   100818829.45943
 15 02 25 00 56  0.0000000  0  7G16G18G19G21G22G27G31
  20667857.840   108610331.37409  20667856.520    84631435.83447
  21957951.420   115389860.95608  21957950.260    89914189.93545
  23748486.100   124799139.57107  23748484.980    97246080.43044
  22148585.740   116391606.64008  22148583.500    90694753.65545
  22557613.520   118541131.50408  22557610.400    92369722.02645
  21731267.600   114198598.70808  21731268.480    88985935.48746
  24639550.780   129481638.98306  24639552.860   100894758.46042
 15 02 25 00 56 30.0000000  0  7G16G18G19G21G22G27G31
  20661345.640   108576109.43509  20661344.360    84604769.38447
  21952464.960   115361029.68708  21952463.920    89891724.02645
  23733845.360   124722201.68207  23733844.240    97186128.84644
  22160167.320   116452467.77308  22160165.060    90742177.90246
  22541656.180   118457274.71408  22541652.860    92304379.09245
  21721046.220   114144885.06908  21721047.180    88944080.71246
  24658080.040   129579009.15706  24658082.680   100970630.62543
 15 02 25 00 57  0.0000000  0  7G16G18G19G21G22G27G31
  20654922.060   108542353.19709  20654920.760    84578465.82247
  21947065.540   115332655.97708  21947064.720    89869614.65445
  23719220.920   124645350.14107  23719219.820    97126244.54943
  22171785.320   116513520.35208  22171783.060    90789751.32245
  22525743.580   118373653.09508  22525740.240    92239219.41345
  21710851.460   114091311.74608  21710852.660    88902335.27546
  24676595.380   129676304.98206  24676598.440   101046444.76443
 15 02 25 00 57 30.0000000  0  7G16G18G19G21G22G27G31
  20648586.900   108509061.30209  20648585.460    84552524.06748
  21941752.800   115304737.46608  21941752.120    89847859.97445
  23704612.500   124568582.18607  23704611.280    97066425.39344
  22183438.900   116574760.37308  22183436.640    90837470.80645
  22509875.400   118290265.75608  22509872.180    92174242.28245
  21700682.800   114037875.89108  21700684.240    88860696.94346
  24695095.680   129773520.47906  24695098.800   101122196.29843
 15 02 25 00 58  0.0000000  0  6G16G18G19G21G22G27
  20642339.560   108476231.13209  20642338.060    84526942.12547
  21936526.300   115277271.69808  21936525.600    89826458.09545
  23690019.060   124491894.17706  23690018.040    97006668.55544
  22195126.980   116636182.01308  22195124.740    90885331.81445
  22494051.680   118207111.61708  22494048.480    92109446.87245
  21690539.620   113984573.90608  21690541.240    88819162.93546
 15 02 25 00 58 30.0000000  0  6G16G18G19G21G22G27
  20636182.960   108443878.06509  20636181.440    84501731.93747
  21931388.820   115250273.87408  21931388.120    89805420.84445
  23675443.640   124415299.95906  23675442.580    96946984.77243
  22206851.900   116697797.06008  22206849.800    90933343.54345
  22478275.560   118124207.37108  22478272.300    92044846.17744
  21680424.700   113931420.00608  21680426.400    88777744.32546
 15 02 25 00 59  0.0000000  0  6G16G18G19G21G22G27
  20630116.120   108411996.74509  20630114.620    84476889.35047
  21926339.140   115223737.56308  21926338.380    89784743.21845
  23660884.560   124338792.15006  23660883.560    96887368.34844
  22218611.940   116759596.68908  22218609.980    90981499.08245
  22462546.020   118041548.27708  22462542.840    91980436.51845
  21670336.740   113878407.41008  21670338.400    88736435.82446
 15 02 25 00 59 30.0000000  0  6G16G18G19G21G22G27
  20624139.420   108380589.21409  20624138.000    84452415.94247
  21921377.600   115197664.62908  21921376.760    89764426.64545
  23646342.000   124262371.28306  23646341.020    96827819.63344
  22230406.720   116821579.28108  22230404.880    91029797.19945
  22446863.580   117959136.69108  22446860.500    91916219.73045
  21660275.760   113825536.64508  21660277.400    88695237.83746
 15 02 25 01 00  0.0000000  0  6G16G18G19G21G22G27
  20618252.760   108349654.69309  20618251.360    84428311.12147
  21916503.960   115172053.38808  21916503.000    89744469.84945
  23631815.680   124186035.49706  23631814.680    96768337.24444
  22242235.560   116883741.06708  22242233.880    91078234.94645
  22431228.460   117876973.82008  22431225.480    91852196.72445
  21650241.440   113772805.92508  21650243.080    88654148.97646
 15 02 25 01 00 30.0000000  0  6G16G18G19G21G22G27
  20612456.720   108319196.33209  20612455.320    84404577.32747
  21911718.800   115146906.73808  21911717.760    89724875.07745
  23617305.820   124109786.09106  23617304.780    96708922.15142
  22254098.480   116946081.49708  22254096.900    91126811.89745
  22415641.240   117795063.20908  22415638.400    91788370.29645
  21640234.120   113720217.04008  21640235.800    88613170.63746
 15 02 25 01 01  0.0000000  0  6G16G18G19G21G22G27
  20606751.460   108289214.95909  20606750.080    84381215.21847
  21907022.180   115122225.13408  21907020.920    89705642.67945
  23602812.400   124033622.27106  23602811.180    96649573.74444
  22265994.960   117008598.37608  22265993.460    91175526.34445
  22400102.560   117713407.04108  22400099.740    91724742.13745
  21630253.780   113667769.88608  21630255.500    88572302.74146
 15 02 25 01 01 30.0000000  0  6G16G18G19G21G22G27
  20601138.020   108259716.05709  20601136.600    84358229.05647
  21902414.920   115098013.50408  21902413.480    89686776.48445
  23588336.020   123957548.40506  23588334.680    96590295.44643
  22277925.420   117071293.90308  22277924.000    91224379.98845
  22384613.540   117632011.52608  22384610.700    91661317.07645
  21620301.140   113615468.52908  21620302.840    88531548.44746
 15 02 25 01 02  0.0000000  0  6G16G18G19G21G22G27
  20595615.540   108230695.28109  20595614.100    84335615.46347
  21897896.100   115074267.09508  21897894.560    89668272.79245
  23573875.820   123881558.86507  23573874.260    96531082.86744
  22289888.460   117134160.50408  22289887.060    91273366.94545
  22369173.380   117550873.33508  22369170.740    91598092.53845
  21610375.220   113563307.51408  21610376.860    88490903.50746
 15 02 25 01 02 30.0000000  0  6G16G18G19G21G22G27
  20590185.120   108202158.22609  20590183.700    84313378.79148
  21893466.740   115050990.85308  21893465.180    89650135.49445
  23559432.460   123805657.67406  23559430.740    96471939.08744
  22301884.540   117197200.38008  22301883.160    91322488.92445
  22353783.480   117469999.23508  22353780.920    91535073.78345
  21600476.960   113511291.44908  21600478.420    88450371.51047
 15 02 25 01 03  0.0000000  0  6G16G18G19G21G22G27
  20584847.320   108174108.01609  20584845.940    84291521.48048
  21889127.360   115028187.69108  21889125.920    89632366.79645
  23545006.180   123729847.00607  23545004.520    96412865.86044
  22313913.600   117260413.52708  22313912.240    91371745.92245
  22338444.740   117389393.78808  22338442.140    91472264.35145
  21590606.680   113459422.33908  21590607.980    88409954.03047
 15 02 25 01 03 30.0000000  0  6G16G18G19G21G22G27
  20579601.640   108146541.84709  20579600.280    84270041.35048
  21884877.240   115005853.70108  21884876.040    89614963.69745
  23530596.380   123654122.39407  23530594.520    96353859.68144
  22325974.460   117323793.81108  22325973.140    91421133.15045
  22323156.660   117309054.84808  22323154.120    91409662.60845
  21580763.560   113407696.04509  21580764.780    88369647.82947
 15 02 25 01 04  0.0000000  0  6G16G18G19G21G22G27
  20574449.160   108119465.55309  20574447.900    84248942.93548
  21880717.500   114983994.81308  21880716.560    89597930.80845
  23516203.660   123578488.39707  23516201.700    96294924.14644
  22338067.700   117387344.07508  22338066.420    91470652.82946
  22307920.720   117228989.83408  22307918.240    91347274.30845
  21570948.620   113356117.79009  21570949.760    88329456.98947
 15 02 25 01 04 30.0000000  0  6G16G18G19G21G22G27
  20569389.520   108092876.98309  20569388.260    84228224.56348
  21876647.660   114962607.75908  21876646.700    89581265.57345
  23501827.440   123502941.24507  23501825.440    96236056.26744
  22350192.300   117451059.01508  22350191.040    91520300.82845
  22292736.600   117149196.42208  22292734.020    91285097.62945
  21561161.160   113304683.86509  21561162.240    88289378.61447
 15 02 25 01 05  0.0000000  0  6G16G18G19G21G22G27
  20564423.580   108066780.68009  20564422.380    84207889.78148
  21872668.460   114941696.88308  21872667.460    89564971.40045
  23487468.440   123427484.04407  23487466.520    96177258.47244
  22362348.340   117514939.27308  22362347.180    91570077.64345
  22277605.320   117069681.16908  22277602.780    91223137.72945
  21551401.740   113253397.70108  21551402.820    88249415.38647
 15 02 25 01 05 30.0000000  0  6G16G18G19G21G22G27
  20559551.460   108041177.39509  20559550.320    84187939.17048
  21868779.960   114921262.39108  21868778.920    89549048.43045
  23473126.420   123352116.54907  23473124.560    96118530.54744
  22374535.560   117578983.39708  22374534.440    91619982.15745
  22262527.260   116990445.97308  22262524.780    91161396.02245
  21541670.340   113202259.24608  21541671.520    88209567.23947
 15 02 25 01 06  0.0000000  0  6G16G18G19G21G22G27
  20554772.800   108016065.32009  20554771.640    84168371.30948
  21864981.680   114901302.38408  21864980.640    89533495.18245
  23458801.100   123276835.93507  23458799.040    96059870.36844
  22386752.980   117643185.98108  22386751.860    91670010.14045
  22247502.420   116911489.99508  22247499.940    91099871.91245
  21531966.560   113151265.95608  21531967.900    88169832.22447
 15 02 25 01 06 30.0000000  0  6G16G18G19G21G22G27
  20550088.540   107991449.54909  20550087.420    84149190.19148
  21861274.460   114881820.85408  21861273.460    89518314.78145
  23444492.960   123201645.78907  23444490.820    96001280.65245
  22399001.000   117707549.46108  22398999.960    91720163.49746
  22232532.000   116832819.76508  22232529.440    91038570.45045
  21522291.220   113100421.81409  21522292.560    88130213.40647
 15 02 25 01 07  0.0000000  0  6G16G18G19G21G22G27
  20545498.940   107967331.11209  20545497.820    84130396.60148
  21857658.340   114862818.22008  21857657.400    89503507.54845
  23430202.020   123126545.98007  23430199.900    95942761.35544
  22411279.220   117772071.64808  22411278.260    91770440.52445
  22217616.180   116754436.96708  22217613.600    90977492.96245
  21512644.260   113049726.73409  21512645.540    88090710.74847
 15 02 25 01 07 30.0000000  0  6G16G18G19G21G22G27
  20541004.100   107943710.32909  20541002.920    84111990.79248
  21854133.440   114844294.60608  21854132.380    89489073.57345
  23415928.180   123051535.69607  23415925.920    95884311.80945
  22423587.080   117836749.59208  22423586.080    91820838.91246
  22202755.400   116676343.13608  22202752.780    90916640.65045
  21503025.640   112999180.32109  21503026.820    88051323.93947
 15 02 25 01 08  0.0000000  0  6G16G18G19G21G22G27
  20536604.760   107920591.75709  20536603.600    84093976.32348
  21850700.380   114826253.74908  21850699.280    89475015.77145
  23401671.820   122976617.99707  23401669.580    95825934.41544
  22435924.800   117901584.48308  22435923.680    91871359.60245
  22187950.560   116598543.37108  22187947.880    90856017.46945
  21493435.900   112948785.88909  21493437.060    88012055.55547
 15 02 25 01 08 30.0000000  0  6G16G18G19G21G22G27
  20532301.160   107897976.19209  20532300.040    84076353.80048
  21847359.120   114808695.49508  21847358.060    89461334.01545
  23387432.840   122901792.61406  23387430.800    95767628.97245
  22448292.040   117966574.42908  22448290.700    91922001.11645
  22173202.280   116521040.98308  22173199.580    90795626.00645
  21483875.060   112898543.53809  21483876.280    87972905.66347
 15 02 25 01 09  0.0000000  0  6G16G18G19G21G22G27
  20528093.120   107875862.75809  20528092.020    84059122.55148
  21844109.680   114791619.37308  21844108.620    89448027.95645
  23373211.000   122827057.50707  23373209.160    95709393.84944
  22460687.980   118031715.34908  22460686.480    91972760.26545
  22158510.540   116443835.21108  22158507.720    90735465.68045
  21474342.840   112848451.51009  21474344.180    87933872.92247
 15 02 25 01 09 30.0000000  0  6G16G18G19G21G22G27
  20523980.820   107854252.34709  20523979.640    84042283.27048
  21840951.980   114775025.38508  21840950.940    89435097.57745
  23359006.500   122752412.61307  23359004.620    95651229.04745
  22473112.380   118097005.97808  22473110.780    92023636.07145
  22143875.700   116366928.58408  22143872.880    90675538.45745
  21464839.220   112798509.90009  21464840.680    87894957.39347
 15 02 25 01 10  0.0000000  0  6G16G18G19G21G22G27
  20519964.760   107833147.45409  20519963.480    84025837.89548
  21837886.360   114758915.28308  21837885.240    89422544.26345
  23344819.380   122677859.07307  23344817.500    95593135.39444
  22485565.060   118162445.10008  22485563.320    92074627.59745
  22129298.440   116290324.53708  22129295.640    90615847.01246
  21455364.460   112748720.28308  21455366.040    87856160.30447
 15 02 25 01 10 30.0000000  0  6G16G18G19G21G22G27
  20516045.060   107812549.26009  20516043.760    84009787.35048
  21834912.900   114743289.57708  21834911.660    89410368.40545
  23330649.700   122603396.79707  23330647.780    95535112.89245
  22498045.620   118228030.76508  22498043.880    92125733.30645
  22114779.200   116214025.49708  22114776.440    90556393.23145
  21445918.640   112699082.91008  21445920.300    87817481.84447
 15 02 25 01 11  0.0000000  0  6G16G18G19G21G22G27
  20512221.980   107792459.09409  20512220.720    83994132.67748
  21832031.820   114728149.34608  21832030.520    89398570.82345
  23316497.520   122529026.53906  23316495.420    95477162.06144
  22510553.940   118293761.99708  22510552.140    92176952.43745
  22100318.560   116138034.05508  22100315.760    90497179.14045
  21436502.100   112649598.76409  21436503.680    87778922.77547
 15 02 25 01 11 30.0000000  0  6G16G18G19G21G22G27
  20508495.920   107772878.79009  20508494.720    83978875.29548
  21829243.360   114713495.88008  21829242.020    89387152.55645
  23302362.960   122454748.92707  23302360.720    95419283.46444
  22523089.760   118359637.97108  22523087.940    92228284.36145
  22085917.020   116062353.62308  22085914.300    90438207.38445
  21427115.040   112600268.90009  21427116.420    87740483.92847
 15 02 25 01 12  0.0000000  0  6G16G18G19G21G22G27
  20504867.480   107753811.51109  20504866.360    83964017.68048
  21826547.800   114699330.67208  21826546.460    89376114.73745
  23288246.320   122380565.79906  23288244.080    95361478.43744
  22535653.020   118425658.16908  22535651.160    92279728.65945
  22071575.440   115986988.06708  22071572.780    90379480.99745
  21417757.720   112551095.17609  21417758.920    87702166.74147
 15 02 25 01 12 30.0000000  0  6G16G18G19G21G22G27
  20501336.420   107735255.95209  20501335.320    83949558.80048
  21823945.020   114685652.92808  21823943.680    89365456.76645
  23274147.220   122306474.89306  23274145.080    95303745.30945
  22548243.000   118491818.72108  22548241.060    92331282.32845
  22057293.680   115911937.17908  22057291.020    90320999.80946
  21408429.720   112502075.76909  21408430.780    87663969.79847
 15 02 25 01 13  0.0000000  0  6G16G18G19G21G22G27
  20497903.320   107717214.79009  20497902.160    83935500.74648
  21821435.420   114672464.88108  21821434.100    89355180.38145
  23260066.060   122232478.46807  23260064.000    95246085.77144
  22560859.700   118558119.75908  22560857.760    92382945.46645
  22043072.620   115837205.45408  22043070.040    90262767.31045
  21399131.500   112453213.25609  21399132.500    87625895.11147
 15 02 25 01 13 30.0000000  0  6G16G18G19G21G22G27
  20494567.920   107699686.91309  20494566.680    83921842.65848
  21819018.620   114659764.58208  21819017.360    89345284.04945
  23246002.440   122158573.81507  23246000.520    95188497.74844
  22573502.280   118624556.72908  22573500.320    92434714.51945
  22028912.340   115762792.80108  22028909.780    90204783.44145
  21389862.680   112404505.24409  21389863.640    87587940.82047
 15 02 25 01 14  0.0000000  0  6G16G18G19G21G22G27
  20491330.840   107682675.83009  20491329.620    83908587.26948
  21816695.020   114647554.20008  21816693.820    89335769.48345
  23231956.840   122084763.25807  23231954.860    95130983.05844
  22586170.940   118691130.59008  22586168.880    92486590.24445
  22014813.600   115688703.40108  22014811.100    90147051.45146
  21380623.780   112355954.38409  21380624.760    87550108.98747
 15 02 25 01 14 30.0000000  0  6G16G18G19G21G22G27
  20488192.640   107666184.38609  20488191.400    83895736.79248
  21814465.140   114635836.40608  21814464.000    89326638.74545
  23217929.500   122011049.39807  23217927.560    95073543.71644
  22598865.660   118757841.73008  22598863.580    92538572.94545
  22000777.200   115614941.61908  22000774.740    90089574.74645
  21371415.260   112307563.29809  21371416.380    87512401.65347
 15 02 25 01 15  0.0000000  0  6G16G18G19G21G22G27
  20485153.280   107650212.39709  20485152.040    83883291.08448
  21812328.980   114624611.10908  21812327.920    89317891.76145
  23203920.240   121937430.79207  23203918.300    95016178.58744
  22611585.840   118824687.04008  22611583.780    92590660.20045
  21986803.540   115541508.96408  21986800.940    90032354.51446
  21362236.980   112259331.19509  21362238.320    87474818.21347
 15 02 25 01 15 30.0000000  0  6G16G18G19G21G22G27
  20482212.220   107634756.81709  20482210.880    83871247.77048
  21810285.680   114613873.82108  21810284.720    89309525.05345
  23189928.540   121863903.47308  23189926.420    94958884.58144
  22624330.400   118891660.70908  22624328.400    92642847.47245
  21972892.120   115468403.61708  21972889.380    89975389.31345
  21353088.240   112211254.36809  21353089.720    87437355.76047
 15 02 25 01 16  0.0000000  0  6G16G18G19G21G22G27
  20479370.480   107619823.09409  20479369.060    83859611.09848
  21808336.280   114603629.45008  21808335.260    89301542.44445
  23175955.180   121790472.35107  23175952.920    94901665.55144
  22637100.000   118958765.92008  22637098.100    92695137.23545
  21959044.100   115395632.09908  21959041.380    89918684.26245
  21343970.020   112163337.94309  21343971.540    87400018.30347
 15 02 25 01 16 30.0000000  0  6G16G18G19G21G22G27
  20476628.680   107605414.44409  20476627.160    83848383.57048
  21806481.240   114593881.12508  21806480.300    89293946.34545
  23162000.260   121717139.25607  23161998.100    94844522.87344
  22649894.760   119026002.78508  22649892.900    92747529.59945
  21945260.540   115323198.86808  21945257.720    89862242.79445
  21334882.780   112115584.31609  21334884.260    87362807.68947
 15 02 25 01 17  0.0000000  0  6G16G18G19G21G22G27
  20473985.980   107591526.85109  20473984.460    83837562.07048
  21804719.660   114584624.07808  21804718.820    89286733.07045
  23148063.240   121643899.53008  23148061.040    94787452.97544
  22662713.320   119093364.76508  22662711.540    92800019.44945
  21931540.780   115251101.11408  21931537.960    89806062.74645
  21325825.620   112067989.00809  21325827.120    87325720.44647
 15 02 25 01 17 30.0000000  0  6G16G18G19G21G22G27
  20471443.160   107578164.40209  20471441.640    83827149.76847
  21803052.260   114575861.51108  21803051.320    89279905.10245
  23134144.620   121570756.48507  23134142.440    94730458.43245
  22675555.940   119160853.18608  22675554.180    92852607.81344
  21917885.840   115179344.50308  21917883.100    89750148.51845
  21316799.320   112020555.64209  21316800.840    87288759.38947
 15 02 25 01 18  0.0000000  0  6G16G18G19G21G22G27
  20469000.420   107565327.77509  20468998.920    83817147.19248
  21801478.940   114567593.43308  21801477.980    89273462.44445
  23120244.400   121497710.00508  23120242.220    94673539.12344
  22688422.280   119228466.11208  22688420.400    92905293.21045
  21904296.240   115107930.97808  21904293.520    89694501.63245
  21307803.860   111973284.30409  21307805.380    87251924.58347
 15 02 25 01 18 30.0000000  0  6G16G18G19G21G22G27
  20466657.920   107553017.98009  20466656.480    83807555.13948
  21799999.820   114559820.45808  21799998.780    89267405.59045
  23106362.660   121424760.38108  23106360.420    94616695.28545
  22701311.980   119296202.02608  22701310.080    92958074.41945
  21890772.340   115036862.92108  21890769.720    89639123.94445
  21298839.340   111926175.73309  21298840.900    87215216.60347
 15 02 25 01 19  0.0000000  0  6G16G18G19G21G22G27
  20464416.020   107541236.71109  20464414.620    83798374.92348
  21798615.100   114552543.78408  21798613.980    89261735.47545
  23092499.520   121351908.72308  23092497.100    94559927.79845
  22714224.940   119364060.08908  22714223.080    93010950.82045
  21877314.700   114966143.05308  21877312.180    89584017.57545
  21289906.100   111879231.45009  21289907.660    87178636.64947
 15 02 25 01 19 30.0000000  0  6G16G18G19G21G22G27
  20462275.080   107529985.83209  20462273.640    83789608.00248
  21797324.980   114545764.31208  21797323.820    89256452.76845
  23078655.180   121279156.09708  23078652.620    94503237.47945
  22727161.000   119432039.49108  22727159.280    93063921.78044
  21863924.120   114895775.14008  21863921.580    89529185.44645
  21281004.440   111832452.64009  21281005.920    87142185.62847
 15 02 25 01 20  0.0000000  0  6G16G18G19G21G22G27
  20460235.060   107519265.17109  20460233.560    83781254.22648
  21796129.480   114539481.76008  21796128.320    89251557.28945
  23064829.420   121206501.49207  23064826.980    94446623.52445
  22740119.800   119500138.37308  22740118.160    93116985.83645
  21850600.760   114825760.30608  21850598.140    89474628.43646
  21272134.240   111785838.88909  21272135.600    87105863.22847
 15 02 25 01 20 30.0000000  0  6G16G18G19G21G22G27
  20458296.260   107509076.44809  20458294.700    83773314.95948
  21795028.580   114533696.37308  21795027.440    89247049.20446
  23051022.440   121133945.92207  23051020.180    94390086.74445
  22753100.980   119568354.96608  22753099.400    93170141.62145
  21837344.980   114756100.97508  21837342.420    89420348.46946
  21263295.540   111739391.15209  21263296.840    87069670.19747
 15 02 25 01 21  0.0000000  0  6G16G18G19G21G22G27
  20456458.900   107499420.90409  20456457.300    83765791.15248
  21794022.380   114528409.19308  21794021.260    89242929.34145
  23037234.380   121061490.05507  23037232.300    94333627.66645
  22766104.380   119636688.36508  22766102.980    93223388.42545
  21824157.420   114686800.09508  21824154.960    89366347.79946
  21254488.660   111693110.77409  21254489.960    87033607.57947
 15 02 25 01 21 30.0000000  0  6G16G18G19G21G22G27
  20454722.720   107490297.08009  20454721.100    83758681.67548
  21793110.580   114523618.30008  21793109.560    89239196.18245
  23023464.960   120989131.86607  23023462.860    94277244.69944
  22779129.220   119705134.56908  22779128.040    93276723.12145
  21811038.180   114617857.79708  21811035.620    89312626.53945
  21245713.320   111646995.99109  21245714.620    86997673.98847
 15 02 25 01 22  0.0000000  0  6G16G18G19G21G22G27
  20453088.340   107481708.27909  20453086.740    83751989.09748
  21792293.840   114519326.74108  21792292.840    89235852.12145
  23009714.660   120916874.27707  23009712.720    94220940.11345
  22792175.840   119773695.16208  22792174.860    93330146.94545
  21797988.060   114549278.87508  21797985.420    89259188.43245
  21236970.060   111601049.98609  21236971.440    86961871.91647
 15 02 25 01 22 30.0000000  0  6G16G18G19G21G22G27
  20451555.660   107473654.05709  20451554.100    83745713.07547
  21791571.800   114515532.56108  21791570.740    89232895.62545
  22995983.140   120844715.44307  22995981.280    94164712.49545
  22805243.560   119842366.60208  22805242.600    93383657.16045
  21785007.120   114481063.65108  21785004.500    89206033.72846
  21228258.680   111555271.47809  21228260.140    86926200.35847
 15 02 25 01 23  0.0000000  0  6G16G18G19G21G22G27
  20450124.960   107466135.85609  20450123.400    83739854.73148
  21790944.600   114512236.71808  21790943.540    89230327.44845
  22982270.800   120772656.97607  22982268.880    94108563.06044
  22818332.240   119911148.13708  22818331.220    93437253.15245
  21772096.020   114413215.15008  21772093.400    89153164.77246
  21219579.500   111509662.06609  21219580.980    86890660.56047
 15 02 25 01 23 30.0000000  0  6G16G18G19G21G22G27
  20448796.220   107459153.46909  20448794.760    83734413.90248
  21790412.240   114509438.86909  21790411.120    89228147.32246
  22968577.480   120700697.94908  22968575.360    94052491.13245
  22831441.360   119980037.45308  22831440.320    93490933.13645
  21759255.040   114345735.10808  21759252.380    89100582.92846
  21210932.520   111464221.45409  21210933.860    86855252.29147
 15 02 25 01 24  0.0000000  0  6G16G18G19G21G22G27
  20447569.820   107452708.87009  20447568.440    83729392.13648
  21789974.840   114507140.02509  21789973.720    89226356.02546
  22954903.420   120628839.91107  22954901.300    93996497.86245
  22844570.920   120049033.96408  22844569.800    93544696.64545
  21746484.760   114278626.72308  21746482.120    89048290.68846
  21202317.960   111418951.33609  21202319.160    86819976.88047
 15 02 25 01 24 30.0000000  0  6G16G18G19G21G22G27
  20446446.160   107446803.98109  20446444.860    83724790.92048
  21789632.620   114505341.78908  21789631.600    89224954.82246
  22941248.860   120557084.40108  22941246.720    93940584.49645
  22857720.820   120118137.60208  22857719.720    93598543.63445
  21733785.840   114211893.55808  21733783.260    88996290.83846
  21193736.120   111373853.69909  21193737.280    86784835.87347
 15 02 25 01 25  0.0000000  0  6G16G18G19G21G22G27
  20445425.220   107441438.81809  20445423.960    83720610.26848
  21789385.500   114504043.18508  21789384.560    89223942.92646
  22927613.700   120485430.93908  22927611.520    93884750.65045
  22870890.640   120187345.64908  22870889.660    93652471.97445
  21721158.580   114145536.58908  21721155.920    88944584.12246
  21185187.060   111328928.24309  21185188.160    86749829.03047
 15 02 25 01 25 30.0000000  0  6G16G18G19G21G22G27
  20444507.180   107436614.47809  20444505.940    83716851.04148
  21789233.540   114503244.64608  21789232.600    89223320.70246
  22913997.960   120413879.93108  22913995.700    93828996.62245
  22884080.320   120256657.41808  22884079.360    93706481.14244
  21708603.400   114079558.34408  21708600.600    88893172.52646
  21176670.900   111284175.83009  21176672.000    86714957.02047
 15 02 25 01 26  0.0000000  0  6G16G18G19G21G22G27
  20443692.260   107432332.31009  20443691.040    83713514.28548
  21789176.820   114502946.74108  21789175.860    89223088.57245
  22900401.860   120342432.11208  22900399.540    93773323.02144
  22897289.500   120326071.76208  22897288.520    93760570.23144
  21696120.840   114013961.77808  21696117.880    88842058.33146
  21168187.900   111239597.68709  21168189.060    86680220.82447
 15 02 25 01 26 30.0000000  0  6G16G18G19G21G22G27
  20442980.240   107428590.92709  20442979.040    83710598.91948
  21789215.040   114503147.74009  21789214.040    89223245.20146
  22886825.240   120271086.30808  22886822.740    93717728.89744
  22910517.600   120395585.22108  22910516.580    93814736.56345
  21683710.960   113948746.96909  21683707.820    88791241.60746
  21159737.880   111195192.70009  21159739.140    86645619.53947
 15 02 25 01 27  0.0000000  0  6G16G18G19G21G22G27
  20442371.500   107425391.92109  20442370.240    83708106.18048
  21789348.520   114503849.22208  21789347.520    89223791.82446
  22873268.360   120199844.01508  22873265.720    93662215.41844
  22923764.440   120465197.66208  22923763.480    93868979.99944
  21671374.360   113883917.63808  21671371.180    88740725.25946
  21151321.240   111150962.88509  21151322.520    86611154.75247
 15 02 25 01 27 30.0000000  0  6G16G18G19G21G22G27
  20441866.880   107422740.03609  20441865.580    83706039.77348
  21789577.840   114505054.48808  21789576.840    89224731.00945
  22859731.760   120128708.61608  22859729.020    93606785.24444
  22937030.480   120534911.09908  22937029.460    93923302.15644
  21659112.040   113819479.15008  21659108.920    88690513.46946
  21142938.640   111106912.13809  21142939.900    86576829.49347
 15 02 25 01 28  0.0000000  0  6G16G18G19G21G22G27
  20441465.800   107420632.38009  20441464.560    83704397.43648
  21789902.340   114506759.84708  21789901.400    89226059.86846
  22846214.900   120057677.22108  22846212.100    93551436.11244
  22950314.940   120604720.92208  22950313.700    93977699.41044
  21646923.860   113755430.17108  21646920.800    88640605.18446
  21134589.640   111063037.75709  21134590.860    86542641.66447
 15 02 25 01 28 30.0000000  0  7G04G16G18G19G21G22G27
  24593469.960   129239562.32106  24593471.660   100706151.49844
  20441169.600   107419075.87609  20441168.420    83703184.58048
  21790323.220   114508971.45008  21790322.280    89227783.20346
  22832719.000   119986756.36008  22832716.280    93496173.11045
  22963618.520   120674631.26508  22963617.100    94032175.01045
  21634811.400   113691779.12408  21634808.420    88591006.98446
  21126275.560   111019346.65909  21126276.700    86508596.65847
 15 02 25 01 29  0.0000000  0  7G04G16G18G19G21G22G27
  24574314.080   129138896.84906  24574315.520   100627711.04442
  20440977.260   107418065.05409  20440976.040    83702396.91448
  21790839.420   114511684.01008  21790838.420    89229896.89545
  22819243.300   119915941.23408  22819240.640    93440992.49245
  22976939.900   120744635.29808  22976938.420    94086723.59544
  21622773.940   113628522.50408  21622771.100    88541716.13246
  21117995.400   110975834.09309  21117996.520    86474690.76947
 15 02 25 01 29 30.0000000  0  7G04G16G18G19G21G22G27
  24555183.600   129038367.27706  24555185.300   100549376.51343
  20440888.120   107417596.51509  20440886.860    83702031.81748
  21791450.140   114514893.17308  21791448.940    89232397.55846
  22805786.880   119845227.47708  22805784.360    93385890.87345
  22990278.200   120814727.85708  22990276.560    94141341.16144
  21610811.180   113565658.00209  21610808.380    88492730.81246
  21109748.460   110932496.30509  21109749.620    86440921.06547
 15 02 25 01 30  0.0000000  0  7G04G16G18G19G21G22G27
  24536080.080   128937978.91806  24536081.720   100471151.96343
  20440903.080   107417675.08809  20440901.780    83702093.03848
  21792156.100   114518603.14908  21792154.880    89235288.46545
  22792350.600   119774619.63808  22792348.220    93330871.78845
  23003633.920   120884911.61208  23003632.080    94196029.77744
  21598924.280   113503192.25509  21598921.580    88444056.22046
  21101535.740   110889338.30409  21101536.920    86407291.45647
 15 02 25 01 30 30.0000000  0  7G04G16G18G19G21G22G27
  24517003.560   128837732.53406  24517005.400   100393038.00542
  20441022.200   107418301.11009  20441020.920    83702580.84248
  21792957.220   114522813.49408  21792956.080    89238569.24946
  22778934.520   119704118.02708  22778932.300    93275935.47245
  23017006.560   120955184.72608  23017004.680    94250788.03744
  21587113.600   113441126.92308  21587110.840    88395693.63146
  21093357.340   110846360.63709  21093358.480    86373802.37247
 15 02 25 01 31  0.0000000  0  7G04G16G18G19G21G22G27
  24497954.620   128737630.18606  24497956.500   100315036.32242
  20441245.820   107419476.12009  20441244.520    83703496.43048
  21793853.740   114527525.11708  21793852.680    89242240.65246
  22765538.940   119633724.06308  22765536.740    93221083.04145
  23030396.040   121025546.83408  23030394.140    94305615.65244
  21575379.780   113379465.36409  21575376.920    88347645.67846
  21085213.560   110803565.06809  21085214.640    86340455.17947
 15 02 25 01 31 30.0000000  0  7G04G16G18G19G21G22G27
  24478933.340   128637672.71906  24478935.280   100237147.54943
  20441573.960   107421200.61809  20441572.680    83704840.18848
  21794845.700   114532737.86008  21794844.680    89246302.52546
  22752163.900   119563438.27107  22752161.660    93166314.90745
  23043802.060   121095996.55408  23043800.300    94360511.52345
  21563723.140   113318209.53308  21563720.240    88299913.87246
  21077104.560   110760952.30609  21077105.700    86307250.43647
 15 02 25 01 32  0.0000000  0  7G04G16G18G19G21G22G27
  24459939.800   128537860.19906  24459941.660   100159371.68043
  20442006.500   107423473.73909  20442005.240    83706611.44548
  21795932.860   114538450.66408  21795931.840    89250754.08546
  22738809.340   119493259.85807  22738807.120    93111630.44045
  23057224.260   121166531.23808  23057222.660    94415473.61545
  21552143.860   113257360.20608  21552140.980    88252498.82047
  21069030.320   110718522.04609  21069031.560    86274187.90448
 15 02 25 01 32 30.0000000  0  7G04G16G18G19G21G22G27
  24440974.260   128438195.94306  24440976.080   100081711.41544
  20442544.000   107426298.43909  20442542.780    83708812.50448
  21797115.480   114544665.34808  21797114.480    89255596.69246
  22725475.680   119423191.23507  22725473.640    93057031.54245
  23070662.880   121237152.19608  23070661.340    94470502.92444
  21540642.720   113196921.72008  21540639.860    88205403.90246
  21060991.440   110676277.27309  21060992.700    86241269.90347
 15 02 25 01 33  0.0000000  0  7G04G16G18G19G21G22G27
  24422036.900   128338680.19306  24422038.700   100004166.79643
  20443186.460   107429674.52609  20443185.260    83711443.21548
  21798393.500   114551381.17508  21798392.440    89260829.81145
  22712163.020   119353232.26208  22712160.940    93002518.05845
  23084117.420   121307856.89307  23084115.920    94525597.49644
  21529220.020   113136895.47808  21529217.260    88158630.22546
  21052987.860   110634217.95909  21052989.160    86208496.42347
 15 02 25 01 33 30.0000000  0  7G04G16G18G19G21G22G27
  24403127.600   128239313.16105  24403129.800    99926738.07943
  20443933.860   107433601.98909  20443932.580    83714503.57048
  21799766.760   114558597.45308  21799765.620    89266452.89046
  22698871.260   119283382.70608  22698869.080    92948089.83745
  23097587.700   121378643.81607  23097586.240    94580756.10644
  21517876.100   113077282.83608  21517873.360    88112178.81246
  21045019.600   110592344.36209  21045020.900    86175867.66148
 15 02 25 01 34  0.0000000  0  7G04G16G18G19G21G22G27
  24384247.380   128140098.56905  24384249.780    99849428.07541
  20444786.700   107438083.42309  20444785.380    83717995.58448
  21801235.620   114566316.39408  21801234.440    89272467.66346
  22685600.820   119213645.58207  22685598.580    92893749.23145
  23111073.720   121449513.56607  23111072.260    94635979.27744
  21506611.780   113018088.41408  21506609.040    88066053.30946
  21037087.300   110550659.69909  21037088.580    86143386.11448
 15 02 25 01 34 30.0000000  0  7G04G16G18G19G21G22G27
  24365395.560   128041033.35006  24365398.100    99772234.53443
  20445744.240   107443115.44309  20445742.960    83721916.63448
  21802799.340   114574534.05808  21802798.260    89278871.04446
  22672350.980   119144017.40308  22672348.780    92839493.51745
  23124574.560   121520461.42607  23124573.180    94691263.30844
  21495426.660   112959310.18809  21495423.880    88020252.10646
  21029190.380   110509160.84509  21029191.600    86111049.34648
 15 02 25 01 35  0.0000000  0  7G04G16G18G19G21G22G27
  24346572.980   127942120.78306  24346575.720    99695159.90444
  20446807.020   107448700.48409  20446805.820    83726268.61048
  21804458.220   114583251.79608  21804457.240    89285664.09546
  22659122.420   119074500.69308  22659120.120    92785324.66345
  23138090.280   121591487.42207  23138089.040    94746608.22544
  21484321.640   112900952.11609  21484318.640    87974778.28746
  21021329.320   110467850.50909  21021330.500    86078859.48247
 15 02 25 01 35 30.0000000  0  7G04G16G18G19G21G22G27
  24327779.600   127843360.78706  24327782.200    99618204.15443
  20447974.960   107454837.92409  20447973.720    83731051.02348
  21806212.100   114592468.82408  21806211.180    89292846.19346
  22645914.880   119005094.93008  22645912.540    92731242.26645
  23151620.520   121662590.23207  23151619.420    94802013.02344
  21473296.720   112843015.50508  21473293.720    87929632.89046
  21013504.140   110426728.81909  21013505.320    86046816.60748
 15 02 25 01 36  0.0000000  0  7G04G16G18G19G21G22G27
  24309015.740   127744755.35606  24309017.980    99541368.90143
  20449248.200   107461528.65309  20449246.900    83736264.56848
  21808061.020   114602185.44708  21808060.160    89300417.59646
  22632728.640   118935801.03208  22632726.220    92677247.01245
  23165165.220   121733769.07607  23165164.040    94857477.03245
  21462352.420   112785502.51209  21462349.400    87884817.58246
  21005715.060   110385797.31309  21005716.340    86014921.94348
 15 02 25 01 36 30.0000000  0  7G04G16G18G19G21G22G27
  24290281.340   127646304.60306  24290283.040    99464654.10841
  20450626.820   107468773.17409  20450625.460    83741909.64348
  21810004.900   114612400.63208  21810004.040    89308377.48846
  22619563.780   118866619.23108  22619561.380    92623339.10745
  23178724.120   121805021.94907  23178722.900    94912998.75644
  21451489.200   112728415.25409  21451486.080    87840334.00847
  20997962.200   110345056.08209  20997963.520    85983175.52848
 15 02 25 01 37  0.0000000  0  7G04G16G18G19G21G22G27
  24271576.680   127548011.05406  24271577.980    99388061.79643
  20452111.040   107476572.77709  20452109.700    83747987.24948
  21812043.920   114623115.70208  21812043.040    89316726.89945
  22606420.680   118797551.39808  22606418.180    92569520.01145
  23192297.200   121876348.95607  23192295.900    94968578.23345
  21440707.440   112671756.68109  21440704.320    87796184.48546
  20990246.080   110304507.52209  20990247.340    85951579.24348
 15 02 25 01 37 30.0000000  0  7G04G16G18G19G21G22G27
  24252902.080   127449876.36906  24252903.660    99311593.35443
  20453701.120   107484928.49909  20453699.800    83754498.19348
  21814178.160   114634331.32708  21814177.260    89325466.35446
  22593299.560   118728598.86608  22593296.980    92515790.77245
  23205884.360   121947749.59007  23205883.100    95024215.06745
  21430007.800   112615529.73009  21430004.760    87752371.29146
  20982566.900   110264153.20009  20982568.180    85920134.32548
 15 02 25 01 38  0.0000000  0  7G04G16G18G19G21G22G27
  24234257.440   127351898.16406  24234258.860    99235246.76443
  20455396.300   107493836.83009  20455395.020    83761439.74148
  21816406.820   114646043.08808  21816405.880    89334592.39546
  22580199.820   118659758.58008  22580197.100    92462148.99045
  23219484.660   122019219.03907  23219483.380    95079905.53144
  21419389.980   112559732.62809  21419386.940    87708893.04047
  20974924.160   110223990.33609  20974925.380    85888838.59548
 15 02 25 01 38 30.0000000  0  7G04G16G18G19G21G22G27
  24215643.480   127254079.58906  24215644.300    99159024.57542
  20457197.100   107503300.24709  20457195.860    83768813.82748
  21818730.300   114658253.08908  21818729.400    89344106.68246
  22567121.880   118591033.07108  22567118.980    92408596.65145
  23233098.280   122090758.13407  23233096.880    95135650.26744
  21408854.620   112504369.45809  21408851.640    87665752.92847
  20967318.460   110184022.00709  20967319.640    85857694.45148
 15 02 25 01 39  0.0000000  0  7G04G16G18G19G21G22G27
  24197060.040   127156423.26006  24197061.260    99082928.83743
  20459104.020   107513321.34009  20459102.820    83776622.46448
  21821148.820   114670962.61308  21821147.960    89354010.21746
  22554066.100   118522424.55008  22554063.200    92355135.48245
  23246725.200   122162367.71107  23246723.700    95191449.92844
  21398402.540   112449443.57209  21398399.600    87622953.53446
  20959750.220   110144250.89009  20959751.520    85826703.97648
 15 02 25 01 39 30.0000000  0  7G04G16G18G19G21G22G27
  24178507.700   127058930.30506  24178509.160    99006960.38943
  20461117.020   107523899.81309  20461115.860    83784865.42848
  21823662.360   114684171.17908  21823661.440    89364302.60046
  22541032.520   118453933.43608  22541029.640    92301765.77145
  23260365.160   122234045.99807  23260363.640    95247303.13444
  21388034.120   112394957.21009  21388031.200    87580496.64947
  20952219.700   110104677.70909  20952221.100    85795867.73148
 15 02 25 01 40  0.0000000  0  7G04G16G18G19G21G22G27
  24159986.480   126961601.74506  24159988.200    98931120.00441
  20463236.240   107535036.18709  20463235.100    83793543.10848
  21826270.920   114697878.72908  21826269.920    89374983.82246
  22528021.520   118385560.64508  22528018.620    92248488.26845
  23274018.100   122305792.29607  23274016.640    95303209.33844
  21377749.660   112340912.52009  21377746.800    87538383.91447
  20944727.080   110065303.52509  20944728.460    85765186.55348
 15 02 25 01 40 30.0000000  0  7G04G16G18G19G21G22G27
  24141495.960   126864434.85206  24141497.840    98855405.64043
  20465460.920   107546726.64609  20465459.700    83802652.55348
  21828973.560   114712081.26908  21828972.620    89386050.73845
  22515032.420   118317302.73708  22515029.560    92195300.30445
  23287683.120   122377601.86407  23287681.680    95359164.83644
  21367549.020   112287307.39609  21367546.080    87496613.69147
  20937271.780   110026125.74109  20937273.060    85734658.41548
 15 02 25 01 41  0.0000000  0  7G04G16G18G19G21G22G27
  24123037.300   126767434.79606  24123039.140    98779821.22143
  20467791.920   107558975.71109  20467790.620    83812197.26848
  21831771.020   114726782.41508  21831770.180    89397506.17946
  22502066.040   118249164.82608  22502063.360    92142205.85045
  23301360.640   122449477.61407  23301359.280    95415171.89344
  21357433.180   112234148.15109  21357430.220    87455190.91547
  20929854.780   109987149.24809  20929855.960    85704287.11048
 15 02 25 01 41 30.0000000  0  7G04G16G18G19G21G22G27
  24104609.880   126670598.93506  24104611.860    98704364.78743
  20470228.440   107571779.53109  20470227.100    83822174.26748
  21834662.620   114741977.95908  21834661.780    89409346.86345
  22489121.880   118181143.74407  22489119.480    92089202.43845
  23315049.780   122521414.31007  23315048.460    95471226.44944
  21347401.620   112181432.42309  21347398.780    87414113.73546
  20922475.540   109948371.27709  20922476.680    85674070.51547
 15 02 25 01 42  0.0000000  0  7G04G16G18G19G21G22G27
  24086215.420   126573934.98106  24086217.020    98629042.23141
  20472771.960   107585145.75909  20472770.660    83832589.50548
  21837649.500   114757674.27508  21837648.620    89421577.76245
  22476201.280   118113246.55707  22476199.140    92036295.56445
  23328751.680   122593417.89207  23328750.320    95527333.13644
  21337456.280   112129169.06708  21337453.420    87373389.04846
  20915135.540   109909799.44509  20915136.680    85644014.55147
 15 02 25 01 42 30.0000000  0  7G04G16G18G19G21G22G27
  24067851.700   126477432.47106  24067852.840    98553845.54442
  20475420.240   107599062.51209  20475418.960    83843433.72048
  21840729.380   114773859.39008  21840728.460    89434189.54846
  22463302.400   118045462.39608  22463300.360    91983476.75645
  23342463.760   122665475.51307  23342462.540    95583481.91444
  21327595.140   112077348.47108  21327592.320    87333009.38347
  20907832.820   109871423.29009  20907833.960    85614111.06248
 15 02 25 01 43  0.0000000  0  7G04G16G18G19G21G22G27
  24049520.300   126381099.97506  24049520.960    98478781.28143
  20478174.720   107613537.38309  20478173.440    83854712.83348
  21843903.620   114790540.18608  21843902.660    89447187.57545
  22450426.740   117977799.66308  22450424.600    91930752.56645
  23356187.400   122737593.76307  23356186.160    95639677.95644
  21317819.980   112025979.88909  21317817.260    87292981.93447
  20900568.960   109833251.39609  20900570.120    85584366.74048
 15 02 25 01 43 30.0000000  0  7G04G16G18G19G21G22G27
  24031221.320   126284938.77406  24031221.880    98403850.55243
  20481035.540   107628571.26509  20481034.260    83866427.53748
  21847172.200   114807716.75608  21847171.260    89460571.91345
  22437574.340   117910259.43208  22437572.080    91878123.81545
  23369922.420   122809771.94307  23369921.320    95695920.67944
  21308131.440   111975066.09508  21308128.640    87253308.84747
  20893344.160   109795285.09709  20893345.360    85554782.61148
 15 02 25 01 44  0.0000000  0  7G04G16G18G19G21G22G27
  24012954.820   126188948.98806  24012955.940    98329053.40143
  20484002.560   107644163.10509  20484001.320    83878577.01748
  21850534.780   114825387.20408  21850533.900    89474341.09645
  22424745.020   117842840.84008  22424742.700    91825589.85645
  23383668.340   122882007.63107  23383667.380    95752208.22544
  21298529.400   111924607.29408  21298526.580    87213990.32147
  20886158.400   109757524.24109  20886159.660    85525358.57848
 15 02 25 01 44 30.0000000  0  7G04G16G18G19G21G22G27
  23994721.320   126093132.57606  23994722.980    98254391.30343
  20487075.980   107660313.87309  20487074.700    83891162.01948
  21853991.600   114843552.50308  21853990.660    89488495.88745
  22411939.160   117775545.89408  22411936.800    91773152.27445
  23397425.240   122954301.10207  23397424.340    95808540.78744
  21289014.540   111874606.57009  21289011.760    87175028.72447
  20879012.220   109719970.92209  20879013.520    85496096.25348
 15 02 25 01 45  0.0000000  0  7G04G16G18G19G21G22G27
  23976520.160   125997485.50206  23976522.060    98179861.18343
  20490254.700   107677018.21709  20490253.400    83904178.38748
  21857541.560   114862207.22708  21857540.500    89503032.04645
  22399156.120   117708370.29708  22399153.660    91720807.67646
  23411192.020   123026646.16307  23411191.080    95864913.55644
  21279586.280   111825060.48509  21279583.460    87136421.39747
  20871904.840   109682621.17509  20871906.120    85466992.54848
 15 02 25 01 45 30.0000000  0  7G04G16G18G19G21G22G27
  23958352.160   125902011.83406  23958354.140    98105466.15243
  20493539.440   107694279.74509  20493538.140    83917628.92148
  21861185.080   114881353.53908  21861183.860    89517951.25445
  22386396.500   117641317.69008  22386394.060    91668558.90546
  23424969.140   123099045.08107  23424967.980    95921328.27744
  21270245.380   111775974.12309  21270242.560    87098172.30147
  20864837.020   109645479.12809  20864838.260    85438050.68848
 15 02 25 01 46  0.0000000  0  7G04G16G18G19G21G22G27
  23940217.720   125806713.90906  23940219.500    98031208.11543
  20496930.540   107712099.92209  20496929.260    83931514.76448
  21864922.180   114900992.02708  21864920.980    89533253.97646
  22373660.600   117574389.81808  22373658.220    91616407.32546
  23438756.360   123171497.55907  23438755.060    95977784.77144
  21260992.520   111727350.08909  21260989.680    87060283.44947
  20857809.040   109608546.84409  20857810.280    85409272.29748
 15 02 25 01 46 30.0000000  0  7G04G16G18G19G21G22G27
  23922116.880   125711592.24407  23922118.480    97957087.39043
  20500427.760   107730477.93709  20500426.540    83945835.29148
  21868752.800   114921122.31008  21868751.600    89548939.91546
  22360948.560   117507587.48408  22360946.240    91564353.58946
  23452553.460   123244002.60207  23452552.300    96034282.18544
  21251828.040   111679190.05409  21251825.100    87022756.15747
  20850821.140   109571825.22609  20850822.360    85380658.05148
 15 02 25 01 47  0.0000000  0  7G04G16G18G19G21G22G27
  23904049.580   125616647.28807  23904050.860    97883104.32844
  20504031.000   107749412.99109  20504029.760    83960589.86648
  21872676.620   114941742.63608  21872675.480    89565007.69945
  22348260.260   117440910.21708  22348257.960    91512397.30646
  23466360.220   123316557.99407  23466359.140    96090818.81144
  21242751.960   111631495.13909  21242749.020    86985591.29947
  20843873.380   109535314.38309  20843874.520    85352208.04348
 15 02 25 01 47 30.0000000  0  7G04G16G18G19G21G22G27
  23886016.140   125521880.99706  23886017.040    97809260.48543
  20507740.500   107768906.53209  20507739.200    83975779.63648
  21876693.820   114962853.47408  21876692.840    89581457.70146
  22335596.220   117374360.07008  22335593.820    91460540.07046
  23480176.700   123389164.05707  23480175.740    96147394.97344
  21233764.940   111584268.05409  21233761.980    86948790.97947
  20836966.140   109499016.57809  20836967.300    85323924.04248
 15 02 25 01 48  0.0000000  0  7G04G16G18G19G21G22G27
  23868016.560   125427293.04906  23868017.360    97735555.66544
  20511555.980   107788956.87309  20511554.580    83991403.26648
  21880804.120   114984453.07308  21880803.240    89598288.55745
  22322956.140   117307936.10108  22322953.720    91408781.14646
  23494002.320   123461818.19107  23494001.360    96204008.58844
  21224866.920   111537509.04309  21224864.080    86912355.40247
  20830099.420   109462931.43509  20830100.600    85295805.75248
 15 02 25 01 48 30.0000000  0  7G04G16G18G19G21G22G27
  23850050.920   125332883.42806  23850051.600    97661989.82044
  20515477.200   107809563.12109  20515475.820    84007460.07848
  21885007.180   115006539.92408  21885006.240    89615499.09446
  22310340.120   117241638.36308  22310337.680    91357120.58146
  23507836.920   123534519.09007  23507835.960    96260658.62044
  21216058.080   111491218.77309  21216055.420    86876285.08047
  20823273.160   109427059.09909  20823274.400    85267853.28148
 15 02 25 01 49  0.0000000  0  7G04G16G18G19G21G22G27
  23832119.680   125238654.62506  23832120.380    97588564.82444
  20519504.380   107830726.27309  20519503.100    84023950.83848
  21889303.080   115029114.68708  21889302.040    89633089.82745
  22297748.540   117175469.14508  22297746.160    91305560.16646
  23521680.540   123607266.91307  23521679.400    96317345.23644
  21207339.220   111445400.86509  21207336.560    86840582.81046
  20816487.900   109391402.19609  20816489.140    85240068.68348
 15 02 25 01 49 30.0000000  0  7G04G16G18G19G21G22G27
  23814222.740   125144605.97806  23814223.660    97515280.25243
  20523637.240   107852444.58609  20523636.000    84040874.18748
  21893691.300   115052174.95408  21893690.180    89651058.86645
  22285181.060   117109427.08108  22285178.740    91254098.83645
  23535532.620   123680058.93407  23535531.320    96374066.27044
  21198710.180   111400054.78809  21198707.400    86805248.21347
  20809743.460   109355959.95609  20809744.700    85212451.35448
 15 02 25 01 50  0.0000000  0  7G04G16G18G19G21G22G27
  23796360.900   125050742.12706  23796361.960    97442139.64243
  20527876.580   107874722.42309  20527875.360    84058233.53848
  21898172.540   115075724.12908  21898171.340    89669408.87746
  22272638.640   117043517.09108  22272636.420    91202740.40846
  23549393.580   123752897.99307  23549391.960    96430823.95244
  21190172.000   111355186.32809  21190169.100    86770285.78747
  20803040.800   109320737.40609  20803042.100    85185005.21948
 15 02 25 01 50 30.0000000  0  7G04G16G18G19G21G22G27
  23778534.100   124957063.03206  23778535.380    97369142.98443
  20532222.020   107897557.99809  20532220.820    84076027.48548
  21902746.480   115099760.31208  21902745.280    89688138.37646
  22260121.260   116977738.64308  22260119.100    91151484.49746
  23563262.960   123825782.13207  23563260.900    96487616.75544
  21181724.840   111310795.83709  21181721.820    86735695.80547
  20796380.000   109285734.49209  20796381.340    85157730.22148
 15 02 25 01 51  0.0000000  0  7G04G16G18G19G21G22G27
  23760741.960   124863565.88006  23760743.320    97296288.10943
  20536672.760   107920946.91109  20536671.620    84094252.60548
  21907412.120   115124278.65208  21907410.940    89707243.57846
  22247628.380   116912088.64108  22247626.260    91100328.66246
  23577140.020   123898706.46107  23577137.560    96544440.90843
  21173368.160   111266880.99009  21173365.100    86701476.45447
  20789760.420   109250948.35109  20789761.780    85130624.14748
 15 02 25 01 51 30.0000000  0  7G04G16G18G19G21G22G27
  23742985.120   124770254.35706  23742986.640    97223577.87443
  20541229.380   107944892.11009  20541228.260    84112911.19848
  21912169.960   115149281.14408  21912168.760    89726726.04045
  22235160.760   116846570.69308  22235158.560    91049275.71546
  23591025.020   123971672.60507  23591022.340    96601297.64143
  21165102.840   111223446.32009  21165099.740    86667631.26246
  20783182.820   109216382.94309  20783184.140    85103690.06948
 15 02 25 01 52  0.0000000  0  7G04G16G18G19G21G22G27
  23725263.680   124677128.81206  23725265.440    97151012.57644
  20545891.800   107969393.19009  20545890.640    84132002.93948
  21917019.760   115174766.89208  21917018.540    89746585.06645
  22222718.340   116781185.14208  22222716.180    90998325.94046
  23604917.800   124044679.51207  23604915.260    96658186.12444
  21156929.100   111180492.79509  21156925.960    86634160.98347
  20776647.360   109182038.82209  20776648.620    85076928.41048
 15 02 25 01 52 30.0000000  0  7G04G16G18G19G21G22G27
  23707577.900   124584190.22006  23707579.780    97078592.97144
  20550659.900   107994449.59409  20550658.640    84151527.40148
  21921961.400   115200735.07008  21921960.040    89766820.01845
  22210301.180   116715932.75508  22210299.100    90947479.93845
  23618818.080   124117726.08707  23618815.820    96715105.49444
  21148847.120   111138021.88509  21148844.100    86601066.78847
  20770154.220   109147917.13309  20770155.420    85050340.07548
 15 02 25 01 53  0.0000000  0  7G04G16G18G19G21G22G27
  23689927.360   124491435.80906  23689929.260    97006316.81343
  20555532.880   108020056.97209  20555531.480    84171481.18548
  21926993.940   115227181.05708  21926992.540    89787427.28245
  22197908.860   116650810.39308  22197906.700    90896735.26646
  23632725.060   124190807.57107  23632722.940    96772052.08444
  21140856.580   111096031.62409  21140853.640    86568347.10847
  20763702.880   109114015.21509  20763704.060    85023922.99848
 15 02 25 01 53 30.0000000  0  7G04G16G18G19G21G22G27
  23672313.080   124398871.28906  23672314.520    96934188.66941
  20560511.620   108046220.11209  20560510.180    84191868.04548
  21932118.020   115254108.28708  21932116.560    89808409.54845
  22185542.380   116585823.64408  22185540.000    90846096.26445
  23646639.500   124263927.84007  23646637.320    96829028.95444
  21132958.640   111054527.94709  21132955.780    86536006.58947
  20757294.480   109080338.80609  20757295.640    84997681.64948
 15 02 25 01 54  0.0000000  0  7G04G16G18G19G21G22G27
  23654734.720   124306495.39006  23654736.040    96862207.51343
  20565595.500   108072936.06009  20565594.120    84212685.66648
  21937333.240   115281514.41308  21937331.740    89829764.96945
  22173201.400   116520971.08308  22173198.880    90795561.80946
  23660560.640   124337083.63507  23660558.440    96886033.45143
  21125153.180   111013510.44909  21125150.400    86504044.90447
  20750928.760   109046886.86409  20750929.880    84971615.20248
 15 02 25 01 54 30.0000000  0  7G04G16G18G19G21G22G27
  23637192.920   124214312.58506  23637194.180    96790376.79943
  20570785.220   108100208.46509  20570783.940    84233936.87848
  21942640.020   115309401.82508  21942638.540    89851495.42045
  22160886.620   116456257.15808  22160884.120    90745135.39346
  23674488.920   124410277.69006  23674486.800    96943067.71643
  21117441.220   110972983.76709  21117438.460    86472465.67847
  20744606.660   109013664.14309  20744607.720    84945727.37048
 15 02 25 01 55  0.0000000  0  7G04G16G18G19G21G22G27
  23619687.620   124122321.65006  23619688.860    96718695.57541
  20576080.280   108128034.62609  20576079.120    84255619.59548
  21948037.900   115337767.91808  21948036.420    89873598.87345
  22148597.960   116391680.61308  22148595.580    90694816.01945
  23688423.800   124483506.90906  23688422.000    97000129.43344
  21109822.620   110932947.67509  21109819.860    86441268.73347
  20738327.920   108980669.53109  20738329.060    84920017.28848
 15 02 25 01 55 30.0000000  0  7G04G16G18G19G21G22G27
  23602218.600   124030521.38307  23602219.740    96647162.90743
  20581480.380   108156412.48009  20581479.240    84277732.19848
  21953526.240   115366609.62608  21953524.880    89896072.93345
  22136335.320   116327240.16008  22136332.900    90644602.69345
  23702364.980   124556768.55407  23702363.320    97057216.43144
  21102297.240   110893401.38209  21102294.480    86410453.45647
  20732092.460   108947902.23809  20732093.700    84894484.33348
 15 02 25 01 56  0.0000000  0  7G04G16G18G19G21G22G27
  23584786.200   123938913.38707  23584787.220    96575780.08243
  20586985.460   108185341.88409  20586984.360    84300274.58648
  21959105.120   115395926.64108  21959103.760    89918917.36045
  22124098.940   116262937.18908  22124096.320    90594496.48246
  23716312.220   124630062.07106  23716310.580    97114328.25243
  21094865.360   110854346.87509  21094862.640    86380021.36847
  20725900.600   108915363.87009  20725901.940    84869129.76548
 15 02 25 01 56 30.0000000  0  7G04G16G18G19G21G22G27
  23567391.000   123847501.00707  23567392.000    96504549.69543
  20592595.940   108214824.87409  20592594.780    84323248.33948
  21964774.560   115425719.95408  21964773.180    89942132.92945
  22111889.380   116198774.84508  22111886.480    90544499.84545
  23730265.760   124703389.36406  23730264.340    97171466.36844
  21087527.800   110815788.14909  21087525.120    86349975.62947
  20719753.060   108883058.09809  20719754.420    84843956.44248
 15 02 25 01 57  0.0000000  0  7G04G16G18G19G21G22G27
  23550032.820   123756283.68306  23550033.820    96433471.28843
  20598311.420   108244859.67209  20598310.180    84346652.06947
  21970534.280   115455987.58408  21970532.900    89965718.10845
  22099706.460   116134752.56208  22099703.320    90494612.35746
  23744225.340   124776748.15406  23744224.240    97228629.06344
  21080284.640   110777725.13409  21080281.840    86320316.13847
  20713649.720   108850984.62009  20713651.020    84818964.12148
 15 02 25 01 57 30.0000000  0  7G04G16G18G19G21G22G27
  23532711.100   123665257.34107  23532711.980    96362541.72044
  20604130.820   108275440.74909  20604129.540    84370481.46448
  21976383.280   115486724.23408  21976381.940    89989668.74645
  22087549.360   116070866.39408  22087546.240    90444830.94046
  23758189.900   124850132.42507  23758189.200    97285811.59244
  21073135.180   110740154.21309  21073132.200    86291040.10247
  20707589.840   108819139.69909  20707591.140    84794149.89748
 15 02 25 01 58  0.0000000  0  7G04G16G18G19G21G22G27
  23515427.060   123574428.45407  23515427.640    96291765.97244
  20610055.060   108306572.93009  20610053.800    84394740.30448
  21982322.260   115517934.00008  21982320.980    90013988.04245
  22075419.420   116007122.96408  22075416.400    90395160.72846
  23772160.360   124923546.89207  23772159.820    97343017.66144
  21066080.640   110703082.06609  21066077.560    86262152.71547
  20701574.740   108787529.92509  20701576.000    84769518.90648
 15 02 25 01 58 30.0000000  0  7G04G16G18G19G21G22G27
  23498180.640   123483797.19907  23498181.120    96221144.26543
  20616084.000   108338255.23909  20616082.760    84419427.80947
  21988350.940   115549615.17508  21988349.680    90038674.68445
  22063316.560   115943521.90508  22063313.660    90345601.47646
  23786136.180   124996990.10606  23786135.660    97400246.09543
  21059121.220   110666509.84409  21059118.080    86233654.89246
  20695604.480   108756155.74709  20695605.700    84745071.49348
 15 02 25 01 59  0.0000000  0  7G04G16G18G19G21G22G27
  23480972.040   123393364.63807  23480972.540    96150677.34444
  20622217.600   108370487.26209  20622216.300    84444543.65747
  21994469.200   115581767.23408  21994467.960    90063728.23345
  22051240.940   115880064.30708  22051238.180    90296153.99945
  23800117.100   125070461.22706  23800116.560    97457496.29743
  21052257.040   110630438.45309  21052253.860    86205547.32547
  20689679.300   108725018.42709  20689680.460    84720808.64648
 15 02 25 01 59 30.0000000  0  7G04G16G18G19G21G22G27
  23463801.060   123303130.01507  23463801.520    96080364.70343
  20628455.420   108403267.10609  20628454.080    84470086.38147
  22000676.520   115614387.03108  22000675.260    90089146.26045
  22039192.560   115816749.80308  22039189.900    90246818.03046
  23814102.980   125143958.26906  23814102.200    97514766.69743
  21045488.180   110594867.99809  21045484.980    86177830.09347
  20683799.080   108694117.77209  20683800.220    84696730.21248
 15 02 25 02 00  0.0000000  0  7G04G16G18G19G21G22G27
  23446667.840   123213094.46207  23446668.400    96010207.17643
  20634797.320   108436594.06609  20634795.980    84496055.43247
  22006972.780   115647473.94108  22006971.440    90114928.26645
  22027171.540   115753579.27308  22027168.960    90197594.25746
  23828093.720   125217479.84607  23828092.580    97572056.22543
  21038814.940   110559799.75609  21038811.700    86150504.19947
  20677964.080   108663454.89809  20677965.280    84672837.07248
 15 02 25 02 00 30.0000000  0  7G04G16G18G19G21G22G27
  23429572.780   123123260.14807  23429573.460    95940206.43143
  20641243.520   108470468.94409  20641242.220    84522451.44147
  22013357.960   115681028.22708  22013356.640    90141074.46345
  22015178.360   115690554.85308  22015175.800    90148484.34046
  23842089.520   125291027.07907  23842088.100    97629365.75543
  21032237.740   110525236.36109  21032234.480    86123571.68547
  20672174.780   108633032.45509  20672176.060    84649131.28448
 15 02 25 02 01  0.0000000  0  8G04G07G16G18G19G21G22G27
  23412516.040   123033627.18607  23412516.780    95870362.57943
  24511780.820   128810277.72005  24511778.600   100371638.11641
  20647793.660   108504890.02009  20647792.400    84549273.04448
  22019831.780   115715048.25508  22019830.440    90167583.57045
  22003213.060   115627676.64808  22003210.560    90099488.34846
  23856089.940   125364598.28506  23856088.320    97686693.93344
  21025756.640   110491177.85109  21025753.380    86097032.59847
  20666431.320   108602850.70709  20666432.600    84625613.03948
 15 02 25 02 01 30.0000000  0  8G04G07G16G18G19G21G22G27
  23395496.840   122944192.24007  23395497.780    95800673.04343
  24510633.160   128804247.66405  24510631.660   100366939.38341
  20654446.880   108539852.76409  20654445.560    84576516.73547
  22026393.200   115749528.74208  22026391.880    90194451.48145
  21991275.020   115564941.64108  21991272.580    90050603.93946
  23870093.840   125438188.20106  23870092.140    97744036.66343
  21019371.100   110457621.80609  21019367.840    86070885.03947
  20660733.080   108572906.58809  20660734.400    84602279.96348
 15 02 25 02 02  0.0000000  0  8G04G07G16G18G19G21G22G27
  23378516.960   122854963.37707  23378518.080    95731144.08843
  24509584.940   128798739.81905  24509584.040   100362647.57842
  20661204.440   108575364.21309  20661203.180    84604187.97547
  22033043.340   115784475.68208  22033042.080    90221682.85745
  21979365.640   115502357.87308  21979363.320    90001837.37346
  23884102.580   125511803.82806  23884100.740    97801399.45244
  21013082.880   110424576.92909  21013079.640    86045135.78847
  20655081.820   108543208.89509  20655083.120    84579138.90048
 15 02 25 02 02 30.0000000  0  8G04G07G16G18G19G21G22G27
  23361576.000   122765939.01107  23361577.300    95661774.49144
  24508635.420   128793750.99904  24508634.660   100358760.21943
  20668065.740   108611420.58309  20668064.500    84632283.84547
  22039781.680   115819885.87108  22039780.380    90249275.21645
  21967484.720   115439923.61908  21967482.500    89953187.32846
  23898115.500   125585441.52907  23898113.580    97858779.45443
  21006891.600   110392041.21009  21006888.360    86019783.28847
  20649477.120   108513755.92209  20649478.400    84556188.52948
 15 02 25 02 03  0.0000000  0  8G04G07G16G18G19G21G22G27
  23344673.720   122677117.13007  23344675.140    95592562.67043
  24507784.120   128789278.59804  24507783.540   100355275.25241
  20675030.080   108648018.62009  20675028.900    84660801.77647
  22046607.460   115855755.48508  22046606.160    90277225.56545
  21955631.900   115377637.07308  21955629.740    89904652.37846
  23912131.960   125659098.00607  23912130.080    97916174.15041
  21000796.940   110360013.77609  21000793.820    85994826.85047
  20643918.780   108484546.46909  20643920.020    84533427.91048
 15 02 25 02 03 30.0000000  0  8G04G07G16G18G19G21G22G27
  23327810.720   122588501.43307  23327812.180    95523511.51242
  24507031.500   128785324.31804  24507031.300   100352193.98843
  20682097.900   108685160.43809  20682096.820    84689743.45147
  22053520.840   115892085.63108  22053519.540    90305534.76545
  21943807.940   115315502.15208  21943805.860    89856235.57246
  23926152.300   125732775.05107  23926150.260    97973584.86243
  20994799.700   110328498.21409  20994796.680    85970269.28047
  20638407.480   108455584.26609  20638408.720    84510859.97248
 15 02 25 02 04  0.0000000  0  8G04G07G16G18G19G21G22G27
  23310986.800   122500090.91107  23310988.260    95454620.23344
  24506377.320   128781886.24005  24506377.000   100349514.94642
  20689268.680   108722843.28909  20689267.640    84719106.70347
  22060521.380   115928873.82508  22060520.160    90334200.88445
  21932012.660   115253517.82608  21932010.640    89807936.10146
  23940176.020   125806470.36706  23940173.960    98031009.74343
  20988899.720   110297493.81509  20988896.760    85946110.02247
  20632943.140   108426868.78709  20632944.340    84488484.27648
 15 02 25 02 04 30.0000000  0  8G04G07G16G18G19G21G22G27
  23294202.080   122411887.01107  23294203.620    95385889.96543
  24505821.400   128778964.23505  24505821.080   100347238.02641
  20696542.400   108761066.75909  20696541.320    84748891.20847
  22067608.940   115966119.28508  22067607.760    90363223.32145
  21920246.360   115191685.59408  21920244.260    89759755.14546
  23954203.100   125880183.90906  23954201.320    98088448.79443
  20983097.240   110267001.93109  20983094.300    85922350.11747
  20627526.080   108398401.86309  20627527.260    84466302.25348
 15 02 25 02 05  0.0000000  0  7G04G16G18G19G21G22G27
  23277457.040   122323891.11107  23277458.480    95317321.75244
  20703919.000   108799831.11409  20703917.900    84779097.19347
  22074783.440   116003821.46408  22074782.240    90392601.63245
  21908509.280   115130006.85408  21908507.080    89711693.80446
  23968233.600   125953915.04906  23968232.100    98145901.56943
  20977392.700   110237024.51309  20977389.740    85898991.09247
  20622156.640   108370185.16309  20622157.760    84444315.21448
 15 02 25 02 05 30.0000000  0  7G04G16G18G19G21G22G27
  23260751.420   122236101.98907  23260752.680    95248914.67844
  20711398.000   108839133.55009  20711396.900    84809722.45847
  22082044.320   116041977.54308  22082043.120    90422333.65445
  21896801.280   115068480.71208  21896798.920    89663751.37046
  23982267.000   126027661.24806  23982265.740    98203366.13044
  20971785.940   110207560.75409  20971782.960    85876032.32447
  20616834.660   108342218.10609  20616835.720    84422522.71348
 15 02 25 02 06  0.0000000  0  7G04G16G18G19G21G22G27
  23244085.240   122148519.94907  23244086.160    95180668.97443
  20718979.140   108878972.38709  20718978.000    84840765.70147
  22089391.180   116080585.56408  22089390.080    90452417.81845
  21885122.420   115007107.67008  21885119.900    89615928.24346
  23996302.980   126101420.98907  23996301.800    98260841.27143
  20966277.000   110178610.99509  20966273.980    85853474.08147
  20611560.200   108314501.01509  20611561.320    84400924.98248
 15 02 25 02 06 30.0000000  0  7G04G16G18G19G21G22G27
  23227459.260   122061149.97407  23227460.000    95112588.47844
  20726662.980   108919350.70809  20726661.760    84872229.31647
  22096824.560   116119648.29208  22096823.560    90482856.31945
  21873473.700   114945893.05508  21873471.140    89568228.55346
  24010342.280   126175198.00306  24010340.860    98318329.87043
  20960866.880   110150180.42509  20960863.820    85831320.40547
  20606334.480   108287039.40609  20606335.520    84379526.32348
 15 02 25 02 07  0.0000000  0  7G04G16G18G19G21G22G27
  23210873.100   121973989.69507  23210873.920    95044671.38243
  20734448.720   108960264.70609  20734447.440    84904110.33747
  22104343.700   116159161.42908  22104342.660    90513645.78145
  21861854.660   114884834.22208  21861852.120    89520650.26246
  24024384.260   126248988.82706  24024382.660    98375829.17643
  20955555.100   110122267.00109  20955552.080    85809569.68947
  20601157.120   108259831.56009  20601158.060    84358325.40248
 15 02 25 02 07 30.0000000  0  7G04G16G18G19G21G22G27
  23194326.720   121887038.18407  23194327.500    94976917.01243
  20742335.780   109001711.61209  20742334.560    84936406.61947
  22111947.920   116199121.69908  22111946.820    90544783.64745
  21850265.100   114823930.58208  21850262.580    89473192.88846
  24038428.360   126322790.47406  24038426.880    98433336.88443
  20950341.560   110094869.82409  20950338.600    85788221.24347
  20596027.820   108232876.63309  20596028.780    84337321.56548
 15 02 25 02 08  0.0000000  0  7G04G16G18G19G21G22G27
  23177820.500   121800297.69107  23177821.140    94909327.03844
  20750324.480   109043692.74509  20750323.380    84969119.18647
  22119637.380   116239529.97108  22119636.260    90576270.60245
  21838705.520   114763184.65208  21838702.940    89425858.40046
  24052474.680   126396603.84806  24052473.320    98490853.78044
  20945226.780   110067991.52609  20945223.860    85767277.12547
  20590947.120   108206177.67909  20590948.180    84316517.18748
 15 02 25 02 08 30.0000000  0  7G04G16G18G19G21G22G27
  23161354.880   121713769.99807  23161355.400    94841902.88444
  20758414.800   109086207.66109  20758413.740    85002247.67447
  22127411.960   116280385.70908  22127410.840    90608106.23645
  21827176.380   114702598.43408  21827173.740    89378648.37846
  24066523.260   126470429.34506  24066522.080    98548380.11144
  20940211.020   110041633.56109  20940208.060    85746738.45147
  20585915.500   108179736.66109  20585916.660    84295913.79448
 15 02 25 02 09  0.0000000  0  7G04G16G18G19G21G22G27
  23144930.040   121627456.09507  23144930.560    94774645.32743
  20766606.540   109129255.49609  20766605.480    85035791.43747
  22135271.480   116321687.51908  22135270.300    90640289.46545
  21815677.820   114642172.86708  21815675.080    89331563.51746
  24080573.960   126544266.34806  24080572.680    98605915.43044
  20935294.580   110015797.64109  20935291.580    85726606.57247
  20580933.300   108153554.96809  20580934.440    84275512.47548
 15 02 25 02 09 30.0000000  0  7G04G16G18G19G21G22G27
  23128545.720   121541355.19807  23128546.300    94707553.75344
  20774899.160   109172833.51009  20774898.060    85069748.31947
  22143215.380   116363432.79808  22143214.220    90672818.25645
  21804209.720   114581907.50608  21804207.000    89284603.51346
  24094626.360   126618112.57906  24094624.900    98663457.93943
  20930477.260   109990482.74309  20930474.240    85706880.68747
  20576000.400   108127632.23809  20576001.500    84255312.94348
 15 02 25 02 10  0.0000000  0  7G04G16G18G19G21G22G27
  23112202.500   121455470.30107  23112203.020    94640630.47543
  20783292.940   109216943.25909  20783291.840    85104119.54547
  22151243.880   116405622.67408  22151242.760    90705693.48045
  21792772.760   114521805.84908  21792770.100    89237771.06446
  24108680.640   126691969.60905  24108679.560    98721008.85342
  20925759.680   109965692.18709  20925756.720    85687563.37947
  20571117.380   108101972.14109  20571118.540    84235318.06948
 15 02 25 02 10 30.0000000  0  7G04G16G18G19G21G22G27
  23095900.080   121369800.47707  23095900.420    94573874.81143
  20791787.420   109261581.99209  20791786.280    85138902.95647
  22159356.400   116448253.94408  22159355.240    90738912.65545
  21781366.820   114461867.13808  21781364.140    89191065.56246
  24122736.620   126765835.32106  24122735.640    98778566.52441
  20921141.780   109941425.06109  20921138.900    85668653.93447
  20566284.280   108076574.29709  20566285.540    84215527.53948
 15 02 25 02 11  0.0000000  0  7G04G16G18G19G21G22G27
  23079638.300   121284345.12607  23079638.580    94507286.25744
  20800382.020   109306746.89609  20800380.860    85174096.38347
  22167552.360   116491323.70008  22167551.220    90772473.49645
  21769991.740   114402090.61308  21769989.040    89144486.46646
  24136794.060   126839707.86106  24136793.240    98836129.51144
  20916623.360   109917680.51409  20916620.480    85650151.69647
  20561501.020   108051438.13609  20561502.280    84195940.92048
 15 02 25 02 11 30.0000000  0  7G04G16G18G19G21G22G27
  23063417.760   121199106.71907  23063418.080    94440866.75843
  20809077.040   109352439.42709  20809075.840    85209700.94547
  22175831.980   116534833.02608  22175830.820    90806376.86345
  21758648.220   114342479.77608  21758645.520    89098036.47046
  24150853.160   126913588.18406  24150852.280    98893698.55741
  20912204.960   109894461.56809  20912202.060    85632059.02347
  20556768.240   108026567.17509  20556769.440    84176560.94448
 15 02 25 02 12  0.0000000  0  7G04G16G18G19G21G22G27
  23047238.460   121114085.51607  23047239.160    94374616.47244
  20817872.020   109398657.33209  20817870.780    85245714.88147
  22184194.760   116578779.54308  22184193.520    90840620.90045
  21747336.180   114283034.67808  21747333.500    89051715.61846
  24164913.500   126987474.77606  24164912.480    98951272.51743
  20907886.620   109871768.30709  20907883.660    85614375.96947
  20552086.020   108001961.81409  20552087.240    84157387.93448
 15 02 25 02 12 30.0000000  0  8G04G11G16G18G19G21G22G27
  23031101.540   121029286.53807  23031102.360    94308539.34244
  24686134.600   129726511.77806  24686133.860   101085591.24541
  20826767.700   109445404.36509  20826766.460    85282141.12547
  22192641.300   116623166.18108  22192639.960    90875207.89545
  21736056.700   114223760.91308  21736054.040    89005528.28946
  24178975.980   127061372.99006  24178974.780    99008855.52243
  20903669.400   109849606.37509  20903666.380    85597106.93747
  20547455.400   107977627.90709  20547456.720    84138426.45248
 15 02 25 02 13  0.0000000  0  8G04G11G16G18G19G21G22G27
  23015001.160   120944678.65407  23015001.920    94242611.13144
  24668602.220   129634377.88906  24668601.040   101013798.66041
  20835757.720   109492647.21809  20835756.540    85318953.73247
  22201165.280   116667960.07708  22201163.880    90910112.22344
  21724803.900   114164627.52608  21724801.260    88959450.32746
  24193034.080   127135248.41505  24193032.620    99066420.74641
  20899547.220   109827943.97609  20899544.160    85580227.15147
  20542870.560   107953534.66309  20542871.900    84119652.49748
 15 02 25 02 13 30.0000000  0  8G04G11G16G18G19G21G22G27
  22998947.300   120860314.62507  22998948.000    94176872.94344
  24651088.840   129542345.11106  24651088.060   100942084.87241
  20844851.620   109540436.12209  20844850.540    85356191.83247
  22209776.260   116713211.24608  22209774.900    90945372.86045
  21713587.900   114105687.45208  21713585.300    88913523.00146
  24207097.540   127209152.85805  24207096.140    99124008.62641
  20895530.120   109806833.84609  20895527.040    85563777.70447
  20538341.660   107929735.19309  20538342.980    84101107.45248
 15 02 25 02 14  0.0000000  0  8G04G11G16G18G19G21G22G27
  22982934.440   120776165.95707  22982935.040    94111302.56543
  24633589.440   129450384.72206  24633588.440   100870427.50041
  20854043.800   109588741.26709  20854042.740    85393832.19547
  22218468.560   116758889.60308  22218467.240    90980966.38945
  21702403.360   114046912.73208  21702400.840    88867724.52046
  24221161.020   127283056.98906  24221159.780    99181596.20943
  20891612.680   109786247.59409  20891609.620    85547736.47547
  20533863.360   107906201.61709  20533864.700    84082769.60948
 15 02 25 02 14 30.0000000  0  8G04G11G16G18G19G21G22G27
  22966963.500   120692237.54407  22966964.180    94045903.83644
  24616104.700   129358501.63106  24616103.440   100798830.37243
  20863334.900   109637566.12709  20863333.800    85431877.52647
  22227242.640   116804997.47908  22227241.320    91016894.59245
  21691251.280   113988308.37608  21691248.820    88822058.79946
  24235225.240   127356964.36806  24235223.920    99239186.34542
  20887795.820   109766190.14609  20887792.820    85532107.30047
  20529436.720   107882939.36509  20529438.080    84064643.18248
 15 02 25 02 15  0.0000000  0  8G04G11G16G18G19G21G22G27
  22951034.660   120608530.09207  22951035.440    93980677.27243
  24598634.720   129266696.44206  24598633.660   100727294.00041
  20872724.600   109686909.14709  20872723.400    85470326.62347
  22236098.320   116851533.86308  22236097.000    91053156.70945
  21680131.880   113929875.54308  21680129.420    88776526.72046
  24249289.740   127430873.06006  24249288.400    99296777.53243
  20884079.720   109746662.26409  20884076.780    85516890.77947
  20525061.980   107859949.63309  20525063.240    84046729.09948
 15 02 25 02 15 30.0000000  0  8G04G11G16G18G19G21G22G27
  22935148.200   120525045.98907  22935149.100    93915624.74344
  24581180.100   129174971.70806  24581179.040   100655820.20841
  20882212.880   109736770.69509  20882211.680    85509179.76647
  22245035.420   116898499.00608  22245034.160    91089752.92045
  21669045.680   113871617.20508  21669043.240    88731130.62446
  24263355.020   127504786.01206  24263353.840    99354372.01543
  20880464.860   109727666.21409  20880461.880    85502088.66447
  20520739.680   107837235.65709  20520740.900    84029029.90348
 15 02 25 02 16  0.0000000  0  8G04G11G16G18G19G21G22G27
  22919304.040   120441784.13507  22919304.980    93850745.40744
  24563740.380   129083326.01006  24563739.340   100584408.03343
  20891799.260   109787147.68509  20891798.140    85548434.55647
  22254053.400   116945889.12908  22254052.220    91126680.29145
  21657992.540   113813532.60708  21657990.140    88685869.90846
  24277420.300   127578699.99005  24277419.440    99411967.29544
  20876951.000   109709200.81009  20876947.980    85487700.04647
  20516469.740   107814796.65009  20516470.900    84011544.96148
 15 02 25 02 16 30.0000000  0  8G04G11G16G18G19G21G22G27
  22903502.220   120358745.10507  22903503.220    93786039.69244
  24546315.680   128991759.61306  24546314.820   100513057.60241
  20901483.480   109838038.51009  20901482.400    85588089.73847
  22263152.000   116993702.81808  22263150.800    91163937.69745
  21646972.520   113755622.47608  21646970.160    88640745.14546
  24291485.780   127652615.40605  24291485.160    99469563.66343
  20873538.160   109691266.35409  20873535.140    85473725.15047
  20512252.240   107792633.60609  20512253.420    83994275.05448
 15 02 25 02 17  0.0000000  0  8G04G11G16G18G19G21G22G27
  22887743.180   120275931.56607  22887744.280    93721509.67644
  24528906.300   128900274.84006  24528905.860   100441770.87042
  20911265.720   109889444.12109  20911264.540    85628146.03847
  22272331.360   117041940.53108  22272330.000    91201525.53544
  21635986.320   113697889.98108  21635984.040    88595758.79846
  24305551.320   127726531.40805  24305551.100    99527160.51541
  20870226.900   109673865.58909  20870223.900    85460166.11447
  20508087.860   107770749.75709  20508089.060    83977222.70348
 15 02 25 02 17 30.0000000  0  8G04G11G16G18G19G21G22G27
  22872026.400   120193340.11307  22872027.480    93657152.71844
  24511511.960   128808868.49506  24511511.720   100370545.15443
  20921144.820   109941358.95009  20921143.580    85668599.13947
  22281590.400   117090597.09608  22281588.900    91239439.72745
  21625033.380   113640332.48208  21625031.260    88550908.81246
  24319616.340   127800444.96406  24319616.180    99584755.44143
  20867016.580   109656995.03409  20867013.540    85447020.23347
  20503976.140   107749142.66709  20503977.300    83960385.99948
 15 02 25 02 18  0.0000000  0  8G04G11G16G18G19G21G22G27
  22856352.220   120110972.35107  22856353.240    93592970.10144
  24494132.820   128717541.97006  24494132.620   100299381.74441
  20931120.720   109993782.68409  20931119.520    85709448.78847
  22290928.980   117139671.52608  22290927.320    91277679.53645
  21614114.100   113582951.53308  21614112.060    88506196.39347
  24333681.080   127874356.18906  24333680.540    99642348.59343
  20863907.480   109640656.34309  20863904.400    85434288.79147
  20499917.440   107727814.09909  20499918.540    83943766.33648
 15 02 25 02 18 30.0000000  0  8G04G11G16G18G19G21G22G27
  22840720.580   120028828.04807  22840721.600    93528961.57344
  24476768.920   128626294.95806  24476768.820   100228280.25642
  20941193.060   110046713.28309  20941191.920    85750693.40247
  22300346.700   117189161.80708  22300344.940    91316243.39044
  21603228.700   113525747.80808  21603226.580    88461622.05946
  24347745.280   127948263.84106  24347744.540    99699938.96743
  20860899.480   109624849.03109  20860896.360    85421971.40947
  20495911.880   107706764.84509  20495913.080    83927364.32748
 15 02 25 02 19  0.0000000  0  8G04G11G16G18G19G21G22G27
  22825132.080   119946909.91507  22825132.980    93465129.26744
  24459420.780   128535129.91206  24459420.920   100157242.59943
  20951361.940   110100151.19209  20951360.840    85792333.32547
  22309843.540   117239068.21508  22309841.820    91355131.48845
  21592377.700   113468724.23308  21592375.400    88417188.09946
  24361809.080   128022169.25906  24361808.180    99757527.59843
  20857993.000   109609575.24909  20857989.900    85410069.76947
  20491960.020   107685997.94009  20491961.340    83911182.32648
 15 02 25 02 19 30.0000000  0  8G04G11G16G18G19G21G22G27
  22809586.680   119865218.08707  22809587.560    93401473.33644
  24442088.160   128444046.66806  24442088.680   100086268.69844
  20961627.100   110154094.91909  20961625.980    85834367.38647
  22319419.180   117289388.37708  22319417.440    91394342.01445
  21581561.000   113411881.22608  21581558.560    88372894.86146
  24375872.300   128096071.30905  24375871.100    99815113.57041
  20855188.040   109594835.02409  20855184.940    85398583.87847
  20488062.020   107665513.94309  20488063.400    83895220.76448
 15 02 25 02 20  0.0000000  0  8G04G11G16G18G19G21G22G27
  22794084.760   119783754.50107  22794085.580    93337995.24344
  24424771.420   128353047.26306  24424772.220   100015360.09143
  20971988.380   110208543.85309  20971987.240    85876795.12047
  22329073.560   117340122.37108  22329071.760    91433874.99445
  21570779.000   113355221.23108  21570776.460    88328744.22646
  24389934.980   128169970.77905  24389933.960    99872697.52343
  20852484.900   109580630.00409  20852481.740    85387515.03547
  20484218.440   107645315.64209  20484219.840    83879481.82548
 15 02 25 02 20 30.0000000  0  8G04G11G16G18G19G21G22G27
  22778626.000   119702518.36807  22778626.900    93274694.37743
  24407470.500   128262130.86606  24407471.280    99944516.22541
  20982445.240   110263495.21209  20982444.100    85919614.35547
  22338805.980   117391267.00808  22338804.240    91473727.94444
  21560031.680   113298743.96208  21560029.100    88284735.97546
  24403996.640   128243865.53505  24403995.920    99930277.82243
  20849883.400   109566959.12409  20849880.200    85376862.40747
  20480429.200   107625402.86209  20480430.560    83863965.37448
 15 02 25 02 21  0.0000000  0  8G04G11G16G18G19G21G22G27
  22763210.460   119621509.30607  22763211.500    93211570.44144
  24390185.220   128171297.28405  24390186.140    99873736.81343
  20992997.260   110318946.62509  20992996.120    85962823.23447
  22348616.120   117442820.20208  22348614.540    91513899.27044
  21549319.160   113242449.76508  21549316.640    88240870.37546
  24418057.240   128317754.35005  24418056.700    99987853.47943
  20847383.540   109553822.31809  20847380.340    85366625.94447
  20476694.300   107605775.86409  20476695.660    83848671.61348
 15 02 25 02 21 30.0000000  0  8G04G11G16G18G19G21G22G27
  22747838.440   119540728.85307  22747839.600    93148624.65444
  24372916.000   128080547.60406  24372916.920    99803022.82742
  21003644.300   110374897.26109  21003643.240    86006421.11847
  22358503.780   117494780.75808  22358502.320    91554388.00645
  21538641.900   113186340.56108  21538639.420    88197148.91947
  24432116.820   128391637.69506  24432116.500   100045424.87844
  20844985.480   109541220.65409  20844982.360    85356806.46947
  20473014.160   107586436.68209  20473015.540    83833602.12348
 15 02 25 02 22  0.0000000  0  8G04G11G16G18G19G21G22G27
  22732509.860   119460176.77407  22732511.100    93085856.81544
  24355662.640   127989881.19406  24355663.860    99732373.74543
  21014385.920   110431344.93609  21014384.980    86050406.31747
  22368468.500   117547146.04308  22368467.100    91595192.13345
  21527999.900   113130416.39009  21527997.420    88153571.65147
  24446175.060   128465513.98206  24446174.480   100102990.82041
  20842689.180   109529153.45809  20842686.100    85347403.46347
  20469388.840   107567385.46309  20469390.220    83818757.01548
 15 02 25 02 22 30.0000000  0  9G04G11G16G18G19G21G22G27G32
  22717225.680   119379858.08407  22717227.020    93023270.83744
  24338426.240   127899303.47405  24338427.480    99661793.74242
  21025222.800   110488293.24309  21025221.880    86094781.60547
  22378510.940   117599919.47108  22378509.620    91636314.26745
  21517394.280   113074683.32309  21517391.700    88110143.28146
  24460232.700   128539387.53906  24460231.880   100160554.62842
  20840495.580   109517625.86509  20840492.440    85338420.92747
  20465819.520   107548628.52809  20465820.820    83804141.22548
  24500288.540   128749888.43906  24500290.820   100324584.65641
 15 02 25 02 23  0.0000000  0  9G04G11G16G18G19G21G22G27G32
  22701982.380   119299753.90507  22701983.740    92960852.00644
  24321203.040   127808795.33905  24321204.320    99591267.93744
  21036150.780   110545720.08709  21036149.860    86139529.78547
  22388627.020   117653079.81208  22388625.820    91677737.90145
  21506821.420   113019122.55008  21506818.840    88066849.17047
  24474285.860   128613237.97105  24474284.840   100218100.45942
  20838400.980   109506618.36009  20838397.800    85329843.65547
  20462302.660   107530147.15909  20462303.920    83789740.16148
  24477612.620   128630727.57806  24477614.720   100231732.53443
 15 02 25 02 23 30.0000000  0  9G04G11G16G18G19G21G22G27G32
  22686785.520   119219893.73007  22686786.840    92898623.31544
  24303998.720   127718386.00605  24304000.040    99520819.12043
  21047175.160   110603653.17509  21047174.200    86184672.44247
  22398821.740   117706653.74308  22398820.600    91719483.82745
  21496287.080   112963764.32008  21496284.520    88023712.89947
  24488340.060   128687093.71105  24488338.940   100275650.26343
  20836410.800   109496160.01709  20836407.620    85321694.30547
  20458843.960   107511971.59409  20458845.160    83775577.38548
  24454943.720   128511603.19706  24454946.360   100138908.74642
 15 02 25 02 24  0.0000000  0  9G04G11G16G18G19G21G22G27G32
  22671632.520   119140264.34307  22671633.800    92836574.46844
  24286810.720   127628062.41205  24286812.180    99450437.15041
  21058293.080   110662077.65309  21058292.060    86230197.99947
  22409092.320   117760626.14908  22409091.180    91761540.25244
  21485788.880   112908596.04808  21485786.320    87980724.64046
  24502392.640   128760940.41505  24502391.380   100333193.07141
  20834522.540   109486237.09709  20834519.340    85313962.16347
  20455441.060   107494089.23209  20455442.220    83761643.07248
  24432279.660   128392503.94306  24432282.700   100046104.61843
 15 02 25 02 24 30.0000000  0  9G04G11G16G18G19G21G22G27G32
  22656523.220   119060864.71107  22656524.400    92774704.65044
  24269639.100   127537823.78905  24269640.220    99380121.33841
  21069503.800   110720989.99009  21069502.720    86276103.70047
  22419438.100   117814993.97108  22419436.840    91803904.77044
  21475326.780   112853617.31808  21475324.140    87937884.07546
  24516443.180   128834776.46105  24516441.800   100390727.66541
  20832735.980   109476848.71309  20832732.760    85306646.54047
  20452093.940   107476499.90809  20452095.120    83747937.11048
  24409620.700   128273431.43106  24409623.720    99953321.27544
 15 02 25 02 25  0.0000000  0  9G04G11G16G18G19G21G22G27G32
  22641458.000   118981696.55607  22641459.220    92713015.19744
  24252484.060   127447671.35606  24252484.720    99309872.71743
  21080807.100   110780389.17709  21080806.000    86322388.77147
  22429859.000   117869756.42808  22429857.600    91846576.81444
  21464901.080   112798829.92908  21464898.380    87895192.62146
  24530491.720   128908601.79805  24530490.600   100448253.87143
  20831051.380   109467995.99109  20831048.080    85299748.32147
  20448802.900   107459205.51009  20448804.060    83734460.95448
  24386967.400   128154388.89506  24386969.980    99860561.20543
 15 02 25 02 25 30.0000000  0  9G04G11G16G18G19G21G22G27G32
  22626437.280   118902762.15607  22626438.420    92651507.89844
  24235345.740   127357607.49205  24235346.000    99239693.07944
  21092203.100   110840275.68209  21092201.980    86369053.56847
  22440355.080   117924913.59508  22440353.620    91889556.42144
  21454512.440   112744237.33608  21454509.740    87852652.94947
  24544538.680   128982418.14905  24544537.700   100505773.08543
  20829469.060   109459680.90609  20829465.760    85293269.03847
  20445568.680   107442209.48809  20445569.820    83721217.29848
  24364320.700   128035381.30406  24364323.480    99767828.38442
 15 02 25 02 26  0.0000000  0  9G04G11G16G18G19G21G22G27G32
  22611460.960   118824060.73708  22611461.940    92590182.15344
  24218224.080   127267631.45306  24218224.300    99169581.94343
  21103691.220   110900646.39609  21103690.100    86416095.67347
  22450925.680   117980462.51308  22450924.200    91932841.28944
  21444160.820   112689839.20609  21444158.160    87810264.79347
  24558583.740   129056224.10006  24558582.720   100563284.19144
  20827988.800   109451902.17709  20827985.540    85287207.69547
  20442391.180   107425511.50709  20442392.380    83708205.88148
  24341680.820   127916409.85506  24341683.800    99675123.72344
 15 02 25 02 26 30.0000000  0  9G04G11G16G18G19G21G22G27G32
  22596529.000   118745592.33708  22596529.880    92529037.96944
  24201119.080   127177742.99905  24201119.020    99099538.94941
  21115271.140   110961499.55209  21115270.040    86463513.70647
  22461570.400   118036400.71308  22461568.860    91976429.49145
  21433846.320   112635636.18408  21433843.680    87768028.67146
  24572625.540   129130024.15505  24572626.860   100620787.00344
  20826610.580   109444659.50309  20826607.340    85281564.05947
  20439270.480   107409112.29409  20439271.760    83695427.27748
  24319048.280   127797476.88606  24319051.160    99582448.98141
 15 02 25 02 27  0.0000000  0  9G04G11G16G18G19G21G22G27G32
  22581642.420   118667362.36108  22581643.100    92468079.58344
  24184031.820   127087947.98506  24184031.420    99029568.87042
  21126943.440   111022838.02609  21126942.420    86511309.91147
  22472289.860   118092731.56908  22472288.320    92020323.65444
  21423570.120   112581634.56808  21423567.520    87725949.49346
  24586666.980   129203811.03605  24586667.680   100678283.22743
  20825335.360   109437958.10309  20825332.140    85276342.19147
  20436207.760   107393018.09109  20436209.120    83682886.34448
  24296424.540   127678590.18506  24296427.400    99489810.23743
 15 02 25 02 27 30.0000000  0  9G04G11G16G18G19G21G22G27G32
  22566799.680   118589362.71308  22566800.280    92407300.64544
  24166960.500   126998237.90805  24166960.160    98959664.96743
  21138706.180   111084651.54209  21138705.220    86559476.27947
  22483082.060   118149444.66008  22483080.520    92064515.66345
  21413330.700   112527826.44408  21413328.080    87684021.08546
  24600705.420   129277581.01605  24600704.720   100735766.27341
  20824161.460   109431789.17209  20824158.220    85271535.23847
  20433201.720   107377221.31509  20433203.060    83670577.16648
  24273808.600   127559743.52506  24273811.220    99397202.79843
 15 02 25 02 28  0.0000000  0  9G04G11G16G18G19G21G22G27G32
  22552002.140   118511600.64308  22552002.520    92346706.85244
  24149906.800   126908620.24106  24149906.620    98889833.08643
  21150560.240   111146944.95909  21150559.300    86608016.59147
  22493947.940   118206544.90108  22493946.280    92109009.36445
  21403129.680   112474219.75609  21403127.000    87642249.64446
  24614741.780   129351340.87505  24614740.980   100793241.46144
  20823090.240   109426159.55809  20823086.880    85267148.53447
  20430253.880   107361730.02309  20430255.140    83658506.02848
  24251202.040   127440946.70006  24251204.620    99304634.12443
 15 02 25 02 28 30.0000000  0  9G04G11G16G18G19G21G22G27G32
  22537249.060   118434072.41308  22537249.300    92286295.28044
  24132869.800   126819090.93006  24132869.900    98820069.98044
  21162504.440   111209712.25309  21162503.460    86656926.15947
  22504886.320   118264026.20508  22504884.560    92153799.98244
  21392966.480   112420811.68208  21392963.800    87600632.97346
  24628775.340   129425085.74705  24628774.420   100850704.92041
  20822120.780   109421064.86109  20822117.380    85263178.64647
  20427363.540   107346541.03609  20427364.800    83646670.45948
  24228604.680   127322198.03606  24228606.960    99212102.86541
 15 02 25 02 29  0.0000000  0  9G04G11G16G18G19G21G22G27G32
  22522541.260   118356782.53708  22522541.540    92226069.42344
  24115850.520   126729654.60406  24115850.980    98750379.39843
  21174539.380   111272956.10609  21174538.300    86706207.07547
  22515897.620   118321891.00908  22515895.820    92198889.43944
  21382842.020   112367607.34108  21382839.440    87559175.05747
  24642806.560   129498819.29905  24642805.660   100908159.65043
  20821253.840   109416509.10009  20821250.440    85259628.70947
  20424531.760   107331659.73809  20424532.980    83635074.63548
  24206017.820   127203504.38606  24206020.080    99119614.52443
 15 02 25 02 29 30.0000000  0  9G04G11G16G18G19G21G22G27G32
  22507878.440   118279729.39707  22507878.880    92166028.03744
  24098848.680   126640309.71206  24098849.260    98680760.03941
  21186664.180   111336672.05809  21186663.000    86755855.85646
  22526981.040   118380135.25208  22526979.440    92244274.55644
  21372756.180   112314605.91808  21372753.620    87517875.25547
  24656835.020   129572539.19105  24656834.380   100965603.68744
  20820489.040   109412490.37509  20820485.760    85256497.23947
  20421758.360   107317085.07509  20421759.440    83623717.75448
  24183441.440   127084866.32506  24183444.440    99027169.57443
 15 02 25 02 30  0.0000000  0  9G04G11G16G18G19G21G22G27G32
  22493260.920   118202914.04708  22493261.440    92106171.97644
  24081864.460   126551057.00006  24081865.140    98611212.49143
  21198878.580   111400858.74809  21198877.320    86805871.44346
  22538136.440   118438757.71908  22538134.940    92289954.39044
  21362709.140   112261808.47108  21362706.560    87476734.39246
  24670860.680   129646245.47505  24670860.580   101023037.20944
  20819826.460   109409008.95109  20819823.300    85253784.44347
  20419043.620   107302818.71309  20419044.620    83612601.09748
  24160876.280   126966287.06706  24160878.600    98934770.31243
 15 02 25 02 30 30.0000000  0  9G04G11G16G18G19G21G22G27G32
  22478688.200   118126334.28607  22478688.760    92046499.45344
  24064897.560   126461894.73206  24064897.860    98541735.45643
  21211181.780   111465512.21909  21211180.540    86856250.76146
  22549363.100   118497754.19208  22549361.620    92335925.66344
  21352700.740   112209214.33208  21352698.200    87435751.95347
  24684883.140   129719934.52805  24684882.980   101080457.22543
  20819265.740   109406062.52609  20819262.540    85251488.53747
  20416387.240   107288859.41509  20416388.280    83601723.71948
  24138322.340   126847766.85706  24138324.760    98842417.16441
 15 02 25 02 31  0.0000000  0  9G04G11G16G18G19G21G22G27G32
  22464160.500   118049991.60307  22464161.140    91987011.67344
  24047948.080   126372824.10606  24047948.100    98472329.81143
  21223573.600   111530631.79609  21223572.460    86906993.28047
  22560660.820   118557123.57208  22560659.340    92382187.51644
  21342731.400   112156825.51708  21342729.040    87394929.51547
  24698902.820   129793607.84706  24698902.060   101137864.86744
  20818806.880   109403651.49009  20818803.620    85249609.80847
  20413789.700   107275209.36409  20413790.800    83591087.31148
  24115780.340   126729309.46306  24115782.500    98750112.86943
 15 02 25 02 31 30.0000000  0  9G04G11G16G18G19G21G22G27G32
  22449678.420   117973888.64708  22449679.220    91927710.67744
  24031016.500   126283848.15506  24031016.380    98402997.91143
  21236054.040   111596217.25309  21236053.020    86958098.82346
  22572029.640   118616866.21808  22572028.120    92428740.21744
  21332801.820   112104645.31608  21332799.560    87354269.63247
  24712919.820   129867266.55205  24712918.480   101195261.29542
  20818450.400   109401778.33509  20818447.100    85248150.21347
  20411251.580   107261871.80009  20411252.780    83580694.41048
  24093251.360   126610919.89906  24093253.760    98657861.47041
 15 02 25 02 32  0.0000000  0  9G04G11G16G18G19G21G22G27G32
  22435241.700   117898023.62908  22435242.580    91868595.11744
  24014102.560   126194964.97106  24014102.140    98333738.36743
  21248622.360   111662264.31009  21248621.320    87009564.04546
  22583468.620   118676977.86708  22583466.960    92475580.45544
  21322911.760   112052672.52709  21322909.480    87313771.34947
  24726933.580   129940908.13905  24726931.880   101252644.32142
  20818195.800   109400440.54509  20818192.540    85247107.77947
  20408772.740   107248845.57309  20408773.980    83570544.09948
  24070735.260   126492598.39305  24070737.260    98565663.02042
 15 02 25 02 32 30.0000000  0  9G04G11G16G18G19G21G22G27G32
  22420850.780   117822398.35008  22420851.580    91809666.35544
  23997206.660   126106176.35206  23997206.100    98264552.43243
  21261278.500   111728772.65109  21261277.320    87061388.71246
  22594977.800   118737458.48808  22594975.960    92522708.22244
  21313061.800   112000910.29108  21313059.380    87273437.14347
  24740944.300   130014533.57705  24740942.380   101310014.72141
  20818043.380   109399639.43609  20818040.100    85246483.54047
  20406353.680   107236133.54309  20406355.020    83560638.62148
  24048232.980   126374349.51706  24048234.920    98473521.25844
 15 02 25 02 33  0.0000000  0  9G04G11G16G18G19G21G22G27G32
  22406505.340   117747012.18608  22406506.040    91750923.89844
  23980328.720   126017482.06306  23980328.160    98195440.04043
  21274021.820   111795739.23109  21274020.620    87113570.45347
  22606556.560   118798304.77108  22606554.560    92570120.89944
  21303251.700   111949357.67309  21303249.200    87233266.28447
  24754951.680   130088141.11906  24754949.440   101367371.21441
  20817992.840   109399373.57809  20817989.560    85246276.38247
  20403994.440   107223735.51309  20403995.800    83550977.81748
  24025744.820   126256174.61306  24025746.660    98381437.03042
 15 02 25 02 33 30.0000000  0  9G04G11G16G18G19G21G22G27G32
  22392205.880   117671867.77308  22392206.560    91692369.84244
  23963469.020   125928883.98006  23963468.520    98126402.61043
  21286852.360   111863164.54409  21286851.300    87166109.65646
  22618204.840   118859517.05008  22618202.860    92617818.77944
  21293482.360   111898019.09509  21293479.760    87193262.20647
  24768956.060   130161733.80705  24768953.640   101424716.14041
  20818044.500   109399644.92409  20818041.240    85246487.83147
  20401695.640   107211655.03809  20401697.020    83541564.46248
  24003271.680   126138078.71006  24003273.420    98289414.37143
 15 02 25 02 34  0.0000000  0  9G04G11G16G18G19G21G22G27G32
  22377952.080   117596963.77408  22377952.680    91634003.10044
  23946627.500   125840381.00906  23946627.040    98057439.30543
  21299769.420   111931044.64409  21299768.520    87219003.23046
  22629921.960   118921091.73008  22629920.060    92665799.02544
  21283753.500   111846893.30409  21283750.820    87153423.92547
  24782956.740   130235307.85605  24782954.280   101482046.50242
  20818197.920   109400451.12609  20818194.660    85247116.03647
  20399457.100   107199891.31509  20399458.420    83532397.92048
  23980813.760   126020062.67106  23980815.700    98197454.00243
 15 02 25 02 34 30.0000000  0  9G04G11G16G18G19G21G22G27G32
  22363744.340   117522301.71708  22363744.820    91575824.89444
  23929804.380   125751975.05306  23929804.000    97988551.57043
  21312772.840   111999378.02509  21312772.020    87272250.00847
  22641708.000   118983028.01908  22641706.180    92714061.07145
  21274065.600   111795982.97509  21274062.900    87113753.54747
  24796953.940   130308864.43205  24796952.020   101539363.33142
  20818453.440   109401793.79209  20818450.160    85248162.27847
  20397279.240   107188446.71009  20397280.560    83523480.04248
  23958371.800   125902130.52906  23958373.980    98105558.98641
 15 02 25 02 35  0.0000000  0  9G04G11G16G18G19G21G22G27G32
  22349582.620   117447881.29508  22349583.060    91517834.98244
  23912999.580   125663665.99206  23912999.280    97919739.33541
  21325862.260   112068162.80009  21325861.340    87325848.52647
  22653562.340   119045323.28608  22653560.660    92762602.83644
  21264418.780   111745288.43909  21264416.020    87074251.32847
  24810947.560   130382402.47105  24810946.380   101596665.62141
  20818810.760   109403671.52709  20818807.500    85249625.45047
  20395162.180   107177321.70309  20395163.480    83514811.20948
  23935946.240   125784284.25706  23935948.380    98013730.77943
 15 02 25 02 35 30.0000000  0  9G04G11G16G18G19G21G22G27G32
  22335466.720   117373701.55608  22335467.180    91460032.62244
  23896213.000   125575452.62606  23896212.860    97851001.66743
  21339037.000   112137396.15609  21339035.960    87379796.57746
  22665484.460   119107974.56208  22665483.040    92811422.00344
  21254812.980   111694809.62209  21254810.140    87034917.18947
  24824937.420   130455920.38105  24824936.320   101653952.31644
  20819269.580   109406082.73409  20819266.340    85251504.31947
  20393105.940   107166516.11009  20393107.240    83506391.27148
  23913537.400   125666525.32006  23913539.620    97921970.75343
 15 02 25 02 36  0.0000000  0  9G04G11G16G18G19G21G22G27G32
  22321396.980   117299764.91208  22321397.360    91402419.65944
  23879445.100   125487337.66006  23879445.020    97782340.70042
  21352296.820   112207077.30609  21352295.740    87434093.57146
  22677474.300   119170981.54108  22677473.100    92860518.33644
  21245248.800   111644549.89809  21245245.940    86995753.76947
  24838923.740   130529420.23105  24838922.760   101711224.90443
  20819830.160   109409028.93309  20819826.960    85253800.05847
  20391111.100   107156033.03909  20391112.300    83498222.63448
  23891146.060   125548858.54406  23891148.360    97830282.45443
 15 02 25 02 36 30.0000000  0  9G04G11G16G18G19G21G22G27G32
  22307373.300   117226070.45208  22307373.760    91344995.43544
  23862695.660   125399320.05706  23862695.820    97713755.56743
  21365641.180   112277202.71709  21365640.100    87488736.74246
  22689531.320   119234341.25408  22689530.240    92909889.54144
  21235726.180   111594508.72509  21235723.440    86956760.66647
  24852906.220   130602899.53205  24852905.740   101768481.40041
  20820492.300   109412508.91509  20820489.160    85256511.73947
  20389177.520   107145872.20509  20389178.720    83490305.09748
  23868772.580   125431285.18106  23868774.440    97738666.87141
 15 02 25 02 37  0.0000000  0  9G04G11G16G18G19G21G22G27G32
  22293395.620   117152617.72308  22293396.140    91287759.57844
  23845964.800   125311399.70306  23845965.140    97645246.20944
  21379069.640   112347769.61609  21379068.560    87543723.91846
  22701654.840   119298050.97408  22701654.000    92959533.47644
  21226245.360   111544687.01109  21226242.760    86917938.55347
  24866884.920   130676357.48105  24866883.820   101825721.36243
  20821255.800   109416521.41609  20821252.700    85259638.36547
  20387305.360   107136034.25009  20387306.620    83482639.16048
  23846417.100   125313807.41305  23846419.200    97647125.87244
 15 02 25 02 37 30.0000000  0  9G04G11G16G18G19G21G22G27G32
  22279464.340   117079408.84908  22279464.960    91230713.70845
  23829252.900   125223578.64906  23829253.380    97576814.26143
  21392582.140   112418777.61609  21392581.000    87599054.81046
  22713844.920   119362110.23208  22713844.060    93009449.76944
  21216806.920   111495087.54009  21216804.380    86879289.62147
  24880859.820   130749795.29305  24880858.540   101882945.56641
  20822120.860   109421067.41009  20822117.800    85263180.70447
  20385495.200   107126521.70809  20385496.480    83475226.78848
  23824080.720   125196429.51705  23824082.640    97555662.66843
 15 02 25 02 38  0.0000000  0  9G04G11G16G18G19G21G22G27G32
  22265579.480   117006444.42908  22265580.380    91173858.35745
  23812560.160   125135857.66806  23812560.620    97508460.27143
  21406178.280   112490225.34909  21406177.060    87654728.35646
  22726101.220   119426517.32908  22726100.220    93059637.12144
  21207411.080   111445711.88909  21207408.540    86840815.08147
  24894830.680   130823213.09405  24894829.560   101940154.20343
  20823087.380   109426146.64409  20823084.400    85267138.54847
  20383747.340   107117336.08509  20383748.540    83468069.15548
  23801763.980   125079154.63206  23801765.680    97464279.76843
 15 02 25 02 38 30.0000000  0  9G04G11G16G18G19G21G22G27G32
  22251741.320   116933724.71208  22251742.380    91117193.66544
  23795886.600   125048237.09106  23795886.780    97440184.51943
  21419857.500   112562110.26108  21419856.340    87710742.56546
  22738423.300   119491270.22508  22738422.160    93110093.90544
  21198057.960   111396560.79909  21198055.420    86802515.53947
  24908797.500   130896610.30105  24908796.520   101997346.85243
  20824155.360   109431758.95309  20824152.380    85271511.78747
  20382061.860   107108478.38109  20382063.000    83461167.04248
  23779467.500   124961985.42706  23779468.880    97372979.15844
 15 02 25 02 39  0.0000000  0  8G04G11G16G18G19G22G27G32
  22237949.300   116861246.59808  22237950.220    91060717.25544
  23779231.600   124960713.90806  23779231.600    97371984.66242
  21433618.700   112634426.52808  21433617.760    87767092.89546
  22750810.140   119556363.53008  22750808.920    93160815.95244
  21188747.080   111347632.22209  21188744.620    86764389.39447
  20825324.040   109437900.47109  20825321.020    85276297.38147
  20380438.280   107099946.36109  20380439.440    83454518.71648
  23757191.040   124844921.27706  23757192.040    97281760.40044
 15 02 25 02 39 30.0000000  0  8G04G11G16G18G19G22G27G32
  22224204.100   116789014.41708  22224204.840    91004432.48244
  23762595.960   124873292.38607  23762595.600    97303864.03142
  21447462.360   112707175.82809  21447461.520    87823780.65146
  22763262.080   119621799.16108  22763260.740    93211804.74744
  21179479.540   111298931.39109  21179477.100    86726440.69447
  20826594.060   109444574.28709  20826590.980    85281497.76447
  20378877.600   107091744.95609  20378878.800    83448128.00348
  23734935.740   124727968.69906  23734936.560    97190628.61142
 15 02 25 02 40  0.0000000  0  9G04G11G16G18G19G21G22G27G32
  22210505.500   116717027.04808  22210506.000    90948338.45045
  23745979.380   124785971.89706  23745978.980    97235822.15343
  21461388.040   112780355.23109  21461387.100    87880803.54646
  22775778.640   119687573.88008  22775777.280    93263057.78844
  21170255.380   111250458.05109  21170252.840    86688669.26447
  24950671.020   131116662.73505                                
  20827964.980   109451778.45509  20827961.880    85287111.40147
  20377379.740   107083873.81909  20377381.000    83441994.64848
  23712702.000   124611129.05006  23712702.760    97099584.79443
 15 02 25 02 40 30.0000000  0  9G04G11G16G18G19G21G22G27G32
  22196854.720   116645291.38108  22196855.080    90892440.57544
  23729383.300   124698759.23606  23729382.880    97167864.23443
  21475396.400   112853969.03009  21475395.320    87938164.93346
  22788360.580   119753692.17908  22788359.360    93314578.53045
  21161076.140   111202220.52509  21161073.420    86651081.58047
  24964622.000   131189975.69105  24964622.920   102225966.94441
  20829438.100   109459519.48209  20829434.940    85293143.37647
  20375946.260   107076340.77309  20375947.520    83436124.74248
  23690491.540   124494411.82706  23690492.140    97008636.37441
 15 02 25 02 41  0.0000000  0  8G04G11G16G18G19G22G27G32
  22183249.600   116573795.50708  22183249.820    90836729.53744
  23712805.400   124611642.73206  23712805.240    97099981.25443
  21489484.460   112928002.02209  21489483.300    87995852.96746
  22801005.060   119820139.67307  22801004.100    93366355.77944
  21151939.460   111154206.86309  21151936.740    86613668.34147
  20831010.900   109467784.20509  20831007.680    85299583.42247
  20374574.880   107069134.39309  20374576.200    83430509.38348
  23668302.460   124377807.23106  23668303.000    96917775.71542
 15 02 25 02 41 30.0000000  0  9G04G11G16G18G19G21G22G27G32
  22169691.400   116502546.80008  22169691.560    90781211.09345
  23696247.260   124524629.92106  23696247.180    97032179.06944
  21503653.340   113002460.01009  21503652.120    88053872.16646
  22813713.260   119886921.78808  22813712.320    93418393.77944
  21142847.080   111106426.10809  21142844.520    86576436.59347
  24992509.540   131336519.85905  24992511.860   102340157.93242
  20832684.620   109476579.35809  20832681.340    85306436.78847
  20373267.280   107062263.20609  20373268.680    83425155.20348
  23646136.820   124261325.47007  23646137.400    96827010.76244
 15 02 25 02 42  0.0000000  0  9G04G11G16G18G19G21G22G27G32
  22156180.240   116431545.37508  22156180.380    90725885.33444
  23679708.860   124437720.85406  23679708.860    96964457.72543
  21517902.480   113077339.86709  21517901.260    88112220.09846
  22826484.740   119954035.86408  22826483.600    93470690.45744
  21133799.120   111058878.78809  21133796.640    86539386.73847
  25006446.260   131409758.70504  25006449.040   102397227.14441
  20834459.140   109485903.99009  20834455.800    85313702.74347
  20372023.620   107055727.82809  20372025.060    83420062.70148
  23623995.020   124144968.86906  23623995.260    96736343.32041
 15 02 25 02 42 30.0000000  0  9G04G11G16G18G19G21G22G27G32
  22142715.900   116360789.93508  22142715.940    90670751.26844
  23663190.260   124350914.69906  23663190.120    96896816.58342
  21532231.240   113152637.93309  21532230.020    88170893.89746
  22839318.720   120021478.31608  22839317.380    93523243.01244
  21124795.520   111011564.75309  21124793.060    86502518.66747
  25020378.080   131482972.78704  25020384.260   102454282.07843
  20836333.960   109495755.91609  20836330.540    85321379.56847
  20370843.780   107049527.80609  20370845.200    83415231.51248
  23601877.220   124028738.62807  23601877.380    96645774.40743
 15 02 25 02 43  0.0000000  0  9G04G11G16G18G19G21G22G27G32
  22129298.880   116290283.18708  22129298.960    90615810.95944
  23646691.760   124264214.22406  23646691.620    96829257.79444
  21546639.660   113228354.63808  21546638.520    88229893.91946
  22852215.220   120089249.67908  22852213.660    93576051.87844
  21115837.060   110964487.66009  21115834.540    86465835.21047
  25034305.700   131556164.25304  25034308.860   102511307.24643
  20838309.400   109506136.73409  20838305.960    85329468.51947
  20369728.420   107043666.70709  20369729.760    83410664.41848
  23579784.420   123912639.95406  23579784.340    96555307.94343
 15 02 25 02 43 30.0000000  0  9G04G11G16G18G19G21G22G27G32
  22115929.000   116220024.15708  22115929.100    90561063.69945
  23630213.160   124177618.36207  23630212.800    96761780.50543
  21561126.880   113304485.95308  21561125.920    88289217.01046
  22865173.500   120157346.56208  22865172.000    93629114.37444
  21106923.680   110917647.41109  21106921.160    86429336.31747
  25048229.320   131629344.46304  25048231.460   102568320.72442
  20840385.100   109517044.60009  20840381.640    85337968.15847
  20368677.520   107038144.16709  20368678.800    83406361.13448
  23557716.840   123796674.21506  23557716.760    96464945.12543
 15 02 25 02 44  0.0000000  0  8G04G11G16G18G19G22G27G32
  22102602.120   116149991.28408  22102602.240    90506492.64445
  23613750.620   124091106.16906  23613749.860    96694368.41743
  21575688.420   113381007.79309  21575687.620    88348844.41146
  22878189.220   120225745.13908  22878187.940    93682411.96344
  21098051.420   110871023.64309  21098048.920    86393006.11847
  20842556.780   109528457.23109  20842553.400    85346861.12347
  20367687.220   107032939.61109  20367688.360    83402305.62448
  23535671.000   123680822.54606  23535670.920    96374671.15743
 15 02 25 02 44 30.0000000  0  9G01G04G11G16G18G19G22G27G32
  24592312.460   129233472.60004  24592319.240   100701412.74743
  22089330.880   116080250.98108  22089331.060    90452149.55944
  23597316.560   124004744.08307  23597315.660    96627073.30342
  21590336.680   113457984.52709  21590335.840    88408826.27246
  22891274.580   120294509.49608  22891273.560    93735994.56444
  21089233.160   110824683.45309  21089230.580    86356896.88147
  20844836.860   109540439.65309  20844833.620    85356198.07947
  20366770.140   107028120.00509  20366771.220    83398550.08948
  23513659.840   123565153.63406  23513659.880    96284539.57344
 15 02 25 02 45  0.0000000  0  9G01G04G11G16G18G19G22G27G32
  24576246.900   129149046.80805  24576251.540   100635626.45445
  22076101.540   116010730.69808  22076101.780    90397977.92045
  23580897.180   123918459.54107  23580896.040    96559838.64241
  21605057.260   113535340.63809  21605056.200    88469103.74146
  22904415.260   120363564.40107  22904414.440    93789803.57044
  21080455.320   110778555.35609  21080452.660    86320952.90947
  20847211.380   109552918.45509  20847208.280    85365921.82347
  20365912.620   107023613.52309  20365913.740    83395038.54048
  23491670.120   123449597.24407  23491670.260    96194495.70843
 15 02 25 02 45 30.0000000  0  9G01G04G11G16G18G19G22G27G32
  24560207.060   129064756.31005  24560210.980   100569945.63044
  22062920.200   115941462.67508  22062920.520    90344002.85844
  23564498.720   123832285.10407  23564497.700    96492689.75543
  21619855.720   113613105.95709  21619854.480    88529700.07846
  22917617.000   120432940.21807  22917616.260    93843862.63444
  21071724.180   110732672.73209  21071721.500    86285200.22447
  20849686.360   109565925.08309  20849683.380    85376056.86247
  20365120.920   107019453.49509  20365122.180    83391796.95848
  23469708.480   123334188.50107  23469708.800    96104566.85443
 15 02 25 02 46  0.0000000  0  9G01G04G11G16G18G19G22G27G32
  24544192.260   128980596.39905  24544195.160   100504366.54543
  22049786.000   115872442.50608  22049786.460    90290220.91444
  23548120.480   123746216.75107  23548119.440    96425623.53544
  21634730.520   113691273.47408  21634729.240    88590609.81046
  22930878.500   120502630.02107  22930877.800    93898166.37044
  21063039.140   110687032.12609  21063036.360    86249636.10947
  20852260.760   109579453.96109  20852257.880    85386598.84547
  20364394.420   107015636.01909  20364395.820    83388822.29848
  23447774.540   123218925.28907  23447775.120    96014751.40943
 15 02 25 02 46 30.0000000  0  9G01G04G11G16G18G19G22G27G32
  24528202.880   128896570.98805  24528205.420   100438892.26643
  22036699.780   115803674.02908  22036700.160    90236635.10244
  23531763.060   123660258.26007  23531761.840    96358642.94143
  21649681.700   113769843.29308  21649680.540    88651833.04146
  22944200.040   120572635.38307  22944199.260    93952715.99744
  21054400.940   110641638.01909  21054398.140    86214264.08147
  20854935.040   109593507.61809  20854932.240    85397549.74847
  20363734.000   107012165.73109  20363735.460    83386118.17648
  23425869.420   123103813.65807  23425870.080    95925054.06944
 15 02 25 02 47  0.0000000  0  9G01G04G11G16G18G19G22G27G32
  24512239.000   128812680.86605  24512242.200   100373523.43243
  22023661.500   115735157.72308  22023661.920    90183245.79545
  23515426.540   123574410.27206  23515425.340    96291748.44043
  21664709.280   113848814.90208  21664708.300    88713369.35446
  22957581.280   120642954.50808  22957580.380    94007510.12444
  21045809.940   110596492.24809  21045807.180    86179085.56347
  20857709.180   109608085.54909  20857706.280    85408909.17947
  20363139.980   107009044.09509  20363141.500    83383685.73148
  23403993.840   122988857.08007  23403994.680    95835477.58643
 15 02 25 02 47 30.0000000  0  9G01G04G11G16G18G19G22G27G32
  24496299.820   128728920.85805  24496303.240   100308255.93943
  22010670.300   115666888.58008  22010670.720    90130049.06944
  23499110.280   123488668.23007  23499109.280    96224936.48843
  21679811.880   113928180.14508  21679811.060    88775212.39246
  22971020.920   120713580.07407  22971019.920    94062543.03044
  21037265.460   110551590.74209  21037262.740    86144097.37847
  20860582.020   109623182.03409  20860579.000    85420672.67247
  20362611.440   107006266.73809  20362613.020    83381521.55948
  23382147.320   122874052.77407  23382148.220    95746019.70843
 15 02 25 02 48  0.0000000  0  9G01G04G11G16G18G19G22G27G32
  24480386.660   128645297.02405  24480390.280   100243094.56943
  21997727.260   115598872.46908  21997727.700    90077049.54345
  23482815.280   123403038.05807  23482814.460    96158211.70343
  21694990.200   114007942.07709  21694989.340    88837364.53446
  22984519.460   120784515.49107  22984518.400    94117817.36444
  21028768.840   110506940.48709  21028766.120    86109304.97047
  20863554.420   109638801.78609  20863551.320    85432843.91747
  20362149.740   107003840.45409  20362151.320    83379630.94248
  23360331.400   122759409.37007  23360332.340    95656687.23444
 15 02 25 02 48 30.0000000  0  9G01G04G11G16G18G19G22G27G32
  24464498.620   128561806.35805  24464502.620   100178036.92544
  21984831.820   115531106.54308  21984832.360    90024244.92345
  23466541.200   123317517.16107  23466540.520    96091572.08644
  21710243.020   114088095.15409  21710241.980    88899821.45946
  22998075.900   120855755.46107  22998074.660    94173329.02744
  21020319.580   110462539.46809  21020316.900    86074706.77547
  20866625.620   109654940.72209  20866622.440    85445419.71247
  20361754.420   107001762.89409  20361755.940    83378012.05848
  23338545.940   122644926.19107  23338546.920    95567479.61844
 15 02 25 02 49  0.0000000  0  9G01G04G11G16G18G19G22G27G32
  24448636.200   128478450.57805  24448640.320   100113084.46244
  21971984.240   115463592.01708  21971984.740    89971636.23344
  23450288.260   123232107.12207  23450287.520    96025018.83643
  21725569.960   114168638.32408  21725568.880    88962582.34846
  23011690.100   120927299.14807  23011688.860    94229077.36344
  21011918.300   110418390.45909  21011915.700    86040304.95447
  20869795.640   109671598.91709  20869792.380    85458400.12947
  20361425.940   107000036.42309  20361427.380    83376666.75848
  23316791.840   122530607.42707  23316792.620    95478400.07043
 15 02 25 02 49 30.0000000  0  9G01G04G11G16G18G19G22G27G32
  24432799.160   128395226.64205  24432803.020   100048234.66043
  21959184.020   115396326.34208  21959184.440    89919221.42844
  23434055.960   123146805.49707  23434055.200    95958550.05442
  21740969.840   114249565.52608  21740968.840    89025642.50146
  23025361.160   120999141.16607  23025360.040    94285058.15644
  21003564.560   110374491.40909  21003562.060    86006097.91947
  20873063.720   109688772.67509  20873060.380    85471782.28547
  20361163.860   106998658.94709  20361165.260    83375593.39148
  23295068.880   122416452.61507  23295069.600    95389448.31344
 15 02 25 02 50  0.0000000  0  9G01G04G11G16G18G19G22G27G32
  24416987.640   128312135.40605  24416991.080    99983488.34441
  21946431.240   115329310.06208  21946431.700    89867000.98145
  23417844.540   123061613.32707  23417843.460    95892166.57543
  21756442.420   114330875.15508  21756441.580    89089000.64646
  23039088.820   121071280.27507  23039087.820    94341270.42044
  20995258.780   110330844.00209  20995256.220    85972086.95447
  20876429.800   109706461.53909  20876426.420    85485565.81547
  20360968.480   106997631.96309  20360969.800    83374793.13448
  23273377.760   122302465.01807  23273378.400    95300626.84843
 15 02 25 02 50 30.0000000  0  9G01G04G11G16G18G19G22G27G32
  24401201.520   128229177.22505  24401204.520    99918845.63641
  21933725.940   115262543.67808  21933726.400    89814975.25045
  23401653.920   122976530.86307  23401652.680    95825868.57643
  21771987.400   114412565.24408  21771986.660    89152655.24846
  23052872.760   121143714.38407  23052871.760    94397712.58044
  20987001.040   110287449.51409  20986998.500    85938273.06947
  20879893.700   109724664.65609  20879890.340    85499750.06047
  20360839.940   106996956.51009  20360841.220    83374266.80148
  23251719.060   122188647.55207  23251719.740    95211937.96143
 15 02 25 02 51  0.0000000  0  9G01G04G11G16G18G19G22G27G32
  24385441.920   128146359.23705  24385444.760    99854312.15844
  21921069.460   115196034.14908  21921070.020    89763149.66245
  23385485.560   122891565.70507  23385484.380    95759661.98443
  21787605.640   114494640.04608  21787604.900    89216609.62946
  23066713.640   121216448.24207  23066712.640    94454388.31844
  20978793.100   110244316.55309  20978790.520    85904662.97047
  20883456.580   109743387.76709  20883453.220    85514339.50147
  20360779.820   106996640.50909  20360781.080    83374020.56048
  23230094.500   122075009.75707  23230095.220    95123389.07444
 15 02 25 02 51 30.0000000  0  9G01G04G11G16G18G19G22G27G32
  24369707.980   128063676.65105  24369711.180    99789884.25144
  21908460.940   115129776.49108  21908461.560    89711520.33045
  23369338.700   122806713.29107  23369337.540    95693543.24443
  21803295.780   114577092.07808  21803294.940    89280857.95546
  23080610.160   121289474.87107  23080609.040    94511292.19544
  20970634.140   110201441.13109  20970631.580    85871253.55847
  20887117.280   109762624.98309  20887113.940    85529329.54847
  20360787.300   106996679.89309  20360788.540    83374051.24748
  23208503.640   121961549.38907  23208504.320    95034978.41343
 15 02 25 02 52  0.0000000  0  9G01G04G11G16G18G19G22G27G32
  24353999.880   127981131.50005  24354003.500    99725563.37643
  21895900.760   115063772.84908  21895901.500    89660088.94345
  23353213.460   122721975.46907  23353212.380    95627513.80944
  21819057.580   114659920.57508  21819056.700    89345399.63146
  23094562.280   121362793.78007  23094561.080    94568423.80044
  20962524.780   110158826.36209  20962522.200    85838047.24647
  20890875.880   109782376.90909  20890872.660    85544720.65747
  20360862.940   106997077.38109  20360864.160    83374360.97648
  23186947.460   121848270.94407  23186947.980    94946709.53944
 15 02 25 02 52 30.0000000  0  9G01G04G11G16G18G19G22G27G32
  24338317.460   127898721.60805  24338321.400    99661347.89243
  21883388.560   114998020.91008  21883389.360    89608853.69545
  23337109.740   122637350.69507  23337108.740    95561572.44943
  21834890.040   114743120.37508  21834889.100    89410230.62646
  23108569.060   121436400.15007  23108567.760    94625779.38344
  20954464.860   110116470.96509  20954462.240    85805043.04947
  20894731.800   109802640.22609  20894728.680    85560510.25947
  20361006.440   106997831.46009  20361007.660    83374948.56448
  23165425.880   121735174.63707  23165426.420    94858582.57644
 15 02 25 02 53  0.0000000  0  9G01G04G11G16G18G19G22G27G32
  24322661.180   127816447.71905  24322665.020    99597238.33444
  21870924.560   114932521.72508  21870925.260    89557815.39145
  23321027.800   122552840.03706  23321026.880    95495720.02343
  21850792.700   114826689.10508  21850791.760    89475349.10846
  23122630.300   121510292.67007  23122628.940    94683357.98444
  20946454.560   110074376.70109  20946451.960    85772242.33347
  20898684.980   109823414.62409  20898681.940    85576698.10347
  20361218.080   106998943.75909  20361219.360    83375815.29648
  23143939.580   121622263.93407  23143940.060    94770600.26544
 15 02 25 02 53 30.0000000  0  9G01G04G11G16G18G19G22G27G32
  24307030.580   127734307.90406  24307034.380    99533233.31044
  21858508.160   114867272.66608  21858508.740    89506971.98745
  23304967.080   122468441.49506  23304966.400    95429954.96944
  21866764.860   114910622.74908  21866763.920    89540751.93646
  23136745.180   121584466.80207  23136743.680    94741156.00144
  20938493.740   110032542.89108  20938491.240    85739644.56048
  20902734.800   109844696.72909  20902731.820    85593281.56247
  20361497.640   107000412.94609  20361498.940    83376960.10948
  23122488.700   121509539.32907  23122489.080    94682762.92344
 15 02 25 02 54  0.0000000  0  9G01G04G11G16G18G19G22G27G32
  24291426.580   127652307.16706  24291430.060    99469336.68542
  21846140.440   114802279.38108  21846140.880    89456327.87345
  23288928.660   122384160.22706  23288928.120    95364281.29744
  21882807.000   114994923.90508  21882806.060    89606441.12446
  23150914.180   121658925.35007  23150912.580    94799175.64644
  20930583.640   109990975.68409  20930581.300    85707254.54548
  20906881.980   109866490.15509  20906879.000    85610263.45248
  20361846.260   107002244.79909  20361847.580    83378387.52148
  23101074.700   121397008.22307  23101075.060    94595076.38344
 15 02 25 02 54 30.0000000  0 10G01G04G11G14G16G18G19G22G27G32
  24275849.860   127570449.58706  24275853.300    99405551.58645
  21833822.060   114737545.55008  21833822.400    89405885.94745
  23272913.600   122300001.17806  23272913.080    95298702.86643
  24701601.380   129807790.11105  24701605.160   101148944.23243
  21898919.160   115079593.52508  21898918.160    89672417.44546
  23165137.680   121733670.15507  23165136.100    94857418.33344
  20922725.380   109949680.12809  20922723.060    85675076.19448
  20911126.920   109888797.35509  20911123.920    85627645.69048
  20362264.820   107004444.17309  20362266.220    83380101.31748
  23079698.800   121284677.45207  23079699.200    94507545.95345
 15 02 25 02 55  0.0000000  0 10G01G04G11G14G16G18G19G22G27G32
  24260296.780   127488715.84006  24260299.980    99341862.96644
  21821549.260   114673051.84208  21821549.640    89355631.12645
  23256918.220   122215945.06307  23256917.600    95233204.64544
  24687484.620   129733603.57205  24687484.000   101091117.59044
  21915097.040   115164609.07908  21915096.080    89738663.32346
  23179411.440   121808679.24107  23179409.980    94915866.97044
  20914915.440   109908637.99109  20914913.060    85643095.30848
  20915465.860   109911598.29109  20915462.840    85645412.65848
  20362749.740   107006992.36909  20362751.200    83382086.92648
  23058357.760   121172530.09507  23058358.220    94420158.41944
 15 02 25 02 55 30.0000000  0 10G01G04G11G14G16G18G19G22G27G32
  24244770.920   127407125.63406  24244774.120    99278286.22543
  21809325.900   114608817.82008  21809326.300    89305578.65645
  23240946.220   122132011.65207  23240945.640    95167802.01044
  24673379.300   129659477.97205  24673378.500   101033357.38142
  21931343.980   115249987.85608  21931343.020    89805192.23446
  23193738.800   121883970.04207  23193737.480    94974535.12444
  20907157.660   109867870.01709  20907155.180    85611328.05848
  20919902.200   109934911.18209  20919899.160    85663578.54848
  20363304.940   107009909.81009  20363306.420    83384360.25648
  23037055.860   121060588.29607  23037056.400    94332931.08444
 15 02 25 02 56  0.0000000  0 10G01G04G11G14G16G18G19G22G27G32
  24229271.280   127325674.07106  24229274.460    99214817.49444
  21797151.040   114544838.51408  21797151.300    89255724.66445
  23224996.780   122048196.33007  23224996.000    95102491.37744
  24659285.060   129585410.79605  24659284.680   100975642.78043
  21947658.540   115335722.12508  21947657.600    89871998.14346
  23208118.460   121959535.56507  23208117.320    95033417.34044
  20899451.280   109827372.34609  20899448.760    85579771.43748
  20924434.720   109958729.61409  20924431.660    85682138.37048
  20363929.640   107013192.32309  20363931.000    83386918.04948
  23015792.660   120948849.64907  23015793.200    94245862.04544
 15 02 25 02 56 30.0000000  0 10G01G04G11G14G16G18G19G22G27G32
  24213798.260   127244363.22806  24213801.420    99151458.42844
  21785025.040   114481116.09408  21785025.280    89206070.84845
  23209070.260   121964501.71307  23209069.260    95037274.82444
  24645202.560   129511407.00904  24645202.600   100917977.48941
  21964040.780   115421811.44808  21964039.720    89939080.72146
  23222550.380   122035375.43107  23222549.340    95092513.32445
  20891796.860   109787148.17409  20891794.420    85548427.94148
  20929063.540   109983054.12709  20929060.420    85701092.53648
  20364624.300   107016842.73109  20364625.580    83389762.51648
  22994569.040   120837318.86007  22994569.500    94158954.95144
 15 02 25 02 57  0.0000000  0 10G01G04G11G14G16G18G19G22G27G32
  24198351.480   127163190.02706  24198354.460    99088206.59543
  21772947.320   114417647.48008  21772947.740    89156614.79246
  23193166.160   121880924.81407  23193165.240    94972149.99844
  24631131.900   129437466.10304  24631131.460   100860361.26944
  21980489.560   115508249.70008  21980488.360    90006435.18246
  23237033.500   122111484.19107  23237032.640    95151818.85445
  20884194.180   109747195.68609  20884191.640    85517296.12648
  20933787.820   110007880.35209  20933784.620    85720437.65148
  20365388.460   107020858.61309  20365389.820    83392891.76948
  22973384.900   120725995.33507  22973385.280    94072209.37444
 15 02 25 02 57 30.0000000  0 10G01G04G11G14G16G18G19G22G27G32
  24182931.120   127082155.85406  24182934.180    99025063.11042
  21760918.200   114354434.04408  21760918.660    89107357.57345
  23177284.780   121797467.36507  23177283.800    94907118.27344
  24617073.940   129363592.29704  24617073.860   100802797.26344
  21997004.460   115595035.37608  21997003.220    90074060.37846
  23251567.480   122187860.83907  23251566.800    95211333.10344
  20876643.520   109707517.09409  20876640.920    85486377.74948
  20938607.540   110033208.35909  20938604.340    85740173.76048
  20366222.540   107025242.05909  20366223.980    83396307.42948
  22952240.920   120614882.98007  22952241.420    93985628.34544
 15 02 25 02 58  0.0000000  0 10G01G04G11G14G16G18G19G22G27G32
  24167537.140   127001261.19306  24167540.220    98962028.29643
  21748937.740   114291476.03608  21748938.100    89058299.39145
  23161426.180   121714129.93307  23161425.200    94842180.03744
  24603029.420   129289788.75004  24603029.180   100745288.08043
  22013584.840   115682165.88508  22013583.780    90141954.26346
  23266152.000   122264503.45907  23266151.280    95271054.62444
  20869145.300   109668114.13409  20869142.800    85455674.15648
  20943522.600   110059037.29809  20943519.400    85760300.20747
  20367126.800   107029994.26609  20367128.320    83400010.44548
  22931137.640   120503984.83507  22931138.360    93899214.22445
 15 02 25 02 58 30.0000000  0 10G01G04G11G14G16G18G19G22G27G32
  24152169.320   126920503.51606  24152172.500    98899100.24844
  21737005.360   114228771.06408  21737005.760    89009438.39045
  23145590.080   121630910.44807  23145589.020    94777333.69344
  24588998.360   129216055.64104  24588997.920   100687833.71444
  22030229.920   115769636.71508  22030229.140    90210113.34146
  23280786.380   122341407.32107  23280785.460    95330979.70244
  20861699.260   109628985.37109  20861696.860    85425184.21348
  20948532.180   110085363.18309  20948529.060    85780813.88548
  20368100.880   107035113.45909  20368102.400    83403999.42148
  22910075.160   120393300.94707  22910076.020    93812967.06345
 15 02 25 02 59  0.0000000  0 10G01G04G11G14G16G18G19G22G27G32
  24136828.300   126839886.98706  24136831.500    98836282.19744
  21725121.840   114166323.07608  21725122.320    88960777.63245
  23129777.280   121547813.38407  23129776.000    94712582.74844
  24574981.940   129142399.56404  24574982.080   100630439.40943
  22046939.900   115857448.91508  22046939.360    90278538.41746
  23295470.900   122418574.05907  23295469.740    95391109.62244
  20854306.460   109590136.12109  20854304.120    85394912.07248
  20953636.820   110112188.62909  20953633.800    85801716.83548
  20369145.780   107040604.46909  20369147.280    83408278.12048
  22889054.780   120282838.07307  22889055.660    93726892.12144
 15 02 25 02 59 30.0000000  0 10G01G04G11G14G16G18G19G22G27G32
  24121513.740   126759408.69306  24121516.980    98773571.85744
  21713286.680   114104129.26108  21713287.260    88912314.93845
  23113987.300   121464836.03807  23113985.660    94647925.09443
  24560980.340   129068820.29705  24560980.680   100573104.94743
  22063713.720   115945596.38808  22063713.260    90347224.76246
  23310204.480   122495998.68007  23310203.220    95451440.47944
  20846966.540   109551564.55509  20846964.220    85364856.30848
  20958835.660   110139509.25609  20958832.820    85823005.63448
  20370261.000   107046464.97909  20370262.440    83412844.74148
  22868076.300   120172595.59007  22868077.100    93640988.91044
 15 02 25 03 00  0.0000000  0 10G01G04G11G14G16G18G19G22G27G32
  24106225.860   126679069.56906  24106228.980    98710969.98145
  21701500.060   114042190.43108  21701500.660    88864050.93045
  23098220.360   121381979.81707  23098218.660    94583361.82444
  24546994.080   128995321.71305  24546994.800   100515833.38141
  22080551.120   116034077.60608  22080550.640    90416171.16246
  23324986.800   122573679.61107  23324985.460    95511971.08243
  20839679.900   109513272.83509  20839677.560    85335018.60548
  20964128.740   110167324.76609  20964126.000    85844680.05348
  20371446.880   107052696.67609  20371448.260    83417700.60448
  22847140.480   120062577.10807  22847141.240    93555260.23145
 15 02 25 03 00 30.0000000  0 10G01G04G11G14G16G18G19G22G27G32
  24090965.140   126598873.00606  24090968.060    98648479.17244
  21689762.640   113980509.90408  21689763.240    88815988.19946
  23082477.240   121299248.63507  23082475.620    94518896.00144
  24533024.200   128921909.89205  24533024.860   100458629.31443
  22097452.100   116122893.07908  22097451.640    90485377.99946
  23339817.960   122651617.84007  23339816.620    95572702.15644
  20832447.360   109475265.48109  20832444.980    85305402.48948
  20969516.360   110195637.09409  20969513.660    85866741.60748
  20372704.180   107059303.72709  20372705.560    83422848.96048
  22826248.460   119952788.65707  22826249.180    93469710.80744
 15 02 25 03 01  0.0000000  0 10G01G04G11G14G16G18G19G22G27G32
  24075731.120   126518816.81606  24075733.660    98586097.79443
  21678074.000   113919085.71708  21678074.600    88768125.20245
  23066757.420   121216640.53907  23066755.900    94454526.08644
  24519070.880   128848585.22605  24519071.100   100401493.26741
  22114415.840   116212038.15308  22114415.320    90554841.67946
  23354697.180   122729808.97107  23354695.880    95633630.32644
  20825268.720   109437541.31309  20825266.300    85276007.03148
  20974997.780   110224442.26409  20974995.040    85889187.19448
  20374032.620   107066284.57709  20374033.980    83428288.57548
  22805400.300   119843230.56407  22805400.920    93384340.88945
 15 02 25 03 01 30.0000000  0 10G01G04G11G14G16G18G19G22G27G32
  24060523.840   126438901.98306  24060526.220    98523826.48244
  21666434.260   113857918.47908  21666434.800    88720462.43846
  23051061.100   121134156.72707  23051059.780    94390253.02544
  24505135.000   128775351.55105  24505134.540   100344428.08341
  22131441.860   116301510.43408  22131441.280    90624560.33946
  23369624.080   122808251.69207  23369623.180    95694754.50644
  20818144.400   109400102.67709  20818141.940    85246834.06648
  20980572.980   110253739.98809  20980570.120    85912016.59547
  20375432.480   107073640.81709  20375433.880    83434020.70648
  22784596.580   119733906.21407  22784597.220    93299153.11144
 15 02 25 03 02  0.0000000  0 10G01G04G11G14G16G18G19G22G27G32
  24045343.620   126359128.90506  24045345.960    98461665.68143
  21654843.440   113797008.65508  21654844.020    88673000.25245
  23035388.480   121051797.80207  23035387.500    94326077.26844
  24491216.780   128702211.77804  24491216.700   100287436.12541
  22148529.680   116391307.72308  22148529.180    90694532.24146
  23384598.360   122886943.95407  23384598.020    95756073.13744
  20811074.700   109362951.29509  20811072.320    85217884.94148
  20986241.700   110283529.02309  20986238.720    85935228.83148
  20376904.020   107081373.60209  20376905.420    83440046.24648
  22763837.900   119624818.55707  22763838.540    93214149.77044
 15 02 25 03 02 30.0000000  0 10G01G04G11G14G16G18G19G22G27G32
  24030190.000   126279495.78206  24030192.200    98399613.92544
  21643301.300   113736354.43208  21643301.920    88625737.22045
  23019739.600   120969562.73907  23019738.820    94261998.03744
  24477316.580   128629166.99804  24477315.300   100230512.12841
  22165678.460   116481424.88708  22165677.920    90764753.38746
  23399619.480   122965881.87007  23399619.620    95817583.19144
  20804059.500   109326086.07809  20804057.100    85189158.79848
  20992003.280   110313805.95009  20992000.200    85958821.24947
  20378446.960   107089481.79609  20378448.360    83446364.30748
  22743124.360   119515968.40307  22743125.020    93129331.48744
 15 02 25 03 03  0.0000000  0 10G01G04G11G14G16G18G19G22G27G32
  24015063.060   126200003.69906  24015065.420    98337672.04244
  21631807.980   113675956.81908  21631808.700    88578674.16646
  23004114.480   120887452.62607  23004113.680    94198016.15144
  24463435.240   128556220.99904  24463435.240   100173671.10544
  22182887.960   116571861.01008  22182887.300    90835223.07246
  23414687.160   123045063.97507  23414687.500    95879283.52044
  20797099.200   109289509.33909  20797096.760    85160657.44748
  20997857.640   110344570.39609  20997854.440    85982793.54347
  20380061.640   107097967.08309  20380063.040    83452976.21148
  22722456.740   119407359.40907  22722457.380    93044701.11644
 15 02 25 03 03 30.0000000  0  9G01G04G11G16G18G19G22G27G32
  23999962.640   126120651.35706  23999965.280    98275839.09844
  21620363.300   113615814.46808  21620363.880    88531810.00846
  22988512.860   120805466.76306  22988512.420    94134131.09044
  22200157.360   116662611.59208  22200156.560    90905937.80146
  23429800.700   123124486.87607  23429801.080    95941171.49344
  20790193.760   109253221.08909  20790191.340    85132380.89048
  21003804.200   110375819.66409  21003800.960    86007143.63248
  20381747.960   107106828.87309  20381749.400    83459881.50048
  22701835.180   119298992.74707  22701835.840    92960259.58844
 15 02 25 03 04  0.0000000  0  9G01G04G11G16G18G19G22G27G32
  23984889.220   126041440.67306  23984892.080    98214116.51943
  21608967.500   113555929.33108  21608968.160    88485146.28446
  22972935.380   120723607.35206  22972935.100    94070344.56644
  22217486.360   116753675.50208  22217485.420    90976896.68846
  23444960.040   123204149.99507  23444960.440    96003246.62644
  20783343.840   109217224.56609  20783341.380    85104331.65448
  21009843.020   110407553.96909  21009839.800    86031871.65847
  20383506.460   107116069.76609  20383507.940    83467082.18848
  22681260.640   119190872.97307  22681261.220    92876010.41944
 15 02 25 03 04 30.0000000  0 10G01G04G11G14G16G18G19G22G27G32
  23969843.520   125962375.60106  23969846.480    98152507.39543
  21597621.420   113496305.21508  21597622.060    88438685.94046
  22957382.860   120641878.65207  22957382.500    94006659.93144
  24421910.500   128338002.18804  24421911.680   100003637.88444
  22234875.060   116845053.56908  22234874.080    91048100.35946
  23460165.620   123284055.09807  23460165.840    96065510.33644
  20776550.400   109181524.61409  20776547.900    85076513.50348
  21015974.560   110439775.56909  21015971.420    86056979.39647
  20385338.000   107125694.28709  20385339.480    83474581.81348
  22660734.240   119083006.34407  22660734.720    92791958.50744
 15 02 25 03 05  0.0000000  0 10G01G04G11G14G16G18G19G22G27G32
  23954823.580   125883445.47806  23954826.420    98091003.44444
  21586323.020   113436931.46008  21586323.600    88392420.69546
  22941853.300   120560270.26107  22941852.780    93943069.00944
  24408109.620   128265476.61305  24408110.160    99947124.52341
  22252321.100   116936733.37808  22252320.240    91119539.16046
  23475414.800   123364189.06507  23475414.800    96127952.37543
  20769811.580   109146111.81009  20769809.060    85048919.11048
  21022196.580   110472472.55709  21022193.460    86082457.57547
  20387240.620   107135692.51009  20387242.100    83482372.62548
  22640254.540   118975384.95107  22640254.980    92708097.68644
 15 02 25 03 05 30.0000000  0 10G01G04G11G14G16G18G19G22G27G32
  23939831.680   125804662.38806  23939834.360    98029614.05644
  21575074.540   113377820.20408  21575075.100    88346359.98846
  22926349.060   120478795.05807  22926348.700    93879581.87144
  24394331.060   128193069.64505  24394331.480    99890703.58441
  22269826.120   117028723.61408  22269825.480    91191219.85846
  23490709.460   123444562.03707  23490709.040    96190580.67344
  20763130.000   109110999.46009  20763127.460    85021558.83248
  21028511.040   110505655.08209  21028507.880    86108314.08848
  20389216.720   107146077.18309  20389218.280    83490464.57448
  22619824.280   118868023.51507  22619824.780    92624439.44245
 15 02 25 03 06  0.0000000  0 10G01G04G11G14G16G18G19G22G27G32
  23924866.560   125726019.99106  23924869.040    97968334.29543
  21563874.780   113318964.76608  21563875.200    88300498.61846
  22910869.020   120397446.81007  22910868.760    93816193.65444
  24380574.320   128120777.61705  24380574.800    99834372.10344
  22287388.500   117121015.10108  22287388.060    91263135.29446
  23506047.860   123525164.88207  23506046.920    96253388.08144
  20756504.600   109076182.74609  20756502.060    84994428.93248
  21034916.460   110539315.38909  21034913.180    86134542.89947
  20391265.240   107156842.59309  20391266.880    83498853.19548
  22599442.760   118760918.08307  22599443.300    92540980.68745
 15 02 25 03 06 30.0000000  0 10G01G04G11G14G16G18G19G22G27G32
  23909928.540   125647520.01706  23909930.900    97907165.49843
  21552724.140   113260367.29508  21552724.460    88254838.25346
  22895413.680   120316227.94307  22895413.260    93752906.27344
  24366840.400   128048605.33505  24366840.540    99778133.92141
  22305007.980   117213606.14908  22305007.660    91335284.15445
  23521429.880   123605997.60707  23521428.640    96316374.62544
  20749935.900   109041664.32809  20749933.380    84967531.46048
  21041412.860   110573453.93109  21041409.520    86161144.36247
  20393386.680   107167991.09609  20393388.360    83507540.34048
  22579110.860   118654073.01507  22579111.360    92457724.81244
 15 02 25 03 07  0.0000000  0 10G01G04G11G14G16G18G19G22G27G32
  23895017.960   125569164.71806  23895020.280    97846109.41544
  21541622.960   113202029.61908  21541623.260    88209380.32646
  22879983.380   120235140.98507  22879982.900    93689721.67144
  24353130.100   127976557.33805  24353129.960    99721992.66244
  22322684.540   117306496.80708  22322684.160    91407666.47145
  23536855.560   123687060.00807  23536854.060    96379540.11443
  20743424.560   109007447.47009  20743422.080    84940868.96948
  21048000.240   110608070.82809  21047996.960    86188118.56547
  20395581.660   107179525.55909  20395583.260    83516528.22848
  22558829.400   118547493.06308  22558829.840    92374675.53344
 15 02 25 03 07 30.0000000  0 10G01G04G11G14G16G18G19G22G27G32
  23880134.380   125490951.51606  23880136.760    97785164.11844
  21530570.640   113143949.24408  21530571.000    88164122.89746
  22864577.800   120154183.66907  22864577.300    93626638.08144
  24339443.480   127904633.98305  24339443.060    99665948.54444
  22340417.080   117399681.49708  22340416.520    91480277.89846
  23552323.960   123768347.03807  23552322.380    96442880.64344
  20736970.420   108973530.88509  20736967.960    84914440.46648
  21054677.840   110643161.77909  21054674.620    86215462.16648
  20397849.720   107191444.01109  20397851.240    83525815.32548
  22538598.360   118441178.18007  22538598.760    92291832.79044
 15 02 25 03 08  0.0000000  0 10G01G04G11G14G16G18G19G22G27G32
  23865278.160   125412882.54406  23865280.940    97724331.20244
  21519567.680   113086128.22808  21519568.040    88119067.55846
  22849197.260   120073358.57507  22849196.800    93563657.53144
  24325781.520   127832840.25304  24325781.340    99610005.37841
  22358205.400   117493159.51608  22358204.640    91553117.90646
  23567835.080   123849858.74907  23567833.540    96506396.26644
  20730574.100   108939918.17309  20730571.720    84888248.74448
  21061445.780   110678727.62809  21061442.640    86243175.81448
  20400191.380   107203749.27309  20400192.780    83535403.83548
  22518418.620   118335133.04907  22518419.040    92209200.26145
 15 02 25 03 08 30.0000000  0 10G01G04G11G14G16G18G19G22G27G32
  23850449.000   125334955.63906  23850451.920    97663608.94644
  21508613.720   113028564.56908  21508614.060    88074212.75946
  22833841.600   119992663.97407  22833840.980    93500778.64244
  24312144.320   127761176.85105  24312144.740    99554163.77043
  22376048.520   117586925.66608  22376047.600    91626182.42245
  23583388.100   123931590.45806  23583386.620    96570083.29144
  20724235.460   108906608.32109  20724233.100    84862293.01348
  21068303.360   110714764.50909  21068300.260    86271256.50147
  20402606.300   107216439.71909  20402607.660    83545292.48148
  22498290.220   118229357.90807  22498290.580    92126778.07444
 15 02 25 03 09  0.0000000  0 10G01G04G11G14G16G18G19G22G27G32
  23835647.320   125257172.89706  23835650.240    97602999.03644
  21497709.100   112971260.09208  21497709.400    88029559.93346
  22818511.360   119912102.59407  22818510.500    93438003.57544
  24298532.800   127689648.67905  24298533.620    99498427.57943
  22393946.320   117680979.29708  22393945.320    91699470.95846
  23598982.900   124013541.91906  23598981.380    96633941.56644
  20717955.060   108873604.45509  20717952.700    84836575.72148
  21075250.620   110751272.67809  21075247.420    86299704.42747
  20405095.020   107229518.09909  20405096.420    83555483.41748
  22478214.120   118123857.55907  22478214.540    92044570.04045
 15 02 25 03 09 30.0000000  0 10G01G04G11G14G16G18G19G22G27G32
  23820872.840   125179532.92006  23820875.680    97542500.39344
  21486853.440   112914213.45208  21486853.720    87985108.01946
  22803206.280   119831673.38007  22803205.240    93375331.48144
  24284947.340   127618256.74705  24284948.320    99442797.47741
  22411897.980   117775316.12508  22411897.020    91772980.15646
  23614618.860   124095709.81406  23614617.520    96697968.50844
  20711732.860   108840906.31009  20711730.480    84811096.65148
  21082286.940   110788249.13109  21082283.720    86328517.25147
  20407657.460   107242983.61509  20407658.860    83565976.01848
  22458190.580   118018633.14308  22458191.020    91962577.01145
 15 02 25 03 10  0.0000000  0 10G01G04G11G14G16G18G19G22G27G32
  23806125.580   125102036.56806  23806128.600    97482113.66845
  21476046.980   112857425.37908  21476047.200    87940857.58546
  22787926.520   119751377.41008  22787925.340    93312763.20544
  24271388.660   127547004.96105  24271389.540    99387276.66144
  22429903.120   117869933.69908  22429902.180    91846708.12745
  23630295.700   124178092.64506  23630294.560    96762162.88144
  20705569.160   108808515.97709  20705566.820    84785857.43748
  21089412.200   110825692.92409  21089409.000    86357694.23147
  20410293.840   107256837.73909  20410295.260    83576771.42548
  22438220.220   117913688.04908  22438220.640    91880801.64245
 15 02 25 03 10 30.0000000  0 10G01G04G11G14G16G18G19G22G27G32
  23791405.860   125024685.13606  23791409.300    97421839.85244
  21465290.000   112800897.24408  21465290.200    87896809.67946
  22772672.400   119671216.70208  22772671.200    93250300.34444
  24257857.440   127475897.37605  24257858.440    99331868.19243
  22447961.620   117964831.54908  22447960.760    91920654.49245
  23646013.280   124260689.52406  23646012.360    96826524.10644
  20699464.580   108776436.11109  20699462.340    84760860.14548
  21096626.460   110863603.82509  21096623.180    86387235.19447
  20413004.460   107271082.33709  20413005.920    83587871.11448
  22418303.640   117809025.89808  22418304.080    91799246.74845
 15 02 25 03 11  0.0000000  0 10G01G04G11G14G16G18G19G22G27G32
  23776713.660   124947477.89006  23776717.340    97361678.37444
  21454582.340   112744628.14208  21454582.540    87852963.62846
  22757443.960   119591190.82508  22757442.900    93187942.53944
  24244353.800   127404936.15205  24244355.000    99276573.75443
  22466072.600   118060005.27308  22466071.900    91994815.82945
  23661771.100   124343497.25606  23661770.180    96891049.56643
  20693419.260   108744667.38009  20693416.920    84736105.29148
  21103929.140   110901979.24709  21103925.800    86417138.12147
  20415789.360   107285717.24609  20415790.860    83599274.93948
  22398441.340   117704648.75008  22398441.800    91717913.92745
 15 02 25 03 11 30.0000000  0 10G01G04G11G14G16G18G19G22G27G32
  23762048.760   124870413.78506  23762052.780    97301628.47344
  21443923.740   112688617.07608  21443924.000    87809318.64946
  22742241.020   119511299.21207  22742240.100    93125689.34844
  24230878.300   127334122.90205  24230879.200    99221394.64543
  22484235.220   118155450.76408  22484234.720    92069188.92646
  23677568.480   124426512.57306  23677567.480    96955736.87344
  20687433.140   108713209.80509  20687430.660    84711592.89348
  21111319.700   110940816.45309  21111316.340    86447400.87847
  20418648.520   107300742.06509  20418649.960    83610982.58448
  22378633.520   117600557.97708  22378633.900    91636804.26745
 15 02 25 03 12  0.0000000  0 10G01G04G11G14G16G18G19G22G27G32
  23747411.320   124793493.76306  23747415.240    97241690.83744
  21433314.420   112632865.17008  21433314.780    87765875.61446
  22727063.860   119431543.33707  22727063.060    93063541.92345
  24217431.760   127263461.48805  24217432.680    99166333.77041
  22502449.280   118251166.61308  22502449.020    92143772.70145
  23693405.160   124509734.34907  23693403.940    97020584.97444
  20681506.560   108682065.66109  20681504.060    84687324.73748
  21118797.900   110980114.69009  21118794.540    86478022.88247
  20421582.140   107316158.27609  20421583.560    83622995.21448
  22358880.880   117496757.06108  22358881.280    91555920.45745
 15 02 25 03 12 30.0000000  0 10G01G04G11G14G16G18G19G22G27G32
  23732801.200   124716717.83905  23732805.120    97181865.47844
  21422754.320   112577372.04508  21422754.800    87722634.22646
  22711912.820   119351923.89207  22711912.040    93001500.82244
  24204014.760   127192955.03405  24204015.580    99111393.77743
  22520714.180   118347149.68608  22520714.060    92218564.70446
  23709280.760   124593160.35007  23709279.440    97085592.24344
  20675639.800   108651235.87109  20675637.320    84663301.52848
  21126363.420   111019871.94209  21126360.100    86509002.55347
  20424590.380   107331966.46609  20424591.740    83635313.27248
  22339183.860   117393248.61108  22339184.220    91475264.55345
 15 02 25 03 13  0.0000000  0 10G01G04G11G14G16G18G19G22G27G32
  23718218.660   124640085.79106  23718222.180    97122152.21844
  21412243.460   112522137.57408  21412244.020    87679594.39046
  22696787.660   119272441.20207  22696787.080    92939566.29744
  24190627.720   127122605.99205  24190628.800    99056576.31143
  22539029.460   118443396.90608  22539029.260    92293562.52745
  23725194.820   124676788.25407  23725193.340    97150756.83143
  20669833.040   108620721.20209  20669830.600    84639523.87648
  21134016.000   111060086.82609  21134012.760    86540338.82647
  20427673.260   107348166.94409  20427674.600    83647937.01748
  22319542.840   117290034.75408  22319543.260    91394838.18145
 15 02 25 03 13 30.0000000  0 10G01G04G11G14G16G18G19G22G27G32
  23703663.820   124563599.40906  23703667.120    97062552.47544
  21401782.160   112467163.65208  21401782.780    87636757.57046
  22681688.760   119193097.24307  22681688.340    92877739.84744
  24177271.540   127052418.80905  24177272.440    99001885.01543
  22557394.940   118539907.10908  22557394.560    92368765.26445
  23741147.100   124760617.32607  23741145.420    97216078.17744
  20664086.940   108590525.35009  20664084.500    84615994.64148
  21141755.680   111100759.04309  21141752.480    86572031.46647
  20430831.220   107364762.15709  20430832.560    83660868.35048
  22299958.700   117187119.86608  22299959.220    91314644.78045
 15 02 25 03 14  0.0000000  0 10G01G04G11G14G16G18G19G22G27G32
  23689136.460   124487257.71706  23689139.920    97003065.47544
  21391370.340   112412449.23708  21391370.880    87594122.95746
  22666616.220   119113891.34307  22666615.840    92816020.97544
  24163946.520   126982395.12205  24163947.160    98947321.11241
  22575809.840   118636676.75108  22575809.160    92444170.14945
  23757137.020   124844644.46007  23757134.900    97281553.88143
  20658401.580   108560648.73409  20658399.160    84592714.16348
  21149581.900   111141885.86209  21149578.780    86604078.33447
  20434064.220   107381751.61109  20434065.520    83674106.87348
  22280431.800   117084505.56908  22280432.420    91234685.61045
 15 02 25 03 14 30.0000000  0 10G01G04G11G14G16G18G19G22G27G32
  23674636.700   124411061.99605  23674640.420    96943692.20944
  21381008.140   112357995.46308  21381008.620    87551691.46446
  22651570.460   119034825.64307  22651570.120    92754411.36145
  24150653.360   126912539.34405  24150653.660    98892888.06543
  22594273.880   118733704.13108  22594272.720    92519775.88645
  23773164.360   124928868.64807  23773161.980    97347183.11244
  20652777.500   108531093.53209  20652774.960    84569684.13448
  21157494.500   111183466.87209  21157491.440    86636479.12547
  20437372.540   107399137.19909  20437373.900    83687654.08048
  22260962.860   116982195.72008  22260963.540    91154963.66245
 15 02 25 03 15  0.0000000  0 10G01G04G11G14G16G18G19G22G27G32
  23660164.560   124335010.82306  23660168.480    96884431.56944
  21370695.260   112303800.80808  21370695.720    87509461.86246
  22636551.220   118955899.23807  22636550.880    92692910.29744
  24137392.380   126842852.70805  24137392.680    98838586.82244
  22612785.940   118830984.44408  22612784.560    92595578.70245
  23789228.460   125013286.34407  23789226.140    97412963.12343
  20647214.460   108501859.41709  20647211.860    84546904.30648
  21165492.840   111225498.46909  21165489.820    86669231.01947
  20440756.000   107416917.90309  20440757.520    83701509.16948
  22241552.060   116880191.25908  22241552.900    91075479.68545
 15 02 25 03 15 30.0000000  0 10G01G04G11G14G16G18G19G22G27G32
  23645720.160   124259104.66806  23645723.920    96825283.92444
  21360431.820   112249865.98508  21360432.240    87467434.74446
  22621558.660   118877113.05307  22621558.300    92631518.50345
  24124164.260   126773338.68105  24124164.800    98784420.09941
  22631345.580   118928515.73408  22631344.060    92671577.12145
  23805329.000   125097896.01706  23805326.940    97478892.73844
  20641712.840   108472948.12309  20641710.280    84524376.03148
  21173576.800   111267979.87109  21173573.800    86702333.41047
  20444214.940   107435094.84509  20444216.540    83715673.01548
  22222199.920   116778495.21108  22222200.800    90996236.03945
 15 02 25 03 16  0.0000000  0 10G01G04G11G14G16G18G19G22G27G32
  23631303.400   124183344.10706  23631307.340    96766249.71644
  21350217.880   112196191.23208  21350218.280    87425610.26946
  22606592.980   118798468.15507  22606592.700    92570236.79344
  24110969.700   126704000.49805  24110969.980    98730390.29944
  22649952.180   119026295.26508  22649950.900    92747768.94245
  23821465.700   125182695.61006  23821463.700    97544970.32944
  20636272.940   108444361.49209  20636270.420    84502100.73648
  21181746.040   111310909.56409  21181743.040    86735785.11947
  20447749.540   107453669.05209  20447751.100    83730146.42348
  22202906.980   116677110.54208  22202907.920    90917235.01545
 15 02 25 03 16 30.0000000  0 10G01G04G11G14G16G18G19G22G27G32
  23616913.900   124107727.01806  23616917.760    96707327.34444
  21340053.120   112142774.41608  21340053.420    87383986.78246
  22591653.980   118719962.96207  22591653.580    92509063.93645
  24097808.880   126634838.90506  24097808.840    98676498.19642
  22668605.140   119124318.85008  22668604.260    92824150.96045
  23837637.860   125267681.15306  23837635.960    97611192.82944
  20630894.740   108416098.76509  20630892.160    84480077.82848
  21189999.860   111354283.65209  21189996.820    86769583.11047
  20451359.440   107472638.96009  20451360.940    83744928.16148
  22183673.420   116576037.77508  22183674.420    90838477.03146
 15 02 25 03 17  0.0000000  0 10G01G04G11G14G16G18G19G22G27G32
  23602552.420   124032257.28406  23602556.100    96648519.78644
  21329938.220   112089619.65108  21329938.420    87342567.49746
  22576742.440   118641602.10107  22576741.860    92448003.55044
  24084682.900   126565860.52405  24084682.660    98622748.83544
  22687304.600   119222586.85208  22687304.220    92900723.41745
  23853845.560   125352854.06306  23853843.760    97677561.34243
  20625579.200   108388165.14909  20625576.580    84458311.38248
  21198338.660   111398104.16109  21198335.560    86803728.95847
  20455045.420   107492008.86609  20455046.920    83760021.59448
  22164500.520   116475283.20108  22164501.340    90759966.98445
 15 02 25 03 17 30.0000000  0 10G01G04G11G14G16G18G19G22G27G32
  23588218.780   123956933.50006  23588222.060    96589825.96744
  21319872.820   112036725.29908  21319872.960    87301351.13146
  22561858.160   118563384.52907  22561857.500    92387054.81544
  24071591.900   126497066.94405  24071591.680    98569143.47344
  22706049.980   119321095.01108  22706049.880    92977483.01845
  23870088.360   125438210.98206  23870086.640    97744073.21644
  20620326.180   108360560.45509  20620323.560    84436801.23748
  21206761.800   111442368.00209  21206758.660    86838220.26447
  20458807.400   107511778.02509  20458808.900    83775426.12448
  22145388.420   116374848.03508  22145389.040    90681705.82845
 15 02 25 03 18  0.0000000  0 10G01G04G11G14G16G18G19G22G27G32
  23573912.640   123881754.30806  23573915.880    96531244.81144
  21309856.680   111984089.94208  21309856.820    87260336.57546
  22547001.000   118485309.38007  22547000.300    92326217.04444
  24058536.320   126428459.70805  24058536.200    98515683.33743
  22724840.400   119419838.95108  22724840.180    93054426.34045
  23886365.600   125523748.34006  23886363.880    97810725.67043
  20615135.640   108333284.20909  20615133.000    84415547.02248
  21215268.660   111487071.88209  21215265.480    86873054.45647
  20462645.160   107531945.43209  20462646.660    83791140.98348
  22126337.320   116274733.26208  22126337.780    90603694.34545
 15 02 25 03 18 30.0000000  0 10G01G04G11G14G16G18G19G22G27G32
  23559634.120   123806720.03506  23559637.300    96472776.56544
  21299889.880   111931714.00708  21299890.000    87219524.15446
  22532171.120   118407377.56408  22532170.380    92265490.96845
  24045516.700   126360041.86305  24045516.640    98462370.79944
  22743675.440   119518816.71708  22743674.920    93131551.84245
  23902676.920   125609464.33506  23902675.000    97877517.34843
  20610008.000   108306338.51809  20610005.400    84394550.38148
  21223858.940   111532214.12109  21223855.740    86908230.23147
  20466558.820   107552511.98909  20466560.360    83807166.87348
  22107347.760   116174941.78008  22107348.000    90525934.77145
 15 02 25 03 19  0.0000000  0 10G01G04G11G14G16G18G19G22G27G32
  23545383.460   123731832.52106  23545386.920    96414422.66844
  21289972.740   111879599.25309  21289972.840    87178915.27346
  22517369.080   118329591.50908  22517368.180    92204878.47045
  24032534.040   126291818.01005  24032533.860    98409209.32043
  22762554.760   119618026.66508  22762553.880    93208858.27345
  23919022.180   125695358.25206  23919020.180    97944447.68344
  20604943.880   108279726.11509  20604941.240    84373813.44648
  21232532.560   111577794.84609  21232529.440    86943747.67047
  20470548.880   107573479.88009  20470550.460    83823505.47948
  22088420.500   116075477.86908  22088420.560    90448430.45645
 15 02 25 03 19 30.0000000  0 10G01G04G11G14G16G18G19G22G27G32
  23531160.460   123657090.25406  23531164.200    96356181.97143
  21280104.960   111827744.02409  21280105.060    87138508.60346
  22502594.540   118251950.26808  22502593.640    92144378.83244
  24019588.560   126223789.49205  24019588.440    98356200.08544
  22781477.440   119717464.95008  22781476.320    93286342.61945
  23935400.620   125781426.84207  23935398.600    98011514.10643
  20599943.060   108253446.79709  20599940.460    84353336.05948
  21241288.980   111623810.57509  21241285.920    86979604.08647
  20474615.140   107594848.23109  20474616.740    83840156.13648
  22069555.700   115976342.42108  22069555.760    90371182.08345
 15 02 25 03 20  0.0000000  0 10G01G04G11G14G16G18G19G22G27G32
  23516965.360   123582494.42106  23516969.160    96298055.37144
  21270286.800   111776149.41509  21270286.940    87098305.01946
  22487847.760   118174455.44207  22487846.900    92083993.26245
  24006681.100   126155960.36105  24006680.940    98303346.27642
  22800443.000   119817129.46208  22800441.840    93364003.27745
  23951812.220   125867669.05707  23951810.220    98078715.81944
  20595006.080   108227503.02009  20595003.520    84333120.13148
  21250128.000   111670260.43009  21250125.000    87015798.77447
  20478757.860   107616618.53209  20478759.500    83857120.00948
  22050754.000   115877539.05208  22050754.080    90294192.45345
 15 02 25 03 20 30.0000000  0 10G01G04G11G14G16G18G19G22G27G32
  23502798.140   123508044.50806  23502801.840    96240042.47444
  21260518.180   111724815.28108  21260518.400    87058304.40046
  22473129.020   118097107.52308  22473128.040    92023722.16944
  23993811.980   126088332.85505  23993811.900    98250649.53743
  22819450.700   119917016.64608  22819449.720    93441837.44445
  23968256.400   125954082.34606  23968254.480    98146050.83643
  20590133.180   108201895.69209  20590130.620    84313166.36748
  21259049.280   111717142.46409  21259046.320    87052330.22847
  20482977.100   107638790.91609  20482978.720    83874397.18948
  22032015.860   115779069.87408  22032015.980    90217463.22645
 15 02 25 03 21  0.0000000  0 10G01G04G11G14G16G18G19G22G27G32
  23488658.600   123433740.22706  23488662.200    96182143.04245
  21250799.060   111673741.05808  21250799.300    87018506.32346
  22458438.200   118019906.46208  22458437.240    91963565.51445
  23980981.880   126020909.71206  23980981.620    98198112.02743
  22838500.100   120017123.47107  22838499.420    93519842.75445
  23984732.640   126040663.89007  23984730.580    98213516.95843
  20585324.380   108176625.37709  20585321.900    84293475.21348
  21268052.380   111764454.41309  21268049.400    87089196.68147
  20487272.840   107661365.32709  20487274.440    83891987.63148
  22013341.600   115680936.92408  22013341.860    90140996.02545
 15 02 25 03 21 30.0000000  0 10G01G04G11G14G16G18G19G22G27G32
  23474547.200   123359583.84606  23474550.840    96124358.88045
  21241129.760   111622928.81909  21241130.080    86978912.38546
  22443775.740   117942854.94108  22443774.820    91903525.37644
  23968191.560   125953695.70106  23968191.120    98145737.56344
  22857591.180   120117449.36108  22857590.960    93598018.76045
  24001240.920   126127413.97307  24001238.820    98281114.44242
  20580580.400   108151695.84609  20580577.980    84274049.60648
  21277137.440   111812196.39909  21277134.360    87126398.22547
  20491645.680   107684344.57709  20491647.180    83909893.53548
  21994732.280   115583144.89708  21994732.580    90064794.46646
 15 02 25 03 22  0.0000000  0  9G01G04G11G16G18G19G22G27G32
  23460463.760   123285574.43306  23460467.360    96066689.23945
  21231510.260   111572377.80609  21231510.580    86939521.99746
  22429141.720   117865953.09308  22429140.840    91843601.87144
  22876723.380   120217990.68007  22876723.440    93676362.63745
  24017780.560   126214329.59306  24017778.340    98348840.88143
  20575901.360   108127107.27309  20575898.860    84254889.67948
  21286303.820   111860365.52609  21286300.660    87163932.61247
  20496095.460   107707728.11109  20496096.900    83928114.45848
  21976188.180   115485695.38808  21976188.440    89988859.80445
 15 02 25 03 22 30.0000000  0 10G01G04G11G14G16G18G19G22G27G32
  23446408.240   123211712.20906  23446411.780    96009134.29545
  21221940.500   111522088.24609  21221940.760    86900335.33046
  22414536.380   117789201.52708  22414535.420    91783795.46944
  23942731.980   125819907.64306  23942732.460    98041483.79543
  22895896.100   120318744.05408  22895896.180    93754871.75145
  24034351.120   126301408.79706  24034348.980    98416694.81643
  20571287.620   108102861.45909  20571285.020    84235996.84148
  21295551.200   111908960.36609  21295547.960    87201798.72047
  20500622.300   107731516.64009  20500623.780    83946650.97348
  21957709.780   115388591.00608  21957710.060    89913194.08045
 15 02 25 03 23  0.0000000  0 10G01G04G11G14G16G18G19G22G27G32
  23432380.680   123137996.68907  23432384.160    95951693.63544
  21212420.320   111472059.36809  21212420.600    86861351.79846
  22399959.660   117712600.38008  22399958.660    91724106.27744
  23930063.600   125753335.67406  23930064.060    97989609.57844
  22915108.780   120419706.77208  22915108.760    93833543.98144
  24050952.280   126388648.93606  24050950.380    98484674.12743
  20566739.140   108078958.90409  20566736.500    84217371.47948
  21304879.040   111957978.20409  21304875.800    87239994.44147
  20505226.160   107755710.03209  20505227.680    83965502.96848
  21939297.440   115291833.74208  21939297.760    89837798.82245
 15 02 25 03 23 30.0000000  0 10G01G04G11G14G16G18G19G22G27G32
  23418380.780   123064426.42607  23418384.200    95894366.19044
  21202949.480   111422289.91708  21202949.840    86822570.41946
  22385411.420   117636148.91008  22385410.400    91664533.68644
  23917436.940   125686981.93106  23917437.220    97937905.35943
  22934360.580   120520874.54708  22934360.300    93912375.99744
  24067583.420   126476046.70206  24067581.720    98552776.29542
  20562255.940   108055399.58609  20562253.340    84199013.57448
  21314286.720   112007416.22708  21314283.560    87278517.57147
  20509906.880   107780307.27409  20509908.420    83984669.64748
  21920951.300   115195424.57008  21920951.740    89762674.82345
 15 02 25 03 24  0.0000000  0 10G01G04G11G14G16G18G19G22G27G32
  23404409.020   122991004.22207  23404412.440    95837154.08945
  21193528.540   111372782.67509  21193528.960    86783993.35946
  22370892.120   117559850.25707  22370891.180    91605080.20445
  23904852.780   125620851.63906  23904853.000    97886375.32141
  22953651.320   120622247.22408  22953650.760    93991367.66544
  24084244.620   126563602.29306  24084243.020    98621001.41843
  20557838.840   108032187.38309  20557836.240    84180926.15348
  21323774.420   112057274.83409  21323771.380    87317368.43447
  20514664.980   107805311.53409  20514666.560    84004153.48748
  21902672.440   115099368.72008  21902672.980    89687826.11446
 15 02 25 03 24 30.0000000  0 10G01G04G11G14G16G18G19G22G27G32
  23390465.160   122917729.11107  23390468.580    95780056.62044
  21184157.300   111323536.49709  21184157.740    86745619.72446
  22356401.860   117483704.32507  22356401.040    91545745.72545
  23892311.380   125554946.91006  23892311.520    97835021.02544
  22972980.340   120723820.82508  22972979.380    94070515.91745
  24100935.440   126651313.16806  24100933.940    98689347.57144
  20553487.900   108009322.66609  20553485.280    84163109.49048
  21333341.620   112107551.08809  21333338.640    87356544.73247
  20519500.460   107830722.25609  20519502.060    84023954.04348
  21884461.060   115003667.57408  21884461.720    89613253.80546
 15 02 25 03 25  0.0000000  0 10G01G04G11G14G16G18G19G22G27G32
  23376549.160   122844599.97907  23376552.480    95723072.89844
  21174835.540   111274550.52308  21174836.040    86707448.84346
  22341940.640   117407710.61908  22341939.960    91486529.87044
  23879813.160   125489269.52405  23879813.480    97783843.88743
  22992346.720   120825590.99507  22992345.540    94149817.34244
  24117655.120   126739175.83706  24117653.600    98757811.96643
  20549203.040   107986805.55909  20549200.420    84145563.69648
  21342987.820   112158242.16109  21342984.840    87396044.27147
  20524413.120   107856538.63109  20524414.760    84044070.68948
  21866317.500   114908322.40708  21866318.160    89538958.88745
 15 02 25 03 25 30.0000000  0 10G01G04G11G14G16G18G19G22G27G32
  23362661.080   122771617.93607  23362664.380    95666203.78444
  21165563.500   111225825.66309  21165563.980    86669481.43046
  22327508.800   117331870.90608  22327508.100    91427433.99444
  23867359.120   125423823.31006  23867359.380    97732846.82644
  23011750.120   120927556.14808  23011748.880    94229270.68444
  24134403.420   126827189.19206  24134401.980    98826393.77641
  20544984.700   107964638.36909  20544982.120    84128290.56348
  21352712.740   112209347.03709  21352709.800    87435866.26347
  20529403.280   107882762.27009  20529404.900    84064504.67948
  21848242.400   114813336.84808  21848243.080    89464944.17346
 15 02 25 03 26  0.0000000  0 10G01G04G11G14G16G18G19G22G27G32
  23348801.080   122698783.88306  23348804.440    95609450.00444
  21156341.260   111177362.56708  21156341.740    86631717.98546
  22313106.540   117256186.61908  22313105.860    91368459.25145
  23854949.840   125358611.79606  23854950.000    97682032.71544
  23031190.260   121029714.44208  23031189.020    94308874.53145
  24151180.120   126915352.16006  24151178.800    98895092.15643
  20540833.320   107942823.08209  20540830.780    84111291.63948
  21362516.080   112260864.64108  21362513.280    87476009.85047
  20534471.240   107909394.27009  20534472.700    84085256.88248
  21830236.320   114718714.00408  21830236.960    89391212.10145
 15 02 25 03 26 30.0000000  0 10G01G04G11G14G16G18G19G22G27G32
  23334968.860   122626095.37606  23334972.200    95552809.64045
  21147168.380   111129159.08908  21147168.820    86594156.82546
  22298733.560   117180655.97808  22298732.840    91309604.20544
  23842585.420   125293635.29206  23842585.500    97631401.67743
  23050665.960   121132060.83307  23050665.140    94388624.94245
  24167984.540   127003660.18306  24167983.200    98963903.62943
  20536748.760   107921358.80809  20536746.240    84094566.23548
  21372397.140   112312790.68708  21372394.500    87516471.70047
  20539616.520   107936432.59109  20539617.920    84106325.69848
  21812299.320   114624453.99908  21812299.840    89317762.77146
 15 02 25 03 27  0.0000000  0 10G01G04G11G14G16G18G19G22G27G32
  23321164.720   122553554.70306  23321168.120    95496284.46545
  21138045.360   111081217.33709  21138045.720    86556799.63046
  22284390.480   117105281.99808  22284389.680    91250871.24745
  23830266.680   125228899.16706  23830266.760    97580957.96842
  23070177.260   121234594.36507  23070176.740    94468521.20344
  24184816.640   127092113.39206  24184815.240    99032828.20742
  20532731.660   107900248.89709  20532729.200    84078116.95748
  21382355.960   112365125.33508  21382353.460    87557251.95447
  20544839.600   107963879.86209  20544841.040    84127713.17548
  21794432.140   114530561.32708  21794432.620    89244599.67246
 15 02 25 03 27 30.0000000  0 10G01G04G11G14G16G18G19G22G27G32
  23307388.740   122481161.99206  23307392.180    95439874.60944
  21128972.220   111033537.65208  21128972.480    86519646.62646
  22270077.400   117030065.56408  22270076.540    91192261.05145
  23817994.060   125164406.35006  23817994.220    97530703.82744
  23089723.680   121337312.30007  23089723.460    94548561.14245
  24201675.960   127180710.03706  24201674.640    99101864.54642
  20528782.260   107879494.59209  20528779.820    84061944.77548
  21392392.200   112417866.81808  21392389.880    87598349.20547
  20550140.560   107991736.59209  20550142.000    84149419.71248
  21776635.340   114437038.56708  21776635.760    89171724.80546
 15 02 25 03 28  0.0000000  0 10G01G04G11G14G16G18G19G22G27G32
  23293640.900   122408916.92506  23293644.500    95383579.77144
  21119948.800   110986119.28808  21119948.980    86482697.26946
  22255794.320   116955006.96008  22255793.420    91133773.83544
  23805768.200   125100159.42206  23805768.140    97480641.33644
  23109304.660   121440211.40407  23109304.720    94628742.25045
  24218562.060   127269447.61406  24218560.740    99171010.72643
  20524900.780   107859096.89009  20524898.240    84046050.46148
  21402505.480   112471012.62608  21402503.260    87639761.52947
  20555519.440   108020002.71609  20555520.860    84171445.26348
  21758909.300   114343887.66908  21758909.700    89099139.70045
 15 02 25 03 28 30.0000000  0 10G01G04G11G14G16G18G19G22G27G32
  23279920.980   122336818.39606  23279924.760    95327399.12745
  21110974.940   110938961.49109  21110975.100    86445950.95546
  22241541.040   116880105.43608  22241540.140    91075409.00445
  23793589.520   125036159.94206  23793589.520    97430771.59843
  23128919.240   121543287.53807  23128919.600    94709061.30944
  24235474.360   127358323.11206  24235473.280    99240264.35143
  20521087.180   107839055.99009  20521084.560    84030434.17748
  21412695.240   112524560.04508  21412693.080    87681486.78447
  20560976.040   108048677.42109  20560977.460    84193789.18748
  21741254.260   114251110.06508  21741254.700    89026845.47346
 15 02 25 03 29  0.0000000  0 10G01G04G11G14G16G18G19G22G27G32
  23266229.560   122264869.31406  23266233.280    95271334.94645
  21102051.120   110892066.82108  21102051.360    86409409.67446
  22227318.340   116805364.55608  22227317.400    91017169.35545
  23781458.860   124972413.33506  23781459.200    97381098.98442
  23148567.680   121646540.83707  23148567.980    94789518.41344
  24252412.820   127447337.01505  24252412.320    99309625.83043
  20517342.200   107819376.06609  20517339.640    84015099.17948
  21422961.580   112578509.62108  21422959.380    87723525.40947
  20566510.980   108077763.90309  20566512.440    84216453.96648
  21723671.180   114158710.79708  21723671.660    88954846.06646
 15 02 25 03 29 30.0000000  0 10G01G04G11G14G16G18G19G22G27G32
  23252565.780   122193066.13907  23252569.720    95215384.46744
  21093176.760   110845431.79908  21093176.980    86373070.71547
  22213125.720   116730782.00608  22213124.700    90959053.09845
  23769376.260   124908919.07206  23769376.660    97331622.93544
  23168248.800   121749965.46807  23168248.900    94870109.03544
  24269376.640   127536484.07306  24269376.600    99379091.02643
  20513665.480   107800054.97209  20513662.940    84000043.78548
  21433303.500   112632856.00308  21433301.160    87765873.24547
  20572123.700   108107258.98009  20572125.220    84239437.14548
  21706159.960   114066688.74908  21706160.400    88883140.58745
 15 02 25 03 30  0.0000000  0 10G01G04G11G14G16G18G19G22G27G32
  23238930.560   122121412.35006  23238934.580    95159550.37145
  21084352.500   110799060.07109  21084352.760    86336936.91946
  22198963.980   116656361.86208  22198962.980    90901063.37444
  23757343.020   124845683.76706  23757343.260    97282348.67443
  23187962.640   121853561.59007  23187962.480    94950833.24044
  24286365.700   127625712.72005  24286366.460    99448607.15743
  20510057.920   107781097.14009  20510055.340    83985271.44948
  21443721.140   112687600.46608  21443718.680    87808531.26847
  20577814.840   108137166.32209  20577816.380    84262741.56248
  21688721.640   113975049.77508  21688722.100    88811733.61446
 15 02 25 03 30 30.0000000  0 10G01G04G11G14G16G18G19G22G27G32
  23225322.820   122049902.89707  23225326.880    95103828.75645
  21075577.420   110752946.27809  21075577.620    86301004.10647
  22184832.300   116582099.47408  22184831.420    90843196.58445
  23745358.480   124782704.75706  23745358.640    97233274.16243
  23207707.500   121957320.69707  23207706.920    95031684.50144
  24303379.500   127715123.58605  24303381.700    99518277.37344
  20506518.760   107762498.73909  20506516.160    83970779.18248
  21454213.100   112742736.00608  21454210.640    87851494.02147
  20583583.540   108167481.21609  20583585.120    84286363.55348
  21671355.640   113883791.03608  21671356.240    88740622.92546
 15 02 25 03 31  0.0000000  0 10G01G04G11G14G16G18G19G22G27G32
  23211743.060   121978540.70306  23211747.100    95048221.86445
  21066852.060   110707093.61909  21066852.160    86265274.77146
  22170731.360   116507998.65308  22170730.600    90785455.68845
  23733423.820   124719987.84306  23733424.020    97184403.90044
  23227483.460   122061243.60307  23227482.560    95112663.37844
  24320418.180   127804660.70605  24320419.280    99588046.54043
  20503048.760   107744263.65309  20503046.100    83956570.02448
  21464779.680   112798263.69108  21464777.200    87894762.35247
  20589430.400   108198206.82009  20589432.020    84310305.58448
  21654063.020   113792917.86008  21654063.720    88669812.68746
 15 02 25 03 31 30.0000000  0 10G01G04G11G14G16G18G19G22G27G32
  23198191.640   121907328.25406  23198195.820    94992731.67644
  21058176.760   110661504.30709  21058176.840    86229750.64147
  22156661.800   116434062.35608  22156661.040    90727842.98945
  23721540.040   124657538.40205  23721540.280    97135742.01944
  23247290.420   122165329.71507  23247289.380    95193769.41144
  24337481.040   127894326.53305  24337481.620    99657916.00944
  20499648.700   107726396.17009  20499645.980    83942647.30848
  21475420.880   112854183.81608  21475418.420    87938336.48247
  20595355.940   108229345.81409  20595357.600    84334569.73548
  21636844.680   113702434.83308  21636845.360    88599306.44246
 15 02 25 03 32  0.0000000  0 10G01G04G11G14G16G18G19G22G27G32
  23184668.240   121836262.35707  23184672.380    94937355.67145
  21049550.980   110616175.25909  21049551.020    86194429.30546
  22142623.060   116360288.36608  22142622.300    90670356.77645
  23709707.040   124595355.77706  23709707.280    97087288.01744
  23267127.240   122269572.82807  23267126.060    95274997.79944
  24354567.280   127984115.86605  24354569.420    99727879.68643
  20496318.140   107708893.99609  20496315.400    83929009.25248
  21486135.800   112910491.07208  21486133.340    87982212.26247
  20601359.620   108260895.30509  20601361.300    84359153.75048
  21619700.480   113612341.23908  21619701.020    88529103.65646
 15 02 25 03 32 30.0000000  0 10G01G04G11G14G16G18G19G22G27G32
  23171173.040   121765344.57407  23171177.140    94882095.11244
  21040975.000   110571108.06509  21040975.060    86159312.02447
  22128615.600   116286678.72408  22128614.800    90612998.62844
  23697925.840   124533444.51806  23697925.920    97039045.55144
  23286993.600   122373971.46007  23286992.520    95356347.37445
  24371677.160   128074028.43805  24371678.400    99797941.44544
  20493057.600   107691759.97909  20493054.900    83915658.07048
  21496924.260   112967185.10308  21496921.860    88026389.41947
  20607441.760   108292856.99809  20607443.380    84384058.96148
  21602631.100   113522640.80508  21602631.500    88459207.22046
 15 02 25 03 33  0.0000000  0 10G01G04G11G14G16G18G19G22G27G32
  23157706.300   121694576.65607  23157710.440    94826951.28444
  21032449.160   110526304.35709  21032449.200    86124400.05547
  22114639.920   116213236.00708  22114639.060    90555770.55145
  23686196.900   124471809.12606  23686197.160    96991017.99243
  23306889.380   122478524.98107  23306888.640    95437817.62744
  24388810.240   128164063.73005  24388810.620    99868098.79343
  20489867.660   107674996.97009  20489865.000    83902595.98848
  21507786.340   113024265.40608  21507783.880    88070867.58147
  20613602.780   108325232.90909  20613604.280    84409286.93748
  21585637.260   113433337.61208  21585637.620    88389620.33746
 15 02 25 03 33 30.0000000  0 10G01G04G11G14G16G18G19G22G27G32
  23144267.580   121623955.66407  23144271.740    94771921.99544
  21023972.880   110481761.08709  21023972.880    86089691.02346
  22100695.620   116139958.16308  22100694.660    90498670.94945
  23674520.300   124410449.57206  23674520.760    96943205.42344
  23326813.480   122583227.42407  23326812.900    95519403.95144
  24405965.680   128254216.56505  24405965.820    99938347.75741
  20486748.060   107658603.33009  20486745.400    83889821.72548
  21518720.980   113081727.35408  21518718.520    88115643.12947
  20619842.060   108358020.32109  20619843.480    84434835.56648
  21568718.900   113344431.08008  21568719.180    88320342.53846
 15 02 25 03 34  0.0000000  0 10G01G04G11G14G16G18G19G22G27G32
  23130856.860   121553482.36907  23130860.960    94717007.77045
  21015546.240   110437479.11609  21015546.340    86055185.61447
  22086782.880   116066846.42108  22086781.800    90441700.76245
  23662896.940   124349368.98606  23662897.560    96895610.17444
  23346765.500   122688076.50407  23346765.060    95601104.49645
  24423143.360   128344486.12705  24423143.500   100008687.65342
  20483699.060   107642580.72209  20483696.440    83877336.57948
  21529727.920   113139569.23208  21529725.440    88160714.71647
  20626159.740   108391220.06109  20626161.200    84460705.48748
  21551876.560   113255923.85208  21551876.720    88251375.88346
 15 02 25 03 34 30.0000000  0 10G01G04G11G14G16G18G19G22G27G32
  23117474.100   121483155.30407  23117478.160    94662207.50345
  21007169.060   110393457.20009  21007169.240    86020882.83047
  22072901.640   115993900.30908  22072900.500    90384859.63844
  23651327.060   124288568.76206  23651327.600    96848233.38644
  23366744.680   122793067.90107  23366744.420    95682915.97044
  24440342.680   128434869.06105  24440342.720   100079115.90343
  20480720.700   107626929.33109  20480718.120    83865140.69748
  21540806.580   113197787.80208  21540804.060    88206079.84447
  20632555.640   108424831.02309  20632557.160    84486895.84148
  21535110.380   113167817.14408  21535110.560    88182721.32946
 15 02 25 03 35  0.0000000  0 10G01G04G11G14G16G18G19G22G27G32
  23104119.720   121412977.55307  23104123.720    94607523.57444
  20998841.820   110349697.93409  20998842.080    85986784.70946
  22059052.520   115921123.45407  22059051.500    90328150.42145
  23639811.720   124228055.06806  23639812.000    96801079.88343
  23386750.880   122898201.99507  23386750.920    95764838.63244
  24457563.700   128525366.10005  24457563.460   100149633.07941
  20477813.780   107611653.16909  20477811.160    83853237.18648
  21551957.040   113256383.97808  21551954.560    88251739.19547
  20639030.420   108458856.36409  20639031.980    84513409.09048
  21518421.340   113080115.93108  21518421.600    88114382.73545
 15 02 25 03 35 30.0000000  0 10G01G04G11G14G16G18G19G22G27G32
  23090793.660   121342948.57007  23090797.720    94552955.54745
  20990564.600   110306201.11409  20990564.880    85952891.09846
  22045235.540   115848516.13507  22045234.700    90271573.31345
  23628351.300   124167829.92106  23628351.400    96754151.21944
  23406783.740   123003475.41907  23406783.880    95846869.83743
  24474805.980   128615974.66005  24474805.800   100220237.12443
  20474978.400   107596753.01009  20474975.720    83841626.68548
  21563178.820   113315355.06608  21563176.360    88297690.69547
  20645584.040   108493295.69309  20645585.600    84540244.93148
  21501809.840   112992821.96508  21501810.220    88046361.46446
 15 02 25 03 36  0.0000000  0 10G01G04G11G14G16G18G19G22G27G32
  23077495.480   121273066.44607  23077499.440    94498502.00345
  20982336.960   110262964.55609  20982337.180    85919200.28146
  22031450.720   115776077.17108  22031449.980    90215127.38044
  23616945.740   124107893.84006  23616945.900    96707447.80443
  23426842.200   123108883.06207  23426842.280    95929005.67544
  24492068.800   128706691.00205  24492068.520   100290925.16741
  20472214.440   107582227.98409  20472211.680    83830308.48748
  21574471.200   113374697.17908  21574468.740    88343931.29646
  20652216.120   108528147.21509  20652217.600    84567401.95448
  21485275.900   112905935.66308  21485276.420    87978657.86746
 15 02 25 03 36 30.0000000  0 10G01G04G11G14G16G18G19G22G27G32
  23064225.480   121203332.20707  23064229.320    94444163.64744
  20974159.060   110219989.48809  20974159.300    85885713.22246
  22017698.460   115703808.25208  22017697.680    90158813.95345
  23605595.940   124048250.85806  23605596.120    96660972.78043
  23446925.940   123214423.17407  23446925.660    96011244.70544
  24509352.040   128797514.35305  24509351.620   100361696.61143
  20469522.240   107568080.25709  20469519.480    83819284.28448
  21585834.060   113434409.30808  21585831.540    88390460.22446
  20658926.900   108563412.20009  20658928.300    84594881.15548
  21468820.120   112819460.16008  21468820.660    87911274.36546
 15 02 25 03 37  0.0000000  0 10G01G04G11G14G16G18G19G22G27G32
  23050983.880   121133747.11607  23050987.540    94389941.52145
  20966031.120   110177276.99909  20966031.380    85852430.77547
  22003978.960   115631711.49608  22003978.140    90102634.65844
  23594302.740   123988904.91806  23594303.020    96614729.20543
  23467034.600   123320094.40907  23467034.020    96093585.92944
  24526655.380   128888444.05505  24526654.740   100432550.86943
  20466902.300   107554312.25109  20466899.520    83808555.97148
  21597267.220   113494490.69408  21597264.600    88437276.88647
  20665716.580   108599091.92509  20665717.900    84622683.53648
  21452443.140   112733398.84608  21452443.780    87844213.61546
 15 02 25 03 37 30.0000000  0 10G01G04G11G14G16G18G19G22G27G32
  23037770.240   121064308.64307  23037773.740    94335833.67845
  20957952.640   110134824.40709  20957952.840    85819350.84047
  21990291.920   115559785.23708  21990291.080    90046588.23945
  23583066.080   123929856.34606  23583066.420    96568717.38444
  23487167.060   123425891.18007  23487166.420    96176024.93844
  24543978.040   128979475.27405  24543977.540   100503484.32342
  20464354.360   107540922.81509  20464351.500    83798122.64448
  21608769.760   113554936.44008  21608767.060    88484377.46347
  20672584.640   108635183.96609  20672585.980    84650807.20148
  21436144.900   112647751.40308  21436145.640    87777475.35246
 15 02 25 03 38  0.0000000  0 10G01G04G11G14G16G18G19G22G27G32
  23024585.120   120995019.90707  23024588.540    94281842.48845
  20949924.280   110092635.05409  20949924.400    85786476.03346
  21976638.020   115488033.24808  21976637.200    89990677.60244
  23571887.100   123871110.75906  23571887.660    96522941.60443
  23507323.560   123531814.24407  23507322.960    96258562.36744
  24561320.320   129070609.41605  24561319.680   100574497.96041
  20461879.280   107527916.14509  20461876.300    83787987.57048
  21620341.800   113615747.71508  21620339.060    88531762.86746
  20679531.740   108671691.58309  20679533.160    84679254.69848
  21419926.500   112562523.06808  21419927.120    87711063.67245
 15 02 25 03 38 30.0000000  0 10G01G04G11G14G16G18G19G22G27G32
  23011428.000   120925878.70707  23011431.360    94227966.28945
  20941945.620   110050706.72609  20941945.640    85753804.60346
  21963017.000   115416454.23108  21963016.140    89934901.75345
  23560765.840   123812668.80606  23560766.500    96477402.44643
  23527503.020   123637857.87507  23527502.400    96341193.76544
  24578681.340   129161842.20705  24578680.740   100645588.41343
  20459476.760   107515291.06609  20459473.760    83778149.85348
  21631982.540   113676920.03808  21631979.640    88579429.61447
  20686557.560   108708612.65809  20686559.040    84708024.36548
  21403787.880   112477713.74508  21403788.340    87644978.49146
 15 02 25 03 39  0.0000000  0 10G01G04G11G14G16G18G19G22G27G32
  22998298.780   120856884.56807  22998302.260    94174204.63944
  20934016.480   110009038.69609  20934016.440    85721336.02246
  21949428.920   115345048.31308  21949428.060    89879260.79045
  23549702.960   123754532.66406  23549703.520    96432101.57344
  23547704.900   123744019.00607  23547704.160    96423916.70044
  24596060.820   129253171.31605  24596059.880   100716753.97243
  20457146.980   107503048.15009  20457144.000    83768609.92148
  21643691.520   113738450.94608  21643688.520    88627375.77246
  20693661.960   108745946.73409  20693663.520    84737115.84948
  21387729.340   112393325.21708  21387729.700    87579221.19746
 15 02 25 03 39 30.0000000  0 10G01G04G11G14G16G18G19G22G27G32
  22985197.920   120788039.09207  22985201.460    94120558.86545
  20926137.220   109967632.92609  20926137.180    85689071.80446
  21935874.200   115273817.86008  21935873.320    89823756.56444
  23538699.200   123696706.70006  23538699.580    96387042.38044
  23567928.800   123850296.06306  23567927.980    96506729.96044
  24613458.600   129344596.39405  24613457.500   100787994.27741
  20454890.520   107491190.50209  20454887.600    83759370.19248
  21655468.620   113800339.85408  21655465.700    88675600.89247
  20700845.300   108783695.50909  20700846.900    84766530.47148
  21371751.540   112309361.13808  21371751.820    87513794.66246
 15 02 25 03 40  0.0000000  0 10G01G04G11G14G16G18G19G22G27G32
  22972125.200   120719341.35907  22972128.720    94067028.19045
  20918307.620   109926488.14509  20918307.560    85657010.94246
  21922352.880   115202763.06408  21922352.080    89768389.19945
  23527754.800   123639192.34406  23527754.920    96342226.02844
  23588174.100   123956685.81407  23588173.280    96589631.06944
  24630874.100   129436114.81305  24630872.580   100859307.34343
  20452707.340   107479717.97309  20452704.480    83750430.55648
  21667313.240   113862583.92608  21667310.480    88724102.76447
  20708107.400   108821858.15509  20708108.980    84796267.59948
  21355854.740   112225822.71108  21355854.960    87448699.79646
 15 02 25 03 40 30.0000000  0 10G01G04G11G14G16G18G19G22G27G32
  22959081.140   120650794.18807  22959084.640    94013614.82645
  20910528.280   109885607.42709  20910528.180    85625155.85146
  21908865.620   115131887.13708  21908864.840    89713161.21844
  23516870.800   123581995.38206  23516870.520    96297656.99944
  23608440.780   124063187.85207  23608440.000    96672619.64843
  24648307.380   129527726.98105  24648305.720   100930693.40343
  20450598.200   107468634.59109  20450595.460    83741794.15848
  21679225.480   113925183.45608  21679222.900    88772881.62546
  20715448.820   108860437.44309  20715450.360    84826329.37848
  21340039.920   112142714.73808  21340040.040    87383940.34145
 15 02 25 03 41  0.0000000  0 10G01G04G11G14G16G18G19G22G27G32
  22946065.180   120582395.01907  22946068.640    93960316.81444
  20902798.600   109844987.88209  20902798.500    85593504.26246
  21895412.120   115061188.57008  21895411.260    89658071.43845
  23506047.020   123525115.93206  23506046.620    96253335.36243
  23628727.880   124169797.14807  23628726.980    96755691.84344
  24665757.720   129619428.69305  24665756.500   101002149.27443
  20448562.880   107457939.08909  20448560.220    83733460.00148
  21691204.560   113988134.20908  21691202.100    88821934.15646
  20722869.040   108899430.87609  20722870.560    84856713.87748
  21324306.960   112060036.87608  21324306.860    87319516.04345
 15 02 25 03 41 30.0000000  0 10G01G04G11G14G16G18G19G22G27G32
  22933077.220   120514143.06207  22933080.620    93907133.50444
  20895118.480   109804628.78909  20895118.320    85562055.63046
  21881992.400   114990667.32108  21881991.420    89603119.81945
  23495283.980   123468555.75106  23495283.540    96209262.51444
  23649034.840   124276510.03707  23649033.780    96838844.71644
  24683224.640   129711217.43605  24683223.860   101073672.94741
  20446601.500   107447631.87009  20446598.880    83725428.39948
  21703249.920   114051433.17108  21703247.580    88871258.01847
  20730367.880   108938837.68009  20730369.460    84887420.47648
  21308655.960   111977790.32908  21308655.820    87255427.85746
 15 02 25 03 42  0.0000000  0 10G01G04G11G14G16G18G19G22G27G32
  22920117.580   120446039.34807  22920120.740    93854065.69444
  20887488.120   109764531.24209  20887488.040    85530810.79946
  21868606.700   114920324.86608  21868605.540    89548307.54145
  23484582.380   123412318.55806  23484581.720    96165441.34743
  23669361.120   124383324.46607  23669360.100    96922076.70444
  24700707.780   129803091.69905  24700706.860   101145263.29641
  20444714.380   107437714.84009  20444711.840    83717700.85048
  21715361.420   114115079.30408  21715359.100    88920852.40647
  20737945.600   108978658.84609  20737947.180    84918449.95448
  21293087.580   111895978.17108  21293087.500    87191678.13246
 15 02 25 03 42 30.0000000  0 10G01G04G11G14G16G18G19G22G27G32
  22907186.400   120378084.93907  22907189.400    93801114.24445
  20879907.800   109724696.28909  20879907.780    85499770.59046
  21855255.580   114850163.65608  21855254.280    89493636.47045
  23473942.980   123356407.99206  23473942.100    96121874.70144
  23689706.400   124490238.44107  23689705.360    97005386.27944
  24718206.960   129895051.35405  24718205.980   101216920.15244
  20442901.920   107428190.16509  20442899.400    83710279.02748
  21727538.720   114179071.34508  21727536.420    88970716.32847
  20745602.420   109018895.50209  20745603.940    84949803.18648
  21277602.400   111814603.52608  21277602.460    87128269.33746
 15 02 25 03 43  0.0000000  0 10G01G04G11G14G16G18G19G22G27G32
  22894283.340   120310278.93007  22894286.220    93748278.41745
  20872377.260   109685122.90809  20872377.280    85468934.18546
  21841938.880   114780183.44908  21841937.480    89439106.44545
  23463366.000   123300825.77306  23463365.000    96078563.89844
  23710070.020   124597248.58307  23710068.760    97088770.81443
  24735721.920   129987093.39805  24735721.360   101288641.22142
  20441164.120   107419057.96909  20441161.560    83703163.02648
  21739781.320   114243406.34008  21739778.960    89020847.49347
  20753338.160   109059546.60409  20753339.560    84981479.35548
  21262200.640   111733667.45408  21262200.840    87065202.27146
 15 02 25 03 43 30.0000000  0 10G01G04G11G14G16G18G19G22G27G32
  22881408.440   120242621.18107  22881411.340    93695558.13945
  20864896.420   109645810.97609  20864896.520    85438301.52946
  21828656.620   114710384.71508  21828655.380    89384717.83345
  23452852.040   123245574.47206  23452851.200    96035510.96344
  23730451.320   124704352.00307  23730449.980    97172228.01144
  24753252.180   130079215.93504  24753251.680   101360425.03344
  20439501.180   107410319.10809  20439498.520    83696353.51648
  21752088.700   114308081.84908  21752086.220    89071243.98946
  20761152.660   109100612.03109  20761154.080    85013478.38648
  21246882.740   111653171.87108  21246883.100    87002478.44546
 15 02 25 03 44  0.0000000  0 10G01G04G11G14G16G18G19G22G27G32
  22868562.300   120175114.90107  22868565.360    93642955.90045
  20857465.900   109606763.57609  20857466.020    85407874.99046
  21815409.640   114640771.58108  21815408.680    89330473.83746
  23442402.160   123190660.06606  23442401.440    95992720.57444
  23750850.380   124811548.93507  23750848.840    97255758.05344
  24770797.720   130171419.93904  24770797.580   101432272.34541
  20437914.000   107401978.23709  20437911.260    83689854.13448
  21764461.060   114373099.03908  21764458.600    89121906.73346
  20769046.540   109142094.95609  20769048.000    85045802.74048
  21231649.680   111573121.95808  21231650.240    86940101.90346
 15 02 25 03 44 30.0000000  0 10G01G04G11G14G16G18G19G22G27G32
  22855744.040   120107754.78207  22855747.260    93590467.52245
  20850084.720   109567975.59709  20850084.880    85377650.59346
  21802197.220   114571339.85308  21802196.420    89276371.20445
  23432015.780   123136079.60507  23432015.400    95950190.34644
  23771265.480   124918830.83607  23771263.760    97339354.35043
  24788357.560   130263698.25104  24788357.600   101504177.49943
  20436401.740   107394031.07609  20436398.980    83683661.53948
  21776897.020   114438450.50008  21776894.540    89172829.94346
  20777018.820   109183989.93509  20777020.340    85078448.17448
  21216500.860   111493514.37408  21216501.520    86878070.03846
 15 02 25 03 45  0.0000000  0 10G01G04G11G14G16G18G19G22G27G32
  22842954.260   120040543.93707  22842957.480    93538095.49646
  20842753.500   109529450.08909  20842753.740    85347630.72746
  21789020.000   114502093.31508  21789019.300    89222412.86545
  23421694.060   123081838.96307  23421693.860    95907924.92744
  23791696.620   125026198.37606  23791694.920    97423017.34644
  24805931.920   130356052.24104  24805932.120   101576141.67444
  20434965.140   107386481.65509  20434962.360    83677778.87348
  21789396.720   114504136.94808  21789394.220    89224014.18646
  20785070.120   109226300.06509  20785071.760    85111417.10748
  21201437.280   111414354.25408  21201437.840    86816386.83046
 15 02 25 03 45 30.0000000  0 10G01G04G11G14G16G18G19G22G27G32
  22830192.920   119973482.49608  22830196.020    93485839.86045
  20835472.260   109491187.08509  20835472.520    85317815.41547
  21775878.120   114433032.73708  21775877.380    89168599.43646
  23411437.480   123027940.58607  23411437.400    95865926.21743
  23812143.520   125133649.35806  23812142.180    97506745.37843
  24823520.280   130448480.41704  24823523.960   101648180.57742
  20433604.520   107379331.44909  20433601.700    83672207.28248
  21801959.840   114570156.76808  21801957.360    89275458.19846
  20793200.520   109269025.36909  20793202.160    85144709.54548
  21186459.280   111335643.63108  21186459.640    86755053.90046
 15 02 25 03 46  0.0000000  0 10G01G04G11G14G16G18G19G22G27G32
  22817459.580   119906567.96108  22817462.520    93433698.69445
  20828240.480   109453184.11608  20828240.760    85288202.72347
  21762771.320   114364156.58208  21762770.600    89114929.70345
  23401246.080   122974384.78306  23401246.100    95824194.44244
  23832605.220   125241177.97506  23832604.220    97590533.91543
  24841122.000   130540978.06104  24841122.780   101720256.70142
  20432319.440   107372578.73309  20432316.660    83666945.43448
  21814585.560   114636505.19608  21814583.000    89327158.27746
  20801409.440   109312163.25109  20801411.040    85178323.48148
  21171566.660   111257381.93608  21171566.820    86694070.77746
 15 02 25 03 46 30.0000000  0 10G01G04G11G14G16G18G19G22G27G32
  22804754.720   119839802.99108  22804757.580    93381674.07645
  20821058.740   109415443.90209  20821059.080    85258794.75146
  21749700.300   114295468.32408  21749699.620    89061406.42745
  23391120.860   122921176.56106  23391120.960    95782733.52543
  23853081.600   125348783.90206  23853080.980    97674382.66644
  24858737.200   130633546.41204  24858737.720   101792387.86541
  20431110.680   107366227.14509  20431107.960    83661996.14748
  21827273.820   114703182.58408  21827271.180    89379114.67946
  20809697.320   109355716.23809  20809698.880    85212260.86648
  21156760.280   111179573.86308  21156760.340    86633441.10946
 15 02 25 03 47  0.0000000  0 10G01G04G11G14G16G18G19G22G27G32
  22792078.020   119773186.85007  22792080.840    93329765.42045
  20813926.920   109377965.52009  20813927.220    85229590.82746
  21736665.140   114226968.29008  21736664.440    89008029.78645
  23381062.300   122868318.01207  23381062.220    95741545.07643
  23873572.100   125456463.86106  23873571.920    97758289.14744
  24876365.220   130726182.40904  24876365.380   101864571.71541
  20429978.420   107360277.10009  20429975.680    83657359.74448
  21840024.200   114770186.11508  21840021.460    89431325.22546
  20818063.940   109399683.51509  20818065.520    85246521.07948
  21142040.260   111102220.33708  21142040.380    86573165.64746
 15 02 25 03 47 30.0000000  0 10G01G04G11G14G16G18G19G22G27G32
  22779429.220   119706717.51207  22779432.060    93277971.18345
  20806844.580   109340747.15709  20806844.820    85200589.51647
  21723665.640   114158655.25908  21723664.940    88954798.86745
  23371070.320   122815809.58706  23371070.160    95700629.44744
  23894075.900   125564212.42006  23894076.000    97842249.02243
  24894005.620   130818882.60104  24894005.920   101936806.57741
  20428922.380   107354727.58809  20428919.660    83653035.45148
  21852835.860   114837511.44308  21852832.980    89483786.51646
  20826509.000   109444062.74409  20826510.560    85281102.29148
  21127406.700   111025321.36708  21127407.040    86513244.37846
 15 02 25 03 48  0.0000000  0 10G01G04G11G14G16G18G19G22G27G32
  22766808.820   119640397.98407  22766811.780    93226293.66245
  20799812.260   109303791.73509  20799812.460    85171793.09347
  21710702.420   114090532.84708  21710701.700    88901716.48745
  23361145.800   122763656.89107  23361145.880    95659991.01543
  23914593.180   125672030.74206  23914593.360    97926263.28844
  24911658.280   130911648.02404  24911658.940   102009091.46941
  20427943.340   107349582.64309  20427940.600    83649026.40748
  21865708.860   114905159.47508  21865705.980    89536499.26046
  20835033.080   109488856.95809  20835034.620    85316006.86948
  21112860.620   110948881.91208  21112861.140    86453681.17146
 15 02 25 03 48 30.0000000  0 10G01G03G04G11G14G16G19G22G27G32
  22754216.420   119574225.29307  22754219.420    93174730.55245
  24628964.160   129426068.04705  24628969.020   100851495.66744
  20792829.300   109267096.09509  20792829.460    85143199.09947
  21697775.020   114022598.92008  21697774.380    88848780.98645
  23351288.960   122711859.20706  23351288.980    95619629.19844
  23935122.760   125779912.54807  23935122.660    98010327.03144
  20427040.940   107344840.16509  20427038.180    83645330.96948
  21878642.400   114973125.33208  21878639.380    89589459.67046
  20843635.540   109534062.96209  20843637.040    85351232.31648
  21098401.820   110872900.75008  21098402.480    86394475.07646
 15 02 25 03 49  0.0000000  0 10G01G03G04G11G14G16G19G22G27G32
  22741653.920   119508209.38307  22741657.040    93123289.62745
  24608445.520   129318242.29905  24608450.140   100767475.71944
  20785897.700   109230670.24709  20785897.820    85114815.32247
  21684885.520   113954864.18008  21684884.820    88796000.68746
  23341501.880   122660429.02706  23341502.020    95579553.71243
  23955665.740   125887864.63407  23955665.340    98094445.52743
  20426217.200   107340511.14609  20426214.400    83641957.70548
  21891637.860   115041416.58608  21891634.760    89642673.63246
  20852318.240   109579690.47409  20852319.700    85386786.22048
  21084032.520   110797389.65008  21084033.300    86335635.27046
 15 02 25 03 49 30.0000000  0 10G01G03G04G11G14G16G19G22G27G32
  22729118.540   119442336.31207  22729121.840    93071959.98245
  24587946.480   129210518.90705  24587950.080   100683535.43344
  20779014.820   109194500.16909  20779014.860    85086630.84846
  21672031.600   113887316.28808  21672030.800    88743365.98045
  23331782.640   122609354.94506  23331782.700    95539755.76343
  23976218.960   125995870.91306  23976218.220    98178606.23344
  20425469.660   107336582.80709  20425466.880    83638896.66648
  21904692.180   115110017.16908  21904689.040    89696128.62846
  20861078.440   109625725.41509  20861079.860    85422657.60348
  21069750.460   110722336.63508  21069751.220    86277152.41746
 15 02 25 03 50  0.0000000  0 10G01G03G04G11G14G16G19G22G27G32
  22716611.280   119376610.82707  22716614.600    93020745.36145
  24567467.980   129102904.47006  24567471.140   100599680.12644
  20772181.500   109158590.80409  20772181.480    85058649.54147
  21659214.280   113819960.42208  21659213.320    88690880.89245
  23322132.720   122558644.23906  23322132.820    95500240.93444
  23996782.800   126103933.29206  23996781.700    98262810.66442
  20424799.420   107333060.61209  20424796.620    83636152.10748
  21917805.800   115178929.40508  21917802.520    89749826.47846
  20869916.980   109672172.27209  20869918.440    85458849.95948
  21055556.840   110647748.20108  21055557.520    86219031.57246
 15 02 25 03 50 30.0000000  0 10G01G03G04G11G14G16G19G22G27G32
  22704132.420   119311034.04607  22704135.720    92969646.58745
  24547011.000   128995401.86206  24547013.920   100515911.96544
  20765397.960   109122943.08409  20765397.920    85030872.09747
  21646433.820   113752798.41508  21646432.760    88638546.88345
  23312552.640   122508300.46106  23312552.600    95461012.05844
  24017356.840   126212049.70406  24017355.380    98347057.21043
  20424206.900   107329946.96109  20424204.160    83633725.88848
  21930978.540   115248152.40608  21930975.100    89803766.47846
  20878834.040   109719031.86309  20878835.580    85495363.92348
  21041452.160   110573627.11108  21041452.700    86161274.90346
 15 02 25 03 51  0.0000000  0 10G01G03G04G11G14G16G19G22G27G32
  22691681.740   119245605.29207  22691685.020    92918663.17945
  24526575.580   128888012.42005  24526578.480   100432231.96844
  20758664.100   109087556.46309  20758664.160    85003298.10547
  21633690.340   113685830.74708  21633689.140    88586364.28945
  23303042.920   122458325.85407  23303042.680    95422070.81044
  24037940.440   126320216.95506  24037938.820    98431343.36442
  20423692.200   107327241.96609  20423689.440    83631618.09548
  21944209.800   115317683.36708  21944206.320    89857946.44846
  20887829.460   109766303.39709  20887831.120    85532198.87948
  21027436.620   110499974.66408  21027436.980    86103883.40146
 15 02 25 03 51 30.0000000  0 10G01G03G04G11G14G16G19G22G27G32
  22679259.520   119180326.61007  22679262.840    92867796.68845
  24506162.360   128780739.88506  24506165.160   100348643.03744
  20751980.300   109052432.81009  20751980.340    84975929.03346
  21620984.300   113619060.20108  21620983.040    88534335.30645
  23293604.260   122408724.27106  23293603.740    95383420.24443
  24058533.320   126428434.22306  24058532.000    98515668.53343
  20423255.780   107324948.37409  20423252.980    83629830.88148
  21957499.640   115387522.00308  21957496.200    89912366.16246
  20896903.580   109813988.59009  20896905.300    85569356.16648
  21013510.880   110426794.51208  21013511.140    86046859.93846
 15 02 25 03 52  0.0000000  0 10G01G03G04G11G14G16G19G22G27G32
  22666866.040   119115198.16007  22666869.180    92817047.26945
  24485771.660   128673586.34406  24485774.340   100265146.87544
  20745346.600   109017572.20809  20745346.540    84948764.93546
  21608315.960   113552487.90108  21608314.640    88482460.79345
  23284236.960   122359498.49806  23284236.600    95345062.51044
  24079135.040   126536698.76406  24079134.040    98600030.51243
  20422897.880   107323067.59209  20422895.080    83628365.34048
  21970847.720   115457666.55208  21970844.320    89967024.24946
  20906056.420   109862087.35509  20906058.160    85606835.71948
  20999675.380   110354088.67108  20999675.520    85990206.04046
 15 02 25 03 52 30.0000000  0 10G01G03G04G11G14G16G19G22G27G32
  22654500.740   119050217.82807  22654503.860    92766413.27945
  24465403.500   128566551.62606  24465406.260   100181743.27144
  20738762.600   108982972.77109  20738762.460    84921804.34347
  21595685.200   113486112.77208  21595683.840    88430739.92145
  23274941.120   122310648.99206  23274940.920    95306997.97643
  24099744.760   126645005.88306  24099744.240    98684425.63143
  20422618.340   107321598.59909  20422615.540    83627220.66648
  21984253.140   115528112.56508  21984249.740    90021917.24246
  20915287.500   109910597.34609  20915289.240    85644635.70048
  20985930.000   110281856.68208  20985930.180    85933921.38646
 15 02 25 03 53  0.0000000  0 10G01G03G04G11G14G16G19G22G27G32
  22642163.920   118985387.64907  22642167.180    92715896.28945
  24445058.660   128459639.32206  24445061.440   100098435.05643
  20732228.640   108948636.46609  20732228.500    84895048.78547
  21583092.460   113419937.27408  21583091.140    88379174.61145
  23265717.720   122262180.00006  23265717.660    95269229.96744
  24120362.220   126753354.29305  24120362.240    98768852.95244
  20422417.640   107320544.09509  20422414.940    83626398.97748
  21997715.880   115598859.74108  21997712.500    90077044.90146
  20924597.200   109959520.11609  20924598.880    85682757.32648
  20972275.440   110210102.21508  20972275.780    85878008.82947
 15 02 25 03 53 30.0000000  0 10G01G03G04G11G14G16G19G22G27G32
  22629855.220   118920705.09107  22629858.580    92665494.33245
  24424736.940   128352848.95406  24424739.940   100015221.83944
  20725744.180   108914560.48809  20725744.060    84868496.08947
  21570537.340   113353959.99408  21570536.120    88327763.76646
  23256566.820   122214091.57207  23256566.700    95231758.47144
  24140986.920   126861739.49206  24140987.120    98853308.98943
  20422295.520   107319902.59709  20422292.840    83625899.10648
  22011235.100   115669903.58008  22011231.680    90132403.74346
  20933985.020   110008853.01709  20933986.640    85721198.54248
  20958711.680   110138824.58308  20958712.060    85822467.82247
 15 02 25 03 54  0.0000000  0 10G01G03G04G11G14G16G19G22G27G32
  22617575.180   118856172.89808  22617578.540    92615209.52545
  24404439.240   128246184.99506  24404442.260    99932107.13944
  20719309.780   108880747.70909  20719309.640    84842148.47947
  21558020.700   113288185.01208  21558019.640    88276510.53745
  23247489.280   122166388.59107  23247489.040    95194587.33144
  24161618.760   126970161.04506  24161618.900    98937793.26344
  20422252.700   107319677.74209  20422250.060    83625723.89648
  22024810.840   115741244.44908  22024807.420    90187994.02646
  20943451.360   110058598.35209  20943452.980    85759961.14748
  20945239.540   110068028.06709  20945239.980    85767301.72246
 15 02 25 03 54 30.0000000  0 10G01G03G04G11G14G16G19G22G27G32
  22605323.540   118791789.48808  22605326.720    92565040.65145
  24384165.620   128139647.68706  24384168.640    99849091.10943
  20712925.200   108847196.45609  20712924.960    84816004.64847
  21545542.300   113222611.01008  21545541.340    88225413.92145
  23238485.180   122119072.00206  23238484.840    95157717.28444
  24182256.780   127078614.25406  24182256.760    99022302.28843
  20422289.040   107319868.68909  20422286.340    83625872.69248
  22038442.320   115812878.63108  22038438.960    90243812.85946
  20952995.780   110108754.27909  20952997.380    85799043.68748
  20931859.060   109997712.85708  20931859.480    85712510.66247
 15 02 25 03 55  0.0000000  0 10G01G03G04G11G14G16G19G22G27G32
  22593100.200   118727555.01107  22593103.140    92514987.83445
  24363916.480   128033239.04205  24363919.480    99766175.34943
  20706590.420   108813907.06509  20706590.140    84790064.86346
  21533102.500   113157239.40708  21533101.460    88174475.02545
  23229555.100   122072144.58506  23229554.680    95121150.48743
  24202900.620   127187097.19606  24202900.180    99106834.42043
  20422404.660   107320476.50209  20422401.940    83626346.31548
  22052129.300   115884804.13608  22052125.940    90299858.70946
  20962618.240   110159320.56309  20962619.840    85838445.98348
  20918570.520   109927880.60908  20918570.820    85658095.94646
 15 02 25 03 55 30.0000000  0 10G01G03G04G11G14G16G19G22G27G32
  22580904.960   118663468.39608  22580907.740    92465050.22245
  24343692.120   127926959.92505  24343695.120    99683360.55543
  20700305.300   108780878.52409  20700304.980    84764328.34347
  21520701.180   113092070.13608  21520700.060    88123693.79145
  23220699.260   122025607.38106  23220698.840    95084887.75544
  24223549.320   127295605.82706  24223548.540    99191386.62141
  20422599.620   107321501.09209  20422596.880    83627144.69548
  22065871.120   115957017.77708  22065867.720    90356129.07746
  20972318.520   110210295.80309  20972320.080    85878166.94848
  20905374.000   109858532.03709  20905374.160    85604058.11446
 15 02 25 03 56  0.0000000  0 10G01G03G04G11G14G16G19G22G27G32
  22568738.200   118599531.36208  22568740.940    92415229.19145
  24323493.100   127820813.51606  24323495.920    99600649.13744
  20694070.040   108748112.14309  20694069.740    84738796.10247
  21508338.800   113027105.62908  21508337.660    88073072.12945
  23211918.440   121979464.29906  23211918.160    95048932.12143
  24244202.800   127404139.02106  24244201.680    99275957.91243
  20422874.400   107322945.04709  20422871.600    83628269.85548
  22079667.600   116029518.92408  22079664.220    90412623.46446
  20982096.840   110261681.20809  20982098.340    85918207.52648
  20892270.080   109789670.21708  20892270.160    85550399.56846
 15 02 25 03 56 30.0000000  0 10G01G03G04G11G14G16G19G22G27G32
  22556599.560   118535742.48308  22556602.340    92365523.58245
  24303319.520   127714800.46106  24303322.040    99518041.58144
  20687884.460   108715606.64809  20687884.200    84713467.15147
  21496015.260   112962345.33408  21496014.180    88022609.56945
  23203212.820   121933716.27807  23203212.700    95013284.34343
  24264860.140   127512692.47506  24264858.900    99360544.95943
  20423228.820   107324807.51509  20423225.960    83629721.13148
  22093518.180   116102304.11808  22093514.820    90469339.20046
  20991952.880   110313475.04809  20991954.320    85958566.35448
  20879258.760   109721295.44308  20879258.860    85497120.53946
 15 02 25 03 57  0.0000000  0 10G01G03G04G11G14G16G19G22G27G32
  22544489.180   118472101.80708  22544491.880    92315933.45745
  24283171.740   127608922.54306  24283173.880    99435539.37644
  20681748.500   108683362.16309  20681748.300    84688341.58347
  21483730.780   112897790.28208  21483729.840    87972306.94345
  23194582.960   121888365.73207  23194582.800    94977946.28143
  24285520.840   127621263.55206  24285519.320    99445145.82542
  20423663.080   107327089.59909  20423660.240    83631499.38048
  22107422.320   116175371.04808  22107419.000    90526274.47146
  21001886.560   110365676.92509  21001888.000    85999243.13248
  20866340.440   109653409.41808  20866340.560    85444222.35246
 15 02 25 03 57 30.0000000  0 10G01G03G04G11G14G16G19G22G27G32
  22532407.300   118408611.26708  22532409.860    92266460.32145
  24263050.440   127503183.53606  24263052.300    99353145.40844
  20675662.600   108651380.76609  20675662.540    84663421.02047
  21471486.000   112833443.50508  21471485.060    87922166.60845
  23186029.560   121843416.92307  23186029.400    94942921.25644
  24306184.620   127729851.64806  24306183.080    99529759.91343
  20424177.800   107329794.32909  20424174.920    83633606.96148
  22121380.040   116248719.57008  22121376.700    90583429.16046
  21011898.160   110418288.39909  21011899.620    86040239.08348
  20853515.720   109586015.44808  20853515.940    85391707.58347
 15 02 25 03 58  0.0000000  0 10G01G03G04G11G14G16G19G22G27G32
  22520353.940   118345271.01608  22520356.460    92217104.30045
  24242955.860   127397585.28006  24242957.680    99270861.13743
  20669626.720   108619662.12009  20669626.740    84638705.19647
  21459281.020   112769305.87308  21459280.100    87872189.25346
  23177553.080   121798872.26207  23177552.780    94908211.13745
  24326850.960   127838453.96306  24326849.420    99614385.07844
  20424773.080   107332922.38309  20424770.220    83636044.40448
  22135390.900   116322347.51208  22135387.660    90640801.56846
  21021987.620   110471309.11309  21021989.160    86081553.91348
  20840784.980   109519115.32308  20840785.340    85339577.63247
 15 02 25 03 58 30.0000000  0 10G01G03G04G11G14G16G19G22G27G32
  22508328.980   118282080.01908  22508331.620    92167864.58045
  24222888.120   127292128.67606  24222890.000    99188687.16643
  20663640.740   108588205.51509  20663640.760    84614193.56247
  21447115.800   112705377.31008  21447114.900    87822374.81146
  23169153.640   121754732.77307  23169153.360    94873816.75244
  24347519.200   127947066.81505  24347517.880    99699018.42443
  20425448.860   107336473.44709  20425446.000    83638811.46748
  22149454.420   116396251.69008  22149451.240    90698389.24046
  21032154.680   110524737.59009  21032156.240    86123186.47648
  20828148.300   109452709.40008  20828148.760    85287832.76947
 15 02 25 03 59  0.0000000  0 10G01G03G04G11G14G16G19G22G27G32
  22496332.680   118219039.33407  22496335.420    92118741.97546
  24202847.760   127186816.48006  24202849.940    99106625.79443
  20657704.780   108557011.88409  20657704.780    84589886.84347
  21434990.840   112641660.15508  21434989.980    87772725.09646
  23160832.020   121711002.05207  23160831.720    94839740.86644
  24368189.100   128055688.30106  24368188.120    99783658.58043
  20426205.540   107340449.61509  20426202.680    83641909.78848
  22163570.260   116470430.84308  22163567.140    90756191.17746
  21042399.520   110578574.49009  21042401.060    86165137.30548
  20815606.200   109386800.33808  20815606.720    85236475.06847
 15 02 25 03 59 30.0000000  0 10G01G03G04G11G14G16G19G22G27G32
  22484364.700   118156147.88107  22484367.660    92069735.65446
  24182835.000   127081649.35206  24182837.520    99024677.44044
  20651818.640   108526080.15409  20651818.640    84565784.20947
  21422906.060   112578154.03108  21422905.160    87723239.81746
  23152588.240   121667680.91907  23152588.040    94805984.18244
  24388859.900   128164314.38006  24388859.340    99868302.23244
  20427042.980   107344850.39409  20427040.120    83645338.96948
  22177737.800   116544881.97808  22177734.820    90814205.04546
  21052721.760   110632818.11709  21052723.320    86207405.05848
  20803158.740   109321388.43409  20803159.240    85185504.77447
 15 02 25 04 00  0.0000000  0 10G01G03G04G11G14G16G19G22G27G32
  22472425.400   118093406.84307  22472428.480    92020846.54845
  24162850.380   126976630.30606  24162853.500    98942844.46744
  20645982.540   108495411.52609  20645982.620    84541886.58247
  21410861.840   112514860.79708  21410860.900    87673920.44246
  23144423.040   121624773.06607  23144422.960    94772549.49544
  24409531.460   128272944.25306  24409531.040    99952948.87642
  20427961.580   107349677.88009  20427958.720    83649100.64448
  22191956.860   116619603.96108  22191954.000    90872429.96246
  21063121.560   110687469.29009  21063123.120    86249990.39048
  20790806.440   109256476.38909  20790806.840    85134923.97247
 15 02 25 04 00 30.0000000  0 10G01G03G04G11G14G16G19G22G27G32
  22460513.960   118030812.32107  22460517.120    91972071.61245
  24142893.520   126871757.18706  24142897.080    98861125.22144
  20640195.800   108465001.87009  20640195.900    84518190.75147
  21398857.520   112451777.59608  21398856.560    87624764.71246
  23136336.100   121582276.74007  23136336.180    94739435.49744
  24430202.440   128381570.98606  24430201.900   100037593.07243
  20428960.780   107354928.73209  20428957.920    83653192.21348
  22206226.240   116694590.27408  22206223.500    90930860.84646
  21073598.020   110742523.54309  21073599.620    86292889.80648
  20778548.760   109192061.65109  20778549.060    85084730.68847
 15 02 25 04 01  0.0000000  0 10G01G03G04G11G14G16G19G22G27G32
  22448631.260   117968368.76607  22448634.500    91923414.30245
  24122965.500   126767036.08806  24122969.280    98779524.37544
  20634459.200   108434855.76809  20634459.280    84494700.29047
  21386894.180   112388909.95708  21386893.280    87575776.95546
  23128328.860   121540198.44607  23128329.080    94706647.22344
  24450873.020   128490196.22406  24450872.540   100122236.10443
  20430041.540   107360608.25909  20430038.700    83657617.81848
  22220546.520   116769843.70608  22220543.820    90989499.88846
  21084151.920   110797984.68009  21084153.500    86336106.26648
  20766386.840   109128150.17509  20766387.120    85034929.55647
 15 02 25 04 01 30.0000000  0 10G01G03G04G11G14G16G19G22G27G32
  22436777.080   117906074.29608  22436780.220    91874873.17945
  24103066.460   126662466.98605  24103070.180    98698042.00944
  20628772.360   108404971.39309  20628772.480    84471413.77447
  21374971.740   112326257.14908  21374970.840    87526956.60146
  23120401.300   121498538.69307  23120401.460    94674185.10044
  24471542.360   128598815.12406  24471541.900   100206874.18644
  20431203.680   107366715.31709  20431200.880    83662376.55948
  22234916.720   116845359.93508  22234914.100    91048343.69646
  21094782.820   110853850.36909  21094784.360    86379637.96148
  20754320.540   109064741.30109  20754320.840    84985520.05947
 15 02 25 04 02  0.0000000  0 10G01G03G04G11G14G16G19G22G27G32
  22424952.020   117843932.65308  22424955.020    91826451.12645
  24083197.480   126558055.46406  24083201.040    98616682.43844
  20623135.980   108375352.36609  20623136.140    84448334.02547
  21363091.080   112263823.72008  21363090.060    87478307.17646
  23112554.440   121457303.13907  23112554.480    94642053.52644
  24492210.900   128707429.22705  24492210.540   100291508.55843
  20432448.020   107373254.31009  20432445.240    83667471.87448
  22249337.160   116921140.53708  22249334.700    91107393.50546
  21105491.360   110910123.81409  21105492.860    86423487.38847
  20742350.860   109001840.22109  20742351.140    84936506.24047
 15 02 25 04 02 30.0000000  0 10G01G03G04G11G14G16G19G22G27G32
  22413154.140   117781934.01808  22413157.000    91778140.48545
  24063356.880   126453793.26905  24063360.360    98535439.21944
  20617548.260   108345988.85709  20617548.400    84425453.38247
  21351250.520   112201600.73408  21351249.380    87429821.73746
  23104786.820   121416484.15207  23104786.720    94610246.53543
  24512876.000   128816025.72505  24512875.940   100376129.22243
  20433772.760   107380215.98409  20433769.980    83672896.56148
  22263805.760   116997173.50908  22263803.360    91166639.98346
  21116275.520   110966794.59209  21116276.920    86467646.43247
  20730476.160   108939438.44609  20730476.480    84887881.49147
 15 02 25 04 03  0.0000000  0 10G01G03G04G11G14G16G19G22G27G32
  22401384.900   117720085.41908  22401387.620    91729946.79645
  24043546.620   126349689.35306  24043549.840    98454319.33644
  20612010.460   108316887.98109  20612010.680    84402777.39047
  21339451.480   112139596.18108  21339450.320    87381506.51345
  23097100.240   121376090.78307  23097100.060    94578771.21243
  24533538.640   128924608.89405  24533538.860   100460739.44644
  20435179.480   107387608.35309  20435176.680    83678656.84648
  22278323.380   117073463.72808  22278320.960    91226086.89946
  21127136.520   111023869.16909  21127137.860    86512120.12547
  20718698.020   108877544.42608  20718698.440    84839652.39247
 15 02 25 04 03 30.0000000  0 10G01G03G04G11G14G16G19G22G27G32
  22389644.420   117658388.25708  22389647.060    91681871.08645
  24023767.220   126245746.78006  24023769.880    98373325.15844
  20606522.820   108288050.89209  20606523.180    84380306.94147
  21327694.500   112077812.46108  21327693.280    87333363.38046
  23089495.380   121336126.69307  23089495.020    94547630.37444
  24554198.500   129033176.90705  24554198.640   100545337.83544
  20436668.560   107395433.67109  20436665.800    83684754.49748
  22292889.740   117150010.38008  22292887.380    91285733.64145
  21138074.480   111081348.39809  21138075.820    86556909.13047
  20707017.040   108816160.84009  20707017.460    84791821.03746
 15 02 25 04 04  0.0000000  0 10G01G03G04G11G14G16G19G22G27G32
  22377932.500   117596841.63908  22377935.260    91633912.69645
  24004018.620   126141966.30406  24004021.020    98292457.31944
  20601085.300   108259476.87909  20601085.700    84358041.48947
  21315979.560   112016249.75008  21315978.380    87285392.44046
  23081972.320   121296593.03707  23081972.020    94516824.96545
  24574854.920   129141727.13705  24574854.860   100629922.46543
  20438239.900   107403691.34709  20438237.220    83691189.04948
  22307504.320   117226810.29808  22307502.040    91345577.72946
  21149089.100   111139230.57409  21149090.460    86602012.11748
  20695433.220   108755287.90108  20695433.640    84744387.59947
 15 02 25 04 04 30.0000000  0 10G01G03G04G11G14G16G19G22G27G32
  22366248.940   117535444.05908  22366251.760    91586070.43245
  23984300.900   126038348.08206  23984303.180    98211715.90544
  20595697.640   108231164.28009  20595697.980    84335979.72947
  21304306.500   111954907.21408  21304305.340    87237593.06146
  23074531.340   121257490.24007  23074531.020    94486355.27543
  24595507.080   129250255.03905  24595506.720   100714489.65743
  20439893.360   107412380.64509  20439890.760    83697959.93548
  22322166.340   117303859.53608  22322164.120    91405616.09246
  21160179.980   111197513.67109  21160181.360    86647427.51248
  20683946.640   108694925.52409  20683947.000    84697351.98447
 15 02 25 04 05  0.0000000  0 10G01G03G04G11G14G16G19G22G27G32
  22354594.100   117474197.86408  22354596.920    91538346.17546
  23964614.780   125934896.34306  23964617.120    98131104.20943
  20590360.220   108203115.49109  20590360.500    84314123.54247
  21292675.940   111893788.11108  21292674.720    87189967.79246
  23067173.120   121218822.86607  23067172.900    94456224.86344
  24616154.980   129358760.33105  24616154.480   100799039.18844
  20441629.520   107421504.44309  20441626.980    83705069.38448
  22336875.920   117381158.53808  22336873.640    91465849.06846
  21171347.440   111256199.39809  21171348.920    86693156.65048
  20672557.940   108635077.22009  20672558.240    84650716.95747
 15 02 25 04 05 30.0000000  0 10G01G03G04G11G14G16G19G22G27G32
  22342967.840   117413102.33207  22342970.720    91490739.26446
  23944960.500   125831611.94206  23944963.120    98050622.90545
  20585072.820   108175329.74609  20585073.100    84292472.32347
  21281087.980   111832893.07808  21281086.700    87142517.12346
  23059897.960   121180592.10707  23059897.840    94426434.69444
  24636797.820   129467239.52905  24636797.540   100883568.45744
  20443448.420   107431062.67509  20443445.860    83712517.35548
  22351632.440   117458704.19808  22351630.120    91526274.26846
  21182591.260   111315286.31009  21182592.840    86739198.40048
  20661267.160   108575743.49509  20661267.380    84604482.89947
 15 02 25 04 06  0.0000000  0 10G01G03G04G11G14G16G19G22G27G32
  22331369.960   117352155.49308  22331372.760    91443248.23045
  23925337.920   125728494.72706  23925340.880    97970271.89844
  20579835.020   108147804.90809  20579835.340    84271024.41547
  21269542.440   111772221.11108  21269541.100    87095240.25745
  23052705.920   121142798.09507  23052705.860    94396984.82844
  24657434.760   129575687.80605  24657434.860   100968073.55342
  20445349.800   107441054.10309  20445347.120    83720302.88548
  22366435.080   117536492.49708  22366432.740    91586888.51446
  21193910.900   111374771.84309  21193912.620    86785550.75147
  20650074.180   108516923.68609  20650074.300    84558649.29647
 15 02 25 04 06 30.0000000  0 10G01G03G04G11G14G16G19G22G27G32
  22319800.760   117291358.74708  22319803.520    91395874.14746
  23905747.620   125625547.68106  23905750.860    97890053.47444
  20574647.160   108120542.56709  20574647.420    84249781.04147
  21258039.780   111711774.39008  21258038.360    87048138.92146
  23045597.660   121105444.25907  23045597.560    94367877.94644
  24678065.620   129684103.82805  24678066.320   101052553.54843
  20447333.980   107451480.89709  20447331.280    83728427.66048
  22381283.740   117614522.65008  22381281.280    91647691.23345
  21205306.560   111434656.56609  21205308.340    86832214.16847
  20638979.380   108458620.20509  20638979.460    84513218.02547
 15 02 25 04 07  0.0000000  0 10G01G03G04G11G14G16G19G22G27G32
  22308259.920   117230711.43908  22308262.740    91348616.51446
  23886189.820   125522771.79406  23886193.140    97809968.40445
  20569509.140   108093541.98409  20569509.280    84228741.64347
  21246580.020   111651553.10508  21246578.580    87001213.25046
  23038573.420   121068531.64507  23038573.200    94339114.89044
  24698689.780   129792484.38405  24698690.820   101137005.96644
  20449400.920   107462342.68009  20449398.200    83736891.38448
  22396177.920   117692791.71808  22396175.320    91708680.11645
  21216777.880   111494939.17209  21216779.720    86879187.61247
  20627982.920   108400833.51009  20627982.960    84468189.44547
 15 02 25 04 07 30.0000000  0 10G01G03G04G11G14G16G19G22G27G32
  22296747.880   117170214.75108  22296750.640    91301476.25046
  23866665.220   125420169.99306  23866668.420    97730018.98644
  20564421.140   108066804.32709  20564421.220    84207907.11347
  21235163.600   111591559.69408  21235162.260    86954465.15246
  23031633.720   121032063.43507  23031633.520    94310698.12044
  24719306.940   129900827.90506  24719307.880   101221429.46243
  20451550.940   107473641.05809  20451548.180    83745695.31648
  22411117.320   117771298.68208  22411114.520    91769854.38846
  21228325.040   111555620.12008  21228326.860    86926471.46248
  20617085.280   108343566.08809  20617085.340    84423565.49547
 15 02 25 04 08  0.0000000  0 10G01G03G04G11G14G16G19G22G27G32
  22285264.240   117109867.30308  22285266.900    91254452.27146
  23847173.820   125317742.68306  23847176.920    97650205.54544
  20559382.920   108040328.13909  20559382.980    84187276.32347
  21223790.400   111531793.56908  21223789.200    86907894.16446
  23024778.800   120996040.68007  23024778.660    94282628.45844
  24739916.360   130009130.00805  24739916.980   101305820.68942
  20453784.020   107485375.71309  20453781.180    83754839.19248
  22426101.240   117850039.85008  22426098.300    91831211.13245
  21239947.600   111616697.37208  21239949.440    86974064.11748
  20606286.380   108286817.54109  20606286.480    84379345.87247
 15 02 25 04 08 30.0000000  0 10G01G03G04G11G14G16G19G22G27G32
  22273809.300   117049671.07708  22273812.000    91207546.10646
  23827716.200   125215493.27706  23827719.180    97570530.71844
  20554394.820   108014115.47309  20554394.920    84166850.88347
  21212461.020   111472257.74008  21212459.940    86861502.60746
  23018009.280   120960466.68007  23018009.180    94254908.50844
  24760517.880   130117390.49405  24760518.240   101390179.48843
  20456100.480   107497548.82609  20456097.640    83764324.73348
  22441129.740   117929015.12208  22441126.680    91892750.30646
  21251645.880   111678172.01709  21251647.720    87021966.43447
  20595586.840   108230591.00509  20595587.040    84335532.99747
 15 02 25 04 09  0.0000000  0 10G01G03G04G11G14G16G19G22G27G32
  22262382.860   116989624.68708  22262385.500    91160756.72246
  23808292.500   125113422.21406  23808295.480    97490994.88244
  20549456.540   107988164.78109  20549456.660    84146629.57147
  21201175.500   111412952.04308  21201174.400    86815290.38146
  23011325.240   120925342.03407  23011325.220    94227538.65145
  24781110.780   130225605.53205  24781110.900   101474502.87242
  20458500.260   107510159.72909  20458497.420    83774151.41148
  22456202.120   118008221.10308  22456198.960    91954469.25346
  21263419.400   111740042.04009  21263421.240    87070176.82647
  20584986.540   108174886.20209  20584986.860    84292126.66847
 15 02 25 04 09 30.0000000  0 10G01G03G04G11G14G16G19G22G27G32
  22250985.040   116929728.81208  22250987.580    91114084.61646
  23788903.220   125011531.75906  23788906.280    97411599.77144
  20544568.280   107962476.82309  20544568.340    84126612.98447
  21189934.060   111353878.04508  21189932.920    86769258.70745
  23004727.180   120890669.41707  23004727.300    94200521.03444
  24801694.440   130333772.64105  24801694.540   101558788.91743
  20460983.540   107523209.23809  20460980.660    83784319.85348
  22471317.980   118087655.95308  22471314.800    92016366.53545
  21275268.160   111802307.15309  21275269.940    87118695.09347
  20574485.800   108119704.71709  20574486.160    84249128.13447
 15 02 25 04 10  0.0000000  0 10G01G03G04G11G14G16G19G22G27G32
  22239616.140   116869985.32608  22239618.780    91067531.26046
  23769548.940   124909825.40006  23769552.280    97332348.10444
  20539730.380   107937053.35309  20539730.320    84106802.49847
  21178737.220   111295038.30308  21178736.040    86723409.56246
  22998215.900   120856452.69107  22998216.040    94173858.67544
  24822268.720   130441891.21705  24822268.940   101643037.11343
  20463550.820   107536700.33009  20463547.960    83794832.39348
  22486477.300   118167319.22208  22486474.120    92078441.80145
  21287192.260   111864968.53809  21287194.000    87167522.13047
  20564085.220   108065049.59509  20564085.520    84206539.73547
 15 02 25 04 10 30.0000000  0 10G01G03G04G11G14G16G19G22G27G32
  22228275.580   116810390.73508  22228278.360    91021093.91945
  23750229.560   124808301.39406  23750232.740    97253238.52144
  20534942.140   107911890.83209  20534942.040    84087195.33747
  21167584.520   111236430.50408  21167583.280    86677741.16546
  22991791.020   120822690.11807  22991791.140    94147550.19944
  24842832.660   130549955.15706  24842832.420   101727242.80543
  20466201.440   107550629.60309  20466198.620    83805686.37448
  22501679.220   118247205.56708  22501675.920    92140690.90746
  21299191.040   111928021.85309  21299192.620    87216654.58147
  20553784.360   108010918.16009  20553784.560    84164359.41347
 15 02 25 04 11  0.0000000  0 10G01G03G04G11G14G16G19G22G27G32
  22216963.500   116750945.54308  22216966.320    90974773.00046
  23730945.240   124706961.66606  23730948.420    97174272.54344
  20530203.660   107886989.72509  20530203.500    84067791.89247
  21156476.260   111178056.20108  21156474.960    86632254.70746
  22985453.020   120789383.73207  22985453.060    94121597.20244
  24863385.800   130657962.22705  24863384.820   101811404.11741
  20468935.680   107564998.15309  20468932.860    83816882.64448
  22516923.240   118327313.02008  22516919.840    92203112.28945
  21311264.260   111991466.73709  21311265.780    87266092.14347
  20543583.460   107957311.91409  20543583.560    84122588.34147
 15 02 25 04 11 30.0000000  0 10G01G03G04G11G14G16G19G22G27G32
  22205680.340   116691652.81208  22205683.280    90928570.89245
  23711696.940   124605811.10406  23711700.240    97095453.96444
  20525515.500   107862353.13109  20525515.260    84048594.54847
  21145413.140   111119919.29708  21145411.860    86586953.23046
  22979202.820   120756538.61307  22979202.780    94096003.63944
  24883928.060   130765912.61105  24883927.120   101895521.29144
  20471754.160   107579809.38609  20471751.300    83828423.86248
  22532209.500   118407642.68808  22532206.080    92265706.82745
  21323412.340   112055305.41808  21323413.920    87315836.56847
  20533483.240   107904234.92809  20533483.320    84081229.66347
 15 02 25 04 12  0.0000000  0 10G01G03G04G11G14G16G19G22G27G32
  22194425.340   116632507.72708  22194428.380    90882483.82345
  23692484.040   124504846.28606  23692487.440    97016780.09244
  20520876.740   107837976.15909  20520876.460    84029599.50947
  21134394.540   111062015.83408  21134393.260    86541833.65946
  22973039.840   120724151.66607  22973039.760    94070767.08044
  24904458.280   130873799.20905  24904457.280   101979588.76443
  20474656.020   107595058.86609  20474653.160    83840306.56848
  22547536.760   118488187.46008  22547533.220    92328468.99145
  21335634.280   112119532.18009  21335635.880    87365883.39148
  20523482.940   107851683.32009  20523483.100    84040280.37047
 15 02 25 04 12 30.0000000  0 10G01G03G04G11G14G16G19G22G27G32
  22183199.420   116573515.34508  22183202.540    90836515.76046
  23673307.720   124404074.08106  23673311.220    96938256.32645
  20516288.360   107813864.05409  20516288.160    84010810.87047
  21123421.580   111004352.39308  21123420.380    86496901.12446
  22966965.420   120692229.89007  22966965.160    94045892.98944
  24924976.700   130981624.16305  24924975.660   102063608.22142
  20477642.320   107610752.23809  20477639.600    83852535.17848
  22562905.500   118568950.27108  22562901.940    92391401.05645
  21347930.920   112184151.34109  21347932.520    87416235.96647
  20513583.760   107799663.16509  20513584.040    83999745.19447
