     2.11           OBSERVATION DATA    G                   RINEX VERSION / TYPE
SPIDER V4,0,0,3554                      2015 04 17 03:18    PGM / RUN BY / DATE 
CABS                                                        MARKER NAME         
CABS                                                        MARKER NUMBER       
                                                            OBSERVER / AGENCY   
462287              LEICA GRX1200PRO    8.10/2.127          REC # / TYPE / VERS 
103298              LEIAT504                                ANT # / TYPE        
  5116912.3402   671231.6412  3737143.4301                  APPROX POSITION XYZ 
        0.0600        0.0000        0.0000                  ANTENNA: DELTA H/E/N
     1     1                                                WAVELENGTH FACT L1/2
     4    C1    L1    P2    L2                              # / TYPES OF OBSERV 
    30.000                                                  INTERVAL            
  2015    02    25    00    00    0.0000000     GPS         TIME OF FIRST OBS   
  2015    02    25    23    59   30.0000000     GPS         TIME OF LAST OBS    
    16                                                      LEAP SECONDS        
    30                                                      # OF SATELLITES     
   G 1   801   801   801   801                              PRN / # OF OBS      
   G 2   943   943   943   943                              PRN / # OF OBS      
   G 3   847   847   847   847                              PRN / # OF OBS      
   G 4   831   831   831   831                              PRN / # OF OBS      
   G 5   647   647   647   647                              PRN / # OF OBS      
   G 6   829   829   829   829                              PRN / # OF OBS      
   G 7   673   673   673   673                              PRN / # OF OBS      
   G 9   807   807   807   807                              PRN / # OF OBS      
   G10   723   723   723   723                              PRN / # OF OBS      
   G11   770   770   770   770                              PRN / # OF OBS      
   G12   819   819   819   819                              PRN / # OF OBS      
   G13   788   788   788   788                              PRN / # OF OBS      
   G14   941   941   941   941                              PRN / # OF OBS      
   G15   702   702   702   702                              PRN / # OF OBS      
   G16   664   664   664   664                              PRN / # OF OBS      
   G17   942   942   942   942                              PRN / # OF OBS      
   G18   904   904   904   904                              PRN / # OF OBS      
   G19   750   750   750   750                              PRN / # OF OBS      
   G20   749   749   749   749                              PRN / # OF OBS      
   G21   741   741   741   741                              PRN / # OF OBS      
   G22   666   666   666   666                              PRN / # OF OBS      
   G23   755   755   755   755                              PRN / # OF OBS      
   G24   816   816   816   816                              PRN / # OF OBS      
   G25   855   855   855   855                              PRN / # OF OBS      
   G27   800   800   800   800                              PRN / # OF OBS      
   G28   865   865   865   865                              PRN / # OF OBS      
   G29   763   763   762   762                              PRN / # OF OBS      
   G30   720   720   720   720                              PRN / # OF OBS      
   G31   871   871   871   871                              PRN / # OF OBS      
   G32   769   769   769   769                              PRN / # OF OBS      
BIT 2 OF LLI FLAGS DATA COLLECTED UNDER A/S CONDITION       COMMENT             
SNR is mapped to RINEX snr flag value [2-9]                 COMMENT             
Lx:     = 25dBHz -> 1; 26-27dBHz -> 2; 28-31dBHz -> 3       COMMENT             
       32-35dBHz -> 4; 36-38dBHz -> 5; 39-41dBHz -> 6       COMMENT             
       42-44dBHz -> 7; 45-48dBHz -> 8; >=49dBHz -> 9        COMMENT             
                                                            END OF HEADER       
 15 02 25 00 00  0.0000000  0  8G16G18G21G22G25G27G29G31
  22101394.440   116143618.50808  22101395.460    90501526.18847
  22767095.380   119641952.21107  22767097.460    93227532.41945
  21066098.960   110703222.56808  21066099.680    86262312.40749
  24381714.460   128126789.01206  24381718.300    99839084.61744
  24452925.780   128501198.36605  24452931.980   100130926.43346
  23394778.880   122940399.15806  23394782.680    95797738.78046
  23367877.160   122799362.74707  23367879.820    95687972.01346
  22717320.040   119380322.90808  22717321.000    93023646.70447
 15 02 25 00 00 30.0000000  0  8G16G18G21G22G25G27G29G31
  22086532.900   116065520.50208  22086533.900    90440670.60247
  22753942.700   119572834.77407  22753944.660    93173674.70845
  21071154.640   110729790.34008  21071155.340    86283014.57049
  24363499.260   128031069.98106  24363503.060    99764498.86544
  24472110.900   128602015.94005  24472117.080   100209485.48545
  23381402.340   122870104.84707  23381406.120    95742964.00546
  23381552.520   122871226.87106  23381555.160    95743969.99946
  22733663.660   119466209.58908  22733664.740    93090571.37247
 15 02 25 00 01  0.0000000  0  8G16G18G21G22G25G27G29G31
  22071715.340   115987653.68008  22071716.360    90379995.16547
  22740836.780   119503962.67307  22740838.440    93120008.16345
  21076279.300   110756720.41008  21076279.960    86303999.04248
  24345274.860   127935302.23306  24345278.440    99689875.06145
  24491325.320   128702987.05305  24491331.320   100288164.20545
  23368042.220   122799896.93007  23368046.000    95688256.57546
  23395236.960   122943138.63106  23395239.520    95800005.10246
  22750051.820   119552330.53708  22750053.100    93157678.57947
 15 02 25 00 01 30.0000000  0  8G16G18G21G22G25G27G29G31
  22056942.040   115910019.18108  22056943.080    90319500.75847
  22727777.860   119435337.22008  22727779.240    93066533.82346
  21081472.280   110784009.64108  21081472.920    86325263.37249
  24327041.420   127839486.98506  24327044.860    99615214.24745
  24510568.400   128804108.89705  24510574.200   100366960.33445
  23354698.340   122729774.04906  23354702.080    95633615.38247
  23408930.300   123015096.71707  23408932.680    95856076.27846
  22766483.800   119638681.54508  22766485.240    93224965.06147
 15 02 25 00 02  0.0000000  0  8G16G18G21G22G25G27G29G31
  22042213.380   115832619.60508  22042214.500    90259189.40947
  22714766.500   119366961.67007  22714767.620    93013254.19046
  21086733.460   110811657.18408  21086734.080    86346806.91849
  24308799.420   127743627.01906  24308802.820    99540518.61144
  24529839.900   128905380.31406  24529845.480   100445873.02144
  23341370.680   122659736.72807  23341374.400    95579040.85947
  23422632.600   123087101.40007  23422634.900    95912183.78246
  22782959.080   119725259.65508  22782960.560    93292428.50747
 15 02 25 00 02 30.0000000  0  8G16G18G21G22G25G27G29G31
  22027529.500   115755455.69708  22027530.720    90199061.71047
  22701802.800   119298836.97707  22701803.780    92960170.03445
  21092062.240   110839660.05708  21092062.820    86368627.33449
  24290549.240   127647723.79106  24290552.640    99465789.22345
  24549139.460   129006798.39205  24549144.640   100524900.00844
  23328058.960   122589783.56707  23328062.740    95524531.92046
  23436343.500   123159150.98707  23436345.720    95968326.27046
  22799476.900   119812060.62608  22799478.260    93360065.60447
 15 02 25 00 03  0.0000000  0  8G16G18G21G22G25G27G29G31
  22012891.500   115678532.82708  22012892.780    90139121.82047
  22688887.960   119230969.04007  22688888.920    92907285.94246
  21097459.000   110868020.20108  21097459.580    86390726.15249
  24272291.900   127551782.76106  24272295.320    99391030.34745
  24568467.140   129108365.08505  24568472.080   100604042.74244
  23314763.920   122519917.85207  23314767.720    95470091.13446
  23450063.480   123231248.69107  23450065.640    96024506.26946
  22816037.300   119899084.97208  22816038.420    93427876.75447
 15 02 25 00 03 30.0000000  0  8G16G18G21G22G25G27G29G31
  21998299.360   115601850.51108  21998300.580    90079369.37247
  22676021.760   119163356.97407  22676022.840    92854601.21046
  21102922.860   110896732.84308  21102923.420    86413099.64349
  24254027.240   127455803.53206  24254030.940    99316241.70445
  24587822.060   129210075.68705  24587826.940   100683297.62644
  23301484.980   122450136.69107  23301488.800    95415716.22646
  23463791.880   123303391.07407  23463793.940    96080721.08046
  22832639.000   119986326.60908  22832639.960    93495857.22847
 15 02 25 00 04  0.0000000  0  8G16G18G21G22G25G27G29G31
  21983753.660   115525412.19408  21983754.780    90019807.05447
  22663205.000   119096004.89707  22663206.320    92802119.09146
  21108453.860   110925798.14208  21108454.360    86435747.92649
  24235756.060   127359790.26106  24235759.860    99241426.49745
  24607204.500   129311930.34005  24607209.340   100762664.79245
  23288222.420   122380441.63307  23288226.200    95361408.43546
  23477528.980   123375579.73807  23477531.080    96136971.96746
  22849281.740   120073784.23608  22849282.620    93564005.99746
 15 02 25 00 04 30.0000000  0  8G16G18G21G22G25G27G29G31
  21969254.820   115449220.13708  21969255.840    89960436.62547
  22650438.240   119028915.65107  22650439.860    92749841.77546
  21114051.740   110955214.89508  21114052.220    86458670.07549
  24217478.980   127263745.10406  24217482.840    99166586.45845
  24626613.820   129413927.21805  24626618.720   100842142.73545
  23274976.220   122310832.44507  23274979.980    95307167.53946
  23491274.860   123447814.82807  23491276.980    96193259.01346
  22865964.860   120161454.84908  22865965.800    93632320.73746
 15 02 25 00 05  0.0000000  0  8G16G18G21G22G25G27G29G31
  21954802.980   115373274.96608  21954803.880    89901258.57047
  22637721.680   118962089.64108  22637723.400    92697769.57746
  21119715.740   110984979.28708  21119716.220    86481863.10849
  24199196.020   127167668.79706  24199199.780    99091722.10145
  24646049.700   129516063.38805  24646054.740   100921729.22244
  23261746.080   122241307.70307  23261749.960    95252992.45246
  23505029.100   123520094.28807  23505031.200    96249580.64846
  22882687.500   120249333.57208  22882688.520    93700797.64147
 15 02 25 00 05 30.0000000  0  8G16G18G21G22G25G27G29G31
  21940398.940   115297581.38508  21940399.840    89842276.57147
  22625056.240   118895532.01008  22625057.920    92645906.51546
  21125446.080   111015092.25408  21125446.540    86505327.75549
  24180908.140   127071566.53906  24180911.860    99016837.54545
  24665512.140   129618339.52406  24665517.560   101001424.78144
  23248532.460   122171869.71707  23248536.440    95198884.95446
  23518792.180   123592420.25806  23518794.140    96305938.51246
  22899449.620   120337419.76708  22899450.740    93769436.21047
 15 02 25 00 06  0.0000000  0  8G16G18G21G22G25G27G29G31
  21926042.760   115222139.12408  21926043.640    89783490.39647
  22612442.000   118829242.93808  22612443.420    92594252.71146
  21131242.040   111045550.20008  21131242.500    86529061.21649
  24162615.500   126975438.59806  24162618.620    98941932.95145
  24685000.540   129720752.04305  24685006.200   101081226.63444
  23235334.960   122102516.40207  23235338.960    95144843.42346
  23532563.760   123664790.51807  23532565.500    96362330.86745
  22916250.340   120425708.47208  22916251.560    93838232.58346
 15 02 25 00 06 30.0000000  0  8G16G18G21G22G25G27G29G31
  21911735.080   115146951.96308  21911736.020    89724903.00247
  22599879.540   118763226.03708  22599880.720    92542811.00346
  21137103.520   111076352.63008  21137104.020    86553063.10949
  24144318.920   126879288.83506  24144321.660    98867011.31145
  24704514.760   129823300.35005  24704520.520   101161134.25645
  23222153.740   122033248.86207  23222157.780    95090868.72946
  23546344.120   123737206.10507  23546345.700    96418758.55246
  22933089.320   120514197.86508  22933090.580    93907185.32646
 15 02 25 00 07  0.0000000  0  8G16G18G21G22G25G27G29G31
  21897476.420   115072022.28308  21897477.380    89666516.24247
  22587369.420   118697484.73408  22587370.480    92491584.04546
  21143030.480   111107499.19608  21143031.020    86577333.16149
  24126018.700   126783120.36506  24126021.340    98792075.12145
  24724054.640   129925983.73305  24724060.520   101241147.14045
  23208988.920   121964067.97607  23208993.040    95036961.55746
  23560133.260   123809667.80706  23560134.640    96475222.17346
  22949966.100   120602885.53708  22949967.280    93976292.57746
 15 02 25 00 07 30.0000000  0  8G16G18G21G22G25G27G29G31
  21883266.840   114997350.43308  21883267.840    89608330.39147
  22574911.560   118632018.53008  22574912.560    92440571.45246
  21149022.040   111138985.28308  21149022.600    86601867.77049
  24107714.780   126686932.99106  24107717.260    98717124.17545
  24743619.640   130028798.17105  24743625.480   101321262.12745
  23195840.160   121894971.29007  23195844.340    94983120.00446
  23573930.580   123882173.02106  23573931.920    96531719.68346
  22966879.640   120691766.19608  22966880.680    94045550.19646
 15 02 25 00 08  0.0000000  0  8G16G18G21G22G25G27G29G31
  21869106.680   114922938.24008  21869107.700    89550346.87147
  22562506.420   118566829.84608  22562507.500    92389775.08846
  21155077.920   111170809.30708  21155078.520    86626665.70949
  24089407.720   126590729.24106  24089409.960    98642160.45345
  24763209.500   130131741.89605  24763215.260   101401477.86545
  23182707.440   121825958.62807  23182711.580    94929343.90647
  23587736.060   123954721.42706  23587737.540    96588250.83846
  22983829.240   120780836.68508  22983830.180    94114955.73746
 15 02 25 00 08 30.0000000  0  8G16G18G21G22G25G27G29G31
  21854996.860   114848790.58608  21854997.860    89492569.48647
  22550154.980   118501923.62908  22550156.200    92339198.82346
  21161198.360   111202972.27308  21161198.920    86651727.75648
  24071098.480   126494514.50206  24071100.680    98567188.20844
  24782824.280   130234816.03805  24782829.700   101481795.18844
  23169591.300   121757032.77307  23169595.400    94875635.45646
  23601550.140   124027315.34307  23601551.920    96644817.46946
  23000814.840   120870096.59208  23000815.760    94184508.88546
 15 02 25 00 09  0.0000000  0  8G16G18G21G22G25G27G29G31
  21840937.840   114774909.85508  21840938.800    89435000.08547
  22537857.880   118437302.58608  22537859.220    92288844.76646
  21167382.960   111235472.53408  21167383.520    86677052.63348
  24052787.520   126398290.91206  24052789.640    98492208.96945
  24802463.540   130338018.69906  24802468.720   101562212.69043
  23156491.600   121688193.48807  23156495.640    94821994.45846
  23615372.780   124099954.63706  23615374.960    96701419.47746
  23017835.860   120959542.65908  23017836.780    94254207.09846
 15 02 25 00 09 30.0000000  0  7G16G18G21G22G27G29G31
  21826928.780   114701291.72708  21826929.740    89377635.31647
  22525614.360   118372962.56508  22525615.800    92238709.69746
  21173630.260   111268302.30708  21173630.820    86702634.27448
  24034474.100   126302054.66406  24034476.180    98417219.92344
  23143407.260   121619434.60907  23143411.140    94768416.12446
  23629202.780   124172632.96006  23629205.420    96758051.91846
  23034890.560   121049165.76408  23034891.560    94324043.25646
 15 02 25 00 10  0.0000000  0  7G16G18G21G22G27G29G31
  21812974.020   114627959.12108  21812975.020    89320493.03247
  22513428.920   118308927.18008  22513430.360    92188812.00946
  21179943.860   111301480.52208  21179944.420    86728487.42748
  24016162.800   126205829.32307  24016164.800    98342239.35345
  23130342.220   121550776.82507  23130345.920    94714916.57646
  23643044.280   124245371.13806  23643047.180    96814730.99546
  23051982.320   121138983.58808  23051983.400    94394031.13146
 15 02 25 00 10 30.0000000  0  7G16G18G21G22G27G29G31
  21799069.460   114554890.02308  21799070.460    89263556.07548
  22501297.280   118245174.30908  22501298.640    92139134.46546
  21186318.840   111334981.31308  21186319.420    86754591.94348
  23997849.620   126109593.08906  23997851.380    98267250.26845
  23117291.760   121482195.96907  23117295.320    94661476.96047
  23656892.520   124318144.15606  23656895.560    96871437.21546
  23069106.000   121228969.04408  23069107.160    94464149.64446
 15 02 25 00 11  0.0000000  0  7G16G18G21G22G27G29G31
  21785217.460   114482096.98308  21785218.420    89206834.23147
  22489221.700   118181716.23308  22489222.920    92089686.63246
  21192756.860   111368813.32108  21192757.440    86780954.55748
  23979536.740   126013358.52006  23979538.400    98192262.51346
  23104257.860   121413702.28307  23104261.340    94608105.26946
  23670749.560   124390962.78606  23670752.600    96928178.95746
  23086263.000   121319129.10508  23086264.120    94534404.20647
 15 02 25 00 11 30.0000000  0  7G16G18G21G22G27G29G31
  21771417.640   114409578.28708  21771418.560    89150326.16047
  22477201.840   118118551.55508  22477202.980    92040467.42346
  21199256.860   111402971.09108  21199257.420    86807570.99948
  23961224.040   125917124.59606  23961225.380    98117275.23445
  23091239.860   121345292.10807  23091243.280    94554798.66246
  23684614.680   124463823.00907  23684617.380    96984953.12246
  23103451.960   121409457.03408  23103453.040    94604789.56446
 15 02 25 00 12  0.0000000  0  7G16G18G21G22G27G29G31
  21757671.240   114337340.62508  21757672.160    89094037.07947
  22465239.080   118055687.46308  22465240.180    91991482.43446
  21205819.460   111437457.62608  21205819.980    86834443.62848
  23942912.660   125820897.72006  23942913.640    98042293.46646
  23078238.560   121276969.75007  23078241.980    94501560.48147
  23698488.540   124536729.12807  23698491.020    97041763.03346
  23120673.100   121499954.22608  23120674.160    94675306.82246
 15 02 25 00 12 30.0000000  0  7G16G18G21G22G27G29G31
  21743978.600   114265385.61608  21743979.560    89037968.24347
  22453333.720   117993125.44008  22453334.880    91942732.82546
  21212444.060   111472270.05808  21212444.520    86861570.19248
  23924603.080   125724680.66406  23924603.900    97967319.32545
  23065253.840   121208734.57007  23065257.240    94448390.23147
  23712370.940   124609680.23207  23712373.220    97098608.01146
  23137925.600   121590616.61207  23137926.640    94745952.80746
 15 02 25 00 13  0.0000000  0  7G16G18G21G22G27G29G31
  21730340.320   114193716.08108  21730341.280    88982121.85848
  22441486.460   117930868.38408  22441487.660    91894220.84746
  21219130.560   111507407.72908  21219130.980    86888950.19848
  23906295.780   125628476.09906  23906296.380    97892354.90546
  23052285.840   121140587.24607  23052289.240    94395288.43746
  23726261.880   124682676.84407  23726264.080    97155488.46946
  23155209.160   121681442.24707  23155210.180    94816725.98946
 15 02 25 00 13 30.0000000  0  7G16G18G21G22G27G29G31
  21716756.880   114122334.52508  21716757.820    88926499.86448
  22429697.780   117868918.74608  22429699.040    91845948.41046
  21225878.640   111542869.00508  21225879.040    86916582.35948
  23887991.220   125532286.67906  23887991.800    97817402.29345
  23039334.640   121072528.10507  23039338.020    94342255.35847
  23740161.320   124755718.65007  23740163.440    97212404.08745
  23172523.220   121772428.29307  23172524.240    94887624.16446
 15 02 25 00 14  0.0000000  0  7G16G18G21G22G27G29G31
  21703228.640   114051243.11508  21703229.560    88871103.96148
  22417968.160   117807279.03008  22417969.560    91797917.48546
  21232688.040   111578652.39708  21232688.400    86944465.52348
  23869689.920   125436115.11606  23869690.700    97742463.56645
  23026400.160   121004557.22907  23026403.620    94289291.04847
  23754069.420   124828806.48206  23754071.500    97269355.63045
  23189867.120   121863571.43907  23189868.200    94958644.75046
 15 02 25 00 14 30.0000000  0  7G16G18G21G22G27G29G31
  21689755.980   113980443.86408  21689756.880    88815935.71748
  22406298.040   117745951.36008  22406299.500    91750129.70747
  21239558.380   111614756.05708  21239558.700    86972598.24548
  23851392.260   125339964.05306  23851393.300    97667540.82745
  23013482.420   120936674.46007  23013485.960    94236395.38247
  23767985.940   124901939.41006  23767988.240    97326342.30445
  23207240.320   121954868.57607  23207241.460    95029785.34046
 15 02 25 00 15  0.0000000  0  7G16G18G21G22G27G29G31
  21676339.240   113909938.26108  21676340.080    88760996.28348
  22394687.540   117684936.98808  22394689.040    91702586.06146
  21246489.100   111651177.15708  21246489.420    87000978.32548
  23833098.840   125243834.74006  23833100.200    97592635.01845
  23000581.240   120868878.90307  23000584.860    94183567.67946
  23781910.900   124975116.66706  23781913.540    97383363.52146
  23224642.100   122046315.93907  23224643.420    95101042.97846
 15 02 25 00 15 30.0000000  0  7G16G18G21G22G27G29G31
  21662978.300   113839726.02908  21662979.080    88706285.45148
  22383136.660   117624235.97408  22383138.140    91655286.58746
  21253479.440   111687911.78408  21253479.820    87029602.70848
  23814809.840   125147727.34806  23814811.340    97517746.29145
  22987696.220   120801168.24707  22987699.960    94130806.13347
  23795843.860   125048335.78306  23795846.680    97440417.32745
  23242071.480   122137908.20407  23242073.000    95172413.54546
 15 02 25 00 16  0.0000000  0  7G16G18G21G22G27G29G31
  21649673.540   113769809.06208  21649674.320    88651804.70148
  22371645.700   117563850.29008  22371647.080    91608232.81246
  21260529.100   111724958.07808  21260529.520    87058469.95048
  23796525.680   125051644.28006  23796527.340    97442876.54646
  22974827.380   120733542.04707  22974831.140    94078110.40547
  23809785.000   125121596.29306  23809787.600    97497503.46346
  23259527.800   122229641.65807  23259529.400    95243894.11646
 15 02 25 00 16 30.0000000  0  7G16G18G21G22G27G29G31
  21636425.540   113700190.42808  21636426.340    88597556.42148
  22360215.240   117503783.06208  22360216.520    91561427.18846
  21267637.820   111762314.77008  21267638.260    87087579.05848
  23778247.060   124955589.05506  23778248.420    97368028.44645
  22961974.860   120666001.48807  22961978.620    94025481.41247
  23823734.380   125194898.93307  23823736.720    97554622.35846
  23277010.660   122321514.22707  23277012.300    95315483.09846
 15 02 25 00 17  0.0000000  0  7G16G18G21G22G27G29G31
  21623235.320   113630875.40708  21623236.160    88543544.72048
  22348846.320   117444039.36208  22348847.500    91514873.66446
  21274805.880   111799983.35008  21274806.360    87116931.20348
  23759974.960   124859567.12106  23759976.020    97293206.31145
  22949139.200   120598549.55807  22949142.980    93972921.48347
  23837692.320   125268246.62407  23837694.480    97611776.34945
  23294520.020   122413526.12507  23294521.700    95387180.63446
 15 02 25 00 17 30.0000000  0  7G16G18G21G22G27G29G31
  21610103.440   113561867.07708  21610104.360    88489771.99848
  22337539.580   117384622.25508  22337540.620    91468574.63246
  21282033.200   111837963.28108  21282033.700    87146525.95048
  23741709.860   124763581.84406  23741710.540    97218412.70345
  22936320.540   120531187.05807  22936324.360    93920431.24647
  23851658.920   125341640.00206  23851660.980    97668965.97646
  23312055.460   122505674.81407  23312057.120    95458984.77846
 15 02 25 00 18  0.0000000  0  7G16G18G21G22G27G29G31
  21597030.420   113493167.85708  21597031.360    88436240.13848
  22326295.520   117325534.04808  22326296.360    91422531.88546
  21289319.400   111876252.64608  21289319.920    87176361.81548
  23723452.100   124667635.72907  23723452.740    97143649.62445
  22923518.940   120463914.04307  22923522.760    93868010.71947
  23865634.020   125415078.98607  23865636.020    97726191.12446
  23329616.400   122597957.51207  23329617.960    95530893.32546
 15 02 25 00 18 30.0000000  0  7G16G18G21G22G27G29G31
  21584016.760   113424780.72808  21584017.720    88382951.46848
  22315114.680   117266777.78508  22315115.340    91376747.80746
  21296664.460   111914850.95308  21296664.960    87206438.42048
  23705202.360   124571732.37807  23705202.980    97068919.85846
  22910734.580   120396731.65508  22910738.400    93815660.82047
  23879617.820   125488564.75007  23879619.880    97783452.69145
  23347202.360   122690371.94807  23347203.780    95602904.52146
 15 02 25 00 19  0.0000000  0  7G16G18G21G22G27G29G31
  21571062.400   113356705.40108  21571063.400    88329905.76648
  22303997.100   117208353.98008  22303997.660    91331222.78046
  21304067.520   111953754.14608  21304068.000    87236752.58848
  23686960.760   124475872.35407  23686961.480    96994223.85945
  22897967.040   120329637.81907  22897970.880    93763379.92547
  23893609.920   125562094.89906  23893612.320    97840748.90246
  23364812.360   122782913.16507  23364813.680    95675014.51046
 15 02 25 00 19 30.0000000  0  7G16G18G21G22G27G29G31
  21558167.760   113288943.81008  21558168.800    88277104.53348
  22292942.940   117150264.01108  22292943.600    91285957.88246
  21311528.120   111992959.90608  21311528.620    87267302.53148
  23668727.740   124380057.43106  23668728.520    96919562.99345
  22885216.240   120262631.76507  22885220.020    93711167.42747
  23907610.260   125635668.79506  23907613.040    97898079.16845
  23382445.660   122875577.10707  23382446.880    95747220.13546
 15 02 25 00 20  0.0000000  0  7G16G18G21G22G27G29G31
  21545333.080   113221497.12208  21545334.100    88224548.67848
  22281952.360   117092508.77008  22281953.240    91240953.80847
  21319045.640   112032464.76908  21319046.160    87298085.54548
  23650503.540   124284289.26806  23650504.520    96844938.55546
  22872482.040   120195712.86107  22872485.740    93659022.83647
  23921618.700   125709284.76606  23921621.600    97955442.25446
  23400101.680   122968360.26607  23400102.860    95819518.65946
 15 02 25 00 20 30.0000000  0  7G16G18G21G22G27G29G31
  21532558.920   113154368.38708  21532559.880    88172240.57348
  22271026.000   117035091.63008  22271027.200    91196213.18946
  21326620.060   112072268.69108  21326620.620    87329101.58848
  23632288.860   124188571.23806  23632290.020    96770353.18346
  22859764.540   120128881.84807  22859768.180    93606946.73247
  23935635.560   125782944.32206  23935638.420    98012839.26646
  23417779.980   123061260.19707  23417781.140    95891908.17746
 15 02 25 00 21  0.0000000  0  7G16G18G21G22G27G29G31
  21519845.540   113087558.81708  21519846.380    88120181.16848
  22260164.120   116978013.41608  22260165.600    91151736.67347
  21334250.820   112112368.56808  21334251.400    87360348.24848
  23614084.060   124092904.81007  23614085.260    96695808.03146
  22847063.520   120062137.67107  22847067.140    93554938.28147
  23949660.700   125856646.19206  23949663.420    98070269.28445
  23435479.700   123154272.59307  23435480.920    95964385.30946
 15 02 25 00 21 30.0000000  0  7G16G18G21G22G27G29G31
  21507193.840   113021073.39808  21507194.600    88068374.35448
  22249367.760   116921279.08308  22249369.380    91107528.10946
  21341938.100   112152765.45008  21341938.660    87391826.33648
  23595890.260   123997295.81906  23595891.340    96621307.62746
  22834379.560   119995483.33707  22834383.200    93502999.85747
  23963694.540   125930392.97207  23963697.000    98127734.28345
  23453200.780   123247397.49707  23453202.140    96036950.11246
 15 02 25 00 22  0.0000000  0  7G16G18G21G22G27G29G31
  21494604.540   112954915.95708  21494605.300    88016823.10548
  22238637.740   116864892.60508  22238639.260    91063590.59946
  21349681.880   112193459.13908  21349682.420    87423535.70648
  23577708.120   123901747.89506  23577709.000    96546854.79746
  22821712.960   119928920.37008  22821716.640    93451132.62747
  23977737.120   126004185.94507  23977739.320    98185235.26046
  23470942.960   123340633.21407  23470944.500    96109601.27546
 15 02 25 00 22 30.0000000  0  7G16G18G21G22G27G29G31
  21482077.820   112889087.44608  21482078.600    87965528.16848
  22227974.200   116808854.93308  22227975.500    91019924.89346
  21357481.620   112234447.03408  21357482.180    87455474.32548
  23559537.820   123806262.79406  23559538.600    96472450.92546
  22809063.580   119862447.95307  22809067.320    93399335.95447
  23991788.140   126078024.09106  23991790.280    98242771.43345
  23488705.580   123433975.91807  23488707.120    96182335.79646
 15 02 25 00 23  0.0000000  0  7G16G18G21G22G27G29G31
  21469613.880   112823588.96308  21469614.700    87914490.38948
  22217377.300   116753167.06708  22217378.400    90976531.77346
  21365336.760   112275726.19608  21365337.360    87487639.90448
  23541379.580   123710841.66806  23541380.360    96398096.88546
  22796431.260   119796064.91807  22796434.980    93347608.93247
  24005847.500   126151906.42706  24005849.720    98300342.04745
  23506487.740   123527421.12707  23506489.220    96255150.19646
 15 02 25 00 23 30.0000000  0  7G16G18G21G22G27G29G31
  21457213.320   112758423.79309  21457214.200    87863712.33748
  22206847.500   116697831.98208  22206848.440    90933413.53846
  21373247.120   112317295.38708  21373247.740    87520031.47548
  23523234.280   123615488.38706  23523235.020    96323795.69546
  22783816.160   119729772.28508  22783819.920    93295952.35647
  24019915.260   126225833.63806  24019917.780    98357947.62946
  23524288.940   123620966.79907  23524290.380    96328042.86846
 15 02 25 00 24  0.0000000  0  7G16G18G21G22G27G29G31
  21444876.640   112693594.14109  21444877.520    87813195.72948
  22196385.160   116642851.75408  22196386.040    90890571.81246
  21381212.420   112359153.23208  21381213.000    87552647.96948
  23505102.180   123520205.16206  23505102.980    96249549.12046
  22771218.300   119663570.07908  22771222.060    93244366.23847
  24033991.520   126299805.53306  24033994.300    98415588.00745
  23542108.640   123714609.71807  23542110.080    96401011.31546
 15 02 25 00 24 30.0000000  0  7G16G18G21G22G27G29G31
  21432603.700   112629099.35909  21432604.520    87762940.06148
  22185990.060   116588225.42408  22185990.980    90848005.84947
  21389231.820   112401295.49708  21389232.400    87585486.09448
  23486983.520   123424992.02206  23486984.240    96175357.14546
  22758637.260   119597455.85208  22758640.960    93192848.67547
  24048075.880   126373819.48306  24048078.580    98473261.24046
  23559945.780   123808344.53707  23559947.260    96474051.37246
 15 02 25 00 25  0.0000000  0  7G16G18G21G22G27G29G31
  21420395.340   112564944.15209  21420396.140    87712948.98448
  22175663.240   116533958.17808  22175664.280    90805719.68747
  21397305.360   112443722.46508  21397305.980    87618546.06148
  23468879.320   123329854.24306  23468879.840    96101223.88646
  22746073.420   119531432.00208  22746077.040    93141401.52947
  24062168.640   126447877.88905  24062171.260    98530969.06646
  23577800.180   123902170.61007  23577801.800    96547162.54446
 15 02 25 00 25 30.0000000  0  7G16G18G21G22G27G29G31
  21408252.420   112501132.75309  21408253.220    87663225.82248
  22165405.540   116480053.76908  22165406.660    90763716.27247
  21405433.120   112486434.57408  21405433.820    87651828.21748
  23450790.460   123234796.47106  23450790.760    96027152.97746
  22733527.180   119465500.89008  22733530.800    93090026.65047
  24076270.140   126521982.66206  24076272.940    98588712.95545
  23595671.800   123996087.08507  23595673.460    96620344.14246
 15 02 25 00 26  0.0000000  0  7G16G18G21G22G27G29G31
  21396174.700   112437663.96609  21396175.500    87613769.62348
  22155216.680   116426510.64908  22155217.760    90721994.37047
  21413614.180   112529426.70208  21413614.940    87685328.56948
  23432716.780   123139817.88507  23432716.800    95953143.78146
  22720997.980   119399659.13708  22721001.540    93038721.40347
  24090379.920   126596130.20106  24090382.760    98646490.26845
  23613559.420   124090087.24907  23613561.040    96693590.96446
 15 02 25 00 26 30.0000000  0  7G16G18G21G22G27G29G31
  21384162.740   112374540.43309  21384163.520    87564582.45648
  22145097.140   116373331.66908  22145098.180    90680556.21247
  21421848.300   112572697.43108  21421849.060    87719046.01848
  23414658.740   123044921.41907  23414658.560    95879198.56746
  22708485.860   119333907.34508  22708489.400    92987486.26347
  24104498.100   126670321.26205  24104500.640    98704301.52845
  23631462.660   124184168.78207  23631464.200    96766901.17146
 15 02 25 00 27  0.0000000  0  7G16G18G21G22G27G29G31
  21372216.900   112311764.57009  21372217.680    87515666.19948
  22135047.280   116320518.85908  22135048.220    90639403.38847
  21430135.220   112616245.30808  21430135.960    87752979.42148
  23396616.780   122950109.94007  23396616.480    95805319.56446
  22695990.860   119268245.75307  22695994.420    92936321.39847
  24118624.620   126744555.65606  24118626.780    98762146.38145
  23649380.920   124278328.70807  23649382.340    96840272.47446
 15 02 25 00 27 30.0000000  0  7G16G18G21G22G27G29G31
  21360338.200   112249341.59109  21360338.960    87467024.91548
  22125068.000   116268077.26808  22125068.940    90598539.82747
  21438475.020   112660071.14008  21438475.720    87787129.42048
  23378591.920   122855388.80407  23378591.640    95731510.96246
  22683513.600   119202677.43208  22683517.180    92885229.21547
  24132759.960   126818836.45707  24132761.860    98820027.45344
  23667314.080   124372566.83607  23667315.380    96913704.70446
 15 02 25 00 28  0.0000000  0  7G16G18G21G22G27G29G31
  21348526.600   112187271.30809  21348527.360    87418658.46148
  22115159.240   116216006.74008  22115160.300    90557965.39747
  21446867.040   112704171.46908  21446867.720    87821493.30648
  23360584.080   122760758.05307  23360584.040    95657772.80746
  22671053.720   119137200.52107  22671057.300    92834208.25947
  24146903.720   126893161.34307  24146905.480    98877942.93645
  23685261.100   124466878.19507  23685262.320    96987193.99946
 15 02 25 00 28 30.0000000  0  7G16G18G21G22G27G29G31
  21336782.840   112125557.69809  21336783.660    87370569.93448
  22105321.780   116164311.05908  22105322.980    90517683.05547
  21455311.260   112748546.06008  21455311.900    87856070.90848
  23342594.540   122666223.35207  23342594.720    95584109.48246
  22658611.520   119071816.67307  22658615.120    92783259.83147
  24161056.200   126967531.97707  24161057.920    98935894.07745
  23703221.680   124561261.14906  23703222.920    97060739.07846
 15 02 25 00 29  0.0000000  0  7G16G18G21G22G27G29G31
  21325107.280   112064202.35809  21325108.140    87322760.57448
  22095555.900   116112991.27308  22095557.180    90477693.62447
  21463807.240   112793192.50808  21463807.860    87890860.34348
  23324623.560   122571786.08507  23324623.940    95510522.06046
  22646186.940   119006525.47707  22646190.560    92732383.58247
  24175217.120   127041947.80606  24175219.060    98993880.42645
  23721195.160   124655712.41907  23721196.480    97134337.38946
 15 02 25 00 29 30.0000000  0  7G16G18G21G22G27G29G31
  21313500.500   112003208.24709  21313501.360    87275232.69248
  22085862.160   116062050.31008  22085863.400    90437999.37547
  21472354.740   112838109.95308  21472355.400    87925860.94748
  23306671.860   122477449.45107  23306672.200    95437013.05646
  22633780.180   118941327.96507  22633783.780    92681580.33447
  24189386.540   127116409.73806  24189389.000    99051902.66946
  23739181.240   124750229.81506  23739182.640    97207987.21245
 15 02 25 00 30  0.0000000  0  7G16G18G21G22G27G29G31
  21301962.380   111942575.07509  21301963.260    87227986.06548
  22076240.480   116011487.82808  22076241.660    90398600.05447
  21480952.860   112883293.24908  21480953.520    87961068.70748
  23288739.380   122383213.56207  23288739.640    95363582.55646
  22621390.840   118876221.74608  22621394.420    92630848.23247
  24203564.200   127190914.94305  24203567.020    99109958.69546
  23757178.920   124844807.86306  23757180.380    97281684.31146
 15 02 25 00 30 30.0000000  0  7G16G18G21G22G27G29G31
  21290493.600   111882306.41009  21290494.500    87181023.47148
  22066691.440   115961307.00508  22066692.500    90359498.12947
  21489601.800   112928743.53608  21489602.440    87996484.51148
  23270826.840   122289082.44707  23270827.060    95290233.68146
  22609019.220   118811208.37908  22609022.760    92580188.48047
  24217750.500   127265464.63105  24217753.820    99168049.28846
  23775187.780   124939444.90607  23775189.300    97355427.35946
 15 02 25 00 31  0.0000000  0  7G16G18G21G22G27G29G31
  21279094.500   111822403.95409  21279095.440    87134346.23648
  22057215.280   115911509.36908  22057216.260    90320694.79347
  21498301.080   112974458.43808  21498301.720    88032106.51248
  23252934.640   122195058.57207  23252934.920    95216968.38146
  22596665.240   118746287.67308  22596668.780    92529600.93347
  24231945.300   127340058.90305  24231948.620    99226174.71146
  23793207.220   125034137.55207  23793208.760    97429213.75746
 15 02 25 00 31 30.0000000  0  7G16G18G21G22G27G29G31
  21267765.600   111762870.38709  21267766.580    87087956.44248
  22047812.440   115862097.15408  22047813.400    90282191.78447
  21507050.280   113020435.93808  21507050.940    88067933.13048
  23235063.240   122101144.75906  23235063.720    95143788.84646
  22584328.980   118681460.08908  22584332.500    92479085.95347
  24246148.720   127414697.50905  24246152.040    99284334.58646
  23811236.660   125128883.17506  23811238.400    97503041.42346
 15 02 25 00 32  0.0000000  0  7G16G18G21G22G27G29G31
  21256507.420   111703708.35209  21256508.420    87041856.15148
  22038483.420   115813073.19808  22038484.420    90243991.31247
  21515849.280   113066675.05608  21515849.960    88103963.61348
  23217213.380   122007344.34907  23217214.160    95070697.67946
  22572010.660   118616726.47408  22572014.120    92428644.19747
  24260360.860   127489381.27406  24260363.500    99342529.74646
  23829275.620   125223679.45906  23829277.700    97576908.55546
 15 02 25 00 32 30.0000000  0  7G16G18G21G22G27G29G31
  21245320.340   111644919.98409  21245321.360    86996047.03148
  22029228.580   115764438.95908  22029229.580    90206094.51047
  21524697.660   113113173.92208  21524698.420    88140196.49648
  23199385.620   121913659.90207  23199386.680    94997696.86646
  22559710.200   118552086.97608  22559713.640    92378275.77447
  24274581.500   127564110.39306  24274583.740    99400760.14946
  23847323.720   125318523.31906  23847326.020    97650812.78046
 15 02 25 00 33  0.0000000  0  7G16G18G21G22G27G29G31
  21234204.780   111586507.16709  21234205.780    86950530.54848
  22020048.300   115716196.37008  22020049.360    90168502.89047
  21533595.120   113159930.47908  21533595.880    88176630.17348
  23181580.600   121820093.86407  23181581.660    94924788.31246
  22547427.640   118487541.62708  22547431.100    92327980.71547
  24288810.660   127638884.25405  24288812.840    99459025.45646
  23865380.440   125413411.71306  23865382.820    97724751.69246
 15 02 25 00 33 30.0000000  0  7G16G18G21G22G27G29G31
  21223161.360   111528473.49509  21223162.360    86905309.50548
  22010943.180   115668348.47908  22010944.280    90131218.82547
  21542541.500   113206944.34908  21542542.300    88213264.35348
  23163799.040   121726650.43407  23163799.920    94851975.30346
  22535163.280   118423091.89608  22535166.740    92277760.15247
  24303048.580   127713704.24506  24303050.480    99517326.69244
  23883445.460   125508342.99606  23883447.720    97798724.00345
 15 02 25 00 34  0.0000000  0  7G16G18G21G22G27G29G31
  21212190.800   111470822.67909  21212191.780    86860386.78948
  22001913.800   115620898.30408  22001914.900    90094244.67147
  21551536.840   113254215.38008  21551537.640    88250098.91848
  23146041.640   121633333.50807  23146042.220    94779260.86347
  22522917.420   118358739.53608  22522920.840    92227615.47448
  24317295.240   127788571.97607  24317297.060    99575665.13345
  23901518.460   125603315.61007  23901520.460    97872728.51746
 15 02 25 00 34 30.0000000  0  7G16G18G21G22G27G29G31
  21201292.740   111413552.73009  21201293.720    86815760.85548
  21992959.760   115573844.22008  21992960.840    90057579.16347
  21560580.120   113301738.20808  21560580.920    88287129.68548
  23128307.960   121540141.52907  23128308.280    94706643.79746
  22510689.300   118294480.64108  22510692.720    92177543.62547
  24331550.100   127863483.44206  24331552.320    99634037.59944
  23919598.000   125698322.73606  23919599.700    97946759.91946
 15 02 25 00 35  0.0000000  0  7G16G18G21G22G27G29G31
  21190467.620   111356666.15609  21190468.580    86771433.65348
  21984081.420   115527188.12008  21984082.420    90021223.76347
  21569670.960   113349510.94408  21569671.780    88324355.18448
  23110598.640   121447077.58107  23110598.700    94634126.47646
  22498479.060   118230315.73608  22498482.480    92127545.00947
  24345813.480   127938438.81405  24345815.740    99692444.44444
  23937683.440   125793361.55506  23937685.000    98020816.02346
 15 02 25 00 35 30.0000000  0  7G16G18G21G22G27G29G31
  21179716.560   111300168.91309  21179717.520    86727409.82748
  21975279.880   115480935.87808  21975280.880    89985183.06847
  21578809.700   113397535.10308  21578810.500    88361776.60048
  23092914.880   121354148.38007  23092914.800    94561714.16546
  22486287.460   118166248.81108  22486290.900    92077622.74448
  24360085.780   128013441.74105  24360088.360    99750888.25545
  23955775.060   125888432.83006  23955776.580    98094897.40246
 15 02 25 00 36  0.0000000  0  7G16G18G21G22G27G29G31
  21169038.940   111244057.66208  21169039.900    86683686.77448
  21966554.440   115435083.73108  21966555.480    89949454.13847
  21587995.160   113445804.61608  21587995.940    88399389.20448
  23075256.020   121261350.83007  23075255.960    94489404.42346
  22474113.580   118102274.83108  22474117.060    92027772.90247
  24374366.500   128088486.79005  24374369.160    99809364.97845
  23973871.220   125983528.41706  23973872.820    98168997.73946
 15 02 25 00 36 30.0000000  0  7G16G18G21G22G27G29G31
  21158436.520   111188341.74208  21158437.480    86640271.77448
  21957906.720   115389640.39408  21957907.900    89914043.76047
  21597228.260   113494324.42208  21597229.000    88437196.84048
  23057623.980   121168694.91707  23057623.980    94417205.07246
  22461958.800   118038401.20708  22461962.340    91978001.26047
  24388656.440   128163581.45506  24388659.280    99867880.15744
  23991972.680   126078652.68006  23991974.520    98243120.40946
 15 02 25 00 37  0.0000000  0  7G16G18G21G22G27G29G31
  21147907.740   111133012.63308  21147908.680    86597158.18048
  21949335.220   115344597.40208  21949336.420    89878945.33247
  21606506.400   113543081.02208  21606507.080    88475188.99048
  23040017.400   121076172.69507  23040017.420    94345109.86446
  22449821.200   117974617.51508  22449824.740    91928299.69447
  24402953.860   128238714.99605  24402956.680    99926425.77845
  24010077.000   126173791.85806  24010079.140    98317254.68946
 15 02 25 00 37 30.0000000  0  7G16G18G21G22G27G29G31
  21137455.660   111078086.64209  21137456.620    86554358.70648
  21940842.920   115299970.26608  21940844.060    89844170.95347
  21615832.180   113592088.20008  21615832.820    88513376.40048
  23022439.420   120983800.63307  23022439.380    94273131.66946
  22437703.400   117910937.87308  22437706.920    91878679.21247
  24417261.480   128313901.12406  24417264.060    99985012.39245
  24028186.260   126268956.95006  24028188.660    98391409.16246
 15 02 25 00 38  0.0000000  0  7G16G18G21G22G27G29G31
  21127078.700   111023555.16209  21127079.660    86511866.64948
  21932428.200   115255750.37808  21932429.220    89809713.90447
  21625203.260   113641333.57708  21625203.880    88551749.41448
  23004888.620   120891571.08407  23004888.440    94201264.52546
  22425603.480   117847352.23008  22425606.940    91829131.96847
  24431577.180   128389129.75806  24431579.640   100043632.07246
  24046297.920   126364134.63106  24046300.560    98465573.44746
 15 02 25 00 38 30.0000000  0  7G16G18G21G22G27G29G31
  21116777.880   110969423.95909  21116778.820    86469686.49248
  21924091.940   115211942.55208  21924092.860    89775577.95247
  21634619.900   113690818.27508  21634620.500    88590308.91748
  22987366.180   120799490.33207  22987365.900    94129513.33146
  22413522.200   117783864.41808  22413525.560    91779660.96247
  24445901.640   128464404.22306  24445904.080   100102287.45645
  24064412.260   126459325.76806  24064414.940    98539748.22446
 15 02 25 00 39  0.0000000  0  7G16G18G21G22G27G29G31
  21106554.240   110915698.45009  21106555.160    86427822.46148
  21915835.080   115168552.32108  21915835.960    89741767.39047
  21644082.540   113740544.68108  21644083.120    88629056.76448
  22969873.280   120707564.27007  22969872.960    94057882.68646
  22401460.120   117720477.84708  22401463.400    91730268.83647
  24460234.940   128539727.88904  24460238.000   100160981.12446
  24082529.240   126554530.67006  24082531.960    98613933.69046
 15 02 25 00 39 30.0000000  0  7G16G18G21G22G27G29G31
  21096406.440   110862371.73209  21096407.420    86386269.18048
  21907656.300   115125572.59708  21907657.220    89708276.70147
  21653589.080   113790501.70008  21653589.620    88667984.30748
  22952408.580   120615786.62607  22952408.360    93986367.67547
  22389415.640   117657183.95808  22389418.900    91680948.92347
  24474577.040   128614758.54706  24474578.140   100219319.07745
  24100646.640   126649737.37006  24100649.340    98688120.56246
 15 02 25 00 40  0.0000000  0  7G16G18G21G22G27G29G31
  21086337.660   110809460.27209  21086338.720    86345039.47248
  21899558.640   115083019.44508  21899559.680    89675118.40747
  21663141.820   113840701.69208  21663142.360    88707101.17848
  22934975.340   120524174.24208  22934975.260    93914981.43746
  22377391.580   117593997.36208  22377394.840    91631712.61847
  24488927.880   128690177.05605  24488930.080   100278086.68046
  24118766.700   126744957.46706  24118769.340    98762317.87746
 15 02 25 00 40 30.0000000  0  7G16G18G21G22G27G29G31
  21076345.000   110756948.53909  21076346.080    86304121.23848
  21891538.940   115040876.13408  21891540.160    89642279.47747
  21672737.120   113891125.41808  21672737.680    88746392.39148
  22917570.580   120432711.72907  22917570.740    93843711.97546
  22365384.600   117530900.48208  22365387.920    91582546.22947
  24503286.400   128765631.91905  24503289.120   100336882.70444
  24136885.380   126840169.93606  24136887.840    98836509.22746
 15 02 25 00 41  0.0000000  0  7G16G18G21G22G27G29G31
  21066431.700   110704853.84409  21066432.780    86263527.97348
  21883600.620   114999160.24908  21883601.940    89609773.60547
  21682377.600   113941786.63508  21682378.200    88785868.65848
  22900197.820   120341417.82707  22900198.280    93772573.91047
  22353397.680   117467909.15508  22353401.120    91533462.07647
  24517654.660   128841139.02206  24517657.980   100395719.31245
  24155005.080   126935387.71006  24155007.360    98910704.71345
 15 02 25 00 41 30.0000000  0  7G16G18G21G22G27G29G31
  21056596.300   110653168.33409  21056597.340    86223253.55048
  21875742.020   114957863.29808  21875743.400    89577594.17947
  21692060.960   113992673.12208  21692061.600    88825520.46448
  22882855.740   120250284.93907  22882856.340    93701561.31147
  22341429.020   117405013.67708  22341432.560    91484452.62948
  24532031.400   128916688.56006  24532034.780   100454589.09345
  24173123.320   127030597.99906  24173125.440    98984894.35046
 15 02 25 00 42  0.0000000  0  7G16G18G21G22G27G29G31
  21046840.100   110601899.13609  21046841.140    86183303.52748
  21867964.400   114916991.55808  21867965.740    89545746.07647
  21701787.940   114043788.69408  21701788.600    88865350.77648
  22865545.800   120159320.50807  22865546.340    93630679.97647
  22329479.620   117342219.31108  22329483.220    91435521.95248
  24546417.140   128992285.38706  24546420.360   100513495.71944
  24191240.440   127125803.00106  24191242.440    99059079.85546
 15 02 25 00 42 30.0000000  0  7G16G18G19G21G22G27G31
  21037163.460   110551047.95509  21037164.500    86143679.23248
  21860268.140   114876547.28608  21860269.440    89514231.06947
  24542275.240   128970529.96106  24542276.580   100496505.89144
  21711558.100   114095131.40308  21711558.820    88905358.07748
  22848268.460   120068527.06107  22848268.760    93559931.88246
  22317549.480   117279526.09908  22317553.100    91386670.10548
  24209355.760   127220999.18806  24209357.760    99133258.49345
 15 02 25 00 43  0.0000000  0  7G16G18G19G21G22G27G31
  21027559.500   110500578.67509  21027560.480    86104352.51948
  21852646.120   114836493.31408  21852647.420    89483020.19047
  24526938.320   128889932.54605  24526939.100   100433702.74345
  21721363.780   114146660.90108  21721364.580    88945510.93148
  22831016.960   119977869.42807  22831016.960    93489289.61446
  22305631.380   117216896.17208  22305635.020    91337867.56648
  24227461.560   127316145.62506  24227463.620    99207398.35946
 15 02 25 00 43 30.0000000  0  7G16G18G19G21G22G27G31
  21018045.320   110450581.40909  21018046.280    86065393.61048
  21845115.380   114796919.22108  21845116.680    89452183.24347
  24511619.880   128809433.86105  24511620.380   100370976.53245
  21731221.420   114198463.64008  21731222.320    88985876.69348
  22813808.440   119887438.13207  22813808.140    93418823.70346
  22293742.180   117154417.98508  22293745.820    91289183.28148
  24245574.120   127411327.57806  24245576.320    99281565.90045
 15 02 25 00 44  0.0000000  0  7G16G18G19G21G22G27G31
  21008609.520   110400995.97109  21008610.460    86026755.60748
  21837664.440   114757764.54608  21837665.740    89421673.11447
  24496308.440   128728971.73505  24496308.660   100308278.78245
  21741118.960   114250476.06808  21741119.940    89026405.85248
  22796631.540   119797173.47307  22796631.080    93348487.63846
  22281870.080   117092029.54208  22281873.720    91240568.92048
  24263681.000   127506479.98006  24263683.300    99355710.37445
 15 02 25 00 44 30.0000000  0  7G16G18G19G21G22G27G31
  20999254.700   110351836.10809  20999255.620    85988449.21848
  21830295.860   114719042.45708  21830297.160    89391500.06247
  24481006.220   128648558.30505  24481006.340   100245618.99645
  21751058.380   114302708.24408  21751059.380    89067106.24448
  22779488.940   119707089.60807  22779488.500    93278292.45446
  22270017.380   117029743.00708  22270021.000    91192033.97048
  24281784.040   127601611.90806  24281786.480    99429838.91446
 15 02 25 00 45  0.0000000  0  7G16G18G19G21G22G27G31
  20989981.820   110303106.69509  20989982.760    85950478.24848
  21823010.520   114680757.59208  21823011.800    89361667.70647
  24465713.640   128568196.03705  24465713.860   100182999.07045
  21761039.720   114355160.50508  21761040.720    89107978.13448
  22762381.860   119617192.31807  22762381.520    93208242.64447
  22258184.640   116967561.47608  22258188.240    91143580.84348
  24299883.200   127696723.01806  24299885.700    99503951.21244
 15 02 25 00 45 30.0000000  0  7G16G18G19G21G22G27G31
  20980790.460   110254805.60609  20980791.400    85912841.03548
  21815807.920   114642907.25808  21815809.160    89332173.94647
  24450430.140   128487881.16806  24450430.420   100120416.07245
  21771061.980   114407827.57208  21771062.980    89149017.40148
  22745310.160   119527480.44707  22745309.980    93138337.32647
  22246371.180   116905481.35608  22246374.760    91095206.73648
  24317977.220   127791806.77406  24317979.800    99578042.19045
 15 02 25 00 46  0.0000000  0  7G16G18G19G21G22G27G31
  20971681.080   110206935.28109  20971682.020    85875539.48348
  21808688.300   114605493.07708  21808689.520    89303020.05347
  24435155.820   128407614.11606  24435156.120   100057870.36444
  21781124.840   114460707.98708  21781125.820    89190222.91148
  22728274.360   119437956.42208  22728274.240    93068578.36946
  22234577.120   116843503.23408  22234580.680    91046912.11647
  24336065.580   127886860.54906  24336068.300    99652109.79645
 15 02 25 00 46 30.0000000  0  7G16G18G19G21G22G27G31
  20962655.220   110159503.86209  20962656.120    85838579.93948
  21801653.080   114568522.80908  21801654.360    89274212.06447
  24419891.700   128327401.02106  24419892.100    99995366.66644
  21791229.180   114513806.41608  21791230.140    89231598.30648
  22711276.120   119348629.40308  22711276.020    92998972.92247
  22222803.740   116781633.66008  22222807.280    90998702.07548
  24354148.860   127981887.43406  24354151.640    99726156.44346
 15 02 25 00 47  0.0000000  0  7G16G18G19G21G22G27G31
  20953711.940   110112506.35309  20953712.720    85801958.50048
  21794701.260   114531990.94108  21794702.600    89245745.68147
  24404636.580   128247235.13706  24404637.020    99932899.76845
  21801373.340   114567114.06608  21801374.240    89273136.73648
  22694314.580   119259495.08608  22694314.480    92929517.64347
  22211049.740   116719865.93608  22211053.300    90950571.38948
  24372225.300   128076878.03606  24372228.120    99800174.81346
 15 02 25 00 47 30.0000000  0  7G16G18G19G21G22G27G31
  20944852.120   110065947.56409  20944852.880    85765678.92449
  21787833.580   114495901.73508  21787835.080    89217624.23047
  24389391.040   128167119.22105  24389391.320    99870471.79144
  21811557.420   114620631.56008  21811558.280    89314838.67448
  22677390.640   119170558.54808  22677390.500    92860216.45947
  22199315.740   116658203.15508  22199319.280    90902522.48548
  24390294.720   128171831.77406  24390297.660    99874164.43446
 15 02 25 00 48  0.0000000  0  7G16G18G19G21G22G27G31
  20936075.960   110019828.63709  20936076.760    85729742.09448
  21781050.240   114460255.76308  21781051.840    89189848.15447
  24374154.900   128087052.52006  24374154.960    99808082.14444
  21821781.100   114674357.11408  21821781.920    89356702.73448
  22660504.600   119081821.80908  22660504.540    92791070.97447
  22187601.620   116596644.96008  22187605.140    90854555.06948
  24408356.600   128266745.32306  24408359.480    99948122.72546
 15 02 25 00 48 30.0000000  0  7G16G18G19G21G22G27G31
  20927383.620   109974150.18709  20927384.460    85694148.50049
  21774351.360   114425053.23908  21774352.960    89162417.62647
  24358927.920   128007033.84006  24358927.820    99745729.95544
  21832043.760   114728287.49908  21832044.520    89398726.40848
  22643656.760   118993286.35107  22643656.840    92722082.33447
  22175907.240   116535190.62608  22175910.760    90806668.58748
  24426410.080   128361615.10206  24426413.000   100022046.88745
 15 02 25 00 49  0.0000000  0  7G16G18G19G21G22G27G31
  20918775.780   109928915.96609  20918776.680    85658901.06048
  21767737.640   114390297.53508  21767739.060    89135335.26647
  24343710.420   127927065.19606  24343710.360    99683416.73845
  21842345.380   114782422.55708  21842346.080    89440909.57048
  22626848.020   118904956.48008  22626848.200    92653253.88847
  22164233.000   116473842.15208  22164236.540    90758864.59348
  24444455.000   128456439.78306  24444457.820   100095935.92445
 15 02 25 00 49 30.0000000  0  7G16G18G19G21G22G27G31
  20910252.940   109884128.38409  20910253.860    85624001.64349
  21761209.320   114355990.35708  21761210.560    89108602.41447
  24328502.520   127847146.91906  24328502.460    99621142.77445
  21852685.560   114836760.51408  21852686.220    89483250.82748
  22610078.980   118816835.25807  22610079.180    92584588.02746
  22152579.080   116412600.32108  22152582.580    90711143.70248
  24462490.820   128551216.66606  24462493.660   100169787.67246
 15 02 25 00 50  0.0000000  0  7G16G18G19G21G22G27G31
  20901815.580   109839789.92109  20901816.500    85589452.18749
  21754766.720   114322133.52708  21754767.780    89082220.48347
  24313304.380   127767279.90706  24313304.400    99558908.75845
  21863064.440   114891301.74408  21863065.060    89525750.48548
  22593350.280   118728926.06107  22593350.460    92516087.37547
  22140945.660   116351466.28108  22140949.180    90663506.79448
  24480517.100   128645943.85906  24480520.040   100243600.70746
 15 02 25 00 50 30.0000000  0  7G16G18G19G21G22G27G31
  20893464.260   109795903.37509  20893465.180    85555254.88148
  21748410.200   114288729.29508  21748411.140    89056191.22847
  24298116.160   127687465.29306  24298116.260    99496715.56445
  21873481.700   114946044.79908  21873482.300    89568407.40948
  22576662.620   118641232.30708  22576662.680    92447754.61447
  22129332.980   116290441.28508  22129336.480    90615954.86248
  24498533.400   128740619.54706  24498536.580   100317373.59045
 15 02 25 00 51  0.0000000  0  7G16G18G19G21G22G27G31
  20885199.400   109752470.90909  20885200.260    85521411.39949
  21742140.020   114255779.31608  21742140.960    89030515.92447
  24282937.800   127607703.00906  24282938.060    99434563.13146
  21883937.060   115000987.99508  21883937.640    89611220.28748
  22560016.520   118553756.85008  22560016.440    92379591.95547
  22117741.140   116229525.89408  22117744.640    90568488.33848
  24516539.320   128835241.09606  24516542.800   100391104.27346
 15 02 25 00 51 30.0000000  0  7G16G18G19G21G22G27G31
  20877020.880   109709492.51809  20877021.740    85487921.74149
  21735956.080   114223282.91008  21735957.060    89005194.05947
  24267769.060   127527991.61806  24267769.540    99372450.37045
  21894429.740   115056127.28208  21894430.300    89654185.96148
  22543412.160   118466500.26808  22543411.920    92311599.84647
  22106169.860   116168718.62308  22106173.360    90521106.05548
  24534534.060   128929803.80406  24534537.780   100464789.09545
 15 02 25 00 52  0.0000000  0  7G16G18G19G21G22G27G31
  20868929.220   109666970.90709  20868930.120    85454788.01649
  21729858.840   114191242.16208  21729859.960    88980227.24547
  24252610.160   127448331.82506  24252610.800    99310377.83446
  21904959.620   115111462.26708  21904960.180    89697304.12348
  22526850.180   118379466.12608  22526849.820    92243781.06347
  22094619.380   116108020.73508  22094622.900    90473809.00948
  24552517.200   129024305.80606  24552521.220   100538426.58045
 15 02 25 00 52 30.0000000  0  7G16G18G19G21G22G27G31
  20860924.380   109624905.28809  20860925.280    85422009.61449
  21723848.100   114159655.80208  21723849.340    88955614.50147
  24237460.740   127368721.09906  24237461.420    99248343.51445
  21915525.980   115166988.91108  21915526.520    89740571.63448
  22510330.560   118292654.34608  22510330.140    92176135.54747
  22083089.300   116047429.98908  22083092.860    90426595.45248
  24570487.820   129118741.71506  24570492.000   100612012.57145
 15 02 25 00 53  0.0000000  0  7G16G18G19G21G22G27G31
  20853007.200   109583300.42909  20853008.180    85389590.24149
  21717924.660   114128528.05208  21717925.960    88931359.11548
  24222321.240   127289162.32906  24222321.920    99186349.68145
  21926129.000   115222708.32008  21926129.540    89783989.34748
  22493854.320   118206070.53708  22493853.960    92108667.67647
  22071580.280   115986949.70508  22071583.820    90379467.96748
  24588446.040   129213111.55006  24588450.300   100685547.05546
 15 02 25 00 53 30.0000000  0  7G16G18G19G21G22G27G31
  20845177.960   109542157.35609  20845178.960    85357530.70849
  21712088.580   114097859.13108  21712089.860    88907461.26747
  24207191.620   127209655.16606  24207192.180    99124396.07546
  21936768.200   115278617.86408  21936768.780    89827555.22348
  22477421.620   118119716.24208  22477421.420    92041378.63247
  22060092.240   115926579.50008  22060095.740    90332426.26248
  24606391.240   129307411.81306  24606395.360   100759027.29445
 15 02 25 00 54  0.0000000  0  7G16G18G19G21G22G27G31
  20837437.080   109501478.57609  20837438.040    85325832.95549
  21706340.180   114067651.12508  21706341.480    88883922.56747
  24192072.000   127130200.46506  24192072.320    99062483.34546
  21947443.460   115334716.84208  21947444.060    89871268.71248
  22461033.200   118033595.11208  22461033.220    91974271.27947
  22048625.380   115866320.55008  22048628.820    90285471.24348
  24624322.840   129401640.45106  24624326.800   100832451.69144
 15 02 25 00 54 30.0000000  0  7G16G18G19G21G22G27G31
  20829785.040   109461266.48509  20829785.920    85294498.86249
  21700679.780   114037906.02408  21700681.240    88860744.58047
  24176962.320   127050798.57906  24176962.500    99000611.80745
  21958154.500   115391003.85008  21958155.100    89915128.71748
  22444689.680   117947710.10708  22444689.900    91907347.91747
  22037179.900   115806174.04108  22037183.280    90238603.83848
  24642240.600   129495795.68106  24642244.300   100905818.87445
 15 02 25 00 55  0.0000000  0  7G16G18G19G21G22G27G31
  20822222.000   109421522.41209  20822222.840    85263529.44949
  21695107.540   114008624.13308  21695109.120    88837927.53548
  24161862.560   126971449.20906  24161862.700    98938781.16445
  21968900.840   115447476.40508  21968901.500    89959133.29748
  22428391.500   117862063.34008  22428391.820    91840610.18447
  22025755.760   115746139.67508  22025759.120    90191823.82148
  24660143.780   129589873.86906  24660147.120   100979126.01544
 15 02 25 00 55 30.0000000  0  7G16G18G19G21G22G27G31
  20814748.240   109382247.62009  20814749.120    85232925.71449
  21689623.540   113979805.87308  21689625.160    88815471.75248
  24146772.840   126892152.24806  24146772.960    98876991.37345
  21979682.220   115504133.00308  21979682.920    90003281.28948
  22412139.180   117776657.14708  22412139.440    91774059.92247
  22014353.000   115686217.76908  22014356.340    90145131.44148
  24678031.640   129683872.28306  24678034.840   101052370.94545
 15 02 25 00 56  0.0000000  0  7G16G18G19G21G22G27G31
  20807364.340   109343444.97109  20807365.220    85202689.88449
  21684228.300   113951453.81108  21684229.940    88793379.25147
  24131693.240   126812908.39406  24131693.360    98815242.97345
  21990498.380   115560972.51008  21990499.120    90047571.80848
  22395933.320   117691494.61008  22395933.420    91707699.52447
  22002971.780   115626409.15508  22002975.160    90098527.33648
  24695903.760   129777788.56406  24695906.960   101125551.86045
 15 02 25 00 56 30.0000000  0  6G16G18G19G21G22G27
  20800068.920   109305107.11009  20800069.740    85172816.22449
  21678920.300   113923559.83608  21678921.920    88771643.69448
  24116622.020   126733708.79806  24116622.120    98753529.03545
  22001347.340   115617984.34708  22001348.120    90091996.61248
  22379772.700   117606569.34808  22379772.580    91641524.03047
  21991610.560   115566705.56708  21991613.980    90052005.07448
 15 02 25 00 57  0.0000000  0  6G16G18G19G21G22G27
  20792866.320   109267257.08909  20792867.100    85143322.69749
  21673703.760   113896146.48108  21673705.340    88750282.65048
  24101563.140   126654574.76406  24101563.420    98691866.18045
  22012232.760   115675187.61608  22012233.540    90136570.58148
  22363661.860   117521905.39008  22363661.420    91575552.15247
  21980273.460   115507128.75108  21980276.900    90005581.59448
 15 02 25 00 57 30.0000000  0  6G16G18G19G21G22G27
  20785753.980   109229881.56609  20785754.780    85114198.90749
  21668575.940   113869199.25308  21668577.460    88729284.82048
  24086513.980   126575491.48306  24086514.440    98630242.88146
  22023151.660   115732566.36508  22023152.340    90181281.28748
  22347598.240   117437489.80908  22347597.520    91509773.80447
  21968957.640   115447663.93908  21968961.100    89959245.38348
 15 02 25 00 58  0.0000000  0  6G16G18G19G21G22G27
  20778732.360   109192982.80609  20778733.200    85085446.63149
  21663537.200   113842720.35408  21663538.640    88708651.92448
  24071474.720   126496460.11906  24071475.280    98568660.03945
  22034103.760   115790119.63708  22034104.340    90226127.98848
  22331582.500   117353326.21208  22331581.620    91444191.80447
  21957663.360   115388312.45208  21957666.860    89912997.48148
 15 02 25 00 58 30.0000000  0  6G16G18G19G21G22G27
  20771801.920   109156563.25609  20771802.860    85057067.76049
  21658588.000   113816711.90908  21658589.340    88688385.61248
  24056445.680   126417481.57906  24056446.140    98507118.33146
  22045088.840   115847846.39608  22045089.320    90271109.87448
  22315615.240   117269418.31508  22315614.480    91378809.04147
  21946390.900   115329075.68208  21946394.460    89866838.96748
 15 02 25 00 59  0.0000000  0  6G16G18G19G21G22G27
  20764963.580   109120627.63609  20764964.560    85029065.97549
  21653728.900   113791177.22908  21653730.180    88668488.47148
  24041427.200   126338558.47105  24041427.580    98445619.82046
  22056107.160   115905747.85608  22056107.580    90316227.89548
  22299697.480   117185771.18508  22299697.080    91313629.47647
  21935140.940   115269956.92508  21935144.480    89820772.40148
 15 02 25 00 59 30.0000000  0  6G16G18G19G21G22G27
  20758217.840   109085178.61209  20758218.820    85001443.35549
  21648960.380   113766118.64308  21648961.640    88648962.30647
  24026419.340   126259691.88406  24026419.680    98384165.35746
  22067158.520   115963823.03708  22067158.920    90361481.28148
  22283829.920   117102387.77908  22283829.900    91248655.41047
  21923913.660   115210957.42008  21923917.200    89774798.77148
 15 02 25 01 00  0.0000000  0  6G16G18G19G21G22G27
  20751564.620   109050215.59509  20751565.560    84974199.44549
  21644282.120   113741534.49608  21644283.380    88629805.83847
  24011421.900   126180880.19406  24011422.260    98322753.68746
  22078242.260   116022068.45008  22078242.640    90406867.31748
  22268012.880   117019269.35408  22268013.140    91183887.82247
  21912708.820   115152075.68008  21912712.320    89728916.91448
 15 02 25 01 00 30.0000000  0  6G16G18G19G21G22G27
  20745003.820   109015738.26409  20745004.740    84947333.98449
  21639694.000   113717423.89408  21639695.200    88611018.36447
  23996434.540   126102121.03006  23996434.900    98261382.93946
  22089357.600   116080480.04008  22089358.020    90452382.83748
  22252246.400   116936415.74508  22252246.680    91119326.57947
  21901526.080   115093309.99008  21901529.520    89683125.47248
 15 02 25 01 01  0.0000000  0  6G16G18G19G21G22G27
  20738536.200   108981750.58909  20738537.120    84920850.07949
  21635196.680   113693790.33908  21635197.840    88592602.61747
  23981457.700   126023416.84006  23981457.920    98200055.05446
  22100504.720   116139058.82208  22100505.220    90498028.62948
  22236531.400   116853832.21908  22236531.540    91054975.80047
  21890366.000   115034663.53908  21890369.440    89637426.96148
 15 02 25 01 01 30.0000000  0  6G16G18G19G21G22G27
  20732162.400   108948256.08809  20732163.340    84894750.46449
  21630790.640   113670636.51408  21630791.780    88574560.68847
  23966491.680   125944769.91606  23966491.940    98138771.76146
  22111683.680   116197805.03908  22111684.260    90543804.89648
  22220868.560   116771522.80308  22220868.460    90990838.62247
  21879229.080   114976138.44008  21879232.480    89591822.99248
 15 02 25 01 02  0.0000000  0  6G16G18G19G21G22G27
  20725882.380   108915254.44709  20725883.340    84869034.90049
  21626475.720   113647961.50308  21626476.880    88556891.86148
  23951536.200   125866178.65306  23951536.480    98077531.85146
  22122893.920   116256715.18708  22122894.520    90589708.90447
  22205257.940   116689488.13708  22205257.580    90926915.53247
  21868114.980   114917733.34008  21868118.400    89546312.52948
 15 02 25 01 02 30.0000000  0  6G16G18G19G21G22G27
  20719696.620   108882747.78609  20719697.520    84843705.03049
  21622252.180   113625766.57208  21622253.340    88539597.11548
  23936591.460   125787643.51706  23936591.760    98016335.69646
  22134135.100   116315788.04508  22134135.720    90635739.69648
  22189700.120   116607731.33008  22189699.540    90863208.95847
  21857023.940   114859449.48708  21857027.380    89500896.55148
 15 02 25 01 03  0.0000000  0  6G16G18G19G21G22G27
  20713605.100   108850736.53209  20713605.980    84818761.19249
  21618119.940   113604051.70408  21618121.140    88522676.44748
  23921657.300   125709163.91906  23921657.620    97955182.80446
  22145406.740   116375020.91008  22145407.380    90681895.16748
  22174195.420   116526254.11008  22174194.820    90799720.24147
  21845955.840   114801286.23708  21845959.340    89455574.54648
 15 02 25 01 03 30.0000000  0  6G16G18G19G21G22G27
  20707608.560   108819224.36009  20707609.440    84794206.25049
  21614079.500   113582819.29308  21614080.760    88506131.71348
  23906734.080   125630741.92106  23906734.360    97894074.78846
  22156708.900   116434414.18008  22156709.560    90728175.63147
  22158744.680   116445060.73508  22158744.240    90736452.69947
  21834911.160   114743245.98908  21834914.680    89410348.38748
 15 02 25 01 04  0.0000000  0  6G16G18G19G21G22G27
  20701707.200   108788212.34109  20701708.040    84770041.03649
  21610131.040   113562070.25308  21610132.400    88489963.64248
  23891821.760   125552377.21606  23891821.920    97833011.42146
  22168041.180   116493965.97908  22168041.900    90774579.62447
  22143348.460   116364153.61308  22143348.220    90673408.20247
  21823890.020   114685329.29708  21823893.520    89365218.50848
 15 02 25 01 04 30.0000000  0  6G16G18G19G21G22G27
  20695901.340   108757702.33508  20695902.160    84746267.00249
  21606274.720   113541805.18108  21606276.100    88474172.68348
  23876920.240   125474070.13806  23876920.500    97771992.93946
  22179403.400   116553675.09008  22179404.140    90821106.19248
  22128007.080   116283534.39508  22128007.000    90610588.04347
  21812892.440   114627536.55008  21812895.900    89320185.21748
 15 02 25 01 05  0.0000000  0  6G16G18G19G21G22G27
  20690191.040   108727694.78708  20690191.900    84722884.49349
  21602510.540   113522024.08208  21602511.920    88458758.85448
  23862029.460   125395819.50406  23862029.860    97711018.45445
  22190794.960   116613538.04208  22190795.680    90867752.64847
  22112720.960   116203205.38208  22112720.980    90547994.01547
  21801918.320   114569867.17608  21801921.740    89275248.05748
 15 02 25 01 05 30.0000000  0  6G16G18G19G21G22G27
  20684576.680   108698191.51008  20684577.620    84699894.92649
  21598838.720   113502727.97508  21598840.000    88443722.93948
  23847149.640   125317626.17106  23847150.100    97650088.62345
  22202215.720   116673554.50908  22202216.440    90914518.71647
  22097490.600   116123169.36308  22097490.700    90485628.30447
  21790967.880   114512322.24708  21790971.280    89230407.86248
 15 02 25 01 06  0.0000000  0  6G16G18G19G21G22G27
  20679058.320   108669192.54508  20679059.320    84677298.33049
  21595259.120   113483916.64308  21595260.280    88429064.77247
  23832280.640   125239489.17005  23832281.060    97589202.69146
  22213665.020   116733720.98708  22213665.780    90961401.67747
  22082316.200   116043427.25508  22082316.300    90423491.62047
  21780041.000   114454901.16308  21780044.400    89185664.17148
 15 02 25 01 06 30.0000000  0  6G16G18G19G21G22G27
  20673636.820   108640702.46508  20673637.840    84655098.26649
  21591772.380   113465593.39608  21591773.420    88414786.92848
  23817422.920   125161411.56605  23817423.340    97528363.04646
  22225143.280   116794039.42408  22225144.020    91008403.05347
  22067198.840   115963984.90008  22067198.880    90361588.50047
  21769138.380   114397607.47108  21769141.760    89141019.74248
 15 02 25 01 07  0.0000000  0  6G16G18G19G21G22G27
  20668312.500   108612722.80909  20668313.520    84633295.93549
  21588378.580   113447758.85608  21588379.520    88400889.89448
  23802576.520   125083393.63805  23802576.920    97467569.86445
  22236650.140   116854508.16408  22236650.860    91055521.54747
  22052138.840   115884844.32108  22052138.820    90299920.54147
  21758260.040   114340441.60308  21758263.440    89096474.91648
 15 02 25 01 07 30.0000000  0  6G16G18G19G21G22G27
  20663085.140   108585252.82108  20663086.180    84611890.74549
  21585077.480   113430411.96608  21585078.420    88387372.83947
  23787741.240   125005433.55806  23787741.540    97406821.78746
  22248184.900   116915123.30008  22248185.540    91102754.11747
  22037136.320   115806005.91708  22037136.220    90238488.04747
  21747405.800   114283402.30208  21747409.220    89052028.72448
 15 02 25 01 08  0.0000000  0  6G16G18G19G21G22G27
  20657955.320   108558295.69008  20657956.420    84590885.18449
  21581869.500   113413554.82908  21581870.560    88374237.41648
  23772917.240   124927532.90406  23772917.460    97346120.01946
  22259747.480   116975884.62408  22259748.060    91150100.59347
  22022191.980   115727473.22708  22022191.820    90177293.76747
  21736576.020   114226491.56908  21736579.500    89007682.70648
 15 02 25 01 08 30.0000000  0  6G16G18G19G21G22G27
  20652923.380   108531852.68008  20652924.500    84570280.24149
  21578754.780   113397187.54008  21578755.960    88361483.69048
  23758104.640   124849691.90606  23758104.840    97285464.74147
  22271337.600   117036790.79308  22271338.140    91197559.94347
  22007306.540   115649249.90608  22007306.360    90116340.54947
  21725770.820   114169710.01508  21725774.320    88963437.35348
 15 02 25 01 09  0.0000000  0  6G16G18G19G21G22G27
  20647989.800   108505926.38408  20647990.880    84550077.92449
  21575733.840   113381312.93408  21575735.180    88349113.87048
  23743303.600   124771912.02306  23743303.820    97224857.05346
  22282955.140   117097841.27808  22282955.660    91245131.74347
  21992480.580   115571338.57908  21992480.320    90055630.43947
  21714990.580   114113059.48208  21714994.080    88919294.09148
 15 02 25 01 09 30.0000000  0  6G16G18G19G21G22G27
  20643154.100   108480514.47208  20643155.180    84530276.43349
  21572806.080   113365927.57008  21572807.480    88337125.28848
  23728513.640   124694189.91206  23728513.860    97164294.39946
  22294599.300   117159031.66508  22294599.840    91292812.56247
  21977713.820   115493738.31108  21977713.560    89995162.71247
  21704234.760   114056536.96608  21704238.180    88875250.58348
 15 02 25 01 10  0.0000000  0  6G16G18G19G21G22G27
  20638417.120   108455621.28808  20638418.140    84510879.14049
  21569972.100   113351034.82608  21569973.520    88325520.56348
  23713735.300   124616528.60706  23713735.420    97103779.12546
  22306270.160   117220362.59308  22306270.740    91340602.89047
  21963007.280   115416454.34108  21963007.000    89934941.45348
  21693503.940   114000145.90308  21693507.280    88831309.50148
 15 02 25 01 10 30.0000000  0  6G16G18G19G21G22G27
  20633779.240   108431249.15108  20633780.260    84491887.86449
  21567232.180   113336636.21808  21567233.560    88314300.88148
  23698968.600   124538929.16406  23698968.720    97043312.07046
  22317967.620   117281833.33308  22317968.260    91388502.15847
  21948361.560   115339490.11108  21948361.240    89874969.33847
  21682798.400   113943887.90808  21682801.700    88787472.11048
 15 02 25 01 11  0.0000000  0  6G16G18G19G21G22G27
  20629240.680   108407399.02508  20629241.740    84473303.35349
  21564586.400   113322732.18508  21564587.720    88303466.58448
  23684213.660   124461391.83306  23684213.840    96982893.39746
  22329691.460   117343442.59108  22329692.160    91436509.36447
  21933777.040   115262847.61808  21933776.700    89815247.93148
  21672118.260   113887763.59108  21672121.560    88743738.87448
 15 02 25 01 11 30.0000000  0  6G16G18G19G21G22G27
  20624801.440   108384070.71708  20624802.540    84455125.45249
  21562034.540   113309321.80208  21562035.800    88293016.94348
  23669470.240   124383915.35306  23669470.560    96922522.14246
  22341441.120   117405187.52708  22341441.840    91484622.29247
  21919253.900   115186528.19208  21919253.540    89755778.25847
  21661463.400   113831772.11308  21661466.740    88700109.15548
 15 02 25 01 12  0.0000000  0  6G16G18G19G21G22G27
  20620462.360   108361268.56608  20620463.440    84437357.54549
  21559577.080   113296407.57608  21559578.300    88282953.92248
  23654738.940   124306502.66606  23654739.380    96862200.59146
  22353216.740   117467068.92408  22353217.480    91532841.55147
  21904793.140   115110536.70808  21904792.720    89696564.12947
  21650834.420   113775916.62708  21650837.760    88656585.40248
 15 02 25 01 12 30.0000000  0  6G16G18G19G21G22G27
  20616223.200   108338991.26708  20616224.200    84419998.60449
  21557213.780   113283988.45808  21557215.040    88273276.70048
  23640019.460   124229151.51006  23640019.900    96801927.00646
  22365017.560   117529082.97808  22365018.360    91581164.18047
  21890394.700   115034872.85008  21890394.220    89637605.29747
  21640231.000   113720195.50008  21640234.380    88613166.34448
 15 02 25 01 13  0.0000000  0  6G16G18G19G21G22G27
  20612083.620   108317237.46708  20612084.540    84403047.58749
  21554944.280   113272062.49208  21554945.660    88263983.74548
  23625311.420   124151860.18306  23625311.780    96741700.02445
  22376842.920   117591225.77208  22376843.680    91629587.13047
  21876058.700   114959536.91908  21876058.180    89578901.99947
  21629652.900   113664607.27508  21629656.300    88569850.84848
 15 02 25 01 13 30.0000000  0  6G16G18G19G21G22G27
  20608044.860   108296013.40908  20608045.720    84386509.35649
  21552769.640   113260634.84408  21552771.040    88255079.09348
  23610615.640   124074633.19906  23610615.920    96681523.17246
  22388693.360   117653500.28308  22388694.100    91678112.71347
  21861786.500   114884536.02808  21861785.960    89520459.77147
  21619101.060   113609157.02608  21619104.460    88526642.86448
 15 02 25 01 14  0.0000000  0  6G16G18G19G21G22G27
  20604106.880   108275319.14208  20604107.720    84370383.94549
  21550689.580   113249704.08908  21550690.960    88246561.63148
  23595931.900   123997469.58506  23595932.180    96621395.71746
  22400568.400   117715904.03408  22400569.140    91726739.00647
  21847578.200   114809870.81308  21847577.660    89462279.10648
  21608575.360   113553844.14408  21608578.780    88483541.93348
 15 02 25 01 14 30.0000000  0  6G16G18G19G21G22G27
  20600269.700   108255154.65208  20600270.540    84354671.35549
  21548704.000   113239269.83008  21548705.340    88238431.04648
  23581260.200   123920369.05806  23581260.460    96561317.41146
  22412467.560   117778434.62408  22412468.300    91775464.13747
  21833434.000   114735542.64508  21833433.520    89404361.07648
  21598075.760   113498668.44708  21598079.220    88440547.89648
 15 02 25 01 15  0.0000000  0  6G16G18G19G21G22G27
  20596533.660   108235521.71308  20596534.520    84339372.95549
  21546813.220   113229333.72508  21546814.580    88230688.63448
  23566600.580   123843332.05106  23566600.820    96501288.60145
  22424390.680   117841090.98408  22424391.420    91824287.26347
  21819354.600   114661554.83308  21819354.160    89346708.25448
  21587602.520   113443631.25408  21587606.020    88397661.77648
 15 02 25 01 15 30.0000000  0  6G16G18G19G21G22G27
  20592899.360   108216423.50608  20592900.280    84324491.23549
  21545017.560   113219897.27308  21545018.900    88223335.57248
  23551953.520   123766360.92306  23551953.700    96441311.11846
  22436337.840   117903873.55308  22436338.580    91873208.73647
  21805340.700   114587911.64908  21805340.360    89289323.96348
  21577156.180   113388735.17308  21577159.680    88354885.62148
 15 02 25 01 16  0.0000000  0  6G16G18G19G21G22G27
  20589366.800   108197859.89108  20589367.780    84310026.08549
  21543316.840   113210959.65908  21543318.120    88216371.20748
  23537318.820   123689454.99806  23537318.940    96381384.43746
  22448308.560   117966780.08208  22448309.300    91922226.80347
  21791392.540   114514613.93108  21791392.320    89232208.86848
  21566736.640   113333979.85008  21566740.100    88312219.14548
 15 02 25 01 16 30.0000000  0  6G16G18G19G21G22G27
  20585936.260   108179832.15508  20585937.240    84295978.49949
  21541711.240   113202521.87708  21541712.460    88209796.32248
  23522696.500   123612614.23806  23522696.540    96321508.53445
  22460302.520   118029808.77008  22460303.260    91971340.06247
  21777510.540   114441664.04608  21777510.420    89175364.80848
  21556343.960   113279365.90608  21556347.380    88269662.82948
 15 02 25 01 17  0.0000000  0  6G16G18G19G21G22G27
  20582607.840   108162341.10608  20582608.820    84282349.11049
  21540200.660   113194583.76808  21540201.880    88203610.79548
  23508086.600   123535838.72906  23508086.560    96261683.49346
  22472319.360   118092957.96408  22472320.140    92020547.22847
  21763695.160   114369063.87408  21763694.980    89118793.26148
  21545978.240   113224893.82208  21545981.660    88227217.06648
 15 02 25 01 17 30.0000000  0  6G16G18G19G21G22G27
  20579381.760   108145387.70208  20579382.680    84269138.65749
  21538785.100   113187145.22508  21538786.380    88197814.53648
  23493489.240   123459128.78007  23493489.100    96201909.52546
  22484358.780   118156225.96608  22484359.600    92069846.96247
  21749946.840   114296815.83308  21749946.500    89062496.10548
  21535639.620   113170564.15408  21535643.040    88184882.26248
 15 02 25 01 18  0.0000000  0  6G16G18G19G21G22G27
  20576258.240   108128973.36508  20576259.120    84256348.26049
  21537464.720   113180206.83708  21537466.060    88192408.00848
  23478904.460   123382484.97007  23478904.320    96142187.10346
  22496420.660   118219611.69608  22496421.500    92119238.42847
  21736266.080   114224922.48608  21736265.480    89006475.33447
  21525328.260   113116377.93308  21525331.740    88142659.24148
 15 02 25 01 18 30.0000000  0  6G16G18G19G21G22G27
  20573237.540   108113099.54708  20573238.400    84243979.04849
  21536239.680   113173769.42108  21536241.040    88187391.85048
  23464332.420   123305908.09407  23464332.220    96082516.84346
  22508504.740   118283114.08608  22508505.600    92168720.81447
  21722653.340   114153386.54008  21722652.520    88950733.06348
  21515044.460   113062336.49108  21515047.980    88100549.04048
 15 02 25 01 19  0.0000000  0  6G16G18G19G21G22G27
  20570320.080   108097768.25708  20570320.960    84232032.58449
  21535110.280   113167834.36308  21535111.600    88182767.13548
  23449773.300   123229399.62307  23449773.120    96022899.85646
  22520611.000   118346732.76008  22520611.840    92218293.80247
  21709109.160   114082210.89108  21709108.200    88895271.53748
  21504788.640   113008441.73808  21504792.120    88058553.13548
 15 02 25 01 19 30.0000000  0  6G16G18G19G21G22G27
  20567505.800   108082979.21908  20567506.720    84220508.65849
  21534076.200   113162400.17508  21534077.480    88178532.71248
  23435227.020   123152958.46907  23435226.860    95963335.34946
  22532738.800   118410464.80208  22532739.680    92267955.12647
  21695633.760   114011397.00008  21695632.800    88840091.90248
  21494560.560   112954692.80108  21494564.000    88016670.85348
 15 02 25 01 20  0.0000000  0  6G16G18G19G21G22G27
  20564795.280   108068735.31108  20564796.220    84209409.50349
  21533137.920   113157469.45408  21533139.180    88174690.60048
  23420693.900   123076586.74707  23420693.780    95903824.93046
  22544888.440   118474311.49208  22544889.380    92317705.79147
  21682227.900   113940948.95908  21682227.100    88785197.33748
  21484360.780   112901092.54608  21484364.200    87974904.42048
 15 02 25 01 20 30.0000000  0  6G16G18G19G21G22G27
  20562188.360   108055035.84108  20562189.300    84198734.58949
  21532294.980   113153039.88208  21532296.200    88171238.99348
  23406173.700   123000283.05407  23406173.700    95844367.52246
  22557059.140   118538268.81508  22557060.080    92367542.65647
  21668891.620   113870866.65008  21668890.960    88730587.74948
  21474189.040   112847639.64408  21474192.440    87933252.82148
 15 02 25 01 21  0.0000000  0  6G16G18G19G21G22G27
  20559685.400   108041882.68408  20559686.340    84188485.37649
  21531547.700   113149112.96008  21531548.880    88168179.06248
  23391666.720   122924048.78207  23391666.780    95784964.21446
  22569250.880   118602336.50208  22569251.740    92417465.52147
  21655625.600   113801153.50208  21655625.060    88676265.82848
  21464045.720   112794336.18508  21464049.160    87891717.66648
 15 02 25 01 21 30.0000000  0  6G16G18G19G21G22G27
  20557286.340   108029275.71508  20557287.300    84178661.75549
  21530895.940   113145687.86208  21530897.100    88165510.16548
  23377172.840   122847883.26506  23377172.860    95725614.46446
  22581463.140   118666512.02508  22581463.900    92467472.41647
  21642430.100   113731810.85708  21642429.660    88622232.61948
  21453930.800   112741181.92708  21453934.220    87850298.77048
 15 02 25 01 22  0.0000000  0  6G16G18G19G21G22G27
  20554991.320   108017215.51908  20554992.320    84169264.20249
  21530339.720   113142764.75308  21530340.880    88163232.43048
  23362692.080   122771786.69106  23362692.040    95666318.44546
  22593695.720   118730794.27808  22593696.400    92517562.47747
  21629305.480   113662840.66608  21629305.120    88568489.63348
  21443844.360   112688177.40808  21443847.740    87808996.55648
 15 02 25 01 22 30.0000000  0  6G16G18G19G21G22G27
  20552801.300   108005707.05908  20552802.320    84160296.56749
  21529879.660   113140346.94808  21529880.800    88161348.43348
  23348225.140   122695762.78707  23348225.020    95607079.05346
  22605948.960   118795185.28408  22605949.600    92567737.27847
  21616252.820   113594248.56908  21616252.460    88515041.26348
  21433787.240   112635326.99108  21433790.620    87767814.41948
 15 02 25 01 23  0.0000000  0  6G16G18G19G21G22G27
  20550715.900   107994747.98008  20550716.860    84151757.01649
  21529515.120   113138431.35108  21529516.280    88159855.76448
  23333771.600   122619809.33707  23333771.520    95547894.56346
  22618222.060   118859680.54508  22618222.660    92617993.32447
  21603271.900   113526033.59208  21603271.480    88461886.75348
  21423759.060   112582628.57308  21423762.480    87726750.72948
 15 02 25 01 23 30.0000000  0  6G16G18G19G21G22G27
  20548735.380   107984340.25308  20548736.320    84143647.09749
  21529246.440   113137019.69908  21529247.640    88158755.78148
  23319331.740   122543927.61007  23319331.680    95488765.96546
  22630514.940   118924280.05708  22630515.540    92668330.61247
  21590363.420   113458199.61108  21590363.040    88409029.12448
  21413760.200   112530084.18808  21413763.640    87685807.06448
 15 02 25 01 24  0.0000000  0  6G16G18G19G21G22G27
  20546859.880   107974484.39008  20546860.820    84135967.19849
  21529073.540   113136111.27708  21529074.740    88158047.93048
  23304905.540   122468117.77707  23304905.560    95429693.38946
  22642827.200   118988981.85407  22642827.900    92718747.58847
  21577527.760   113390748.14808  21577527.420    88356469.56148
  21403790.720   112477694.18308  21403794.140    87644983.69248
 15 02 25 01 24 30.0000000  0  6G16G18G19G21G22G27
  20545089.220   107965179.41408  20545090.160    84128716.56349
  21528996.200   113135704.68708  21528997.360    88157731.11548
  23290492.840   122392378.58307  23290492.900    95370675.84346
  22655158.380   119053783.04707  22655159.160    92769242.02047
  21564765.040   113323679.86008  21564764.700    88304208.57148
  21393850.500   112425457.86908  21393853.880    87604280.07948
 15 02 25 01 25  0.0000000  0  6G16G18G19G21G22G27
  20543423.620   107956426.62408  20543424.580    84121896.20549
  21529014.360   113135800.00008  21529015.500    88157805.39148
  23276093.840   122316710.77807  23276093.820    95311713.94846
  22667508.200   119118682.30907  22667509.100    92819812.86247
  21552075.680   113256996.72308  21552075.300    88252247.69848
  21383939.740   112373376.32408  21383943.040    87563697.07548
 15 02 25 01 25 30.0000000  0  6G16G18G19G21G22G27
  20541863.580   107948228.86608  20541864.640    84115508.34049
  21529128.420   113136399.30508  21529129.540    88158272.39448
  23261708.880   122241116.69607  23261708.740    95252809.49146
  22679876.920   119183680.86507  22679877.920    92870461.07747
  21539460.500   113190703.09208  21539460.040    88200590.33548
  21374058.940   112321452.40908  21374062.220    87523236.89249
 15 02 25 01 26  0.0000000  0  6G16G18G19G21G22G27
  20540409.440   107940587.46108  20540410.560    84109553.99649
  21529338.380   113137502.86308  21529339.540    88159132.32148
  23247338.020   122165596.97007  23247337.860    95193962.96747
  22692264.380   119248777.51507  22692265.440    92921185.73747
  21526919.940   113124801.55808  21526919.420    88149238.50548
  21364208.340   112269687.34608  21364211.660    87482900.48748
 15 02 25 01 26 30.0000000  0  6G16G18G19G21G22G27
  20539061.280   107933502.90108  20539062.420    84104033.55849
  21529644.360   113139110.75108  21529645.520    88160385.23048
  23232981.440   122090152.49607  23232981.260    95135175.09447
  22704670.320   119313970.89108  22704671.340    92971985.76647
  21514454.340   113059294.08308  21514453.760    88098193.73848
  21354388.160   112218082.16208  21354391.500    87442688.65848
 15 02 25 01 27  0.0000000  0  6G16G18G19G21G22G27
  20537818.880   107926973.99008  20537820.020    84098946.09249
  21530046.040   113141221.51208  21530047.240    88162029.98748
  23218638.900   122014781.95507  23218638.760    95076444.83447
  22717094.140   119379258.14608  22717095.080    93022858.95047
  21502063.840   112994181.41908  21502063.240    88047456.60948
  21344598.300   112166636.18208  21344601.620    87402600.89148
 15 02 25 01 27 30.0000000  0  6G16G18G19G21G22G27
  20536683.140   107921005.46008  20536684.240    84094295.28249
  21530543.980   113143838.29908  21530545.220    88164069.05048
  23204311.060   121939488.79007  23204310.940    95017774.86546
  22729536.280   119444641.36308  22729537.120    93073806.90547
  21489749.460   112929468.82608  21489748.800    87997031.23048
  21334839.560   112115353.55708  21334842.820    87362640.41148
 15 02 25 01 28  0.0000000  0  6G16G18G19G21G22G27
  20535653.780   107915595.80808  20535654.840    84090079.96049
  21531137.720   113146958.64808  21531139.000    88166500.49848
  23189997.660   121864271.61807  23189997.560    94959164.11046
  22741996.120   119510117.43408  22741996.860    93124827.21047
  21477511.140   112865156.27508  21477510.480    87946917.57148
  21325111.660   112064233.06408  21325114.900    87322806.25848
 15 02 25 01 28 30.0000000  0  6G16G18G19G21G22G27
  20534730.860   107910745.70208  20534731.900    84086300.65749
  21531827.240   113150582.29908  21531828.520    88169324.12948
  23175698.800   121789130.79607  23175698.700    94900612.85146
  22754473.220   119575684.41408  22754473.920    93175918.35147
  21465349.300   112801245.77908  21465348.700    87897117.20548
  21315414.800   112013275.54409  21315418.000    87283099.10248
 15 02 25 01 29  0.0000000  0  6G16G18G19G21G22G27
  20533914.540   107906455.93008  20533915.580    84082957.97149
  21532612.680   113154710.02208  21532613.980    88172540.54248
  23161414.680   121714067.78207  23161414.600    94842122.21847
  22766967.440   119641341.74908  22766968.140    93227079.90547
  21453264.460   112737739.97308  21453263.960    87847632.17448
  21305749.280   111962482.66308  21305752.460    87243520.24349
 15 02 25 01 29 30.0000000  0  6G16G18G19G21G22G27
  20533204.700   107902725.66608  20533205.740    84080051.27049
  21533493.740   113159339.92108  21533494.980    88176148.26448
  23147145.100   121639080.94107  23147145.020    94783690.94247
  22779478.340   119707087.02808  22779479.040    93278309.97847
  21441256.660   112674639.01308  21441256.300    87798462.61548
  21296114.900   111911853.46708  21296118.040    87204068.93048
 15 02 25 01 30  0.0000000  0  6G16G18G19G21G22G27
  20532601.700   107899556.91708  20532602.720    84077582.10949
  21534470.560   113164473.17108  21534471.760    88180148.20948
  23132890.320   121564171.97607  23132890.200    94725320.33447
  22792005.940   119772920.16508  22792006.680    93329608.52247
  21429326.620   112611946.55308  21429326.340    87749611.36348
  21286512.040   111861390.21108  21286515.180    87164746.91649
 15 02 25 01 30 30.0000000  0  6G16G18G19G21G22G27
  20532105.680   107896950.33508  20532106.700    84075551.00449
  21535543.120   113170109.46208  21535544.260    88184540.13048
  23118650.520   121489341.62107  23118650.400    94667010.98147
  22804550.000   119838839.76107  22804550.700    93380974.43347
  21417474.720   112549664.44808  21417474.440    87701079.86548
  21276940.980   111811094.00908  21276944.160    87125555.07348
 15 02 25 01 31  0.0000000  0  6G16G18G19G21G22G27
  20531716.860   107894906.87008  20531717.860    84073958.69249
  21536711.440   113176249.03508  21536712.560    88189324.22248
  23104425.860   121414590.86007  23104425.800    94608763.65547
  22817110.340   119904845.01607  22817111.060    93432407.09347
  21405701.460   112487795.43908  21405701.120    87652870.25848
  21267401.960   111760966.21508  21267405.200    87086494.46849
 15 02 25 01 31 30.0000000  0  6G16G18G19G21G22G27
  20531434.840   107893424.93708  20531435.840    84072803.93649
  21537975.060   113182889.44508  21537976.160    88194498.57148
  23090216.120   121339918.18807  23090216.060    94550577.16147
  22829686.380   119970932.54207  22829687.080    93483903.86746
  21394006.760   112426339.21808  21394006.340    87604982.30848
  21257894.720   111711005.64108  21257898.060    87047564.15849
 15 02 25 01 32  0.0000000  0  6G16G18G19G21G22G27
  20531260.080   107892506.49308  20531261.060    84072088.26049
  21539334.280   113190032.27608  21539335.340    88200064.42248
  23076021.640   121265325.71307  23076021.600    94492453.17346
  22842278.160   120037102.68007  22842278.840    93535465.01147
  21382391.260   112365299.23208  21382390.760    87557418.69548
  21248419.820   111661214.94008  21248423.200    87008766.21649
 15 02 25 01 32 30.0000000  0  6G16G18G19G21G22G27
  20531193.040   107892154.23808  20531194.020    84071813.76949
  21540789.400   113197678.97808  21540790.440    88206022.88948
  23061842.840   121190815.69007  23061842.820    94434393.44247
  22854885.800   120103356.58507  22854886.540    93587091.42646
  21370855.660   112304679.53908  21370855.120    87510182.59248
  21238977.840   111611597.07108  21238981.180    86970102.94449
 15 02 25 01 33  0.0000000  0  6G16G18G19G21G22G27
  20531233.660   107892367.67108  20531234.640    84071980.07649
  21542340.160   113205828.29308  21542341.200    88212373.01248
  23047679.600   121116387.70307  23047679.620    94376397.63047
  22867508.860   120169691.47307  22867509.600    93638780.94147
  21359400.240   112244481.03808  21359399.640    87463274.68448
  21229568.700   111562151.84308  21229572.060    86931574.20149
 15 02 25 01 33 30.0000000  0  6G16G18G19G21G22G27
  20531381.620   107893145.21408  20531382.600    84072585.94649
  21543986.140   113214477.88108  21543987.180    88219112.95648
  23033531.700   121042040.03607  23033531.740    94318464.40847
  22880146.820   120236104.45907  22880147.580    93690531.31446
  21348024.940   112184703.38808  21348024.280    87416694.72048
  21220192.220   111512878.17408  21220195.600    86893179.13249
 15 02 25 01 34  0.0000000  0  6G16G18G19G21G22G27
  20531637.280   107894488.69508  20531638.260    84073632.81049
  21545727.520   113223628.95308  21545728.600    88226243.66748
  23019399.540   120967775.08707  23019399.600    94260595.63947
  22892799.640   120302595.46407  22892800.400    93742342.47446
  21336730.440   112125350.39808  21336729.740    87370445.64948
  21210848.840   111463778.60608  21210852.240    86854919.73149
 15 02 25 01 34 30.0000000  0  6G16G18G19G21G22G27
  20532000.800   107896398.90808  20532001.740    84075121.28649
  21547564.320   113233281.67008  21547565.500    88233765.26548
  23005283.300   120893593.59807  23005283.360    94202791.91447
  22905467.240   120369164.13507  22905468.000    93794214.15646
  21325517.180   112066424.12708  21325516.460    87324529.09348
  21201538.860   111414854.51508  21201542.260    86816797.07349
 15 02 25 01 35  0.0000000  0  6G16G18G19G21G22G27
  20532472.220   107898876.19808  20532473.160    84077051.63749
  21549496.440   113243435.11608  21549497.700    88241677.04748
  22991183.040   120819496.14207  22991183.140    94145053.66347
  22918149.260   120435808.45807  22918150.000    93846144.77746
  21314385.380   112007926.23608  21314384.700    87278946.33548
  21192262.460   111366106.66208  21192265.800    86778811.73549
 15 02 25 01 35 30.0000000  0  6G16G18G19G21G22G27
  20533051.700   107901921.14708  20533052.600    84079424.31749
  21551523.920   113254089.54308  21551525.260    88249979.19948
  22977098.880   120745483.44507  22977099.040    94087381.43647
  22930845.700   120502528.51407  22930846.380    93898134.42346
  21303335.560   111949859.13208  21303334.920    87233699.25848
  21183019.900   111317536.55008  21183023.220    86740964.90749
 15 02 25 01 36  0.0000000  0  6G16G18G19G21G22G27
  20533739.160   107905533.66008  20533740.060    84082239.25849
  21553646.600   113265244.21208  21553647.960    88258671.15648
  22963030.900   120671555.63507  22963031.060    94029775.38147
  22943556.280   120569322.68007  22943556.820    93950181.82246
  21292367.900   111892223.94708  21292367.300    87188788.73848
  21173811.280   111269144.96208  21173814.580    86703257.18649
 15 02 25 01 36 30.0000000  0  6G16G18G19G21G22G27
  20534535.000   107909715.76208  20534535.900    84085498.03549
  21555864.500   113276899.37108  21555865.820    88267753.09848
  22948979.440   120597714.51907  22948979.540    93972236.87247
  22956280.840   120636190.54707  22956281.320    94002286.64346
  21281483.060   111835024.18908  21281482.520    87144217.51348
  21164637.000   111220933.72708  21164640.280    86665689.99649
 15 02 25 01 37  0.0000000  0  6G16G18G19G21G22G27
  20535439.060   107914466.44808  20535439.960    84089199.86249
  21558177.420   113289053.90808  21558178.740    88277224.17648
  22934944.380   120523959.77907  22934944.440    93914765.66447
  22969019.000   120703130.01307  22969019.520    94054447.25046
  21270681.200   111778260.33708  21270680.680    87099985.95648
  21155497.080   111172903.07109  21155500.340    86628263.51949
 15 02 25 01 37 30.0000000  0  6G16G18G19G21G22G27
  20536451.200   107919785.25108  20536452.140    84093344.37349
  21560585.180   113301706.87508  21560586.460    88287083.63448
  22920925.700   120450291.33107  22920925.700    93857361.69747
  22981770.500   120770139.23807  22981771.000    94106662.21646
  21259962.580   111721933.75308  21259962.020    87056095.12548
  21146391.560   111125053.31409  21146394.860    86590977.99849
 15 02 25 01 38  0.0000000  0  7G04G16G18G19G21G22G27
  24556613.420   129045870.05406  24556617.580   100555241.02444
  20537571.280   107925671.51308  20537572.300    84097931.06749
  21563087.460   113314856.56608  21563088.720    88297330.14748
  22906923.480   120376709.09207  22906923.380    93800024.90847
  22994534.900   120837216.42907  22994535.460    94158930.15146
  21249327.420   111666045.45808  21249326.780    87012545.81748
  21137320.500   111077384.72209  21137323.840    86553833.64049
 15 02 25 01 38 30.0000000  0  7G04G16G18G19G21G22G27
  24538371.900   128950010.12206  24538376.100   100480545.06844
  20538806.320   107932162.09708  20538807.420    84102988.65549
  21565691.180   113328539.31708  21565692.400    88307992.03548
  22892944.660   120303250.15707  22892944.520    93742784.19047
  23007318.920   120904396.95507  23007319.540    94211278.60046
  21238782.960   111610633.79408  21238782.260    86969367.91148
  21128291.100   111029934.91709  21128294.440    86516859.77349
 15 02 25 01 39  0.0000000  0  7G04G16G18G19G21G22G27
  24520150.740   128854257.02806  24520154.680   100405932.36544
  20540143.300   107939188.21308  20540144.460    84108463.54949
  21568383.020   113342684.97608  21568384.140    88319014.62748
  22878976.120   120229845.43307  22878976.020    93685585.71847
  23020109.160   120971610.42407  23020109.840    94263652.72846
  21228316.200   111555630.59608  21228315.500    86926508.28948
  21119290.300   110982635.51009  21119293.660    86480003.10249
 15 02 25 01 39 30.0000000  0  7G04G16G18G19G21G22G27
  24501956.820   128758646.73906  24501960.520   100331430.93445
  20541588.840   107946784.60608  20541590.040    84114382.81249
  21571169.460   113357327.83308  21571170.540    88330424.65148
  22865024.720   120156530.50007  22865024.640    93628457.21547
  23032912.060   121038890.17607  23032912.740    94316078.50346
  21217934.260   111501073.05208  21217933.560    86883995.93148
  21110324.960   110935522.36709  21110328.300    86443291.56649
 15 02 25 01 40  0.0000000  0  7G04G16G18G19G21G22G27
  24483790.400   128663181.03206  24483793.860   100257042.15944
  20543143.180   107954952.71008  20543144.340    84120747.56249
  21574050.700   113372468.72808  21574051.720    88342222.75548
  22851090.780   120083307.25907  22851090.700    93571400.15847
  23045727.620   121106236.61407  23045728.340    94368556.24446
  21207637.680   111446964.11708  21207637.020    86841833.13948
  21101395.480   110888597.75409  21101398.820    86406726.93549
 15 02 25 01 40 30.0000000  0  7G04G16G18G19G21G22G27
  24465651.320   128567859.17107  24465654.720   100182765.45644
  20544806.020   107963690.87508  20544807.120    84127556.50949
  21577026.280   113388105.61708  21577027.340    88354407.34848
  22837174.100   120010174.56907  22837174.020    93514413.66347
  23058555.340   121173647.28907  23058556.100    94421084.03946
  21197426.420   111393303.72008  21197425.820    86800019.85548
  21092501.860   110841861.35709  21092505.160    86370308.96849
 15 02 25 01 41  0.0000000  0  7G04G16G18G19G21G22G27
  24447539.940   128472682.94306  24447543.260   100108602.23945
  20546577.580   107973000.33908  20546578.620    84134810.63349
  21580096.220   113404238.68108  21580097.440    88366978.56948
  22823275.000   119937134.38707  22823274.920    93457499.24647
  23071395.160   121241121.90507  23071396.100    94473661.66046
  21187301.020   111340094.80408  21187300.520    86758558.37848
  21083644.400   110795315.08309  21083647.680    86334039.14549
 15 02 25 01 41 30.0000000  0  7G04G16G18G19G21G22G27
  24429456.280   128377652.58206  24429459.560   100034552.71145
  20548457.660   107982880.16008  20548458.660    84142509.18649
  21583260.380   113420866.61208  21583261.720    88379935.39848
  22809393.480   119864186.63607  22809393.420    93400656.86347
  23084246.780   121308658.41207  23084247.900    94526287.48946
  21177261.600   111287337.84008  21177261.200    86717449.07248
  21074823.180   110748959.22809  21074826.440    86297917.70449
 15 02 25 01 42  0.0000000  0  7G04G16G18G19G21G22G27
  24411401.900   128282776.78906  24411405.260    99960623.58044
  20550448.000   107993339.39108  20550448.960    84150659.23149
  21586520.200   113437996.97108  21586521.600    88393283.73448
  22795531.240   119791339.90007  22795531.140    93343893.18747
  23097111.660   121376264.24607  23097112.880    94578967.34246
  21167310.140   111235042.94608  21167309.760    86676699.81248
  21066039.960   110702803.06609  21066043.220    86261951.86349
 15 02 25 01 42 30.0000000  0  7G04G16G18G19G21G22G27
  24393373.820   128188040.06106  24393377.400    99886802.81844
  20552545.380   108004361.10508  20552546.320    84159247.56949
  21589872.400   113455612.62808  21589873.760    88407010.22248
  22781685.180   119718578.34308  22781685.040    93287195.88447
  23109986.420   121443921.61407  23109987.640    94631687.35846
  21157443.900   111183195.34908  21157443.480    86636299.10048
  21057291.840   110656831.29109  21057295.100    86226129.70349
 15 02 25 01 43  0.0000000  0  7G04G16G18G19G21G22G27
  24375374.220   128093453.24806  24375377.960    99813098.93944
  20554751.680   108015955.27708  20554752.660    84168281.98449
  21593318.680   113473722.73108  21593320.000    88421121.99648
  22767857.460   119645912.93108  22767857.240    93230573.51047
  23122872.780   121511639.68807  23122873.940    94684454.66246
  21147665.060   111131806.61509  21147664.520    86596255.94748
  21048580.980   110611055.12609  21048584.220    86190459.96849
 15 02 25 01 43 30.0000000  0  7G04G16G18G19G21G22G27
  24357402.900   127999014.88706  24357406.740    99739510.67644
  20557066.680   108028120.36408  20557067.640    84177761.26949
  21596858.640   113492324.80508  21596859.820    88435617.12548
  22754047.780   119573342.35208  22754047.520    93174025.01547
  23135770.160   121579415.44907  23135771.220    94737266.92746
  21137973.600   111080876.94209  21137972.940    86556570.50248
  21039907.100   110565473.63909  21039910.360    86154941.92749
 15 02 25 01 44  0.0000000  0  7G04G16G18G19G21G22G27
  24339460.040   127904725.64606  24339463.860    99666038.61646
  20559490.240   108040855.98908  20559491.180    84187685.12749
  21600491.900   113511417.52308  21600492.960    88450494.57048
  22740256.100   119500866.63508  22740255.840    93117550.44247
  23148678.300   121647247.36307  23148679.220    94790122.95346
  21128369.620   111030407.16108  21128368.860    86517243.41048
  21031270.380   110520087.59509  21031273.680    86119576.17649
 15 02 25 01 44 30.0000000  0  7G04G16G18G19G21G22G27
  24321546.040   127810587.35906  24321549.680    99592684.20444
  20562022.540   108054163.01608  20562023.460    84198054.23249
  21604218.620   113531001.66608  21604219.640    88465754.94548
  22726482.880   119428487.83308  22726482.600    93061151.39047
  23161597.160   121715135.68207  23161598.000    94843022.91946
  21118853.640   110980400.12808  21118852.840    86478276.89748
  21022671.300   110474899.25109  21022674.620    86084364.48749
 15 02 25 01 45  0.0000000  0  7G04G16G18G19G21G22G27
  24303660.840   127716599.86406  24303664.360    99519447.25744
  20564663.320   108068040.30108  20564664.220    84208867.69349
  21608038.560   113551075.81208  21608039.520    88481397.14348
  22712728.060   119356205.91608  22712727.840    93004827.83047
  23174526.440   121783078.61607  23174527.140    94895965.44946
  21109425.740   110930856.52108  21109425.020    86439671.50348
  21014109.960   110429909.03209  21014113.240    86049307.17849
 15 02 25 01 45 30.0000000  0  7G04G16G18G19G21G22G27
  24285804.480   127622763.47307  24285807.920    99446328.05545
  20567412.540   108082487.57108  20567413.440    84220125.29949
  21611951.380   113571638.20608  21611952.320    88497419.78848
  22698991.680   119284020.89408  22698991.480    92948579.78247
  23187465.780   121851074.72607  23187466.420    94948949.40446
  21100086.160   110881777.44308  21100085.580    86401428.07348
  21005586.380   110385117.41909  21005589.680    86014404.62349
 15 02 25 01 46  0.0000000  0  7G04G16G18G19G21G22G27
  24267977.560   127529081.43006  24267980.940    99373329.12245
  20570270.760   108097507.62908  20570271.660    84231829.23249
  21615957.460   113592690.59008  21615958.380    88513824.24748
  22685274.280   119211935.88008  22685274.120    92892409.65347
  23200415.440   121919125.12307  23200415.960    95001975.67446
  21090835.700   110833166.68008  21090835.200    86363549.56848
  20997101.280   110340528.04709  20997104.600    85979659.65349
 15 02 25 01 46 30.0000000  0  7G04G16G18G19G21G22G27
  24250180.040   127435554.37207  24250183.480    99300450.98644
  20573237.760   108113099.58208  20573238.700    84243978.80049
  21620056.680   113614232.47108  21620057.620    88530610.13048
  22671576.120   119139951.81008  22671576.000    92836318.18547
  23213375.180   121987228.99007  23213375.700    95055043.59946
  21081674.720   110785025.83408  21081674.220    86326037.23248
  20988654.880   110296141.96209  20988658.180    85945073.09849
 15 02 25 01 47  0.0000000  0  7G04G16G18G19G21G22G27
  24232412.060   127342182.97006  24232415.560    99227694.09945
  20576313.540   108129263.26108  20576314.540    84256573.86549
  21624248.860   113636262.55708  21624249.840    88547776.42948
  22657897.240   119068068.95808  22657897.160    92780305.58947
  23226344.720   122055384.82907  23226345.320    95108152.03146
  21072603.540   110737356.48208  21072602.980    86288892.30348
  20980247.360   110251960.13109  20980250.660    85910645.69949
 15 02 25 01 47 30.0000000  0  7G04G16G18G19G21G22G27
  24214673.580   127248966.82806  24214677.180    99155058.22045
  20579497.980   108145997.81408  20579499.020    84269613.77049
  21628533.600   113658778.93608  21628534.640    88565321.66048
  22644237.620   118996287.28308  22644237.540    92724371.83147
  23239323.860   122123590.86507  23239324.600    95161299.57546
  21063622.160   110690158.95408  21063621.580    86252115.02548
  20971878.700   110207982.77309  20971882.040    85876377.62549
 15 02 25 01 48  0.0000000  0  7G04G16G18G19G21G22G27
  24196964.840   127155907.40406  24196968.540    99082544.44545
  20582791.120   108163303.52408  20582792.200    84283098.73249
  21632910.920   113681781.67908  21632912.000    88583245.87748
  22630597.480   118924607.92408  22630597.360    92668517.80347
  23252312.440   122191846.63407  23252313.320    95214485.87246
  21054731.000   110643435.37708  21054730.380    86215707.05548
  20963549.320   110164211.70909  20963552.700    85842270.31149
 15 02 25 01 48 30.0000000  0  7G04G16G18G19G21G22G27
  24179285.920   127063005.02806  24179289.760    99010153.02145
  20586192.880   108181179.93008  20586193.980    84297028.39549
  21637380.580   113705269.65708  21637381.680    88601548.20748
  22616976.920   118853031.48808  22616976.760    92612743.97547
  23265310.360   122260151.37707  23265311.260    95267710.33346
  21045930.180   110597186.75608  21045929.580    86179669.17948
  20955259.340   110120647.75409  20955262.760    85808324.37649
 15 02 25 01 49  0.0000000  0  7G04G16G18G19G21G22G27
  24161637.180   126970261.59506  24161641.160    98937885.46645
  20589703.380   108199627.47408  20589704.440    84311403.09349
  21641942.580   113729242.84208  21641943.680    88620228.61648
  22603376.280   118781559.96507  22603376.120    92557051.89047
  23278317.580   122328504.89007  23278318.480    95320972.79346
  21037220.340   110551416.02808  21037219.740    86144003.68848
  20947009.240   110077293.24309  20947012.680    85774541.64549
 15 02 25 01 49 30.0000000  0  7G04G16G18G19G21G22G27
  24144018.400   126877675.43206  24144022.380    98865740.47044
  20593322.080   108218643.62708  20593323.100    84326220.87049
  21646596.280   113753697.95908  21646597.340    88639284.54748
  22589795.200   118710191.28607  22589795.060    92501439.93947
  23291333.460   122396903.84607  23291334.320    95374270.65346
  21028601.180   110506121.86308  21028600.540    86108709.54048
  20938798.780   110034146.83009  20938802.200    85740921.06749
 15 02 25 01 50  0.0000000  0  7G04G16G18G19G21G22G27
  24126429.840   126785247.68206  24126433.740    98793718.92444
  20597049.140   108238229.31708  20597050.140    84341482.43349
  21651341.580   113778634.86808  21651342.640    88658715.90748
  22576234.040   118638927.13307  22576233.900    92445909.44647
  23304357.980   122465347.76407  23304358.740    95427603.55046
  21020073.140   110461306.46109  21020072.460    86073788.45848
  20930628.280   109991210.35009  20930631.680    85707464.07649
 15 02 25 01 50 30.0000000  0  7G04G16G18G19G21G22G27
  24108871.680   126692978.95406  24108875.400    98721821.25844
  20600884.360   108258383.61908  20600885.380    84357187.07749
  21656178.300   113804052.41008  21656179.360    88678521.78848
  22562692.920   118567767.95908  22562692.760    92390460.74947
  23317390.960   122533835.74807  23317391.560    95480970.77746
  21011636.400   110416970.93809  21011635.700    86039241.31348
  20922497.920   109948484.87809  20922501.300    85674171.50249
 15 02 25 01 51  0.0000000  0  7G04G16G18G19G21G22G27
  24091344.200   126600871.11306  24091347.720    98650048.97145
  20604827.880   108279106.89608  20604828.880    84373335.08149
  21661106.460   113829950.40508  21661107.480    88698702.04548
  22549172.120   118496715.61508  22549171.980    92335095.29147
  23330432.300   122602367.82707  23330432.740    95534372.36246
  21003291.460   110373117.70109  21003290.720    86005069.97048
  20914408.100   109905972.52409  20914411.480    85641044.99749
 15 02 25 01 51 30.0000000  0  7G04G16G18G19G21G22G27
  24073847.540   126508924.88406  24073850.900    98578402.60045
  20608879.700   108300399.30408  20608880.680    84389926.55349
  21666125.920   113856328.00008  21666126.880    88719256.02047
  22535671.820   118425771.08408  22535671.740    92279813.86047
  23343481.860   122670943.12807  23343482.180    95587807.64046
  20995038.560   110329748.35009  20995037.800    85971275.68348
  20906359.080   109863674.76409  20906362.460    85608085.70849
 15 02 25 01 52  0.0000000  0  7G04G16G18G19G21G22G27
  24056381.940   126417141.99806  24056385.120    98506883.53345
  20613040.020   108322261.82508  20613040.980    84406962.28249
  21671236.760   113883185.56708  21671237.660    88740184.00247
  22522192.400   118354936.24808  22522192.340    92224617.89647
  23356539.600   122739561.95707  23356539.920    95641276.82745
  20986878.080   110286865.15408  20986877.340    85937860.21648
  20898351.280   109821593.72009  20898354.660    85575295.28749
 15 02 25 01 52 30.0000000  0  7G04G16G18G19G21G22G27
  24038947.120   126325521.30606  24038950.300    98435490.84445
  20617308.360   108344691.98008  20617309.300    84424440.31749
  21676438.440   113910520.24308  21676439.240    88761483.75647
  22508733.660   118284210.17408  22508733.660    92169506.68647
  23369605.120   122808221.60507  23369605.500    95694777.83645
  20978809.980   110244467.56908  20978809.280    85904823.15148
  20890384.660   109779728.92509  20890388.040    85542673.37049
 15 02 25 01 53  0.0000000  0  7G04G16G18G19G21G22G27
  24021543.900   126234067.05106  24021547.180    98364227.83545
  20621685.260   108367692.52408  20621686.140    84442362.81449
  21681731.340   113938334.47908  21681732.140    88783157.19147
  22495296.400   118213596.94308  22495296.420    92114483.40847
  23382678.760   122876924.47507  23382679.280    95748312.51646
  20970835.280   110202560.68008  20970834.640    85872168.43848
  20882460.080   109738085.01609  20882463.440    85510223.56849
 15 02 25 01 53 30.0000000  0  7G04G16G18G19G21G22G27
  24004171.820   126142776.40206  24004175.220    98293092.28145
  20626170.000   108391259.80208  20626170.840    84460726.91949
  21687114.500   113966623.16008  21687115.340    88805200.32947
  22481880.120   118143093.92908  22481880.180    92059546.02147
  23395759.820   122945666.34507  23395760.480    95801877.58745
  20962953.520   110161141.89008  20962952.900    85839894.07148
  20874577.080   109696659.58409  20874580.420    85477944.01349
 15 02 25 01 54  0.0000000  0  7G04G16G18G19G21G22G27
  23986830.860   126051649.83306  23986834.420    98222084.59345
  20630762.360   108415392.69308  20630763.180    84479531.76049
  21692587.800   113995385.66108  21692588.700    88827612.66547
  22468484.940   118072701.64608  22468484.960    92004694.91848
  23408848.120   123014445.78907  23408848.800    95855471.95146
  20955164.920   110120212.47909  20955164.300    85808001.03648
  20866735.860   109655453.65009  20866739.180    85445835.49149
 15 02 25 01 54 30.0000000  0  7G04G16G18G19G21G22G27
  23969521.660   125960690.48406  23969525.500    98151207.23245
  20635462.800   108440093.68008  20635463.640    84498779.27149
  21698151.460   114024623.09408  21698152.460    88850395.08348
  22455111.500   118002423.55308  22455111.460    91949932.78247
  23421943.980   123083264.61207  23421944.640    95909096.98946
  20947470.160   110079775.87708  20947469.440    85776492.00448
  20858937.140   109614471.05309  20858940.460    85413900.99749
 15 02 25 01 55  0.0000000  0  7G04G16G18G19G21G22G27
  23952244.180   125869897.47106  23952248.060    98080459.48244
  20640270.920   108465360.47408  20640271.780    84518467.67649
  21703805.080   114054333.27508  21703806.200    88873545.87348
  22441759.640   117932259.06808  22441759.540    91895259.17247
  23435046.780   123152120.36707  23435047.480    95962750.80146
  20939869.200   110039832.22109  20939868.400    85745367.08748
  20851180.840   109573711.44509  20851184.180    85382140.26849
 15 02 25 01 55 30.0000000  0  7G04G16G18G19G21G22G27
  23934998.420   125779270.72906  23935002.300    98009841.27345
  20645186.500   108491192.30008  20645187.460    84538596.36349
  21709548.300   114084514.28108  21709549.480    88897063.54448
  22428429.460   117862208.31608  22428429.240    91840674.18447
  23448156.320   123221011.72707  23448157.100    96016432.36946
  20932362.020   110000381.89008  20932361.280    85714626.57748
  20843467.120   109533175.46509  20843470.440    85350553.80449
 15 02 25 01 56  0.0000000  0  7G04G16G18G19G21G22G27
  23917784.700   125688811.47106  23917788.400    97939353.56245
  20650209.540   108517588.81308  20650210.620    84559165.06749
  21715381.000   114115165.51108  21715382.200    88920947.61747
  22415121.160   117792272.69308  22415120.900    91786178.91047
  23461272.520   123289938.08407  23461273.280    96070141.20945
  20924949.020   109961426.58508  20924948.340    85684271.80748
  20835796.260   109492864.82409  20835799.580    85319142.91749
 15 02 25 01 56 30.0000000  0  7G04G16G18G19G21G22G27
  23900602.980   125598519.90607  23900606.440    97868996.55645
  20655339.820   108544548.80608  20655340.960    84580172.84549
  21721302.780   114146284.68008  21721303.900    88945196.32247
  22401834.740   117722452.27408  22401834.460    91731773.40747
  23474395.180   123358898.33006  23474395.900    96123876.45645
  20917630.320   109922966.98508  20917629.720    85654303.29548
  20828168.440   109452780.22509  20828171.740    85287908.17149
 15 02 25 01 57  0.0000000  0  7G04G16G18G19G21G22G27
  23883453.620   125508398.42107  23883456.760    97798772.08745
  20660577.600   108572073.70908  20660578.760    84601620.81849
  21727313.840   114177872.92408  21727314.880    88969810.54148
  22388570.720   117652749.84908  22388570.540    91677459.84147
  23487524.520   123427893.60006  23487525.280    96177638.99046
  20910406.560   109885006.13608  20910405.980    85624723.42148
  20820584.220   109412924.78509  20820587.500    85256851.98649
 15 02 25 01 57 30.0000000  0  7G04G16G18G19G21G22G27
  23866336.600   125418447.24507  23866339.600    97728680.32145
  20665922.700   108600162.30808  20665923.840    84623508.02949
  21733413.960   114209929.24208  21733414.940    88994789.49247
  22375329.300   117583166.05308  22375329.180    91623238.71847
  23500660.300   123496922.37706  23500661.120    96231427.64245
  20903277.860   109847544.69309  20903277.260    85595532.69648
  20813043.740   109373299.42409  20813047.040    85225975.08649
 15 02 25 01 58  0.0000000  0  7G04G16G18G19G21G22G27
  23849252.020   125328666.84807  23849254.820    97658721.62645
  20671374.880   108628813.59108  20671376.000    84645833.69249
  21739602.820   114242451.67908  21739603.760    89020131.65947
  22362110.620   117513701.80208  22362110.600    91569110.74047
  23513802.260   123565983.62806  23513803.120    96285241.58346
  20896244.380   109810583.36709  20896243.760    85566731.66949
  20805547.260   109333905.06409  20805550.540    85195278.18649
 15 02 25 01 58 30.0000000  0  7G04G16G18G19G21G22G27
  23832200.100   125239058.27006  23832202.760    97588896.78044
  20676934.160   108658027.67308  20676935.240    84668597.90449
  21745880.260   114275439.67808  21745881.180    89045836.59747
  22348914.880   117444358.01208  22348914.900    91515076.63747
  23526950.300   123635077.27006  23526951.260    96339080.74846
  20889306.500   109774124.35109  20889305.860    85538322.05548
  20798095.100   109294743.60909  20798098.380    85164762.76149
 15 02 25 01 59  0.0000000  0  7G04G16G18G19G21G22G27
  23815180.780   125149621.68606  23815183.440    97519205.98944
  20682600.260   108687803.11408  20682601.300    84691799.54049
  21752245.900   114308891.61508  21752246.940    89071903.05047
  22335742.160   117375135.02208  22335742.160    91461136.64947
  23540104.200   123704201.61307  23540105.240    96392943.84945
  20882464.200   109738167.50709  20882463.500    85510303.74548
  20790687.300   109255815.51809  20790690.640    85134429.18949
 15 02 25 01 59 30.0000000  0  7G04G16G18G19G21G22G27
  23798194.540   125060359.76906  23798197.420    97449651.27545
  20688373.540   108718141.57408  20688374.500    84715439.89549
  21758699.880   114342807.81908  21758700.980    89098331.25947
  22322593.120   117306036.15108  22322593.040    91407293.37847
  23553264.360   123773358.35807  23553265.400    96446832.20346
  20875718.080   109702716.29109  20875717.360    85482679.43348
  20783324.620   109217124.42909  20783327.980    85104280.29449
 15 02 25 02 00  0.0000000  0  7G04G16G18G19G21G22G27
  23781241.020   124971269.69206  23781244.100    97380230.49145
  20694253.080   108749038.55008  20694253.980    84739515.45449
  21765241.360   114377183.78108  21765242.580    89125117.72747
  22309467.180   117237058.68608  22309467.060    91353544.72147
  23566429.780   123842542.61307  23566430.740    96500741.99245
  20869067.680   109667768.22209  20869066.940    85455447.17748
  20776006.600   109178667.95809  20776009.980    85074314.22249
 15 02 25 02 00 30.0000000  0  7G04G16G18G19G21G22G27
  23764320.820   124882354.29806  23764324.040    97310945.78445
  20700239.180   108780495.61008  20700240.060    84764027.43949
  21771870.540   114412020.44408  21771871.820    89152263.18047
  22296364.940   117168205.73208  22296364.760    91299893.08148
  23579600.760   123911756.32807  23579601.680    96554674.73445
  20862513.640   109633326.53309  20862512.860    85428609.50648
  20768733.940   109140449.73809  20768737.320    85044533.79849
 15 02 25 02 01  0.0000000  0  7G04G16G18G19G21G22G27
  23747433.600   124793611.72306  23747436.960    97241795.76545
  20706331.180   108812509.12108  20706332.040    84788973.02549
  21778586.720   114447314.25808  21778588.020    89179764.85147
  22283286.080   117099475.67508  22283285.880    91246337.21747
  23592776.720   123980996.11506  23592777.600    96608627.79145
  20856055.580   109599389.36909  20856054.820    85402164.97148
  20761506.300   109102468.38809  20761509.680    85014937.94249
 15 02 25 02 01 30.0000000  0  7G04G16G18G19G21G22G27
  23730579.840   124705044.47206  23730583.100    97172782.36746
  20712529.380   108845080.63208  20712530.200    84814353.41349
  21785390.040   114483065.91708  21785391.320    89207623.29147
  22270231.200   117030871.79208  22270231.000    91192879.65648
  23605957.760   124050263.07406  23605958.660    96662602.01045
  20849694.220   109565960.23309  20849693.440    85376116.30049
  20754324.400   109064727.28909  20754327.740    84985529.29449
 15 02 25 02 02  0.0000000  0  7G04G16G18G19G21G22G27
  23713759.640   124616653.47406  23713762.820    97103906.31545
  20718833.680   108878209.86508  20718834.480    84840168.39449
  21792280.260   114519274.03308  21792281.500    89235837.41047
  22257200.460   116962394.98208  22257200.300    91139521.11347
  23619143.920   124119556.96306  23619144.900    96716597.21946
  20843429.700   109533040.45308  20843429.020    85350464.53349
  20747188.480   109027228.06009  20747191.880    84956309.12249
 15 02 25 02 02 30.0000000  0  7G04G16G18G19G21G22G27
  23696973.000   124528438.76806  23696976.120    97035167.60745
  20725243.740   108911894.96908  20725244.540    84866416.51849
  21799257.100   114555937.38608  21799258.280    89264406.25647
  22244193.980   116894045.71608  22244193.820    91086261.96748
  23632334.940   124188876.39306  23632335.980    96770612.33745
  20837262.120   109500629.98208  20837261.520    85325209.63349
  20740098.760   108989971.34309  20740102.180    84927277.91649
 15 02 25 02 03  0.0000000  0  7G04G16G18G19G21G22G27
  23680220.000   124440400.83807  23680223.040    96966566.66045
  20731759.440   108946135.17408  20731760.260    84893097.18849
  21806320.260   114593054.47908  21806321.400    89293328.66647
  22231211.980   116825824.86908  22231211.820    91033102.87448
  23645530.680   124258220.72206  23645531.880    96824646.85245
  20831191.740   109468730.22708  20831191.220    85300352.68749
  20733055.500   108952958.63809  20733058.900    84898436.84649
 15 02 25 02 03 30.0000000  0  7G04G16G18G19G21G22G27
  23663500.800   124352540.67806  23663503.840    96898104.22844
  20738380.660   108980929.97008  20738381.540    84920210.01049
  21813469.500   114630623.73408  21813470.540    89322603.41547
  22218254.680   116757733.91608  22218254.540    90980045.00148
  23658731.140   124327589.25506  23658732.340    96878700.23845
  20825218.740   109437342.12409  20825218.300    85275894.43349
  20726058.960   108916191.31709  20726062.260    84869786.99249
 15 02 25 02 04  0.0000000  0  7G04G16G18G19G21G22G27
  23646815.700   124264860.52706  23646818.860    96829782.04545
  20745107.500   109016279.95808  20745108.460    84947755.44249
  21820704.920   114668646.04908  21820705.940    89352231.19947
  22205322.620   116689775.37208  22205322.440    90927090.30948
  23671936.440   124396983.19106  23671937.600    96932773.41945
  20819343.680   109406468.30409  20819343.260    85251836.92049
  20719109.700   108879672.51809  20719112.960    84841330.78649
 15 02 25 02 04 30.0000000  0  7G04G16G18G19G21G22G27
  23630164.480   124177359.02906  23630167.880    96761599.08445
  20751939.360   109052181.93708  20751940.440    84975731.00649
  21828025.820   114707117.80108  21828026.880    89382209.18947
  22192415.520   116621948.23708  22192415.380    90874238.01348
  23685146.140   124466400.02106  23685147.320    96986864.43946
  20813566.240   109376107.24509  20813565.760    85228178.95549
  20712207.560   108843401.51909  20712210.820    84813067.67349
 15 02 25 02 05  0.0000000  0  7G04G16G18G19G21G22G27
  23613547.280   124090035.97306  23613550.700    96693555.17145
  20758876.020   109088634.74708  20758877.220    85004135.78149
  21835431.820   114746036.90108  21835432.960    89412535.77147
  22179533.460   116554252.68408  22179533.320    90821488.25048
  23698359.780   124535837.83406  23698360.940    97040971.79746
  20807886.440   109346259.34809  20807885.860    85204920.86449
  20705352.660   108807378.87409  20705355.940    84784998.08149
 15 02 25 02 05 30.0000000  0  7G04G16G18G19G21G22G27
  23596964.620   124002894.01606  23596968.000    96625652.36245
  20765917.720   109125639.46608  20765919.000    85032970.62149
  21842923.200   114785404.44808  21842924.400    89443211.78747
  22166677.080   116486691.87508  22166676.960    90768843.47848
  23711577.680   124605298.18906  23711578.800    97095096.71445
  20802304.820   109316927.67309  20802304.220    85182065.01849
  20698545.680   108771608.19709  20698549.020    84757124.82849
 15 02 25 02 06  0.0000000  0  7G04G16G18G19G21G22G27
  23580416.040   123915930.54206  23580419.300    96557888.65045
  20773063.620   109163191.64208  20773064.940    85062232.04549
  21850499.000   114825215.57408  21850500.200    89474233.44547
  22153845.920   116419263.78408  22153845.780    90716302.12748
  23724799.060   124674776.94706  23724800.180    97149235.98145
  20796820.920   109288109.71809  20796820.320    85159609.48349
  20691786.280   108736087.29209  20691789.600    84729446.20949
 15 02 25 02 06 30.0000000  0  7G04G16G18G19G21G22G27
  23563902.300   123829149.84506  23563905.400    96490267.37145
  20780314.200   109201293.66808  20780315.500    85091921.92749
  21858159.600   114865472.40908  21858160.800    89505602.41147
  22141040.960   116351973.26508  22141040.760    90663867.96448
  23738024.560   124744277.38706  23738025.740    97203392.14245
  20791435.600   109259809.91009  20791435.000    85137557.69249
  20685075.380   108700821.25909  20685078.680    84701966.17749
 15 02 25 02 07  0.0000000  0  7G04G16G18G19G21G22G27
  23547423.100   123742550.33707  23547425.980    96422787.25945
  20787668.900   109239942.56509  20787670.120    85122037.94049
  21865904.300   114906171.39508  21865905.500    89537315.91147
  22128261.880   116284818.70508  22128261.640    90611539.74447
  23751253.720   124813796.95206  23751254.800    97257563.20745
  20786148.680   109232026.98409  20786148.040    85115908.66349
  20678412.840   108665809.51409  20678416.120    84674684.30049
 15 02 25 02 07 30.0000000  0  7G04G16G18G19G21G22G27
  23530978.580   123656133.21506  23530981.340    96355449.26045
  20795127.600   109279137.94308  20795128.740    85152579.78149
  21873732.920   114947311.57608  21873734.140    89569373.19247
  22115509.040   116217802.09108  22115508.780    90559319.00648
  23764486.540   124883335.44406  23764487.600    97311749.03145
  20780960.360   109204762.31009  20780959.720    85094663.47149
  20671799.060   108631053.86509  20671802.300    84647601.97449
 15 02 25 02 08  0.0000000  0  7G04G16G18G19G21G22G27
  23514568.920   123569899.45406  23514571.700    96288254.16145
  20802690.280   109318879.76908  20802691.380    85183547.42749
  21881645.460   114988892.48208  21881646.660    89601773.90747
  22102782.720   116150924.89908  22102782.420    90507206.91648
  23777722.840   124952892.49706  23777723.840    97365949.30345
  20775870.920   109178017.16909  20775870.260    85073823.11049
  20665234.360   108596556.28409  20665237.620    84620720.74649
 15 02 25 02 08 30.0000000  0  7G04G16G18G19G21G22G27
  23498194.140   123483849.28906  23498196.980    96221202.10346
  20810356.480   109359166.03308  20810357.600    85214939.30949
  21889641.540   115030912.00408  21889642.700    89634516.39947
  22090083.080   116084187.74108  22090082.700    90455203.94048
  23790962.540   125022467.27706  23790963.360    97420163.40545
  20770880.340   109151791.38409  20770879.620    85053387.44149
  20658718.940   108562317.57809  20658722.220    84594041.23349
 15 02 25 02 09  0.0000000  0  7G04G16G18G19G21G22G27
  23481854.480   123397983.89106  23481857.420    96154294.00445
  20818126.200   109399996.22608  20818127.320    85246755.03449
  21897720.900   115073369.07508  21897722.040    89667599.82947
  22077410.340   116017592.23408  22077409.960    90403311.35648
  23804205.560   125092059.64406  23804206.260    97474391.19844
  20765988.940   109126086.94309  20765988.200    85033358.01149
  20652253.160   108528339.67309  20652256.460    84567564.94549
 15 02 25 02 09 30.0000000  0  7G04G16G18G19G21G22G27
  23465550.240   123312304.62306  23465553.240    96087530.95945
  20825999.340   109441369.90908  20826000.460    85278994.25849
  21905883.480   115116263.27808  21905884.580    89701023.88647
  22064764.940   115951140.25108  22064764.600    90351530.60048
  23817451.880   125161669.69606  23817452.640    97528632.77144
  20761196.920   109100905.00709  20761196.220    85013735.72949
  20645837.500   108494624.75009  20645840.740    84541293.57449
 15 02 25 02 10  0.0000000  0  7G04G16G18G19G21G22G27
  23449281.300   123226811.13206  23449284.440    96020912.68346
  20833975.560   109483285.10208  20833976.680    85311655.43849
  21914128.720   115159592.26708  21914129.840    89734786.73247
  22052146.920   115884832.24208  22052146.660    90299862.03848
  23830701.140   125231295.82606  23830702.120    97582886.86845
  20756504.360   109076245.44609  20756503.640    84994520.49749
  20639471.980   108461173.40109  20639475.160    84515227.59049
 15 02 25 02 10 30.0000000  0  7G04G16G18G19G21G22G27
  23433047.560   123141502.73106  23433050.780    95954438.60445
  20842054.400   109525739.58208  20842055.500    85344736.83949
  21922456.160   115203353.24908  21922457.300    89768886.20147
  22039556.200   115818667.99008  22039556.080    90248305.49248
  23843953.200   125300936.49906  23843954.340    97637152.29945
  20751911.100   109052107.70508  20751910.360    84975711.87149
  20633156.660   108427985.88409  20633159.760    84489367.18649
 15 02 25 02 11  0.0000000  0  7G04G16G18G19G21G22G27
  23416849.020   123056379.20406  23416852.140    95888108.58745
  20850235.400   109568730.90608  20850236.480    85378236.56249
  21930865.360   115247543.77508  21930866.500    89803320.38347
  22026992.880   115752647.51108  22026992.800    90196860.96948
  23857207.920   125370590.53106  23857209.100    97691428.13545
  20747417.060   109028491.26809  20747416.280    84957309.46349
  20626891.520   108395062.41709  20626894.640    84463712.53449
 15 02 25 02 11 30.0000000  0  7G04G16G18G19G21G22G27
  23400686.140   122971443.10406  23400689.140    95821924.60945
  20858518.880   109612260.65908  20858519.920    85412155.84149
  21939356.520   115292164.95908  21939357.580    89838090.13947
  22014457.680   115686774.58508  22014457.580    90145531.42148
  23870465.480   125440259.29506  23870466.580    97745715.47145
  20743022.800   109005399.32509  20743022.040    84939315.74649
  20620677.340   108362406.89309  20620680.520    84438266.67149
 15 02 25 02 12  0.0000000  0  7G04G16G18G19G21G22G27
  23384558.600   122886692.48806  23384561.520    95755885.17645
  20866903.920   109656324.33908  20866904.940    85446491.16049
  21947928.820   115337212.20308  21947929.700    89873191.89247
  22001950.220   115621047.31008  22001950.040    90094315.37748
  23883725.240   125509939.27806  23883726.260    97800011.54845
  20738727.920   108982829.55809  20738727.120    84921728.92449
  20614513.840   108330017.80509  20614517.120    84413028.42149
 15 02 25 02 12 30.0000000  0  7G04G16G18G19G21G22G27
  23368466.960   122802130.42007  23368469.740    95689992.67845
  20875390.940   109700923.93808  20875391.940    85481244.08449
  21956582.400   115382686.58708  21956583.120    89908626.47647
  21989471.240   115555469.64908  21989470.960    90043215.90948
  23896987.820   125579634.03106  23896988.800    97854319.12345
  20734533.180   108960785.76609  20734532.280    84904551.95249
  20608401.860   108297899.48609  20608405.240    84388001.15949
 15 02 25 02 13  0.0000000  0  7G04G16G18G19G21G22G27
  23352411.180   122717756.52606  23352413.840    95624246.80845
  20883979.440   109746056.80208  20883980.420    85516412.53349
  21965316.800   115428585.98808  21965317.460    89944392.24947
  21977020.780   115490041.66708  21977020.380    89992233.08048
  23910252.540   125649340.14006  23910253.560    97908635.55345
  20730438.360   108939266.85109  20730437.340    84887783.97049
  20602341.460   108266052.15509  20602344.920    84363185.05749
 15 02 25 02 13 30.0000000  0  7G04G16G18G19G21G22G27
  23336391.580   122633572.38507  23336394.120    95558648.79845
  20892669.300   109791722.22708  20892670.260    85551995.97548
  21974131.800   115474909.39108  21974132.500    89980488.41147
  21964599.220   115424765.52208  21964598.720    89941368.55748
  23923519.620   125719058.68006  23923520.660    97962961.66345
  20726443.700   108918274.50809  20726442.600    84871426.30749
  20596333.160   108234478.20709  20596336.620    84338581.98349
 15 02 25 02 14  0.0000000  0  7G04G16G18G19G21G22G27
  23320408.020   122549578.00307  23320410.620    95493198.65045
  20901460.220   109837918.79708  20901461.180    85587993.28648
  21983027.160   115521655.13308  21983027.900    90016913.66747
  21952206.640   115359641.94508  21952206.120    89890622.92148
  23936788.880   125788788.94906  23936789.940    98017296.90945
  20722549.200   108897808.75909  20722548.120    84855478.97649
  20590377.040   108203178.51209  20590380.500    84314192.61449
 15 02 25 02 14 30.0000000  0  7G04G16G18G19G21G22G27
  23304460.580   122465773.49007  23304463.340    95427896.45345
  20910351.980   109884645.30408  20910353.000    85624403.54349
  21992002.420   115568820.80308  21992003.260    90053666.13747
  21939843.120   115294671.43508  21939842.620    89839996.56248
  23950060.180   125858529.98306  23950061.240    98071640.54745
  20718754.880   108877869.71709  20718753.860    84839942.06249
  20584473.280   108172154.08609  20584476.720    84290017.73749
 15 02 25 02 15  0.0000000  0  7G04G16G18G19G21G22G27
  23288549.680   122382161.24906  23288552.580    95362744.07245
  20919344.560   109931901.90108  20919345.680    85661226.85948
  22001057.700   115616407.21108  22001058.700    90090746.45247
  21927509.320   115229857.17608  21927508.920    89789491.95248
  23963333.440   125928281.91306  23963334.540    98125992.67645
  20715061.240   108858459.84709  20715060.300    84824817.49649
  20578622.560   108141408.19509  20578625.940    84266059.89949
 15 02 25 02 15 30.0000000  0  7G04G16G18G19G21G22G27
  23272674.900   122298739.29707  23272677.960    95297739.96645
  20928437.320   109979684.68508  20928438.480    85698460.18948
  22010192.340   115664410.18408  22010193.420    90128151.36747
  21915205.040   115165198.10808  21915204.700    89739108.26748
  23976608.580   125998043.48406  23976609.720    98180352.31946
  20711467.960   108839577.10409  20711467.040    84810103.67549
  20572824.680   108110940.02509  20572828.020    84242318.47049
 15 02 25 02 16  0.0000000  0  7G04G16G18G19G21G22G27
  23256836.640   122215509.23906  23256839.820    95232885.40445
  20937630.140   110027993.30208  20937631.320    85736103.25748
  22019406.100   115712828.75108  22019407.160    90165880.12147
  21902930.720   115100696.42608  21902930.420    89688847.22748
  23989885.460   126067814.39806  23989886.780    98234719.25345
  20707975.260   108821222.88409  20707974.380    84795801.69149
  20567080.040   108080751.79609  20567083.380    84218795.17749
 15 02 25 02 16 30.0000000  0  7G04G16G18G19G21G22G27
  23241034.620   122132469.52306  23241037.860    95168179.14246
  20946922.300   110076824.01308  20946923.520    85774153.15448
  22028698.280   115761659.31908  22028699.280    90203929.91447
  21890686.160   115036351.01808  21890685.860    89638707.95648
  24003163.860   126137593.18206  24003165.300    98289092.29845
  20704582.820   108803395.45709  20704581.920    84781910.19649
  20561388.540   108050842.83709  20561391.880    84195489.49949
 15 02 25 02 17  0.0000000  0  7G04G16G18G19G21G22G27
  23225269.320   122049622.42006  23225272.580    95103622.97645
  20956313.960   110126177.43108  20956315.180    85812610.35248
  22038068.940   115810902.11208  22038069.880    90242300.92247
  21878471.960   114972164.99008  21878471.640    89588692.87948
  24016443.640   126207378.85206  24016445.140    98343470.71845
  20701291.020   108786097.14209  20701290.120    84768430.99149
  20555750.800   108021216.28209  20555754.140    84172403.87249
 15 02 25 02 17 30.0000000  0  7G04G16G18G19G21G22G27
  23209540.860   121966968.84707  23209544.120    95039217.60945
  20965804.860   110176052.26009  20965806.040    85851473.83948
  22047517.840   115860556.14608  22047518.700    90280992.37747
  21866288.420   114908140.21308  21866288.140    89538803.45748
  24029725.040   126277173.01706  24029726.560    98397855.76145
  20698100.080   108769328.72809  20698099.140    84755364.70349
  20550167.200   107991874.22909  20550170.560    84149539.93749
 15 02 25 02 18  0.0000000  0  7G04G16G18G19G21G22G27
  23193849.140   121884508.18407  23193852.280    94974962.56345
  20975394.560   110226446.19008  20975395.720    85890741.82848
  22057044.340   115910618.37508  22057045.220    90320001.90247
  21854135.560   114844276.43408  21854135.240    89489039.49848
  24043007.680   126346973.71906  24043009.120    98452245.88445
  20695009.880   108753089.72809  20695008.940    84742710.94349
  20544637.720   107962816.65309  20544641.100    84126897.66549
 15 02 25 02 18 30.0000000  0  7G04G16G18G19G21G22G27
  23178194.220   121802240.68207  23178197.100    94910858.03146
  20985082.700   110277357.54608  20985083.840    85930413.00948
  22066648.200   115961087.27408  22066649.160    90359328.31647
  21842013.620   114780574.97008  21842013.200    89439402.01248
  24056291.480   126416780.50406  24056292.740    98506640.75344
  20692020.400   108737379.98609  20692019.480    84730469.58949
  20539162.640   107934045.12909  20539166.080    84104478.29549
 15 02 25 02 19  0.0000000  0  7G04G16G18G19G21G22G27
  23162576.380   121720168.06107  23162579.100    94846905.38045
  20994869.160   110328785.79108  20994870.320    85970486.95348
  22076329.320   116011962.06308  22076330.340    90398971.00747
  21829922.960   114717038.07108  21829922.480    89389892.75048
  24069576.580   126486593.81306  24069577.720    98561040.69145
  20689131.820   108722200.69509  20689130.980    84718641.57949
  20533742.480   107905561.97209  20533745.940    84082283.63449
 15 02 25 02 19 30.0000000  0  7G04G16G18G19G21G22G27
  23146995.700   121638290.87807  23146998.380    94783104.98745
  21004753.840   110380729.95608  21004754.960    86010962.91648
  22086087.360   116063240.97208  22086088.440    90438928.59747
  21817863.840   114653666.87308  21817863.380    89340512.61448
  24082862.820   126556413.37305  24082863.960    98615445.51645
  20686344.300   108707552.38109  20686343.520    84707227.31049
  20528377.500   107877368.68009  20528380.940    84060314.83349
 15 02 25 02 20  0.0000000  0  7G04G16G18G19G21G22G27
  23131452.020   121556608.50307  23131454.780    94719456.39246
  21014736.080   110433186.99209  21014737.160    86051838.51648
  22095921.900   116114921.55008  22095922.980    90479199.17347
  21805836.280   114590461.62108  21805835.840    89291261.79148
  24096149.940   126626237.57405  24096151.120    98669853.95745
  20683657.700   108693434.14509  20683656.940    84696226.09349
  20523067.740   107849465.74509  20523071.180    84038572.29149
 15 02 25 02 20 30.0000000  0  7G04G16G18G19G21G22G27
  23115945.800   121475123.27207  23115948.700    94655961.41146
  21024815.940   110486157.06408  21024817.000    86093113.88648
  22105832.860   116167003.71508  22105833.920    90519782.67847
  21793840.900   114527425.37608  21793840.420    89242142.66048
  24109438.180   126696067.72506  24109439.500    98724267.01345
  20681072.340   108679847.87309  20681071.580    84685639.39249
  20517813.840   107821856.38509  20517817.280    84017058.50449
 15 02 25 02 21  0.0000000  0  7G04G16G18G19G21G22G27
  23100476.720   121393833.31207  23100479.880    94592618.60345
  21034992.700   110539636.20909  21034993.760    86134785.93748
  22115819.460   116219483.70008  22115820.520    90560676.16947
  21781877.480   114464557.18008  21781876.960    89193154.45948
  24122727.080   126765901.04806  24122728.560    98778682.56745
  20678587.900   108666791.90109  20678587.140    84675465.91549
  20512615.580   107794539.52909  20512619.040    83995772.64349
 15 02 25 02 21 30.0000000  0  7G04G16G18G19G21G22G27
  23085045.060   121312739.91707  23085048.420    94529428.94745
  21045266.180   110593623.68208  21045267.240    86176854.09048
  22125881.500   116272360.40308  22125882.600    90601878.78647
  21769946.400   114401859.11508  21769945.900    89144298.84148
  24136016.720   126835738.39106  24136018.400    98833101.27045
  20676204.560   108654267.33309  20676203.800    84665706.51649
  20507473.440   107767517.56309  20507476.920    83974716.56349
 15 02 25 02 22  0.0000000  0  7G04G16G18G19G21G22G27
  23069650.800   121231842.71807  23069654.220    94466392.18546
  21055635.980   110648117.24609  21055637.040    86219316.59148
  22136018.520   116325631.19908  22136019.640    90643388.48547
  21758047.740   114339331.47408  21758047.300    89095576.01848
  24149306.820   126905578.20606  24149308.660    98887521.85845
  20673922.200   108642273.33509  20673921.380    84656360.54749
  20502387.520   107740790.89709  20502390.980    83953890.58949
 15 02 25 02 22 30.0000000  0  7G04G16G18G19G21G22G27
  23054294.120   121151142.55507  23054297.480    94403508.97245
  21066101.900   110703115.95109  21066103.020    86262172.71848
  22146230.380   116379294.95908  22146231.480    90685204.39847
  21746181.860   114276976.13508  21746181.520    89046987.44848
  24162597.500   126975420.66306  24162599.340    98941944.54345
  20671740.900   108630810.55709  20671740.040    84647428.52149
  20497358.240   107714361.63909  20497361.640    83933296.35449
 15 02 25 02 23  0.0000000  0  7G04G16G18G19G21G22G27
  23038975.040   121070639.93407  23038978.280    94340779.67945
  21076663.480   110758617.33608  21076664.620    86305420.53948
  22156516.780   116433350.17008  22156517.840    90727325.34147
  21734349.000   114214794.23808  21734348.720    88998534.03648
  24175888.640   127045265.19706  24175890.400    98996368.83545
  20669660.700   108619879.09009  20669659.820    84638910.50149
  20492385.800   107688231.12009  20492389.140    83912934.90849
 15 02 25 02 23 30.0000000  0  7G04G16G18G19G21G22G27
  23023694.200   120990338.65907  23023697.340    94278207.28145
  21087321.080   110814623.49409  21087322.300    86349061.68748
  22166877.860   116487797.73408  22166878.880    90769752.01747
  21722550.080   114152790.47708  21722549.780    88950219.42348
  24189180.520   127115114.66905  24189182.360    99050796.97445
  20667682.200   108609482.26809  20667681.340    84630809.08549
  20487471.120   107662404.06609  20487474.400    83892809.92949
 15 02 25 02 24  0.0000000  0  8G04G16G18G19G21G22G27G32
  23008453.140   120910246.34507  23008456.180    94215797.70945
  21098075.820   110871140.27108  21098077.100    86393100.72548
  22177314.680   116542643.49908  22177315.680    90812488.96647
  21710786.720   114090973.47408  21710786.360    88902050.33648
  24202474.620   127184975.83305  24202476.420    99105234.23745
  20665806.780   108599627.18509  20665805.940    84623129.80249
  20482615.800   107636889.09509  20482619.060    83872928.13349
  24499896.800   128747827.68205  24499903.720   100323008.02845
 15 02 25 02 24 30.0000000  0  8G04G16G18G19G21G22G27G32
  22993244.700   120830325.65607  22993247.660    94153521.88645
  21108920.200   110928127.88008  21108921.480    86437506.64248
  22187819.740   116597847.98808  22187820.700    90855505.45547
  21699051.880   114029306.70508  21699051.500    88853998.31948
  24215763.720   127254810.87205  24215765.440    99159651.13845
  20664027.340   108590276.51609  20664026.580    84615843.57149
  20477812.940   107611649.90909  20477816.240    83853261.23749
  24477192.920   128628517.83805  24477198.960   100230039.68145
 15 02 25 02 25  0.0000000  0  9G04G11G16G18G19G21G22G27G32
  22978079.860   120750634.11807  22978082.800    94091424.62145
  24641318.280   129491002.00605  24641319.880   100902084.12443
  21119864.600   110985641.15908  21119865.900    86482322.17848
  22198403.580   116653466.39308  22198404.480    90898844.46647
  21687356.640   113967848.07708  21687356.300    88806108.48748
  24229058.540   127324675.94305  24229060.140    99214091.42444
  20662354.780   108581487.25909  20662354.060    84608994.80749
  20473073.620   107586744.67709  20473076.960    83833854.56149
  24454502.580   128509279.88005  24454508.280   100137127.29544
 15 02 25 02 25 30.0000000  0  9G04G11G16G18G19G21G22G27G32
  22962948.200   120671117.28607  22962951.160    94029463.48645
  24624102.720   129400531.85105  24624104.500   100831587.90243
  21130898.380   111043623.94808  21130899.640    86527503.56048
  22209055.400   116709442.14508  22209056.240    90942461.92747
  21675690.940   113906544.65408  21675690.700    88758339.58848
  24242348.680   127394516.29205  24242350.260    99268512.43944
  20660778.680   108573204.66709  20660777.980    84602540.84749
  20468387.740   107562120.40309  20468391.120    83814666.81549
  24431816.000   128390061.92206  24431821.680   100044230.52144
 15 02 25 02 26  0.0000000  0  9G04G11G16G18G19G21G22G27G32
  22947856.380   120591809.87007  22947859.420    93967665.52145
  24606899.800   129310129.15005  24606901.620   100761144.27444
  21142027.660   111102108.45509  21142028.880    86573075.89648
  22219781.400   116765807.67608  22219782.140    90986383.12047
  21664061.500   113845431.80208  21664061.360    88710719.19248
  24255640.700   127464366.10705  24255642.260    99322940.85045
  20659305.520   108565462.88509  20659304.780    84596508.29649
  20463762.100   107537812.52209  20463765.480    83795725.60349
  24409140.220   128270900.80306  24409145.820    99951377.99845
 15 02 25 02 26 30.0000000  0  9G04G11G16G18G19G21G22G27G32
  22932803.340   120512705.64207  22932806.400    93906025.89246
  24589708.360   129219787.88305  24589710.200   100690748.54144
  21153250.940   111161086.87109  21153252.100    86619033.09448
  22230579.960   116822554.42908  22230580.660    91030601.36347
  21652467.340   113784504.30108  21652467.220    88663243.22348
  24268933.080   127534217.99906  24268934.560    99377370.87745
  20657934.060   108558255.43909  20657933.240    84590892.10849
  20459195.720   107513815.91009  20459199.080    83777026.94049
  24386474.560   128151792.49206  24386480.020    99858566.59145
 15 02 25 02 27  0.0000000  0  9G04G11G16G18G19G21G22G27G32
  22917788.300   120433801.00307  22917791.400    93844541.78146
  24572527.860   129129504.51305  24572529.860   100620397.91844
  21164566.980   111220552.81609  21164568.080    86665370.18548
  22241450.020   116879676.63308  22241450.700    91075112.16747
  21640908.000   113723759.59608  21640907.820    88615909.69748
  24282225.120   127604067.75705  24282226.620    99431799.24245
  20656663.460   108551578.30909  20656662.640    84585689.15449
  20454688.040   107490127.91809  20454691.400    83758568.76049
  24363818.760   128032735.69906  24363824.060    99765795.29945
 15 02 25 02 27 30.0000000  0  9G04G11G16G18G19G21G22G27G32
  22902811.960   120355099.49007  22902815.080    93783215.95146
  24555359.020   129039282.27605  24555361.220   100550094.87244
  21175975.980   111280507.70508  21175977.100    86712088.26648
  22252391.760   116937175.55508  22252392.500    91119916.51647
  21629384.220   113663201.67108  21629383.980    88568721.71048
  24295517.200   127673917.52605  24295518.500    99486227.61244
  20655494.300   108545434.38209  20655493.500    84580901.68249
  20450239.940   107466753.04409  20450243.300    83740354.57349
  24341173.840   127913736.09606  24341178.960    99673068.59245
 15 02 25 02 28  0.0000000  0  9G04G11G16G18G19G21G22G27G32
  22887873.980   120276599.38907  22887877.040    93722047.07045
  24538201.640   128949119.82205  24538203.980   100479838.45344
  21187477.280   111340947.50508  21187478.420    86759184.20248
  22263404.420   116995047.26108  22263405.260    91165011.34547
  21617895.860   113602829.91308  21617895.620    88521678.79248
  24308808.780   127743765.29506  24308809.960    99540654.38445
  20654426.200   108539821.56009  20654425.400    84576528.06549
  20445851.260   107443690.66209  20445854.660    83722383.88549
  24318539.980   127794794.30606  24318544.880    99580386.90345
 15 02 25 02 28 30.0000000  0  9G04G11G16G18G19G21G22G27G32
  22872974.380   120198301.10807  22872977.300    93661035.44746
  24521055.720   128859017.29405  24521057.980   100409628.75645
  21199070.480   111401870.38408  21199071.660    86806656.56348
  22274487.640   117053289.92308  22274488.560    91210395.23347
  21606443.220   113542645.78908  21606442.940    88474782.08048
  24322100.000   127813610.74105  24322101.200    99595079.38444
  20653459.080   108534739.61509  20653458.320    84572568.11249
  20441522.340   107420942.12309  20441525.760    83704657.75349
  24295917.580   127675913.01006  24295922.220    99487752.34045
 15 02 25 02 29  0.0000000  0  9G04G11G16G18G19G21G22G27G32
  22858113.500   120120206.52307  22858116.320    93600182.54746
  24503921.500   128768976.55205  24503923.700   100339467.18843
  21210755.620   111463276.19609  21210756.800    86854505.23848
  22285641.420   117111903.16708  22285642.360    91256067.88347
  21595026.840   113482652.11308  21595026.500    88428033.75948
  24335390.860   127883454.87905  24335392.100    99649503.35144
  20652593.220   108530189.76009  20652592.460    84569022.77949
  20437253.720   107398510.27909  20437257.100    83687178.39649
  24273307.480   127557096.22406  24273311.860    99395168.04444
 15 02 25 02 29 30.0000000  0  9G04G11G16G18G19G21G22G27G32
  22843291.080   120042314.24607  22843293.860    93539487.27945
  24486798.900   128678996.58105  24486800.920   100269352.95144
  21222531.840   111525160.89708  21222533.080    86902727.07248
  22296865.000   117170883.41508  22296865.920    91302026.50847
  21583646.640   113422848.56708  21583646.280    88381433.59948
  24348681.240   127953296.02906  24348682.400    99703924.97544
  20651828.320   108526170.48309  20651827.580    84565890.88349
  20433045.320   107376394.85909  20433048.660    83669945.59749
  24250709.780   127438345.02906  24250714.060    99302634.84044
 15 02 25 02 30  0.0000000  0  9G04G11G16G18G19G21G22G27G32
  22828507.400   119964625.81907  22828510.240    93478950.86146
  24469688.080   128589078.51305  24469690.020   100199286.96444
  21234399.060   111587523.64008  21234400.340    86951321.40848
  22308158.260   117230229.95708  22308159.160    91348270.56446
  21572302.960   113363237.16808  21572302.640    88334983.16148
  24361971.260   128023134.99805  24361972.320    99758344.94745
  20651164.520   108522682.49009  20651163.780    84563172.97149
  20428897.560   107354598.28809  20428900.920    83652961.25249
  24228125.180   127319663.00906  24228129.480    99210155.52245
 15 02 25 02 30 30.0000000  0  9G04G11G16G18G19G21G22G27G32
  22813762.380   119887140.74907  22813765.280    93418572.92646
  24452589.080   128499222.25405  24452590.900   100129269.14544
  21246356.760   111650361.90908  21246358.080    87000286.28248
  22319520.680   117289940.03508  22319521.540    91394797.89247
  21560996.040   113303818.84408  21560995.720    88288683.16648
  24375260.480   128092969.75306  24375261.460    99812761.59344
  20650601.660   108519724.90609  20650600.960    84560868.36049
  20424810.580   107333121.03909  20424813.940    83636225.73049
  24205554.080   127201052.08706  24205558.300    99117731.58545
 15 02 25 02 31  0.0000000  0  9G04G11G16G18G19G21G22G27G32
  22799056.240   119809860.04507  22799059.180    93358354.22246
  24435502.000   128409428.76705  24435503.700   100059300.23944
  21258404.780   111713674.71308  21258406.160    87049620.92748
  22330952.060   117350012.32608  22330952.900    91441607.45747
  21549726.280   113244595.69008  21549725.940    88242535.25448
  24388549.140   128162801.72605  24388550.120    99867176.10444
  20650139.800   108517297.82409  20650139.080    84558977.13349
  20420784.760   107311965.34109  20420788.160    83619740.76849
  24182997.180   127082515.57606  24183001.360    99025365.64245
 15 02 25 02 31 30.0000000  0  9G04G11G16G18G19G21G22G27G32
  22784389.100   119732783.99107  22784392.040    93298294.95746
  24418426.960   128319698.61305  24418428.520    99989380.67044
  21270542.620   111777459.43008  21270544.020    87099323.29348
  22342452.020   117410444.92108  22342452.840    91488697.78746
  21538493.860   113185568.84908  21538493.480    88196540.31948
  24401837.100   128232629.94606  24401837.980    99921587.67445
  20649778.940   108515401.33909  20649778.180    84557499.35749
  20416820.380   107291132.47009  20416823.820    83603507.35849
  24160454.940   126964056.22806  24160458.800    98933059.80845
 15 02 25 02 32  0.0000000  0  9G04G11G16G18G19G21G22G27G32
  22769761.080   119655913.27707  22769763.980    93238395.72646
  24401364.020   128230032.45805  24401365.420    99919510.96544
  21282769.960   111841714.20209  21282771.320    87149391.93248
  22354020.180   117471235.97308  22354021.020    91536067.43446
  21527299.040   113126739.82508  21527298.680    88150699.53148
  24415124.320   128302454.44805  24415125.080    99975996.34844
  20649519.060   108514035.34809  20649518.280    84556434.95049
  20412917.740   107270623.91209  20412921.180    83587526.65749
  24137927.880   126845676.70306  24137931.600    98840816.19744
 15 02 25 02 32 30.0000000  0  9G04G11G16G18G19G21G22G27G32
  22755172.260   119579248.28407  22755175.020    93178656.79746
  24384313.320   128140430.70305  24384314.760    99849691.46344
  21295086.440   111906437.38909  21295087.760    87199825.57248
  22365656.260   117532384.09408  22365657.120    91583715.30846
  21516142.220   113068110.66608  21516141.920    88105014.47648
  24428410.740   128372275.12805  24428411.620   100030402.07844
  20649360.100   108513199.72109  20649359.320    84555783.81649
  20409077.140   107250441.41409  20409080.600    83571800.03449
  24115416.540   126727380.03506  24115420.480    98748637.12845
 15 02 25 02 33  0.0000000  0  9G04G11G16G18G19G21G22G27G32
  22740622.280   119502787.46308  22740625.020    93119076.95945
  24367274.420   128050887.24306  24367276.520    99779919.26044
  21307491.260   111971624.92708  21307492.520    87250621.04448
  22377359.520   117593885.02508  22377360.340    91631638.11146
  21505023.120   113009679.72708  21505022.860    88059483.88048
  24441695.980   128442089.36405  24441696.760   100084802.70644
  20649301.640   108512892.12509  20649300.820    84555544.13349
  20405298.440   107230584.13809  20405301.920    83556326.83249
  24092921.140   126609166.73806  24092925.000    98656523.00645
 15 02 25 02 33 30.0000000  0  9G04G11G16G18G19G21G22G27G32
  22726111.300   119426531.48107  22726113.980    93059656.73946
  24350248.160   127961411.90006  24350249.740    99710196.23843
  21319984.120   112037275.24108  21319985.360    87301777.12548
  22389129.620   117655737.18908  22389130.420    91679834.59446
  21493942.300   112951449.71408  21493942.060    88014109.84948
  24454980.240   128511898.56605  24454980.920   100139199.46943
  20649343.600   108513112.43209  20649342.780    84555715.80549
  20401581.980   107211053.98009  20401585.460    83541108.52549
  24070442.220   126491039.88906  24070446.040    98564476.21544
 15 02 25 02 34  0.0000000  0  9G04G11G16G18G19G21G22G27G32
  22711640.080   119350484.71407  22711642.740    93000399.55346
  24333234.220   127872004.42705  24333236.220    99640528.11845
  21332565.400   112103390.20608  21332566.620    87353295.26948
  22400966.980   117717942.78608  22400967.780    91728306.48247
  21482900.660   112893425.44108  21482900.360    87968896.13448
  24468263.940   128581704.88405  24468264.640   100193593.99044
  20649486.680   108513864.03609  20649485.820    84556301.47549
  20397928.760   107191856.11909  20397932.240    83526149.15249
  24047981.040   126373005.99006  24047984.640    98472501.88045
 15 02 25 02 34 30.0000000  0  9G04G11G16G18G19G21G22G27G32
  22697207.720   119274642.42607  22697210.440    92941301.67546
  24316232.520   127782660.46305  24316234.800    99570909.45144
  21345233.560   112169961.91808  21345234.780    87405169.31848
  22412870.220   117780494.73408  22412871.040    91777048.25246
  21471897.540   112835603.46108  21471897.160    87923840.05548
  24481546.220   128651503.22905  24481546.660   100247982.25844
  20649729.940   108515142.21109  20649729.060    84557297.46349
  20394338.080   107172986.95009  20394341.560    83511445.90449
  24025537.140   126255062.80706  24025540.760    98380598.21345
 15 02 25 02 35  0.0000000  0  9G04G11G16G18G19G21G22G27G32
  22682814.920   119199007.88607  22682817.680    92882365.69446
  24299243.580   127693383.47205  24299246.000    99501343.00044
  21357988.960   112236992.09208  21357990.200    87457400.61248
  22424839.540   117843394.07508  22424840.420    91826060.71846
  21460933.720   112777988.03808  21460933.260    87878944.92848
  24494827.500   128721296.53205  24494827.860   100302366.64645
  20650073.780   108516949.07809  20650072.900    84558705.41649
  20390810.780   107154450.77709  20390814.240    83497002.13449
  24003111.500   126137215.89906  24003115.140    98288769.57045
 15 02 25 02 35 30.0000000  0  9G04G11G16G18G19G21G22G27G32
  22668461.600   119123580.90607  22668464.420    92823591.44546
  24282267.360   127604173.21005  24282269.740    99431828.53044
  21370831.200   112304478.72308  21370832.480    87509987.58548
  22436874.520   117906638.56808  22436875.480    91875342.13646
  21450009.380   112720580.19408  21450008.920    87834211.55248
  24508107.740   128791084.09405  24508108.040   100356746.53144
  20650518.020   108519283.85609  20650517.180    84560524.73049
  20387347.000   107136248.57109  20387350.480    83482818.59649
  23980704.520   126019467.50406  23980708.100    98197017.67346
 15 02 25 02 36  0.0000000  0  9G04G11G16G18G19G21G22G27G32
  22654147.500   119048360.18407  22654150.440    92764977.92146
  24265303.600   127515028.49905  24265306.020    99362365.13144
  21383759.420   112372417.15408  21383760.700    87562926.61248
  22448974.420   117970224.29808  22448975.420    91924889.45846
  21439124.460   112663379.68408  21439124.040    87789639.72848
  24521386.580   128860864.35505  24521386.960   100411120.68843
  20651062.280   108522144.23009  20651061.480    84562753.59849
  20383946.700   107118379.89509  20383950.180    83468894.94849
  23958316.520   125901818.63506  23958320.040    98105343.34844
 15 02 25 02 36 30.0000000  0  9G04G11G16G18G19G21G22G27G32
  22639873.040   118973347.61908  22639876.040    92706526.60346
  24248352.800   127425951.21705  24248355.140    99292954.28744
  21396773.520   112440806.78008  21396774.840    87616217.21748
  22461139.240   118034151.08208  22461140.300    91974702.53246
  21428279.540   112606389.21108  21428279.120    87745231.57348
  24534664.160   128930637.96705  24534664.640   100465489.72744
  20651706.860   108525531.88309  20651706.100    84565393.33049
  20380610.420   107100847.65709  20380613.900    83455233.46349
  23935948.240   125784273.45706  23935951.820    98013749.79744
 15 02 25 02 37  0.0000000  0  9G04G11G16G18G19G21G22G27G32
  22625638.360   118898543.87307  22625641.280    92648238.00946
  24231415.040   127336942.49106  24231417.280    99223596.87344
  21409873.180   112509645.86808  21409874.480    87669858.05548
  22473368.740   118098417.44108  22473369.780    92024780.20646
  21417475.040   112549611.04608  21417474.620    87700988.85848
  24547940.460   129000405.42305  24547941.100   100519853.90145
  20652451.720   108529446.59309  20652451.020    84568443.75749
  20377338.540   107083653.89109  20377342.020    83441835.71949
  23913600.420   125666835.38806  23913603.940    97922239.71844
 15 02 25 02 37 30.0000000  0  9G04G11G16G18G19G21G22G27G32
  22611443.360   118823948.60808  22611446.140    92590111.84846
  24214490.160   127248001.78506  24214492.340    99154292.42143
  21423057.840   112578931.40108  21423059.100    87723846.77448
  22485662.280   118163020.33008  22485663.300    92075120.10946
  21406711.020   112493045.66608  21406710.580    87656911.94648
  24561215.260   129070165.48605  24561216.100   100574212.34044
  20653296.600   108533886.75409  20653295.960    84571903.62749
  20374131.160   107066798.80809  20374134.580    83428701.88749
  23891273.320   125549505.82306  23891276.860    97830814.18544
 15 02 25 02 38  0.0000000  0  9G04G11G16G18G19G21G22G27G32
  22597287.960   118749561.56308  22597290.620    92532147.96246
  24197578.420   127159129.25106  24197580.260    99085041.12844
  21436327.040   112648661.26308  21436328.300    87778181.71648
  22498019.380   118227957.32908  22498020.440    92125720.36046
  21395987.720   112436694.14708  21395987.260    87613001.67448
  24574488.560   129139917.81605  24574489.580   100628564.74544
  20654241.300   108538851.29109  20654240.680    84575772.10049
  20370988.420   107050283.45909  20370991.800    83415832.78349
  23868967.400   125432287.29006  23868970.820    97739475.16144
 15 02 25 02 38 30.0000000  0  9G04G11G16G18G19G21G22G27G32
  22583172.420   118675384.23807  22583175.080    92474347.47446
  24180679.780   127070326.24306  24180681.420    99015843.98543
  21449680.540   112718834.08708  21449681.760    87832861.82548
  22510439.880   118293227.63608  22510441.000    92176580.32746
  21385305.500   112380558.67608  21385305.100    87569259.76248
  24587760.480   129209663.21405  24587761.620   100682911.77444
  20655286.020   108544341.25009  20655285.340    84580049.99649
  20367910.780   107034110.31509  20367914.140    83403230.32549
  23846683.400   125315183.58906  23846686.620    97648225.61345
 15 02 25 02 39  0.0000000  0  9G04G11G16G18G19G21G22G27G32
  22569096.740   118601416.55108  22569099.480    92416710.35846
  24163794.420   126981592.85206  24163795.920    98946701.13843
  21463117.760   112789447.00208  21463118.980    87887884.86048
  22522923.360   118358828.89708  22522924.520    92227698.18146
  21374664.600   112324640.44208  21374664.220    87525687.12748
  24601031.000   129279400.97905  24601032.280   100737252.83644
  20656430.580   108550355.68809  20656429.820    84584736.57149
  20364898.440   107018280.40909  20364901.820    83390895.32949
  23824421.700   125198197.12406  23824424.840    97557067.40745
 15 02 25 02 39 30.0000000  0  9G04G11G16G18G19G21G22G27G32
  22555060.820   118527657.35407  22555063.540    92359235.69046
  24146922.060   126892928.10106  24146923.500    98877611.72044
  21476637.960   112860496.23608  21476639.180    87943247.89048
  22535469.140   118424757.65508  22535470.440    92279071.22946
  21364065.040   112268939.63308  21364064.680    87482283.90648
  24614299.800   129349129.37505  24614301.160   100791586.61644
  20657674.500   108556892.29809  20657673.660    84589830.04049
  20361951.380   107002793.50409  20361954.760    83378827.60749
  23802182.480   125081328.93206  23802185.420    97466001.36945
 15 02 25 02 40  0.0000000  0  9G04G11G16G18G19G21G22G27G32
  22541065.100   118454109.38008  22541067.880    92301925.62346
  24130063.400   126804335.03706  24130064.820    98808578.20044
  21490241.380   112931982.55908  21490242.560    87998951.50448
  22548077.400   118491014.48808  22548078.720    92330699.91846
  21353507.560   112213459.93308  21353507.180    87439052.97648
  24627567.120   129418850.73904  24627568.840   100845914.94244
  20659018.100   108563952.83509  20659017.220    84595331.76349
  20359070.320   106987653.33909  20359073.700    83367030.07049
  23779966.700   124964584.06306  23779969.560    97375031.41145
 15 02 25 02 40 30.0000000  0  9G04G11G16G18G19G21G22G27G32
  22527109.140   118380770.26808  22527111.960    92244778.29046
  24113217.940   126715811.34805  24113219.400    98739598.72144
  21503927.040   113003901.04808  21503928.180    88054991.87348
  22560747.200   118557594.72808  22560748.540    92382580.61447
  21342992.080   112158200.76708  21342991.680    87395993.89148
  24640832.760   129488562.51805  24640834.640   100900235.75444
  20660460.860   108571534.56409  20660459.960    84601239.60549
  20356255.040   106972858.79609  20356258.420    83355501.85249
  23757774.400   124847962.84706  23757777.220    97284157.82445
 15 02 25 02 41  0.0000000  0  9G04G11G16G18G19G21G22G27G32
  22513193.220   118307641.63608  22513196.080    92187794.96946
  24096385.920   126627358.83006  24096387.400    98670674.65844
  21517694.620   113076249.98308  21517695.740    88111367.65248
  22573478.360   118624497.49708  22573479.760    92434712.63346
  21332518.940   112103163.95608  21332518.540    87353108.06848
  24654096.760   129558265.09105  24654098.820   100954549.44645
  20662002.840   108579637.80509  20662001.960    84607553.82749
  20353505.960   106958412.21709  20353509.360    83344244.77849
  23735606.320   124731468.96606  23735609.140    97193383.45345
 15 02 25 02 41 30.0000000  0  8G04G11G16G18G19G22G27G32
  22499317.600   118234724.66108  22499320.460    92130976.57146
  24079567.680   126538978.95806  24079569.300    98601807.23144
  21531543.980   113149028.94008  21531545.120    88168078.51348
  22586270.780   118691722.06208  22586272.200    92487095.40146
  21322088.680   112048352.60708  21322088.300    87310397.93348
  20663644.200   108588263.09409  20663643.320    84614274.83849
  20350823.600   106944316.18609  20350826.980    83333260.85449
  23713463.160   124615106.40006  23713466.120    97102711.39145
 15 02 25 02 42  0.0000000  0  9G04G11G16G18G19G21G22G27G32
  22485481.860   118162017.19608  22485484.700    92074321.41846
  24062762.800   126450669.51906  24062764.740    98532994.68545
  21545474.100   113222232.48208  21545475.340    88225120.22748
  22599123.500   118759263.60408  22599124.940    92539725.16846
  21311701.040   111993765.22408  21311700.640    87267862.32348
  24680620.500   129697537.21705  24680622.300   101063022.44745
  20665384.280   108597407.20009  20665383.380    84621400.11849
  20348207.660   106930569.34209  20348211.040    83322549.02549
  23691345.000   124498875.10206  23691348.040    97012141.60945
 15 02 25 02 42 30.0000000  0  9G04G11G16G18G19G21G22G27G32
  22471686.660   118089522.68408  22471689.420    92017832.20046
  24045972.200   126362434.29605  24045974.120    98464239.97945
  21559485.220   113295861.54108  21559486.540    88282493.50548
  22612036.800   118827123.20908  22612038.180    92592602.76846
  21301356.960   111939406.64308  21301356.480    87225504.98348
  24693879.500   129767213.70405  24693881.360   101117315.79845
  20667223.520   108607072.46909  20667222.640    84628931.49849
  20345659.020   106917176.13809  20345662.380    83312112.75449
  23669252.940   124382781.04506  23669256.040    96921678.76645
 15 02 25 02 43  0.0000000  0  9G04G11G16G18G19G21G22G27G32
  22457934.180   118017252.83507  22457936.920    91961518.06346
  24029198.020   126274285.23006  24029199.880    98395552.41044
  21573579.140   113369925.57208  21573580.480    88340205.73548
  22625012.500   118895310.45208  22625013.680    92645735.67746
  21291058.780   111885289.72008  21291058.380    87183335.95648
  24707139.280   129836893.82905  24707140.960   101171611.92242
  20669163.920   108617269.56309  20669163.060    84636877.28849
  20343180.140   106904149.44909  20343183.480    83301962.08549
  23647189.620   124266838.21006  23647192.860    96831333.76745
 15 02 25 02 43 30.0000000  0 10G04G11G14G16G18G19G21G22G27G32
  22444217.960   117945173.64907  22444220.660    91905352.49246
  24012433.740   126186188.24706  24012435.560    98326905.43445
  24673372.480   129659444.64805  24673375.780   101033352.32642
  21587748.840   113444387.52808  21587750.140    88398228.02648
  22638043.580   118963789.01108  22638044.660    92699095.58346
  21280800.380   111831381.68308  21280800.060    87141329.70148
  24720393.200   129906543.10505  24720394.500   101225884.04043
  20671198.900   108627963.61009  20671198.060    84645210.31349
  20340764.680   106891456.14709  20340768.040    83292071.19749
  23625148.940   124151015.11306  23625152.360    96741082.07145
 15 02 25 02 44  0.0000000  0 10G04G11G14G16G18G19G21G22G27G32
  22430542.640   117873309.72808  22430545.280    91849354.65246
  23995684.220   126098168.52906  23995685.960    98258318.67145
  24658716.100   129582423.28805  24658719.100   100973335.74544
  21601998.480   113519269.37608  21601999.680    88456577.50448
  22651134.260   119032581.17808  22651135.340    92752699.85846
  21270586.720   111777708.61308  21270586.420    87099506.54348
  24733645.880   129976185.69905  24733646.900   101280150.96044
  20673333.040   108639178.46309  20673332.160    84653949.16449
  20338417.540   106879122.05109  20338420.940    83282460.21249
  23603136.180   124035338.86806  23603139.800    96650944.80345
 15 02 25 02 44 30.0000000  0 10G04G11G14G16G18G19G21G22G27G32
  22416908.460   117801662.08308  22416911.040    91793525.35946
  23978949.620   126010227.15006  23978951.240    98189792.96345
  24644063.500   129505422.94505  24644066.420   100913335.55244
  21616327.800   113594569.92008  21616328.880    88515253.23848
  22664284.420   119101685.65908  22664285.480    92806547.50146
  21260418.140   111724272.24408  21260417.780    87057867.81548
  24746897.380   130045822.11305  24746898.160   101334413.05343
  20675566.140   108650913.48809  20675565.240    84663093.34349
  20336139.080   106867148.89609  20336142.520    83273130.47249
  23581152.060   123919812.71006  23581155.880    96560924.48345
 15 02 25 02 45  0.0000000  0 10G04G11G14G16G18G19G21G22G27G32
  22403314.920   117730227.94207  22403317.460    91737862.41746
  23962229.400   125922361.28606  23962230.940    98121326.06445
  24629414.880   129428443.67205  24629417.560   100853351.73444
  21630735.680   113670283.55908  21630736.700    88574250.86448
  22677493.020   119171097.12908  22677494.060    92860634.35146
  21250294.380   111671071.30508  21250293.960    87016412.53748
  24760147.020   130115449.18905  24760147.620   101388667.90541
  20677897.580   108663165.24309  20677896.660    84672640.16749
  20333929.000   106855535.04509  20333932.460    83264080.71549
  23559196.500   123804436.17806  23559200.360    96471020.74545
 15 02 25 02 45 30.0000000  0 10G04G11G14G16G18G19G21G22G27G32
  22389762.060   117659007.45008  22389764.640    91682365.97146
  23945523.500   125834571.52206  23945525.100    98052918.46845
  24614770.600   129351488.56005  24614773.460   100793386.79944
  21645221.660   113746407.83508  21645222.660    88633568.46948
  22690759.740   119240813.83708  22690760.760    92914959.05246
  21240215.640   111618107.30808  21240215.260    86975141.90248
  24773394.600   130185066.81104  24773395.340   101442915.34044
  20680327.240   108675932.96109  20680326.260    84682589.04349
  20331787.580   106844281.86209  20331791.060    83255311.99349
  23537270.140   123689212.21806  23537273.800    96381235.90345
 15 02 25 02 46  0.0000000  0 10G04G11G14G16G18G19G21G22G27G32
  22376249.980   117588001.10908  22376252.640    91627036.36846
  23928832.180   125746858.74006  23928833.940    97984570.87244
  24600131.460   129274560.31905  24600134.600   100733442.79944
  21659785.340   113822940.70508  21659786.400    88693204.46048
  22704084.140   119310833.79208  22704085.120    92969520.05246
  21230182.300   111565381.91608  21230181.980    86934057.18948
  24786640.320   130254674.83205  24786641.180   101497155.29343
  20682854.960   108689216.03009  20682853.940    84692939.49049
  20329715.080   106833390.68009  20329718.540    83246825.34949
  23515373.400   123574143.57606  23515376.840    96291572.07345
 15 02 25 02 46 30.0000000  0 10G04G11G14G16G18G19G21G22G27G32
  22362778.300   117517206.96308  22362781.040    91571872.13246
  23912155.200   125659220.97106  23912156.980    97916281.69545
  24585497.580   129197659.63305  24585500.600   100673520.22443
  21674425.680   113899876.42408  21674426.780    88753154.36348
  22717465.440   119381152.86708  22717466.360    93024314.13146
  21220194.160   111512894.12308  21220193.880    86893157.61448
  24799883.860   130324270.98005  24799885.140   101551386.00244
  20685480.080   108703011.03209  20685479.060    84703688.84849
  20327711.320   106822860.52709  20327714.740    83238620.03349
  23493506.260   123459230.54406  23493509.540    96202029.51245
 15 02 25 02 47  0.0000000  0 10G04G11G14G16G18G19G21G22G27G32
  22349347.060   117446625.66207  22349349.920    91516873.74246
  23895492.680   125571659.16606  23895494.520    97848051.74644
  24570869.740   129120790.17205  24570872.660   100613621.95544
  21689142.560   113977214.52608  21689143.760    88813417.80748
  22730903.340   119451769.38008  22730904.240    93079339.98046
  21210251.680   111460646.15908  21210251.400    86852444.91048
  24813125.280   130393855.73904  24813126.940   101605607.87444
  20688202.520   108717317.61109  20688201.540    84714836.83849
  20325776.580   106812693.26009  20325779.980    83230697.48049
  23471669.320   123344476.62006  23471672.560    96112610.94045
 15 02 25 02 47 30.0000000  0 10G04G11G14G16G18G19G21G22G27G32
  22335956.780   117376259.46007  22335959.700    91462042.96446
  23878845.040   125484175.74505  23878847.040    97779882.86944
  24556248.700   129043956.47205  24556251.640   100553751.61345
  21703935.840   114054953.95808  21703937.060    88873993.97548
  22744397.760   119522683.32708  22744398.680    93134597.59846
  21200355.480   111408641.32908  21200355.220    86811921.67748
  24826364.880   130463430.61204  24826366.900   101659822.01744
  20691022.540   108732137.21009  20691021.640    84726384.58449
  20323911.520   106802891.99909  20323914.900    83223060.13149
  23449863.520   123229886.12406  23449866.580    96023319.67345
 15 02 25 02 48  0.0000000  0 10G04G11G14G16G18G19G21G22G27G32
  22322606.780   117306105.07608  22322609.760    91407377.22846
  23862211.700   125396767.74106  23862213.700    97711772.74843
  24541634.620   128967158.12805  24541637.480   100493908.78844
  21718804.360   114133088.74708  21718805.640    88934878.21048
  22757947.680   119593889.00808  22757948.640    93190082.53346
  21190505.240   111356877.90308  21190504.980    86771586.54248
  24839602.220   130532992.42804  24839604.340   101714025.99145
  20693939.340   108747465.44209  20693938.520    84738328.66349
  20322115.680   106793454.63309  20322119.040    83215706.33649
  23428088.740   123115458.56206  23428091.640    95934155.38646
 15 02 25 02 48 30.0000000  0 10G04G11G14G16G18G19G21G22G27G32
  22309297.780   117236166.02907  22309300.700    91352879.28946
  23845593.400   125309438.90205  23845595.380    97643724.31944
  24527028.440   128890401.05104  24527031.180   100434098.11643
  21733748.260   114211619.54808  21733749.600    88996071.02948
  22771553.400   119665387.53308  22771554.400    93245795.66446
  21180701.820   111305360.42808  21180701.500    86731443.06149
  24852837.680   130602544.11005  24852839.760   101768222.03744
  20696953.320   108763304.51809  20696952.600    84750670.80249
  20320389.860   106784385.44309  20320393.240    83208639.43249
  23406346.020   123001199.52106  23406348.780    95845122.43345
 15 02 25 02 49  0.0000000  0 10G04G11G14G16G18G19G21G22G27G32
  22296029.440   117166440.31408  22296032.220    91298547.57946
  23828989.920   125222187.65406  23828991.980    97575736.35243
  24512430.320   128813686.30705  24512432.720   100374320.45843
  21748766.700   114290542.00608  21748768.080    89057569.04148
  22785214.140   119737174.75708  22785215.140    93301733.75646
  21170945.120   111254088.57108  21170944.760    86691490.96248
  24866070.840   130672083.55805  24866072.680   101822408.57744
  20700063.920   108779651.17109  20700063.260    84763408.45349
  20318733.940   106775683.71109  20318737.340    83201858.85449
  23384635.500   122887109.84206  23384638.220    95756221.41945
 15 02 25 02 49 30.0000000  0 10G04G11G14G16G18G19G21G22G27G32
  22282802.220   117096930.73208  22282804.820    91244384.29146
  23812401.840   125135016.81806  23812403.800    97507811.05844
  24497841.020   128737018.93905  24497843.280   100314579.67545
  21763859.540   114369855.36608  21763860.920    89119371.64248
  22798929.920   119809250.81608  22798930.820    93357896.91546
  21161235.840   111203065.99408  21161235.500    86651733.11748
  24879301.980   130741612.72005  24879303.740   101876587.08943
  20703271.460   108796507.06009  20703270.820    84776542.91249
  20317148.640   106767352.96709  20317152.040    83195367.36049
  23362958.060   122773194.36307  23362960.820    95667456.15346
 15 02 25 02 50  0.0000000  0 10G04G11G14G16G18G19G21G22G27G32
  22269615.800   117027635.27608  22269618.180    91190387.85446
  23795828.800   125047924.92106  23795830.720    97439947.29744
  24483260.840   128660399.95205  24483263.340   100254876.64644
  21779025.960   114449555.41708  21779027.320    89181475.57048
  22812699.820   119881611.91308  22812700.720    93414282.17846
  21151573.860   111152292.03608  21151573.520    86612168.99149
  24892530.880   130811129.79705  24892532.500   101930756.18944
  20706575.340   108813869.13709  20706574.700    84790071.80249
  20315633.760   106759392.38709  20315637.180    83189164.30549
  23341313.920   122659453.71606  23341316.680    95578827.10445
 15 02 25 02 50 30.0000000  0 10G04G11G14G16G18G19G21G22G27G32
  22256470.660   116958556.68908  22256472.860    91136560.41446
  23779271.300   124960914.54206  23779273.340    97372147.04544
  24468690.700   128583834.47105  24468693.340   100195215.25343
  21794266.000   114529642.32308  21794267.360    89243880.93748
  22826523.940   119954258.06208  22826524.840    93470889.55846
  21141959.920   111101770.44308  21141959.580    86572801.52448
  24905757.800   130880636.58805  24905759.380   101984917.30444
  20709975.820   108831738.71209  20709975.180    84803996.14849
  20314189.980   106751805.42709  20314193.400    83183252.38249
  23319704.040   122545892.98507  23319706.720    95490338.25845
 15 02 25 02 51  0.0000000  0 10G04G11G14G16G18G19G21G22G27G32
  22243366.260   116889692.45208  22243368.380    91082899.99746
  23762729.000   124873983.75705  23762730.980    97304408.79945
  24454130.820   128507322.96205  24454133.620   100135595.92244
  21809578.680   114610110.84208  21809580.040    89306583.66748
  22840401.440   120027184.78308  22840402.320    93527715.56246
  21132393.880   111051500.55608  21132393.520    86533630.18849
  24918982.240   130950130.47005  24918983.400   102039068.26944
  20713472.200   108850112.03709  20713471.480    84818313.02849
  20312817.040   106744590.79609  20312820.480    83177630.59049
  23298128.320   122432512.22407  23298131.040    95401989.65445
 15 02 25 02 51 30.0000000  0 10G04G11G14G16G18G19G21G22G27G32
  22230303.240   116821045.63708  22230305.300    91029408.98446
  23746202.560   124787136.06906  23746204.520    97236735.30545
  24439582.100   128430871.21405  24439585.120   100076023.15444
  21824964.080   114690961.41808  21824965.360    89369584.10347
  22854332.520   120100393.03908  22854333.360    93584760.95046
  21122876.560   111001486.70708  21122876.200    86494658.36349
  24932204.720   131019614.58005  24932205.660   102093211.69843
  20717064.860   108868991.19109  20717064.040    84833024.06149
  20311515.780   106737752.63409  20311519.220    83172302.14449
  23276587.880   122319317.00207  23276590.740    95313785.62845
 15 02 25 02 52  0.0000000  0 10G04G11G14G16G18G19G21G22G27G32
  22217281.160   116752614.40808  22217283.280    90976085.95746
  23729691.480   124700369.40806  23729693.440    97169124.97745
  24425045.080   128354479.93805  24425048.320   100016497.51244
  21840421.300   114772189.28708  21840422.500    89432878.52847
  22868316.340   120173878.43608  22868317.140    93642022.29246
  21113407.860   110951728.27608  21113407.500    86455885.56449
  24945424.840   131089086.77705  24945425.580   102147345.86344
  20720753.120   108888372.77309  20720752.200    84848126.59349
  20310286.000   106731289.95709  20310289.420    83167266.29249
  23255082.840   122206307.86406  23255085.820    95225726.56345
 15 02 25 02 52 30.0000000  0 10G04G11G14G16G18G19G21G22G27G32
  22204300.120   116684399.04008  22204302.340    90922931.13046
  23713196.060   124613684.85006  23713197.960    97101578.63045
  24410520.280   128278152.13505  24410523.680    99957021.30844
  21855949.780   114853791.74008  21855950.920    89496464.84348
  22882352.460   120247638.77108  22882353.260    93699497.87446
  21103988.060   110902226.77009  21103987.680    86417312.96849
  24958642.540   131158547.05504  24958643.520   102201470.72744
  20724536.800   108908255.98009  20724535.800    84863620.00349
  20309127.940   106725204.02509  20309131.320    83162524.00249
  23233613.720   122093487.50207  23233616.800    95137814.63645
 15 02 25 02 53  0.0000000  0 10G04G11G14G16G18G19G21G22G27G32
  22191360.200   116616399.72908  22191362.500    90869944.66746
  23696716.260   124527082.57206  23696718.060    97034096.36445
  24396008.320   128201890.63405  24396011.660    99897596.80244
  21871548.880   114935765.52208  21871550.000    89560340.50347
  22896440.520   120321671.94407  22896441.280    93757186.05146
  21094617.420   110852983.33809  21094616.980    86378941.46349
  24971857.780   131227994.58704  24971859.100   102255585.67944
  20728415.680   108928639.67109  20728414.660    84879503.40149
  20308041.780   106719495.81909  20308045.100    83158076.04549
  23212181.060   121980858.46807  23212184.180    95050051.79645
 15 02 25 02 53 30.0000000  0 10G04G11G14G16G18G19G21G22G27G32
  22178461.340   116548616.07508  22178463.700    90817126.24346
  23680252.140   124440562.78806  23680253.800    96966678.38144
  24381509.600   128125697.99906  24381512.700    99838225.95545
  21887218.240   115018108.68208  21887219.400    89624503.98848
  22910579.940   120395975.54707  22910580.840    93815084.96446
  21085296.140   110803999.73908  21085295.720    86340772.42849
  24985070.680   131297429.44205  24985072.300   102309690.71343
  20732389.480   108949522.49409  20732388.520    84895775.72849
  20307027.680   106714166.37409  20307030.980    83153923.22649
  23190785.300   121868423.21406  23190788.460    94962439.94245
 15 02 25 02 54  0.0000000  0 10G04G11G14G16G18G19G21G22G27G32
  22165603.860   116481049.69608  22165606.280    90764477.13346
  23663803.880   124354126.71406  23663805.500    96899325.65745
  24367024.800   128049578.43105  24367027.480    99778912.03645
  21902957.620   115100819.80108  21902958.880    89688954.20447
  22924770.660   120470548.49907  22924771.620    93873193.74646
  21076024.740   110755278.35508  21076024.340    86302807.71649
  24998281.420   131366852.34104  24998283.060   102363786.43844
  20736458.160   108970904.12708  20736457.320    84912436.74149
  20306086.000   106709217.74209  20306089.300    83150067.14449
  23169427.120   121756185.27007  23169430.280    94874981.83945
 15 02 25 02 54 30.0000000  0  9G04G11G14G16G18G19G22G27G32
  22152787.380   116413698.64908  22152789.840    90711995.80246
  23647371.360   124267773.70606  23647373.000    96832037.61044
  24352554.100   127973532.90505  24352556.440    99719655.85945
  21918766.120   115183894.11008  21918767.480    89753687.42048
  22939011.900   120545386.92608  22939012.920    93931509.39646
  21066803.200   110706818.81409  21066802.780    86265047.03749
  20740621.160   108992781.27909  20740620.460    84929483.87049
  20305216.660   106704649.28209  20305219.960    83146507.30349
  23148106.660   121644145.54707  23148109.780    94787678.19145
 15 02 25 02 55  0.0000000  0  9G04G11G14G16G18G19G22G27G32
  22140012.920   116346568.33008  22140015.380    90659686.48746
  23630955.660   124181509.10906  23630957.140    96764818.46644
  24338098.880   127897569.39905  24338100.920    99660463.51345
  21934644.180   115267333.62908  21934645.560    89818705.21747
  22953304.220   120620493.65607  22953305.300    93990034.11346
  21057632.720   110658627.81408  21057632.320    86227495.61049
  20744879.360   109015158.57009  20744878.800    84946920.72349
  20304420.840   106700467.20609  20304424.160    83143248.53349
  23126825.400   121532311.81507  23126828.360    94700535.05645
 15 02 25 02 55 30.0000000  0  9G04G11G14G16G18G19G22G27G32
  22127279.440   116279652.96808  22127281.800    90607544.66146
  23614555.740   124095327.38706  23614557.060    96697663.92244
  24323658.660   127821685.11105  24323660.660    99601332.97443
  21950590.260   115351130.34908  21950591.620    89884001.35148
  22967646.120   120695860.85207  22967647.260    94048761.79046
  21048512.540   110610701.03609  21048512.160    86190150.07749
  20749231.420   109038028.90009  20749230.900    84964741.75949
  20303697.620   106696666.85909  20303700.980    83140287.21749
  23105582.760   121420680.74707  23105585.580    94613549.85745
 15 02 25 02 56  0.0000000  0  9G04G11G14G16G18G19G22G27G32
  22114587.400   116212955.35608  22114589.640    90555572.51046
  23598172.260   124009231.79406  23598173.480    96630576.48245
  24309234.460   127745885.30205  24309236.540    99542268.21544
  21966604.260   115435284.14008  21966605.560    89949575.72047
  22982037.740   120771489.23807  22982038.880    94107692.99446
  21039443.400   110563042.55508  21039443.060    86153013.59849
  20753677.600   109061393.47009  20753677.040    84982947.92449
  20303047.760   106693251.97209  20303051.140    83137626.26649
  23084379.640   121309257.65407  23084382.400    94526726.68745
 15 02 25 02 56 30.0000000  0  9G04G11G14G16G18G19G22G27G32
  22101937.180   116146477.56008  22101939.320    90503771.64046
  23581805.600   123923224.78306  23581806.780    96563558.07144
  24294827.040   127670174.67405  24294829.280    99483272.96544
  21982686.020   115519794.41708  21982687.280    90015427.86547
  22996479.000   120847378.37507  22996480.060    94166827.38046
  21030425.980   110515655.72208  21030425.620    86116088.79149
  20758217.940   109085252.73509  20758217.260    85001539.55649
  20302471.820   106690225.46509  20302475.220    83135267.94149
  23063216.920   121198046.95507  23063219.620    94440069.01945
 15 02 25 02 57  0.0000000  0  9G04G11G14G16G18G19G22G27G32
  22089328.260   116080217.24608  22089330.420    90452140.23346
  23565455.340   123837304.14906  23565456.580    96496606.94444
  24280436.720   127594553.83905  24280438.820    99424347.65144
  21998834.520   115604655.64608  21998835.760    90081553.48047
  23010968.960   120923523.60007  23010969.980    94226161.30746
  21021460.100   110468539.65208  21021459.720    86079374.97549
  20762851.680   109109602.97709  20762850.900    85020513.77549
  20301969.520   106687585.83009  20301972.940    83133211.07449
  23042094.600   121087048.74007  23042097.280    94353576.93645
 15 02 25 02 57 30.0000000  0  9G04G11G14G16G18G19G22G27G32
  22076760.520   116014173.59208  22076762.720    90400677.64946
  23549121.400   123751469.38006  23549122.700    96429722.79244
  24266063.860   127519024.75905  24266065.860    99365493.86444
  22015049.080   115689864.05708  22015050.300    90147949.63447
  23025506.980   120999921.69407  23025508.020    94285692.27846
  21012545.780   110421694.60808  21012545.380    86042872.34549
  20767578.420   109134442.01609  20767577.520    85039868.87549
  20301540.860   106685333.17209  20301544.280    83131455.75649
  23021012.940   120976264.55707  23021015.740    94267251.63645
 15 02 25 02 58  0.0000000  0 10G01G04G11G14G16G18G19G22G27G32
  24542370.360   128971027.63104  24542376.760   100496928.86443
  22064234.740   115948350.64708  22064237.060    90349387.04546
  23532804.680   123665724.93406  23532805.940    96362908.97143
  24251709.780   127443594.46305  24251711.860    99306717.03944
  22031329.920   115775420.82208  22031331.160    90214617.22947
  23040093.540   121076574.58407  23040094.620    94345421.79046
  21003684.140   110375126.38008  21003683.740    86006585.41949
  20772398.720   109159772.82409  20772397.740    85059607.16749
  20301186.820   106683472.72109  20301190.240    83130006.04849
  22999973.300   120865701.21707  22999976.220    94181098.42345
 15 02 25 02 58 30.0000000  0 10G01G04G11G14G16G18G19G22G27G32
  24527127.420   128890925.19604  24527133.840   100434511.35643
  22051750.200   115882744.13608  22051752.580    90298265.09646
  23516504.460   123580066.82606  23516505.740    96296162.44245
  24237374.060   127368261.18305  24237376.240    99248015.81645
  22047675.880   115861319.37208  22047677.180    90281551.15647
  23054727.280   121153475.63007  23054728.380    94405344.67946
  20994874.580   110328831.74308  20994874.180    85970511.67849
  20777311.420   109185589.33109  20777310.440    85079723.93049
  20300906.700   106682000.84109  20300910.160    83128859.12449
  22978975.340   120755356.58407  22978978.340    94095115.61946
 15 02 25 02 59  0.0000000  0 10G01G04G11G14G16G18G19G22G27G32
  24511905.380   128810932.91804  24511911.740   100372179.76644
  22039307.300   115817356.28608  22039309.700    90247313.54446
  23500221.200   123494497.84606  23500222.500    96229485.36044
  24223057.960   127293030.05606  24223060.240    99189394.16544
  22064086.820   115947559.00508  22064088.120    90348750.85947
  23069408.300   121230624.85307  23069409.420    94465460.94946
  20986117.800   110282814.62008  20986117.440    85934654.17949
  20782316.740   109211892.46509  20782315.780    85100219.87449
  20300701.180   106680920.87609  20300704.680    83128017.58749
  22958019.980   120645235.67407  22958023.100    94009307.14445
 15 02 25 02 59 30.0000000  0 10G01G04G11G14G16G18G19G22G27G32
  24496704.060   128731049.60804  24496710.580   100309933.05544
  22026905.840   115752186.12708  22026908.200    90196531.61847
  23483954.760   123409017.14006  23483956.160    96162877.05245
  24208761.660   127217902.61906  24208763.980    99130853.33344
  22080561.820   116034135.38808  22080563.140    90416212.96447
  23084135.980   121308019.10307  23084137.100    94525768.13846
  20977413.900   110237075.25108  20977413.500    85899013.11849
  20787414.200   109238679.66209  20787413.260    85121093.01749
  20300570.200   106680232.65309  20300573.700    83127481.29949
  22937107.520   120535339.72107  22937110.640    93923673.96246
 15 02 25 03 00  0.0000000  0 10G01G04G11G14G16G18G19G22G27G32
  24481523.660   128651275.99404  24481530.440   100247771.79743
  22014545.980   115687234.49508  22014548.280    90145919.97546
  23467705.380   123323626.07706  23467706.840    96096338.59044
  24194485.920   127142882.70406  24194488.320    99072396.28444
  22097100.560   116121046.88008  22097101.920    90483936.19247
  23098910.000   121385656.81307  23098911.140    94586265.05046
  20968763.300   110191615.94108  20968762.860    85863590.28349
  20792603.700   109265950.51309  20792602.760    85142343.03149
  20300514.060   106679937.89509  20300517.600    83127251.61649
  22916238.520   120425672.05707  22916241.660    93838218.66946
 15 02 25 03 00 30.0000000  0 10G01G04G11G14G16G18G19G22G27G32
  24466364.380   128571613.21304  24466371.060   100185696.94944
  22002227.860   115622502.46108  22002230.160    90095479.44447
  23451473.360   123238326.31806  23451474.960    96029871.28445
  24180231.520   127067974.28606  24180233.900    99014026.10444
  22113702.680   116208291.58308  22113704.080    90551919.07047
  23113730.080   121463536.71207  23113731.240    94646950.67646
  20960166.400   110146439.19508  20960166.000    85828387.63049
  20797885.160   109293704.67809  20797884.220    85163969.65549
  20300533.220   106680038.73209  20300536.800    83127330.17749
  22895413.760   120316236.38807  22895416.780    93752944.15246
 15 02 25 03 01  0.0000000  0 10G01G04G11G14G16G18G19G22G27G32
  24451226.060   128492061.04104  24451232.340   100123708.22343
  21989951.500   115557990.08308  21989953.820    90045210.06446
  23435258.780   123153118.05906  23435260.500    95963475.27145
  24165998.800   126993179.80806  24166001.120    98955744.70744
  22130367.680   116295866.80508  22130369.080    90620159.49447
  23128595.760   121541656.49307  23128596.940    94707823.21046
  20951623.500   110101546.07308  20951623.140    85793405.98549
  20803258.180   109321940.16009  20803257.260    85185971.33149
  20300627.820   106680535.77109  20300631.340    83127717.47749
  22874633.540   120207034.84107  22874636.380    93667852.08845
 15 02 25 03 01 30.0000000  0 10G01G04G11G14G16G18G19G22G27G32
  24436108.720   128412619.70304  24436114.740   100061805.93143
  21977716.880   115493697.32708  21977719.300    89995111.82547
  23419061.740   123068001.80006  23419063.400    95897150.94745
  24151788.280   126918502.48806  24151790.600    98897554.60445
  22147095.000   116383769.44108  22147096.340    90688655.03647
  23143506.760   121620014.17207  23143507.900    94768881.13945
  20943134.940   110056938.52008  20943134.600    85758646.86349
  20808722.560   109350655.95509  20808721.700    85208347.27549
  20300798.060   106681430.15509  20300801.500    83128414.39949
  22853898.360   120098070.08807  22853901.040    93582944.51346
 15 02 25 03 02  0.0000000  0 10G01G04G11G14G16G18G19G22G27G32
  24421012.620   128333289.54304  24421018.600    99999990.26343
  21965524.120   115429624.66408  21965526.700    89945185.07247
  23402882.260   122982978.19306  23402883.960    95830898.80245
  24137600.520   126843945.41605  24137602.980    98839458.22745
  22163884.200   116471997.20108  22163885.440    90757403.92547
  23158462.680   121698607.74107  23158463.700    94830122.87146
  20934701.080   110012618.41608  20934700.740    85724111.71949
  20814278.100   109379850.75309  20814277.320    85231096.47149
  20301044.140   106682723.23009  20301047.540    83129421.98049
  22833208.740   119989345.06507  22833211.260    93498223.74345
 15 02 25 03 02 30.0000000  0 10G01G04G11G14G16G18G19G22G27G32
  24405937.540   128254069.62904  24405943.120    99938260.50841
  21953373.120   115365771.35308  21953375.840    89895429.24047
  23386720.360   122898047.21106  23386722.120    95764718.82845
  24123436.060   126769510.64205  24123438.460    98781457.12845
  22180734.500   116560545.85408  22180735.640    90826402.85647
  23173462.960   121777434.36407  23173463.940    94891546.19946
  20926321.960   109968585.93008  20926321.640    85689800.69349
  20819924.320   109409522.14709  20819923.600    85254217.03349
  20301366.080   106684414.99109  20301369.480    83130740.22949
  22812564.900   119880861.33907  22812567.380    93413691.00346
 15 02 25 03 03  0.0000000  0 10G01G04G11G14G16G18G19G22G27G32
  24390883.680   128174961.02404  24390888.740    99876617.46245
  21941264.080   115302138.34908  21941266.920    89845845.08147
  23370576.320   122813210.01306  23370578.080    95698611.96345
  24109295.480   126695201.90005  24109298.000    98723554.23043
  22197645.680   116649414.35308  22197646.780    90895651.02047
  23188507.340   121856492.57807  23188508.240    94953149.99746
  20917998.060   109924843.57408  20917997.780    85655715.74549
  20825661.180   109439669.63709  20825660.480    85277708.58549
  20301764.240   106686507.30209  20301767.660    83132370.59949
  22791967.580   119772622.39607  22791970.100    93329348.99246
 15 02 25 03 03 30.0000000  0 10G01G04G11G14G16G18G19G22G27G32
  24375850.900   128095963.28204  24375856.060    99815060.83144
  21929196.940   115238725.29008  21929199.880    89796432.30547
  23354450.160   122728466.77006  23354451.940    95632578.29245
  24095179.440   126621021.92706  24095181.960    98665751.68644
  22214617.000   116738599.07908  22214618.120    90965145.59747
  23203595.320   121935779.99907  23203596.100    95014932.38446
  20909729.580   109881392.52408  20909729.320    85621857.78749
  20831488.320   109470291.42509  20831487.600    85301569.72149
  20302238.720   106689000.64809  20302242.160    83134313.46049
  22771417.200   119664630.29807  22771419.760    93245199.34446
 15 02 25 03 04  0.0000000  0 10G01G04G11G14G16G18G19G22G27G32
  24360839.400   128017077.31404  24360844.600    99753591.27045
  21917171.960   115175533.39408  21917174.900    89747191.88147
  23338342.160   122643818.91306  23338343.900    95566618.93345
  24081088.540   126546974.21006  24081091.040    98608052.18945
  22231648.040   116828097.99808  22231649.240    91034885.00447
  23218726.580   122015295.21507  23218727.340    95076892.28846
  20901517.080   109838235.47408  20901516.800    85588228.92549
  20837405.640   109501386.95409  20837404.880    85325800.00649
  20302789.940   106691897.01109  20302793.360    83136570.36249
  22750914.520   119556888.60007  22750917.080    93161244.81646
 15 02 25 03 04 30.0000000  0 10G01G04G11G14G16G18G19G22G27G32
  24345849.140   127938302.97404  24345854.740    99692208.69444
  21905189.040   115112562.28808  21905191.860    89698123.50147
  23322252.340   122559266.62006  23322254.060    95500734.04445
  24067023.220   126473061.46606  24067025.740    98550457.85644
  22248738.180   116917907.77808  22248739.560    91104866.63747
  23233900.680   122095035.98007  23233901.460    95139027.93945
  20893360.740   109795373.31608  20893360.420    85554829.84349
  20843412.760   109532954.32009  20843411.960    85350397.94949
  20303417.900   106695197.01509  20303421.380    83139141.78849
  22730459.940   119449399.46607  22730462.500    93077487.07946
 15 02 25 03 05  0.0000000  0 10G01G04G11G14G16G18G19G22G27G32
  24330880.040   127859639.86505  24330886.040    99630912.81844
  21893248.120   115049811.64108  21893250.760    89649226.91447
  23306180.740   122474809.82006  23306182.400    95434923.58645
  24052984.000   126399286.28605  24052986.720    98492970.73945
  22265887.060   117008026.10808  22265888.540    91175088.72147
  23249117.120   122174999.47607  23249118.000    95201337.15145
  20885260.720   109752807.11308  20885260.380    85521661.37649
  20849509.340   109564991.77509  20849508.500    85375362.20849
  20304122.720   106698901.07709  20304126.240    83142028.06849
  22710053.820   119342164.96307  22710056.420    92993927.75046
 15 02 25 03 05 30.0000000  0 10G01G04G11G14G16G18G19G22G27G32
  24315932.180   127781088.21404  24315938.120    99569703.76144
  21881349.280   114987281.89008  21881351.700    89600502.43547
  23290127.540   122390449.75307  23290129.060    95369188.50145
  24038971.600   126325651.88606  24038974.520    98435593.30944
  22283094.180   117098450.01608  22283095.640    91245548.89447
  23264375.640   122255184.13707  23264376.600    95263818.68846
  20877217.360   109710538.75608  20877216.960    85488724.99149
  20855695.080   109597497.81409  20855694.180    85400691.59349
  20304904.700   106703010.46709  20304908.220    83145230.18649
  22689696.760   119235188.08507  22689699.420    92910569.16046
 15 02 25 03 06  0.0000000  0 10G01G04G11G14G16G18G19G22G27G32
  24301005.420   127702647.19304  24301011.320    99508580.88744
  21869492.220   114924971.96508  21869494.460    89551949.26147
  23274092.640   122306185.65907  23274094.040    95303528.19744
  24024986.500   126252160.13306  24024989.380    98378327.00845
  22300358.780   117189175.63108  22300360.120    91316244.16047
  23279675.640   122335586.40507  23279676.600    95326469.79645
  20869230.780   109668569.06508  20869230.380    85456021.33949
  20861969.520   109630470.09809  20861968.600    85426384.28249
  20305763.780   106707525.13709  20305767.340    83148748.11049
  22669388.980   119128470.19107  22669391.700    92827412.38846
 15 02 25 03 06 30.0000000  0 10G01G04G11G14G16G18G19G22G27G32
  24286099.680   127624317.20605  24286105.640    99447544.58844
  21857677.100   114862882.67808  21857679.240    89503568.01447
  23258076.240   122222018.68807  23258077.460    95237943.56445
  24011029.300   126178814.50206  24011032.100    98321174.58144
  22317680.200   117280199.92408  22317681.480    91387172.16647
  23295016.920   122416205.03407  23295017.780    95389289.51345
  20861301.300   109626899.65808  20861300.940    85423551.67549
  20868332.480   109663907.75209  20868331.560    85452439.60149
  20306700.240   106712446.27509  20306703.780    83152582.75549
  22649131.060   119022014.24707  22649133.900    92744459.73846
 15 02 25 03 07  0.0000000  0 10G01G04G11G14G16G18G19G22G27G32
  24271214.880   127546097.85504  24271220.940    99386594.47645
  21845903.780   114801013.54808  21845905.900    89455358.31947
  23242078.360   122137949.07507  23242079.380    95172434.81445
  23997100.560   126105617.24206  23997103.080    98264137.79745
  22335057.960   117371520.40908  22335059.220    91458330.96547
  23310398.940   122497037.43007  23310399.720    95452275.77645
  20853429.200   109585531.67808  20853428.860    85391316.89149
  20874783.540   109697808.47209  20874782.660    85478855.74649
  20307714.180   106717774.53209  20307717.720    83156734.64449
  22628923.480   118915822.43507  22628926.320    92661712.88746
 15 02 25 03 07 30.0000000  0 10G01G04G11G14G16G18G19G22G27G32
  24256351.400   127467990.55804  24256357.580    99325731.62044
  21834172.580   114739366.07308  21834174.780    89407321.33747
  23226099.300   122053978.47207  23226100.320    95107003.22045
  23983201.000   126032572.68306  23983203.260    98207219.97745
  22352491.700   117463135.39908  22352493.020    91529719.25947
  23325821.380   122578082.52607  23325822.120    95515427.79845
  20845615.000   109544467.90608  20845614.660    85359319.15249
  20881322.620   109732171.92109  20881321.800    85505632.46449
  20308805.980   106723512.04809  20308809.540    83161205.43549
  22608766.880   118809898.50307  22608769.680    92579174.78746
 15 02 25 03 08  0.0000000  0 10G01G04G11G14G16G18G19G22G27G32
  24241509.480   127389996.60604  24241515.820    99264957.17444
  21822483.820   114677941.50508  21822486.080    89359458.04047
  23210139.400   121970108.74907  23210140.460    95041650.21444
  23969331.260   125959685.05706  23969333.340    98150424.48445
  22369981.140   117555043.38908  22369982.640    91601335.86347
  23341284.100   122659339.70807  23341284.920    95578745.06845
  20837859.340   109503711.48208  20837858.920    85327560.90049
  20887949.740   109766998.03208  20887948.980    85532769.69549
  20309976.080   106729661.00909  20309979.660    83165996.83049
  22588661.940   118704246.34607  22588664.740    92496848.43146
 15 02 25 03 08 30.0000000  0 10G01G04G11G14G16G18G19G22G27G32
  24226688.980   127312114.29304  24226695.160    99204269.67944
  21810837.180   114616738.40608  21810839.540    89311767.31647
  23194198.480   121886338.65207  23194199.600    94976374.85045
  23955491.480   125886955.64706  23955493.520    98093752.21544
  22387525.420   117647239.53108  22387527.060    91673177.01047
  23356786.300   122740804.78107  23356787.220    95642224.33645
  20830162.060   109463262.05308  20830161.640    85296041.86949
  20894664.300   109802283.51108  20894663.580    85560264.88049
  20311224.340   106736220.47109  20311227.900    83171108.09649
  22568608.720   118598866.59207  22568611.560    92414734.35746
 15 02 25 03 09  0.0000000  0 10G01G04G11G14G16G18G19G22G27G32
  24211889.920   127234344.83404  24211895.880    99143670.15244
  21799232.920   114555757.91108  21799235.360    89264250.05547
  23178276.900   121802670.30807  23178278.080    94911178.75644
  23941682.380   125814388.62106  23941684.620    98037206.48444
  22405124.340   117739722.41708  22405125.980    91745241.59347
  23372327.900   122822476.84007  23372328.860    95705864.88546
  20822523.700   109423122.27108  20822523.280    85264764.12149
  20901466.140   109838027.80508  20901465.480    85588117.58349
  20312551.120   106743192.58109  20312554.640    83176540.91049
  22548608.060   118493763.06607  22548610.920    92332835.52046
 15 02 25 03 09 30.0000000  0 10G01G04G11G14G16G18G19G22G27G32
  24197112.340   127156688.63104  24197118.140    99083158.89345
  21787671.180   114495000.52808  21787673.640    89216906.64147
  23162374.740   121719104.50206  23162376.100    94846062.57145
  23927904.560   125741986.85406  23927907.140    97980789.54645
  22422777.400   117832489.45808  22422778.940    91817527.58047
  23387908.720   122904354.40207  23387909.600    95769665.58245
  20814944.560   109383293.87608  20814944.200    85233729.01649
  20908355.100   109874229.72608  20908354.480    85616326.87249
  20313956.620   106750578.51809  20313960.140    83182296.18749
  22528660.560   118388938.58507  22528663.380    92251154.13146
 15 02 25 03 10  0.0000000  0 10G01G04G11G14G16G18G19G22G27G32
  24182355.980   127079143.68604  24182361.680    99022734.28245
  21776151.540   114434464.21908  21776154.000    89169735.50447
  23146491.820   121635639.45206  23146493.240    94781024.87845
  23914158.200   125669751.53405  23914161.220    97924502.29944
  22440483.500   117925535.28208  22440484.940    91890030.79947
  23403527.800   122986433.16307  23403528.640    95833623.04345
  20807424.620   109343776.37008  20807424.260    85202936.15249
  20915330.480   109910885.42708  20915329.840    85644889.75449
  20315440.620   106758377.05909  20315444.180    83188372.97249
  22508766.360   118284393.59507  22508769.120    92169690.52846
 15 02 25 03 10 30.0000000  0 10G01G04G11G14G16G18G19G22G27G32
  24167621.100   127001711.52105  24167626.820    98962397.56644
  21764674.340   114374150.80308  21764676.760    89122738.04747
  23130628.540   121552277.70206  23130630.040    94716067.68944
  23900444.380   125597687.07805  23900447.660    97868348.18845
  22458242.640   118018859.81108  22458243.920    91962751.19347
  23419185.080   123068712.76707  23419186.000    95897737.00945
  20799964.500   109304573.06709  20799964.140    85172388.12849
  20922392.280   109947995.13209  20922391.580    85673806.41149
  20317003.620   106766590.67109  20317007.200    83194773.19049
  22488926.220   118180132.10708  22488928.840    92088447.83446
 15 02 25 03 11  0.0000000  0 10G01G04G11G14G16G18G19G22G27G32
  24152907.440   126924391.22605  24152913.260    98902148.03244
  21753239.320   114314059.15208  21753241.660    89075913.40247
  23114784.780   121469018.58406  23114786.360    94651190.47845
  23886763.620   125525795.44906  23886766.940    97812328.77245
  22476053.820   118112458.19408  22476055.020    92035684.97747
  23434879.820   123151189.76607  23434880.920    95962004.78045
  20792564.320   109265684.54808  20792563.960    85142085.39049
  20929539.920   109985555.90808  20929539.200    85703074.55249
  20318645.520   106775219.01409  20318649.120    83201496.57249
  22469140.360   118076155.61308  22469142.760    92007427.20146
 15 02 25 03 11 30.0000000  0 10G01G04G11G14G16G18G19G22G27G32
  24138214.900   126847182.31304  24138220.940    98841985.26343
  21741846.440   114254189.02408  21741848.740    89029261.37147
  23098960.580   121385862.14007  23098962.200    94586393.24545
  23873116.400   125454078.84806  23873119.580    97756445.72445
  22493916.300   118206326.98008  22493917.640    92108829.47347
  23450611.660   123233861.64507  23450613.040    96026424.42446
  20785224.180   109227111.75208  20785223.860    85112028.66849
  20936772.960   110023565.68508  20936772.260    85732692.56049
  20320366.440   106784262.55709  20320370.040    83208543.49049
  22449409.080   117972466.12808  22449411.320    91926630.22646
 15 02 25 03 12  0.0000000  0 10G01G04G11G14G16G18G19G22G27G32
  24123543.700   126770085.17804  24123549.880    98781909.62145
  21730495.800   114194540.96608  21730498.060    88982782.37747
  23083156.160   121302809.52607  23083157.800    94521676.94345
  23859503.400   125382540.82606  23859506.160    97700701.83145
  22511829.860   118300464.20108  22511831.380    92182183.14047
  23466380.320   123316726.75707  23466381.880    96090994.63545
  20777944.420   109188856.62308  20777944.160    85082219.48549
  20944091.140   110062023.18208  20944090.520    85762659.44149
  20322166.600   106793722.40609  20322170.160    83215914.79549
  22429732.880   117869066.48408  22429735.040    91846059.10446
 15 02 25 03 12 30.0000000  0 10G01G04G11G14G16G18G19G22G27G32
  24108893.700   126693098.89305  24108899.800    98721920.34045
  21719187.200   114135113.96708  21719189.480    88936475.63347
  23067371.500   121219860.61007  23067373.080    94457041.43645
  23845924.900   125311183.67106  23845927.240    97645098.89144
  22529793.840   118394865.75208  22529795.500    92255742.78047
  23482185.260   123399782.12207  23482186.900    96155713.07746
  20770725.140   109150919.53208  20770724.940    85052658.11749
  20951493.960   110100925.55008  20951493.420    85792972.97149
  20324045.980   106803598.46509  20324049.480    83223610.41949
  22410112.040   117765958.29707  22410114.240    91765715.08346
 15 02 25 03 13  0.0000000  0 10G01G04G11G14G16G18G19G22G27G32
  24094265.320   126616225.72705  24094271.260    98662019.19145
  21707921.080   114075910.38508  21707923.380    88890342.99447
  23051607.200   121137018.19407  23051608.580    94392488.92545
  23832381.680   125240012.29806  23832383.840    97589640.70744
  22547808.180   118489530.98308  22547809.820    92329507.88147
  23498026.440   123483027.97207  23498028.100    96220579.95645
  20763567.120   109113303.91208  20763566.900    85023347.24249
  20958981.660   110140273.84208  20958981.180    85823633.98249
  20326005.120   106813893.66009  20326008.560    83231632.64349
  22390547.320   117663146.06607  22390549.680    91685601.67746
 15 02 25 03 13 30.0000000  0 10G01G04G11G14G16G18G19G22G27G32
  24079658.600   126539465.82905  24079664.220    98602206.31044
  21696697.540   114016930.61508  21696699.860    88844384.74647
  23035863.260   121054282.80007  23035864.460    94328019.79545
  23818874.260   125169029.67006  23818876.360    97534329.60745
  22565872.220   118584457.11908  22565873.760    92403476.28847
  23513903.440   123566462.06707  23513905.060    96285593.53345
  20756470.780   109076012.16709  20756470.500    84994288.74649
  20966553.920   110180066.21109  20966553.420    85854641.01849
  20328044.220   106824609.02709  20328047.640    83239982.27449
  22371039.360   117560632.51908  22371041.940    91605721.00946
 15 02 25 03 14  0.0000000  0 10G01G04G11G14G16G18G19G22G27G32
  24065073.680   126462820.48505  24065079.180    98542482.70444
  21685516.820   113958175.91408  21685519.180    88798601.87247
  23020139.960   120971656.00407  23020141.160    94263635.30545
  23805403.360   125098239.71006  23805405.540    97479168.62846
  22583985.640   118679642.78308  22583987.080    92477646.91947
  23529816.120   123650083.62907  23529817.760    96350753.16944
  20749436.640   109039047.16009  20749436.260    84965484.84449
  20974210.620   110220302.17109  20974210.040    85885993.71648
  20330163.640   106835746.44709  20330167.060    83248660.77849
  22351589.020   117458421.28508  22351591.740    91526075.91546
 15 02 25 03 14 30.0000000  0 10G01G04G11G14G16G18G19G22G27G32
  24050509.940   126386287.00005  24050515.320    98482846.22444
  21674378.440   113899643.58908  21674380.800    88752992.28747
  23004436.980   120889136.23207  23004438.180    94199334.20045
  23791969.120   125027642.98806  23791971.560    97424158.21745
  22602147.200   118775082.27708  22602148.640    92552015.33647
  23545763.520   123733887.75206  23545765.100    96416055.06545
  20742464.360   109002407.41808  20742463.920    84936934.39649
  20981950.940   110260977.40609  20981950.220    85917688.70748
  20332363.000   106847304.12509  20332366.440    83257666.75749
  22332196.300   117356512.18508  22332199.080    91446666.24247
 15 02 25 03 15  0.0000000  0 10G01G04G11G14G16G18G19G22G27G32
  24035967.680   126309866.61605  24035972.920    98423297.88944
  21663282.620   113841334.90608  21663285.000    88707556.96647
  22988754.660   120806725.20207  22988755.840    94135117.83845
  23778572.280   124957243.37706  23778575.060    97369301.39245
  22620356.480   118870773.43308  22620358.020    92626579.85846
  23561745.560   123817873.74807  23561747.100    96481498.68845
  20735554.400   108966095.53608  20735554.000    84908639.43349
  20989774.660   110302090.97509  20989773.800    85949725.25849
  20334642.700   106859283.81609  20334646.120    83267001.57849
  22312861.840   117254908.78808  22312864.580    91367494.79346
 15 02 25 03 15 30.0000000  0 10G01G04G11G14G16G18G19G22G27G32
  24021446.820   126233559.15805  24021451.980    98363837.55543
  21652229.440   113783249.96908  21652231.800    88662296.01147
  22973093.140   120724423.32507  22973094.280    94070986.54045
  23765213.520   124887043.84106  23765216.620    97314600.47445
  22638613.020   118966713.60207  22638614.700    92701338.42547
  23577761.780   123902039.36506  23577763.280    96547082.29045
  20728707.060   108930112.79708  20728706.740    84880600.93949
  20997681.520   110343641.48409  20997680.540    85982102.28248
  20337002.780   106871686.19709  20337006.240    83276665.77049
  22293586.040   117153613.36108  22293588.720    91288563.32847
 15 02 25 03 16  0.0000000  0 10G01G04G11G14G16G18G19G22G27G32
  24006947.460   126157359.18805  24006951.580    98304451.31845
  21641218.360   113725386.25808  21641220.660    88617207.41747
  22957452.080   120642228.83707  22957453.160    94006938.90845
  23751893.000   124817044.81906  23751896.260    97260055.80045
  22656915.960   119062897.16508  22656917.740    92776286.63847
  23593811.300   123986379.89406  23593812.720    96612802.17845
  20721922.220   108894458.48208  20721921.940    84852818.36149
  21005670.620   110385624.55109  21005669.620    86014816.36048
  20339442.980   106884509.54209  20339446.460    83286657.98349
  22274368.820   117052625.89408  22274371.460    91209871.82647
 15 02 25 03 16 30.0000000  0 10G01G04G11G14G16G18G19G22G27G32
  23992469.360   126081278.35305  23992474.120    98245167.54145
  21630250.480   113667749.42108  21630252.640    88572295.59647
  22941832.640   120560148.00207  22941833.640    93942979.83445
  23738612.400   124747254.71106  23738615.560    97205673.92845
  22675266.100   119159327.56708  22675267.820    92851427.20347
  23609894.720   124070899.14106  23609896.160    96678661.30345
  20715201.300   108859139.77308  20715201.000    84825297.28849
  21013742.720   110428044.00408  21013741.760    86047870.48648
  20341964.480   106897760.19309  20341968.000    83296983.15749
  22255211.660   116951954.49308  22255214.320    91131426.59547
 15 02 25 03 17  0.0000000  0 10G01G04G11G14G16G18G19G22G27G32
  23978012.340   126005307.95805  23978018.880    98185976.87544
  21619324.740   113610334.17208  21619326.840    88527556.46447
  22926233.860   120478175.89207  22926234.820    93879105.47845
  23725371.120   124677670.71106  23725374.040    97151452.64145
  22693661.580   119255995.56108  22693663.180    92926752.89247
  23626010.580   124155589.06206  23626012.060    96744653.44345
  20708543.480   108824152.51909  20708543.140    84798034.50349
  21021896.400   110470892.36308  21021895.540    86081258.81548
  20344566.340   106911433.07809  20344569.860    83307637.35449
  22236113.960   116851595.78408  22236116.680    91053225.01947
 15 02 25 03 17 30.0000000  0  9G04G11G14G16G18G19G22G27G32
  21608441.660   113553143.36408  21608443.760    88482992.20847
  22910656.460   120396316.15507  22910657.440    93815318.68345
  23712170.180   124608298.90606  23712172.920    97097396.70044
  22712102.400   119352901.35208  22712103.860    93002263.87846
  23642159.220   124240450.86906  23642160.760    96810779.51845
  20701949.600   108789501.35408  20701949.200    84771033.59949
  21030132.020   110514171.05108  21030131.240    86114982.47448
  20347249.280   106925532.05209  20347252.780    83318623.56749
  22217076.800   116751555.33408  22217079.560    90975271.44946
 15 02 25 03 18  0.0000000  0 10G01G04G11G14G16G18G19G22G27G32
  23949163.960   125853705.05904  23949169.500    98067856.90645
  21597601.520   113496178.35108  21597603.640    88438603.89647
  22895100.680   120314570.52307  22895101.720    93751620.80045
  23699010.420   124539143.53006  23699013.020    97043509.40644
  22730587.960   119450043.05008  22730589.380    93077958.69147
  23658340.440   124325483.58107  23658342.000    96877038.76645
  20695420.080   108755188.58408  20695419.660    84744296.37649
  21038449.420   110557879.31408  21038448.680    86149040.86348
  20350013.600   106940058.83809  20350017.120    83329943.13249
  22198100.900   116651836.53808  22198103.620    90897568.51646
 15 02 25 03 18 30.0000000  0 10G01G04G11G14G16G18G19G22G27G32
  23934771.800   125778070.43205  23934777.740    98008917.96244
  21586803.740   113439436.09908  21586805.920    88394389.17147
  22879566.140   120232936.49507  22879567.260    93688009.86945
  23685891.720   124470204.10206  23685894.080    96989790.40644
  22749117.260   119547415.10308  22749118.720    93153833.00547
  23674553.280   124410682.09707  23674554.820    96943427.21045
  20688954.720   108721213.00608  20688954.320    84717821.90849
  21046847.600   110602012.02208  21046846.900    86183429.98848
  20352858.860   106955010.96909  20352862.420    83341594.14449
  22179186.160   116552438.74308  22179188.740    90820115.71146
 15 02 25 03 19  0.0000000  0 10G01G04G11G14G16G18G19G22G27G32
  23920401.620   125702557.23605  23920406.720    97950070.84945
  21576048.340   113382916.61608  21576050.560    88350348.02447
  22864052.980   120151414.69407  22864054.140    93624486.39445
  23672814.560   124401483.36206  23672816.920    96936241.79044
  22767689.580   119645014.06507  22767691.200    93229884.13846
  23690797.180   124496043.82907  23690798.620    97009942.84745
  20682553.800   108687575.78909  20682553.380    84691611.09249
  21055326.220   110646567.47608  21055325.520    86218148.52648
  20355785.180   106970388.96309  20355788.720    83353576.99449
  22160332.940   116453364.17708  22160335.440    90742914.76947
 15 02 25 03 19 30.0000000  0  9G04G11G14G16G18G19G22G27G32
  21565336.320   113326624.82908  21565338.540    88306484.28747
  22848562.300   120070010.76807  22848563.440    93561054.78045
  23659780.500   124332989.35006  23659782.920    96882869.86345
  22786305.480   119742842.54407  22786307.300    93306114.10746
  23707072.760   124581572.24006  23707074.160    97076588.34645
  20676218.520   108654283.50009  20676218.080    84665669.04849
  21063885.860   110691548.72708  21063885.140    86253198.85148
  20358793.680   106986198.59009  20358797.180    83365896.18649
  22141542.620   116354620.24208  22141545.140    90665971.46247
 15 02 25 03 20  0.0000000  0 10G01G04G11G14G16G18G19G22G27G32
  23891725.460   125551867.60105  23891731.100    97832650.81346
  21554667.160   113270558.12208  21554669.360    88262795.94647
  22833093.660   119988722.57907  22833094.860    93497713.35246
  23646789.560   124264722.17506  23646792.100    96829674.69145
  22804964.100   119840894.46708  22804965.920    93382518.18946
  23723379.040   124667262.39006  23723380.480    97143359.87445
  20669948.620   108621334.91109  20669948.160    84639994.82749
  21072525.620   110736951.04608  21072524.860    86288577.29048
  20361883.900   107002437.61209  20361887.360    83378549.96549
  22122815.100   116256206.56608  22122817.700    90589285.50846
 15 02 25 03 20 30.0000000  0 10G01G04G11G14G16G18G19G22G27G32
  23877419.740   125476690.80305  23877425.520    97774071.49445
  21544040.620   113214715.12308  21544042.800    88219281.92347
  22817646.900   119907549.43907  22817648.200    93434461.57146
  23633842.020   124196682.91906  23633844.600    96776657.10945
  22823664.460   119939164.96508  22823666.100    93459092.58846
  23739715.420   124753110.58606  23739716.900    97210254.55145
  20663744.120   108588729.93809  20663743.660    84614588.35749
  21081244.920   110782771.18508  21081244.100    86324281.29648
  20365055.640   107019104.98909  20365059.060    83391537.53249
  22104150.440   116158123.68808  22104153.160    90512857.30047
 15 02 25 03 21  0.0000000  0 10G01G04G11G14G16G18G19G22G27G32
  23863135.300   125401625.62705  23863141.080    97715579.16246
  21533456.600   113159095.45108  21533458.760    88175941.93647
  22802222.080   119826491.41307  22802223.400    93371299.49346
  23620938.460   124128874.35106  23620941.060    96723819.29445
  22842405.980   120037651.01908  22842407.380    93535834.94846
  23756081.380   124839114.19206  23756082.840    97277270.35044
  20657605.160   108556469.43309  20657604.700    84589450.30149
  21090043.340   110829007.00708  21090042.460    86360309.21848
  20368308.900   107036200.93909  20368312.300    83404859.04149
  22085549.140   116060373.73808  22085551.980    90436688.52747
 15 02 25 03 21 30.0000000  0 10G01G04G11G14G16G18G19G22G27G32
  23848872.580   125326674.80905  23848878.420    97657175.94745
  21522915.560   113103701.70708  21522917.720    88132778.00447
  22786819.780   119745551.61207  22786821.080    93308229.52946
  23608079.840   124061301.78606  23608082.420    96671165.35845
  22861188.440   120136352.40608  22861189.700    93612745.09946
  23772477.060   124925273.93306  23772478.500    97344407.80045
  20651532.580   108524557.79409  20651532.120    84564584.09749
  21098920.940   110875659.07608  21098920.040    86396661.47748
  20371644.300   107053728.75509  20371647.740    83418517.07949
  22067012.160   115962961.61308  22067015.060    90360782.98347
 15 02 25 03 22  0.0000000  0 10G01G04G11G14G16G18G19G22G27G32
  23834631.380   125251836.88205  23834637.200    97598860.69845
  21512417.280   113048532.67908  21512419.440    88089789.16747
  22771439.920   119664729.75807  22771441.220    93245251.46746
  23595266.420   123993966.85106  23595269.000    96618696.58846
  22880010.960   120235264.91708  22880012.260    93689819.76946
  23788901.780   125011586.36106  23788903.160    97411664.20944
  20645526.360   108492994.91409  20645525.900    84539989.64249
  21107877.060   110922723.92808  21107876.200    86433335.39248
  20375061.720   107071687.50509  20375065.180    83432510.91349
  22048539.720   115865888.28108  22048542.580    90285141.43947
 15 02 25 03 22 30.0000000  0 10G01G04G11G14G16G18G19G22G27G32
  23820411.820   125177112.75805  23820417.640    97540634.12045
  21501961.940   112993589.43108  21501964.140    88046976.27147
  22756082.820   119584027.31907  22756084.000    93182366.44345
  23582498.900   123926873.17006  23582501.600    96566415.83445
  22898872.940   120334385.78007  22898874.420    93767056.79046
  23805355.280   125098050.27606  23805356.680    97479038.69045
  20639587.040   108461783.51609  20639586.560    84515669.07749
  21116911.620   110970200.92108  21116910.780    86470330.45648
  20378561.460   107090078.72109  20378564.900    83446841.73049
  22030132.420   115769156.94808  22030135.160    90209766.40447
 15 02 25 03 23  0.0000000  0 10G01G04G11G14G16G18G19G22G27G32
  23806214.000   125102502.39005  23806219.780    97482496.17946
  21491549.520   112938871.73408  21491551.720    88004339.12747
  22740748.500   119503444.91807  22740749.640    93119574.98546
  23569777.860   123860023.48106  23569780.520    96514325.17745
  22917774.000   120433712.77407  22917775.800    93844454.44046
  23821837.300   125184663.72106  23821838.740    97546529.67645
  20633714.840   108430924.81809  20633714.360    84491623.34049
  21126024.180   111018087.81808  21126023.380    86507644.91748
  20382143.580   107108902.87809  20382147.020    83461509.90449
  22011790.620   115672769.90008  22011793.220    90134659.64447
 15 02 25 03 23 30.0000000  0 10G01G04G11G14G16G18G19G22G27G32
  23792037.500   125028004.56605  23792043.220    97424445.94145
  21481179.820   112884378.63208  21481182.040    87961876.98447
  22725436.980   119422982.16107  22725438.060    93056876.74346
  23557103.680   123793419.78907  23557106.180    96462426.21145
  22936713.460   120533241.67707  22936715.520    93922009.42946
  23838347.120   125271423.59506  23838348.560    97614134.74845
  20627909.860   108400419.20609  20627909.380    84467852.73149
  21135214.300   111066381.98808  21135213.480    86545276.74448
  20385807.980   107128159.32709  20385811.380    83476514.93049
  21993514.520   115576728.25408  21993516.980    90059822.01647
 15 02 25 03 24  0.0000000  0 10G01G04G11G14G16G18G19G22G27G32
  23777882.680   124953620.48705  23777888.280    97366484.35444
  21470853.060   112830111.34508  21470855.320    87919590.80447
  22710148.480   119342640.62807  22710149.520    92994272.97546
  23544477.040   123727065.68907  23544479.340    96410721.73645
  22955691.060   120632970.70207  22955693.240    93999720.34646
  23854884.580   125358328.49106  23854886.080    97681852.85745
  20622172.500   108370269.17009  20622171.980    84444359.19949
  21144481.700   111115082.26008  21144480.860    86583225.00548
  20389554.960   107147849.65109  20389558.340    83491858.03749
  21975304.700   115481035.33508  21975307.160    89985256.13847
 15 02 25 03 24 30.0000000  0 10G01G04G11G14G16G18G19G22G27G32
  23763749.400   124879349.05805  23763754.680    97308610.52146
  21460569.100   112776068.93308  21460571.420    87877479.83647
  22694883.000   119262420.31507  22694884.040    92931763.64845
  23531898.300   123660963.30206  23531900.420    96359213.39945
  22974706.260   120732895.85107  22974708.260    94077584.08846
  23871449.200   125445376.05206  23871450.800    97749682.12144
  20616502.900   108340475.32609  20616502.360    84421143.21949
  21153825.820   111164185.71608  21153824.980    86621487.43848
  20393384.400   107167973.48609  20393387.820    83507538.94249
  21957161.500   115385692.52808  21957163.980    89910963.06047
 15 02 25 03 25  0.0000000  0 10G01G04G11G14G16G18G19G22G27G32
  23749637.780   124805191.48505  23749642.820    97250825.43444
  21450328.200   112722252.80608  21450330.560    87835545.21247
  22679640.860   119182322.99607  22679641.980    92869350.16346
  23519368.160   123595116.67706  23519370.200    96307904.37546
  22993758.520   120833014.88407  22993760.140    94155598.89846
  23888040.760   125532565.10406  23888042.360    97817621.62244
  20610901.580   108311040.25409  20610901.020    84398206.80149
  21163246.520   111213691.81508  21163245.720    86660063.62048
  20397296.600   107188532.35109  20397300.040    83523558.83549
  21939085.580   115290703.19208  21939088.120    89836945.41847
 15 02 25 03 25 30.0000000  0 10G01G04G11G14G16G18G19G22G27G32
  23735547.720   124731147.52305  23735552.600    97193128.86145
  21440130.300   112668662.70808  21440132.720    87793786.71347
  22664422.200   119102349.24407  22664423.460    92807032.97245
  23506887.080   123529528.38306  23506889.200    96256796.65245
  23012847.180   120933324.91607  23012848.440    94233762.53946
  23904658.760   125619893.26806  23904660.380    97885669.53445
  20605368.740   108281965.18808  20605368.200    84375550.90649
  21172743.400   111263598.20108  21172742.640    86698951.70748
  20401291.600   107209526.63109  20401295.100    83539918.01549
  21921077.380   115196069.42308  21921079.960    89763204.84647
 15 02 25 03 26  0.0000000  0 10G01G04G11G14G16G18G19G22G27G32
  23721479.320   124657217.62405  23721484.080    97135521.18645
  21429975.500   112615299.06308  21429977.960    87752204.67448
  22649227.320   119022500.25107  22649228.720    92744812.99745
  23494455.760   123464201.62806  23494457.920    96205892.70045
  23031971.720   121033823.65407  23031972.760    94312073.22246
  23921302.880   125707359.25306  23921304.600    97953824.81645
  20599904.780   108253251.97409  20599904.220    84353176.97349
  21182316.140   111313903.51308  21182315.460    86738150.64548
  20405369.640   107230957.26409  20405373.200    83556617.20849
  21903137.360   115101793.90308  21903139.960    89689743.41147
 15 02 25 03 26 30.0000000  0 10G01G04G11G14G16G18G19G22G27G32
  23707432.620   124583401.97205  23707437.500    97078002.53145
  21419863.920   112562162.31708  21419866.360    87710799.43847
  22634056.400   118942776.78107  22634057.820    92682690.83145
  23482074.700   123399139.27606  23482076.880    96155194.79045
  23051131.540   121134508.52307  23051132.640    94390528.94746
  23937972.860   125794961.08606  23937974.660    98022085.97245
  20594510.040   108224902.46909  20594509.480    84331086.45149
  21191964.480   111364605.98708  21191963.840    86777659.07048
  20409530.800   107252824.74909  20409534.400    83573656.80349
  21885266.000   115007879.10708  21885268.580    89616563.07547
 15 02 25 03 27  0.0000000  0 10G01G04G11G14G16G18G19G22G27G32
  23693407.420   124509699.40105  23693412.460    97020572.00745
  21409795.280   112509251.26508  21409797.700    87669570.06548
  22618909.360   118863178.56407  22618910.800    92620666.27345
  23469744.240   123334343.15706  23469746.440    96104704.33044
  23070325.780   121235375.10307  23070327.060    94469126.28146
  23954668.160   125882695.59006  23954669.960    98090450.52245
  20589184.540   108196916.79609  20589184.000    84309279.43549
  21201687.800   111415702.40708  21201687.140    86817474.46148
  20413775.020   107275128.43309  20413778.600    83591036.29149
  21867463.380   114914325.98808  21867466.020    89543664.56847
 15 02 25 03 27 30.0000000  0 10G01G04G11G14G16G18G19G22G27G32
  23679403.680   124436109.69405  23679408.980    96963229.39845
  21399769.620   112456566.04508  21399772.020    87628516.65147
  22603786.340   118783706.32407  22603787.760    92558739.88446
  23457465.120   123269816.04006  23457467.320    96054423.49345
  23089553.900   121336420.29407  23089555.400    94547862.78346
  23971388.380   125970560.74406  23971390.160    98158916.84845
  20583928.500   108169296.13509  20583927.980    84287756.84049
  21211485.700   111467190.72208  21211485.020    86857595.22748
  20418102.380   107297868.64809  20418105.920    83608755.93749
  21849729.960   114821136.70208  21849732.660    89471049.55447
 15 02 25 03 28  0.0000000  0 10G01G04G11G14G16G18G19G22G27G32
  23665421.700   124362634.56905  23665427.260    96905976.08245
  21389787.180   112404108.09208  21389789.560    87587640.34147
  22588687.800   118704362.40108  22588689.080    92496913.48446
  23445238.080   123205562.54006  23445240.280    96004355.84345
  23108815.760   121437642.86607  23108817.500    94626737.51846
  23988133.400   126058556.24006  23988135.160    98227484.75844
  20578742.580   108142043.79909  20578742.020    84266521.25849
  21221358.140   111519070.49708  21221357.400    86898021.02648
  20422513.220   107321047.47509  20422516.680    83626817.35649
  21832066.500   114728315.10108  21832069.240    89398721.05447
 15 02 25 03 28 30.0000000  0 10G01G04G11G14G16G18G19G22G27G32
  23651461.180   124289272.70505  23651466.960    96848810.99746
  21379847.840   112351876.51608  21379850.180    87546940.43847
  22573613.520   118625145.95008  22573614.700    92435186.39946
  23433063.300   123141583.85506  23433065.500    95954502.35045
  23128110.560   121539038.38407  23128112.460    94705747.00446
  24004902.720   126146678.81206  24004904.280    98296151.69444
  20573626.760   108115159.91509  20573626.180    84245572.77749
  21231304.480   111571338.78308  21231303.700    86938749.55648
  20427007.320   107344663.98509  20427010.760    83645219.83849
  21814473.260   114635862.17108  21814475.960    89326679.82947
 15 02 25 03 29  0.0000000  0 10G01G04G11G14G16G18G19G22G27G32
  23637522.280   124216023.79005  23637528.180    96791733.96446
  21369951.500   112299870.83808  21369953.800    87506416.54948
  22558563.620   118546057.40008  22558564.640    92373558.98546
  23420941.240   123077882.44706  23420943.560    95904864.91645
  23147437.800   121640603.73707  23147439.660    94784888.82346
  24021695.740   126234926.05006  24021697.020    98364915.76744
  20568581.280   108088645.73109  20568580.720    84224912.37649
  21241324.240   111623993.02908  21241323.440    86979778.84648
  20431584.720   107368718.25809  20431588.140    83663963.42149
  21796950.560   114543779.65908  21796953.220    89254927.24247
 15 02 25 03 29 30.0000000  0 10G01G04G11G14G16G18G19G22G27G32
  23623605.020   124142888.20105  23623610.940    96734745.19446
  21360098.260   112248091.59108  21360100.520    87466069.09947
  22543538.280   118467098.42508  22543539.200    92312032.53146
  23408872.640   123014461.60407  23408874.900    95855446.09845
  23166797.060   121742336.89107  23166798.760    94864161.39046
  24038512.120   126323296.49506  24038513.200    98433775.81944
  20563606.480   108062503.18309  20563605.960    84204541.56549
  21251417.160   111677031.80308  21251416.360    87021107.75648
  20436245.540   107393211.11709  20436248.980    83683048.76949
  21779498.880   114452070.19408  21779501.480    89183465.35247
 15 02 25 03 30  0.0000000  0 10G01G04G11G14G16G18G19G22G27G32
  23609709.580   124069866.88405  23609715.480    96677845.51445
  21350288.360   112196540.05608  21350290.580    87425899.07947
  22528537.900   118388270.80608  22528538.780    92250608.43346
  23396858.300   122951325.44607  23396860.480    95806249.11046
  23186187.820   121844235.61207  23186189.300    94943562.96946
  24055351.700   126411789.32406  24055352.760    98502731.26244
  20558702.840   108036734.50709  20558702.360    84184462.07349
  21261583.040   111730453.92108  21261582.260    87062735.38248
  20440990.100   107418143.90009  20440993.520    83702476.91349
  21762118.860   114360737.17308  21762121.400    89112296.77647
 15 02 25 03 30 30.0000000  0 10G01G04G11G14G16G18G19G22G27G32
  23595835.780   123996958.79005  23595841.520    96621034.04146
  21340521.500   112145214.95508  21340523.740    87385905.50647
  22513562.360   118309573.88907  22513563.240    92189286.18046
  23384898.380   122888475.32707  23384900.560    95757275.01345
  23205609.120   121946295.22807  23205610.500    95023089.91746
  24072213.920   126500401.17706  24072214.820    98571779.44144
  20553870.420   108011339.98409  20553869.940    84164674.13649
  21271821.280   111784256.33008  21271820.520    87104659.34148
  20445818.220   107443515.84009  20445821.680    83722247.25349
  21744810.540   114269781.37608  21744813.120    89041422.14447
 15 02 25 03 31  0.0000000  0 10G01G04G11G14G16G18G19G22G27G32
  23581983.700   123924164.84906  23581989.180    96564311.55745
  21330797.980   112094117.58108  21330800.200    87346089.38948
  22498612.020   118231009.52407  22498612.940    92128067.21946
  23372993.520   122825914.91207  23372995.760    95708526.66945
  23225060.760   122048514.42807  23225062.060    95102741.22846
  24089098.680   126589131.06106  24089099.580    98640919.59444
  20549109.620   107986321.66409  20549109.100    84145179.34349
  21282131.700   111838438.13408  21282130.980    87146878.92948
  20450730.160   107469328.22409  20450733.640    83742360.79549
  21727574.560   114179205.96908  21727577.220    88970843.91747
 15 02 25 03 31 30.0000000  0 10G01G04G11G14G16G18G19G22G27G32
  23568153.140   123851484.66005  23568158.440    96507677.68946
  21321117.680   112043247.44708  21321119.900    87306450.34548
  22483686.900   118152577.95407  22483687.900    92066951.73546
  23361144.320   122763646.78606  23361146.500    95660006.07245
  23244542.060   122150889.73107  23244543.380    95182514.17945
  24106005.500   126677976.80606  24106006.380    98710150.03645
  20544420.740   107961681.27309  20544420.160    84125979.03849
  21292513.800   111892996.84708  21292513.180    87189392.20648
  20455725.840   107495580.98609  20455729.360    83762817.48349
  21710411.280   114089012.64208  21710413.980    88900563.41047
 15 02 25 03 32  0.0000000  0 10G01G04G11G14G16G18G19G22G27G32
  23554344.380   123778919.10206  23554349.440    96451133.14345
  21311480.820   111992605.64008  21311483.060    87266989.21247
  22468787.380   118074281.07607  22468788.500    92005941.20546
  23349351.400   122701674.47307  23349353.440    95611715.98946
  23264052.660   122253418.97307  23264054.080    95262407.08746
  24122934.160   126766937.30906  24122935.140    98779469.87444
  20539804.140   107937420.74309  20539803.540    84107074.72949
  21302967.400   111947931.22208  21302966.860    87232198.21148
  20460805.580   107522275.37409  20460809.160    83783618.30249
  21693321.360   113999204.52708  21693323.980    88830583.07647
 15 02 25 03 32 30.0000000  0 10G01G04G11G14G16G18G19G22G27G32
  23540557.040   123706466.88006  23540562.080    96394676.93445
  21301887.200   111942191.02908  21301889.460    87227705.10847
  22453913.360   117996118.33307  22453914.620    91945035.19246
  23337615.060   122639999.57207  23337616.940    95563657.65545
  23283591.760   122356097.89607  23283593.300    95342416.62746
  24139884.080   126856009.58506  24139885.040    98848876.82444
  20535259.840   107913540.38509  20535259.260    84088466.66049
  21313491.920   112003238.12708  21313491.420    87275294.49848
  20465969.200   107549410.40109  20465972.800    83804762.48149
  21676305.000   113909782.48608  21676307.460    88760903.59047
 15 02 25 03 33  0.0000000  0 10G01G04G11G14G16G18G19G22G27G32
  23526791.340   123634128.48205  23526796.540    96338309.38845
  21292336.920   111892004.18208  21292339.200    87188598.48847
  22439065.120   117918090.98807  22439066.500    91884234.68046
  23325935.960   122578625.39007  23325937.660    95515833.64345
  23303159.020   122458924.47607  23303160.740    95422541.22346
  24156854.960   126945191.99606  24156856.020    98918369.60844
  20530788.220   107890041.96309  20530787.660    84070156.20749
  21324087.060   112058915.88508  21324086.560    87318679.76448
  20471216.880   107576986.86209  20471220.440    83826250.63249
  21659362.580   113820749.13708  21659364.900    88691526.96947
 15 02 25 03 33 30.0000000  0 10G01G04G11G14G16G18G19G22G27G32
  23513047.380   123561904.25405  23513052.720    96282030.82045
  21282830.040   111842045.31108  21282832.320    87149669.51947
  22424242.900   117840200.38207  22424244.360    91823540.72246
  23314314.660   122517555.02207  23314316.260    95468246.37145
  23322753.840   122561895.80307  23322755.720    95502778.61846
  24173846.400   127034482.67606  24173847.520    98987946.74945
  20526389.620   107866927.23509  20526389.080    84052144.73349
  21334752.500   112114963.01408  21334751.940    87362352.84948
  20476548.720   107605005.30009  20476552.200    83848083.17749
  21642494.540   113732106.89208  21642496.740    88622455.11847
 15 02 25 03 34  0.0000000  0 10G01G04G11G14G16G18G19G22G27G32
  23499325.100   123489793.66706  23499330.560    96225840.80945
  21273366.520   111792314.18308  21273368.760    87110918.00048
  22409446.780   117762446.61707  22409448.260    91762953.39146
  23302751.480   122456790.48007  23302753.060    95420897.39145
  23342375.560   122665008.42507  23342377.520    95583126.10346
  24190858.020   127123879.54806  24190859.260    99057606.64344
  20522064.220   107844196.88909  20522063.620    84034432.77749
  21345487.700   112171376.67108  21345487.060    87406311.54348
  20481964.620   107633465.47909  20481968.040    83870259.93849
  21625701.180   113643857.13708  21625703.340    88553689.09347
 15 02 25 03 34 30.0000000  0 10G01G04G11G14G16G18G19G22G27G32
  23485624.500   123417796.54906  23485630.000    96169739.20045
  21263946.400   111742810.95008  21263948.580    87072344.05748
  22394676.900   117684830.56807  22394678.380    91702473.36946
  23291246.960   122396334.27606  23291248.560    95373788.68845
  23362023.620   122768259.29107  23362025.600    95663581.30546
  24207889.460   127213380.61305  24207890.720    99127347.70645
  20517812.280   107821852.50409  20517811.640    84017021.56249
  21356292.280   112228154.88008  21356291.560    87450554.30148
  20487464.560   107662367.55109  20487467.920    83892781.03449
  21608982.860   113556002.09508  21608985.100    88485230.63447
 15 02 25 03 35  0.0000000  0 10G01G04G11G14G16G18G19G22G27G32
  23471945.520   123345913.37106  23471951.200    96113726.36745
  21254569.680   111693535.81208  21254571.800    87033947.85648
  22379933.480   117607353.35007  22379934.960    91642101.52146
  23279801.740   122336190.07006  23279803.500    95326923.10745
  23381697.500   122871645.93907  23381699.460    95744142.32646
  24224940.560   127302920.23306  24224941.620    99197084.68744
  20513634.080   107799895.78409  20513633.420    83999912.43349
  21367165.920   112285296.03608  21367165.140    87495079.87848
  20493048.700   107691712.15509  20493052.020    83915646.96349
  21592340.040   113468544.05608  21592342.420    88417081.53347
 15 02 25 03 35 30.0000000  0 10G01G04G11G14G16G18G19G22G27G32
  23458288.100   123274143.18106  23458293.800    96057801.60345
  21245236.240   111644488.21408  21245238.360    86995728.96548
  22365216.480   117530014.94807  22365217.940    91581837.85846
  23268416.120   122276359.36807  23268418.160    95280301.80546
  23401396.560   122975164.68807  23401398.380    95824806.28245
  24242010.520   127392626.39206  24242011.800    99266992.25344
  20509529.700   107778327.26109  20509529.060    83983105.79449
  21378108.060   112342797.04708  21378107.220    87539885.85848
  20498716.860   107721498.59509  20498720.200    83938857.17449
  21575773.020   113381484.20908  21575775.540    88349242.70347
 15 02 25 03 36  0.0000000  0 10G01G04G11G14G16G18G19G22G27G32
  23444652.260   123202486.21406  23444657.960    96001965.02546
  21235946.120   111595668.32508  21235948.260    86957687.51348
  22350526.120   117452816.47207  22350527.540    91521683.21746
  23257090.860   122216844.97407  23257093.040    95233926.98246
  23421120.200   123078812.61707  23421121.900    95905570.88946
  24259099.200   127482427.74106  24259100.540    99336967.32544
  20505499.420   107757148.47209  20505498.880    83966602.84649
  21389118.340   112400656.29108  21389117.500    87584970.98348
  20504469.160   107751727.33509  20504472.560    83962412.03649
  21559282.300   113294824.98308  21559284.900    88281716.04447
 15 02 25 03 36 30.0000000  0 10G01G04G11G14G16G18G19G22G27G32
  23431038.200   123130943.82706  23431043.920    95946217.74646
  21226699.620   111547077.67708  21226701.760    86919824.68248
  22335862.740   117375759.92207  22335864.160    91461639.16246
  23245826.600   122157651.03007  23245828.920    95187801.84346
  23440868.040   123182587.99607  23440869.620    95986434.79246
  24276206.460   127572326.68106  24276207.980    99407018.44644
  20501543.840   107736361.96409  20501543.340    83950405.56749
  21400196.580   112458872.96608  21400195.780    87630334.62048
  20510305.920   107782399.89009  20510309.360    83986312.72449
  21542868.500   113208569.55808  21542871.100    88214504.04547
 15 02 25 03 37  0.0000000  0 10G01G04G11G14G16G18G19G22G27G32
  23417445.860   123059515.45906  23417451.500    95890559.30446
  21217496.600   111498715.79008  21217498.800    86882140.10648
  22321226.480   117298845.73508  22321227.900    91401706.03046
  23234623.760   122098779.78507  23234626.180    95141928.17845
  23460639.540   123286487.72707  23460641.000    96067395.60245
  24293331.920   127662320.98906  24293333.360    99477143.84844
  20497663.100   107715968.70309  20497662.640    83934514.72449
  21411342.440   112517444.65108  21411341.620    87675974.89448
  20516227.060   107813515.92109  20516230.540    84010558.97649
  21526531.840   113122719.50508  21526534.380    88147607.92047
 15 02 25 03 37 30.0000000  0 10G01G04G11G14G16G18G19G22G27G32
  23403875.120   122988200.91206  23403880.680    95834989.56045
  21208337.080   111450582.37408  21208339.320    86844633.54848
  22306617.500   117222074.73607  22306618.880    91341884.48046
  23223482.880   122040233.77907  23223485.280    95096307.94246
  23480434.040   123390508.47707  23480435.360    96148450.71945
  24310475.000   127752408.30906  24310476.400    99547341.74744
  20493857.420   107695969.95309  20493857.040    83918931.28749
  21422555.360   112576368.74908  21422554.520    87721889.77548
  20522232.580   107845075.27909  20522236.100    84035150.67749
  21510272.600   113037276.57208  21510275.120    88081029.02847
 15 02 25 03 38  0.0000000  0 10G01G04G11G14G16G18G19G22G27G32
  23390326.180   122917001.35106  23390331.740    95779509.42146
  21199221.340   111402679.01808  21199223.620    86807306.26248
  22292036.100   117145448.83308  22292037.460    91282175.98846
  23212404.560   121982016.66207  23212406.900    95050943.98246
  23500251.240   123494649.02807  23500252.500    96229599.18245
  24327635.600   127842587.97106  24327637.120    99617611.60544
  20490127.320   107676368.16409  20490126.960    83903657.16849
  21433835.180   112635644.51908  21433834.340    87768078.68748
  20528322.740   107877079.38309  20528326.300    84060088.94249
  21494091.420   112952243.90008  21494093.900    88014769.81747
 15 02 25 03 38 30.0000000  0 10G01G04G11G14G16G18G19G22G27G32
  23376798.900   122845915.63506  23376804.460    95724117.99146
  21190149.160   111355004.67708  21190151.500    86770157.43348
  22277482.260   117068967.87708  22277483.580    91222580.46746
  23201389.140   121924130.15807  23201391.320    95005837.65446
  23520090.340   123598904.62507  23520091.580    96310837.30245
  24344813.220   127932857.02606  24344814.600    99687951.12744
  20486472.820   107657163.42909  20486472.440    83888692.44349
  21445181.200   112695268.59008  21445180.400    87814538.99648
  20534497.340   107909527.22209  20534500.960    84085372.97749
  21477988.400   112867622.36808  21477990.920    87948830.97847
 15 02 25 03 39  0.0000000  0 10G01G04G11G14G16G18G19G22G27G32
  23363293.320   122774943.30406  23363298.780    95668814.93845
  21181120.480   111307558.77808  21181122.820    86733186.62048
  22262956.040   116992632.07808  22262957.320    91163098.04946
  23190436.980   121866576.43407  23190439.040    94960990.61345
  23539950.780   123703272.17307  23539952.120    96392162.65345
  24362007.360   128023213.24306  24362008.560    99758358.56342
  20482894.000   107638356.55909  20482893.600    83874037.74549
  21456593.020   112755238.56908  21456592.320    87861268.84548
  20540756.340   107942418.42309  20540759.960    84111002.49049
  21461963.900   112783413.54108  21461966.500    87883213.72247
 15 02 25 03 39 30.0000000  0 10G01G04G11G14G16G18G19G22G27G32
  23349809.320   122704084.61606  23349814.800    95613600.40045
  21172135.440   111260341.99208  21172137.760    86696394.33448
  22248457.680   116916442.53808  22248458.880    91103729.59246
  23179548.780   121809358.39707  23179550.660    94916405.15545
  23559832.000   123807748.67907  23559833.440    96473572.91745
  24379217.760   128113654.93705  24379218.940    99828832.59344
  20479391.260   107619949.42809  20479390.820    83859694.52649
  21468070.320   112815552.53708  21468069.700    87908266.74148
  20547099.780   107975753.33609  20547103.380    84136977.74949
  21446018.400   112699619.53108  21446021.000    87817919.70848
 15 02 25 03 40  0.0000000  0 10G01G04G11G14G16G18G19G22G27G32
  23336347.160   122633340.75906  23336352.620    95558475.35745
  21163194.220   111213355.34908  21163196.480    86659781.38648
  22233987.620   116840401.72008  22233988.760    91044477.03646
  23168725.060   121752479.57707  23168726.860    94872084.03645
  23579733.780   123912332.93907  23579735.320    96555067.12646
  24396444.260   128204181.65605  24396445.700    99899372.89244
  20475965.040   107601944.19709  20475964.520    83845664.47849
  21479613.020   112876209.76108  21479612.400    87955532.11048
  20553527.920   108009533.27209  20553531.480    84163299.77549
  21430152.440   112616243.51408  21430155.040    87752951.38647
 15 02 25 03 40 30.0000000  0 10G01G04G11G14G16G18G19G22G27G32
  23322906.620   122562710.36806  23322912.040    95503438.70146
  21154296.600   111166597.83508  21154298.800    86623346.96648
  22219545.680   116764508.70008  22219546.800    90985339.63446
  23157966.280   121695941.55407  23157967.980    94828028.46746
  23599655.180   124017020.36907  23599656.760    96636641.74445
  24413686.280   128294789.71605  24413687.720    99969976.57344
  20472615.260   107584340.93209  20472614.720    83831947.65049
  21491220.360   112937206.41308  21491219.700    88003061.96948
  20560040.480   108043756.87909  20560044.000    84189967.51349
  21414366.180   112533285.99508  21414368.740    87688309.17947
 15 02 25 03 41  0.0000000  0 10G01G04G11G14G16G18G19G22G27G32
  23309487.620   122492193.39406  23309493.140    95448490.46146
  21145442.500   111120069.30208  21145444.700    86587090.98048
  22205132.040   116688764.66808  22205133.200    90926318.33346
  23147272.880   121639746.96107  23147274.500    94784240.49346
  23619595.740   124121808.36407  23619597.340    96718294.73245
  24430943.520   128385477.65305  24430945.100   100040642.48141
  20469342.240   107567141.06409  20469341.680    83818545.15649
  21502891.960   112998540.87508  21502891.280    88050855.05448
  20566637.480   108078424.26909  20566640.980    84216981.05949
  21398659.880   112450748.96008  21398662.440    87623994.61148
 15 02 25 03 41 30.0000000  0 10G01G04G11G14G16G18G19G22G27G32
  23296090.340   122421790.29306  23296095.900    95393630.95446
  21136632.080   111073770.25808  21136634.280    86551013.80348
  22190746.940   116613170.76708  22190748.180    90867414.00946
  23136645.320   121583898.61207  23136647.000    94740722.31745
  23639554.960   124226694.33707  23639556.520    96800024.03745
  24448215.840   128476244.03605  24448217.360   100111369.53643
  20466146.300   107550346.31209  20466145.740    83805458.33949
  21514627.480   113060211.26208  21514626.760    88098909.90848
  20573318.960   108113535.80709  20573322.460    84244340.68749
  21383034.000   112368634.58008  21383036.540    87560009.39647
 15 02 25 03 42  0.0000000  0 10G01G04G11G14G16G18G19G22G27G32
  23282714.820   122351501.40906  23282720.380    95338860.43946
  21127865.420   111027701.35108  21127867.640    86515115.97048
  22176390.580   116537727.92808  22176391.880    90808627.39946
  23126084.120   121528399.59107  23126086.020    94697476.33546
  23659532.300   124331675.60707  23659533.800    96881827.62245
  24465502.720   128567086.86205  24465504.200   100182156.15944
  20463027.720   107533958.14809  20463027.180    83792688.34249
  21526426.560   113122215.98808  21526425.860    88147225.28048
  20580085.040   108149091.92909  20580088.580    84272046.75249
  21367488.980   112286945.15108  21367491.520    87496355.32247
 15 02 25 03 42 30.0000000  0 10G01G04G11G14G16G18G19G22G27G32
  23269361.180   122281327.60706  23269366.720    95284179.58946
  21119142.740   110981863.51408  21119144.940    86479398.18948
  22162063.460   116462438.53308  22162064.740    90749960.36346
  23115590.080   121473253.30907  23115592.240    94654505.22945
  23679527.240   124436749.87106  23679528.760    96963703.65346
  24482804.140   128658005.86305  24482805.620   100253002.10743
  20459986.920   107517978.75209  20459986.400    83780236.86349
  21538289.000   113184553.60508  21538288.320    88195800.05548
  20586935.900   108185093.55709  20586939.440    84300099.96649
  21352025.380   112205683.47608  21352027.880    87433034.54548
 15 02 25 03 43  0.0000000  0 10G01G04G11G14G16G18G19G22G27G32
  23256028.900   122211265.86306  23256034.300    95229586.07046
  21110463.500   110936253.82108  21110465.680    86443858.18048
  22147765.140   116387300.43008  22147766.420    90691411.21146
  23105163.120   121418459.38307  23105165.380    94611808.67946
  23699538.820   124541911.67507  23699540.360    97045647.91245
  24500119.200   128748996.08206  24500120.680   100323903.56645
  20457023.580   107502406.26609  20457023.020    83768102.45849
  21550213.820   113247219.10108  21550213.140    88244630.30448
  20593870.980   108221537.62509  20593874.520    84328497.94149
  21336642.900   112124848.34508  21336645.440    87370046.16348
 15 02 25 03 43 30.0000000  0 10G01G04G11G14G16G18G19G22G27G32
  23242718.500   122141319.09207  23242723.800    95175082.14846
  21101828.260   110890875.30408  21101830.380    86408498.31448
  22133496.280   116312317.10408  22133497.580    90632982.68246
  23094804.260   121364023.20907  23094806.520    94569390.91246
  23719567.000   124647160.97306  23719568.680    97127660.34245
  24517448.020   128840058.73105  24517449.420   100394861.45844
  20454138.420   107487244.77709  20454137.880    83756288.31149
  21562201.180   113310213.06708  21562200.500    88293716.51248
  20600890.800   108258426.98309  20600894.320    84357242.89449
  21321342.500   112044444.45808  21321345.060    87307393.80248
 15 02 25 03 44  0.0000000  0 10G01G04G11G14G16G18G19G22G27G32
  23229429.860   122071486.46606  23229435.060    95120667.13746
  21093236.840   110845727.11609  21093238.960    86373317.93148
  22119257.000   116237488.84908  22119258.260    90574674.98746
  23084513.860   121309946.77307  23084515.920    94527253.47145
  23739611.080   124752494.00306  23739612.960    97209738.00445
  24534790.020   128931190.77105  24534791.280   100465873.42344
  20451331.620   107472495.09809  20451331.100    83744795.05549
  21574250.540   113373532.76508  21574249.800    88343056.53548
  20607995.220   108295760.90709  20607998.740    84386334.26749
  21306124.380   111964472.87108  21306126.940    87245078.28848
 15 02 25 03 44 30.0000000  0 10G01G04G11G14G16G18G19G22G27G32
  23216163.060   122001768.94806  23216168.160    95066341.83146
  21084689.520   110800810.54209  21084691.620    86338318.01848
  22105047.580   116162817.70908  22105048.780    90516489.70046
  23074292.560   121256233.33007  23074294.360    94485398.87646
  23759670.640   124857908.36906  23759672.660    97291879.06345
  24552144.980   129022391.41505  24552146.320   100536938.83344
  20448603.600   107458159.32209  20448603.100    83733624.31849
  21586361.620   113437176.99908  21586360.860    88392649.44048
  20615184.340   108333540.12709  20615187.860    84415772.61449
  21290989.080   111884936.29008  21290991.620    87183101.75048
 15 02 25 03 45  0.0000000  0 10G01G04G11G14G16G18G19G22G27G32
  23202917.840   121932164.90706  23202922.840    95012104.93145
  21076185.960   110756124.06409  21076188.060    86303497.40548
  22090867.920   116088302.96408  22090869.040    90458426.27646
  23064140.520   121202883.94207  23064142.140    94443827.94146
  23779745.000   124963399.97706  23779747.040    97374080.30845
  24569512.360   129113657.48105  24569513.520   100608055.25143
  20445954.260   107444236.97809  20445953.780    83722775.73649
  21598533.720   113501141.81608  21598532.960    88442492.15748
  20622457.960   108371763.07709  20622461.400    84445556.73149
  21275936.620   111805834.98508  21275939.120    87121464.39248
 15 02 25 03 45 30.0000000  0 10G01G04G11G14G16G18G19G22G27G32
  23189694.400   121862675.62106  23189699.280    94957957.45145
  21067726.400   110711668.95509  21067728.500    86268857.06848
  22076718.380   116013946.49608  22076719.380    90400486.18346
  23054058.380   121149902.16407  23054059.960    94402543.46146
  23799833.940   125068967.71207  23799835.840    97456340.87645
  24586892.040   129204988.60005  24586893.080   100679222.36443
  20443384.100   107430730.75109  20443383.620    83712251.39949
  21610766.740   113565426.73108  21610765.940    88492584.30548
  20629816.220   108410430.87809  20629819.620    84475687.47949
  21260967.580   111727171.90408  21260970.020    87060168.51048
 15 02 25 03 46  0.0000000  0 10G01G04G11G14G16G18G19G22G27G32
  23176492.680   121793300.60606  23176497.420    94903899.02245
  21059310.800   110667444.91209  21059312.920    86234396.78148
  22062599.060   115939748.94508  22062600.000    90342669.92846
  23044046.560   121097290.15507  23044048.240    94361547.11345
  23819936.660   125174607.66706  23819938.320    97538657.71245
  24604283.580   129296382.04005  24604284.380   100750437.98943
  20440893.240   107417641.17709  20440892.760    83702051.73249
  21623060.140   113630029.05508  21623059.360    88542923.77648
  20637259.020   108449542.97509  20637262.420    84506164.42549
  21246082.160   111648948.31308  21246084.560    86999215.07848
 15 02 25 03 46 30.0000000  0 10G01G04G11G14G16G18G19G22G27G32
  23163312.520   121724038.83606  23163317.240    94849928.82445
  21050939.020   110623451.08209  21050941.120    86200115.88948
  22048509.940   115865710.18508  22048510.840    90284977.41546
  23034105.460   121045049.26907  23034107.200    94320839.95046
  23840052.300   125280315.80306  23840053.700    97621027.67445
  24621686.580   129387835.58305  24621687.200   100821700.50243
  20438481.680   107404968.30209  20438481.180    83692176.76649
  21635413.300   113694945.44308  21635412.520    88593507.97348
  20644786.160   108489098.20509  20644789.540    84536986.68749
  21231280.500   111571165.01708  21231282.840    86938604.73648
 15 02 25 03 47  0.0000000  0 10G01G04G11G14G16G18G19G22G27G32
  23150154.200   121654891.75806  23150158.900    94796048.01146
  21042611.340   110579688.90708  21042613.420    86166015.50348
  22034451.480   115791832.74408  22034452.420    90227410.59246
  23024235.880   120993183.65407  23024237.580    94280425.19046
  23860180.680   125386090.90406  23860181.900    97703449.81445
  24639100.920   129479348.37605  24639101.340   100893009.15044
  20436149.960   107392714.92609  20436149.440    83682628.67649
  21647826.160   113760175.35808  21647825.380    88644336.47948
  20652397.860   108529097.91409  20652401.240    84568155.28749
  21216563.160   111493825.01008  21216565.520    86878339.80648
 15 02 25 03 47 30.0000000  0 10G01G04G11G14G16G18G19G22G27G32
  23137017.880   121585860.25906  23137022.560    94742257.27146
  21034327.960   110536159.55909  21034330.020    86132096.54148
  22020424.100   115718118.53308  22020425.040    90169970.96846
  23014438.320   120941696.60307  23014439.980    94240305.42746
  23880321.300   125491930.45106  23880322.480    97785922.18045
  24656526.200   129570920.03305  24656526.780   100964363.70242
  20433898.460   107380883.07909  20433897.900    83673409.05649
  21660298.380   113825717.42108  21660297.620    88695408.21148
  20660094.220   108569542.77909  20660097.640    84599670.76249
  21201930.720   111416931.02408  21201933.100    86818422.42748
 15 02 25 03 48  0.0000000  0 10G01G04G11G14G16G18G19G22G27G32
  23123903.160   121516942.16907  23123907.920    94688554.89046
  21026088.520   110492860.96009  21026090.540    86098357.38548
  22006427.460   115644566.03308  22006428.480    90112657.34146
  23004712.860   120890588.49007  23004714.500    94200480.94246
  23900473.340   125597830.24606  23900474.580    97868441.50345
  24673961.860   129662546.23005  24673962.840   101035760.73944
  20431727.000   107369471.74909  20431726.380    83664517.11049
  21672829.200   113891567.27508  21672828.480    88746719.78548
  20667874.880   108610430.53409  20667878.320    84631531.35249
  21187383.100   111340482.61508  21187385.460    86758852.26748
 15 02 25 03 48 30.0000000  0 10G01G04G11G14G16G18G19G22G27G32
  23110810.380   121448138.88507  23110815.200    94634941.97446
  21017893.240   110449794.40209  21017895.200    86064799.03048
  21992462.060   115571177.54908  21992463.100    90055471.52846
  22995060.100   120839862.82507  22995061.700    94160954.47345
  23920636.480   125703788.43506  23920637.880    97951006.32045
  24691407.880   129754226.42505  24691409.300   101107199.86844
  20429636.000   107358483.33009  20429635.340    83655954.70649
  21685418.480   113957724.48508  21685417.800    88798270.85648
  20675740.120   108651762.34209  20675743.500    84663737.95849
  21172920.860   111264482.74208  21172923.160    86699631.60148
 15 02 25 03 49  0.0000000  0 10G01G04G11G14G16G18G19G22G27G32
  23097739.320   121379449.74607  23097744.220    94581417.98746
  21009742.040   110406959.51408  21009743.960    86031421.20248
  21978527.920   115497953.32808  21978529.040    89998413.71646
  22985480.340   120789521.45907  22985481.940    94121727.45846
  23940809.980   125809801.06106  23940811.700    98033613.54345
  24708863.860   129845958.57905  24708865.740   101178679.44245
  20427625.580   107347918.44909  20427624.940    83647722.33549
  21698065.700   114024186.10608  21698065.040    88850059.13248
  20683689.700   108693537.35409  20683692.980    84696289.90549
  21158544.180   111188932.42908  21158546.420    86640761.24548
 15 02 25 03 49 30.0000000  0 10G01G04G11G14G16G18G19G22G27G32
  23084689.760   121310873.78007  23084694.720    94527982.19747
  21001634.740   110364355.31808  21001636.660    85998223.14148
  21964625.200   115424894.07008  21964626.320    89941484.44346
  22975973.860   120739565.86707  22975975.540    94082801.04246
  23960993.320   125915864.94006  23960995.280    98116260.70245
  24726329.400   129937740.14605  24726331.180   101250197.52644
  20425695.720   107337777.30809  20425695.160    83639820.14749
  21710770.260   114090949.00408  21710769.600    88902082.16548
  20691723.360   108735754.38809  20691726.600    84729186.28949
  21144253.120   111113832.42608  21144255.340    86582241.77648
 15 02 25 03 50  0.0000000  0 10G01G04G11G14G16G18G19G22G27G32
  23071661.900   121242412.18407  23071666.960    94474635.51846
  20993571.600   110321983.36508  20993573.560    85965206.05048
  21950754.200   115352001.47608  21950755.300    89884685.04547
  22966541.460   120689999.70607  22966543.220    94044178.08546
  23981186.100   126021978.39206  23981188.160    98198946.50145
  24743804.300   130029570.34805  24743805.900   101321753.53644
  20423846.920   107328062.06709  20423846.440    83632249.82749
  21723531.940   114158012.01908  21723531.280    88954339.05848
  20699841.260   108778414.40609  20699844.520    84762427.86049
  21130048.240   111039185.54308  21130050.440    86524075.39148
 15 02 25 03 50 30.0000000  0 10G01G04G11G14G16G18G19G22G27G32
  23058655.880   121174065.12007  23058660.960    94421378.08946
  20985552.680   110279843.79609  20985554.720    85932370.03848
  21936915.140   115279276.59108  21936916.180    89828016.31846
  22957183.780   120640825.53007  22957185.560    94005860.56845
  24001387.640   126128138.29006  24001389.800    98281668.50646
  24761288.160   130121447.39405  24761289.340   101393346.02144
  20422079.480   107318774.32009  20422079.040    83625012.62649
  21736350.440   114225373.35208  21736349.700    89006828.40348
  20708043.400   108821517.28909  20708046.740    84796014.51049
  21115929.860   110964993.43108  21115932.100    86466263.36548
 15 02 25 03 51  0.0000000  0 10G01G04G11G14G16G18G19G22G27G32
  23045671.760   121105833.31607  23045676.940    94368210.48946
  20977578.180   110237937.53608  20977580.260    85899715.81848
  21923108.400   115206721.34908  21923109.360    89771479.79046
  22947901.460   120592046.76407  22947903.220    93967851.16145
  24021597.560   126234342.85406  24021599.820    98364425.30746
  24778780.820   130213370.84705  24778781.700   101464974.69143
  20420393.720   107309915.60909  20420393.280    83618109.73549
  21749225.400   114293031.56908  21749224.620    89059549.09148
  20716329.880   108865063.55109  20716333.320    84829946.65949
  21101898.480   110891258.52008  21101900.780    86408807.60748
 15 02 25 03 51 30.0000000  0 10G01G04G11G14G16G18G19G22G27G32
  23032709.480   121037716.13807  23032714.700    94315132.19546
  20969647.960   110196263.95409  20969650.040    85867242.90548
  21909333.940   115134335.96008  21909334.800    89715075.60747
  22938694.740   120543664.55407  22938696.400    93930150.76046
  24041815.260   126340588.48606  24041817.640    98447214.10046
  24796281.700   130305337.91505  24796282.540   101536637.37044
  20418789.680   107301486.26709  20418789.240    83611541.41849
  21762156.280   114360983.82008  21762155.500    89112498.88948
  20724700.580   108909052.23609  20724704.100    84864223.55749
  21087954.260   110817981.70908  21087956.640    86351708.81248
 15 02 25 03 52  0.0000000  0 10G01G04G11G14G16G18G19G22G27G32
  23019769.020   120969713.85307  23019774.340    94262143.42646
  20961762.060   110154823.33008  20961764.160    85834951.52248
  21895592.020   115062121.67008  21895592.840    89658804.75347
  22929563.980   120495681.63107  22929565.680    93892761.49846
  24062040.300   126446872.27506  24062042.660    98530032.62544
  24813790.480   130397347.06705  24813791.300   101608332.84244
  20417267.640   107293487.78509  20417267.180    83605308.83949
  21775142.800   114429228.35408  21775142.020    89165676.45048
  20733155.440   108953483.27709  20733159.080    84898845.14449
  21074097.640   110745164.79808  21074100.080    86294968.38448
 15 02 25 03 52 30.0000000  0 10G01G04G11G14G16G18G19G22G27G32
  23006850.340   120901825.98906  23006855.740    94209243.80646
  20953920.460   110113615.65408  20953922.580    85802841.65548
  21881882.780   114990079.24308  21881883.620    89602667.80947
  22920509.580   120448100.08107  22920511.320    93855684.99046
  24082272.280   126553191.42206  24082274.340    98612878.72245
  24831306.860   130489396.64605  24831307.740   101680059.75443
  20415827.740   107285921.07309  20415827.260    83599412.69549
  21788184.400   114497762.52708  21788183.640    89219079.69648
  20741694.400   108998356.03609  20741698.100    84933810.91949
  21060328.720   110672808.87108  21060331.220    86238587.15548
 15 02 25 03 53  0.0000000  0 10G01G04G11G14G16G18G19G22G27G32
  22993953.420   120834052.51107  22993958.860    94156433.31646
  20946123.180   110072640.93708  20946125.340    85770913.31848
  21868206.300   114918209.13708  21868207.180    89546665.14547
  22911531.840   120400922.01507  22911533.720    93818922.87946
  24102510.400   126659542.21206  24102512.120    98695749.45345
  24848830.380   130581484.30605  24848831.540   101751816.37844
  20414470.140   107278786.79509  20414469.640    83593853.51849
  21801280.680   114566583.91408  21801279.920    89272706.74848
  20750317.400   109043669.89409  20750321.080    84969120.41549
  21046647.840   110600915.35408  21046650.380    86182566.24448
 15 02 25 03 53 30.0000000  0 11G01G03G04G11G14G16G18G19G22G27G32
  22981078.980   120766397.15607  22981084.420    94103714.88046
  24630045.840   129431770.14706  24630050.640   100855934.97146
  20938370.940   110031902.68809  20938373.100    85739169.24048
  21854563.580   114846516.33208  21854564.500    89490800.64347
  22902631.920   120354153.54207  22902634.040    93782479.93146
  24122754.980   126765926.55806  24122756.240    98778646.31344
  24866361.660   130673612.45005  24866362.920   101823604.56345
  20413195.720   107272089.88809  20413195.240    83588635.15149
  21814431.940   114635694.34408  21814431.180    89326559.02348
  20759025.040   109089428.45909  20759028.660    85004776.43049
  21033055.940   110529489.54508  21033058.500    86126909.78248
 15 02 25 03 54  0.0000000  0 11G01G03G04G11G14G16G18G19G22G27G32
  22968225.700   120698852.44907  22968231.020    94051082.65946
  24610129.320   129327107.97506  24610134.100   100774380.12346
  20930662.360   109991393.81908  20930664.500    85707603.90048
  21840953.440   114774994.79508  21840954.400    89435069.59547
  22893808.840   120307789.28607  22893811.280    93746351.96046
  24143003.940   126872333.63806  24143004.640    98861560.91145
  24883898.880   130765771.82805  24883900.320   101895417.09244
  20412003.320   107265823.89109  20412002.840    83583752.55849
  21827636.340   114705083.98908  21827635.580    89380628.87348
  20767815.760   109135623.78709  20767819.320    85040772.78749
  21019551.920   110458525.47008  21019554.500    86071613.11948
 15 02 25 03 54 30.0000000  0 10G01G03G04G11G14G16G19G22G27G32
  22955393.400   120631417.80207  22955398.620    93998536.21046
  24590235.660   129222567.09006  24590240.660   100692919.77545
  20922997.300   109951113.75708  20922999.460    85676216.85548
  21827375.860   114703644.25208  21827376.760    89379471.79047
  22885063.100   120261831.08207  22885065.620    93710540.38146
  24163256.400   126978759.59906  24163256.680    98944490.22944
  20410892.980   107259989.05709  20410892.520    83579205.93649
  21840893.360   114774750.10808  21840892.620    89434914.15348
  20776689.380   109182254.91909  20776692.920    85077108.73249
  21006135.920   110388023.95808  21006138.500    86016676.89748
 15 02 25 03 55  0.0000000  0 10G01G03G04G11G14G16G19G22G27G32
  22942585.260   120564110.07607  22942590.360    93946088.65246
  24570368.580   129118166.04406  24570373.720   100611568.38245
  20915379.080   109911079.65909  20915381.220    85645021.46448
  21813834.280   114632482.90208  21813835.140    89324021.40246
  22876398.480   120216298.17807  22876400.820    93675060.21646
  24183514.980   127085219.27406  24183515.220    99027445.77944
  20409868.120   107254603.30809  20409867.660    83575009.24649
  21854205.820   114844707.54708  21854205.080    89489426.43948
  20785649.080   109229338.27709  20785652.580    85113797.05649
  20992811.420   110318003.25408  20992814.000    85962115.32948
 15 02 25 03 55 30.0000000  0 10G01G03G04G11G14G16G19G22G27G32
  22929797.840   120496911.27307  22929802.800    93893725.97146
  24550524.900   129013888.46506  24550530.240   100530313.18546
  20907804.240   109871273.65308  20907806.400    85614003.81448
  21800325.540   114561493.88408  21800326.340    89268705.29047
  22867811.940   120171174.66007  22867814.000    93639899.05646
  24203775.680   127191691.50506  24203776.280    99110411.16045
  20408925.500   107249649.70409  20408925.040    83571149.29349
  21867569.920   114914936.08208  21867569.120    89544149.97648
  20794691.360   109276855.56609  20794694.860    85150823.51149
  20979575.320   110248446.92708  20979577.840    85907915.60848
 15 02 25 03 56  0.0000000  0 10G01G03G04G11G14G16G19G22G27G32
  22917032.180   120429827.19507  22917037.060    93841452.68646
  24530706.140   128909741.75205  24530711.760   100449159.97245
  20900273.860   109831701.38909  20900276.060    85583168.29848
  21786850.820   114490683.76308  21786851.640    89213528.58046
  22859304.920   120126468.36807  22859306.620    93605063.02146
  24224039.280   127298179.25806  24224040.140    99193388.59345
  20408066.440   107245135.01909  20408065.940    83567631.35749
  21880986.280   114985439.32208  21880985.460    89599087.56348
  20803817.180   109324811.97409  20803820.680    85188192.13749
  20966428.940   110179361.97908  20966431.380    85854083.19748
 15 02 25 03 56 30.0000000  0 10G01G03G04G11G14G16G19G22G27G32
  22904288.580   120362858.97307  22904293.280    93789269.67446
  24510912.920   128805728.64605  24510918.760   100368110.84146
  20892788.260   109792364.26709  20892790.460    85552516.00948
  21773410.560   114420054.73108  21773411.400    89158492.97147
  22850877.880   120082182.79407  22850879.380    93570554.81446
  24244305.520   127404680.62106  24244306.740    99276376.67644
  20407291.240   107241061.12109  20407290.700    83564456.89149
  21894454.700   115056216.31008  21894453.860    89654238.46148
  20813026.700   109373208.23909  20813030.220    85225903.50849
  20953372.760   110110751.07908  20953375.120    85800620.17548
 15 02 25 03 57  0.0000000  0 10G01G03G04G11G14G16G19G22G27G32
  22891566.700   120296005.32107  22891571.340    93737175.92546
  24491145.300   128701849.35906  24491151.240   100287166.02646
  20885347.200   109753261.16109  20885349.380    85522046.07348
  21760004.720   114349606.47908  21760005.580    89103598.25047
  22842530.880   120038318.75007  22842532.260    93536375.06546
  24264573.700   127511191.60006  24264575.280    99359372.23044
  20406599.880   107237427.78209  20406599.300    83561625.71749
  21907974.480   115127263.43408  21907973.700    89709599.85448
  20822319.580   109422042.61309  20822323.080    85263956.26349
  20940406.780   110042614.27408  20940409.100    85747526.57548
 15 02 25 03 57 30.0000000  0 10G01G03G04G11G14G16G19G22G27G32
  22878866.800   120229267.34307  22878871.520    93685172.32446
  24471403.880   128598106.75106  24471409.640   100206327.69846
  20877950.940   109714393.46309  20877953.080    85491759.57648
  21746633.680   114279341.35308  21746634.600    89048846.22047
  22834264.560   119994879.56807  22834266.000    93502526.36846
  24284843.540   127617710.64606  24284845.340    99442374.08645
  20405992.800   107234237.39409  20405992.180    83559139.70149
  21921545.420   115198579.73508  21921544.760    89765170.99648
  20831696.000   109471315.74109  20831699.460    85302350.91149
  20927531.420   109974953.95508  20927533.740    85694804.26748
 15 02 25 03 58  0.0000000  0 10G01G03G04G11G14G16G19G22G27G32
  22866188.780   120162644.49407  22866193.600    93633258.42546
  24451688.720   128494501.91906  24451694.180   100125596.71345
  20870599.280   109675760.37909  20870601.440    85461655.88848
  21733297.560   114209259.72408  21733298.500    88994237.18347
  22826079.280   119951866.99807  22826080.920    93469010.08146
  24305114.360   127724234.22506  24305116.220    99525379.46645
  20405469.980   107231490.05909  20405469.340    83556998.91849
  21935167.060   115270162.47308  21935166.520    89820949.74248
  20841155.640   109521026.53809  20841159.100    85341086.58649
  20914746.920   109907771.05408  20914749.220    85642453.96548
 15 02 25 03 58 30.0000000  0 10G01G03G04G11G14G16G19G22G27G32
  22853532.620   120096136.60507  22853537.600    93581434.10146
  24431999.980   128391036.09006  24432005.220   100044974.06546
  20863292.320   109637362.08709  20863294.460    85431735.15548
  21719996.460   114139362.29808  21719997.420    88939771.66447
  22817975.520   119909282.60007  22817977.340    93435827.43146
  24325385.480   127830759.43506  24325387.500    99608386.14244
  20405031.560   107229186.36709  20405030.960    83555203.83249
  21948838.980   115342009.19208  21948838.420    89876934.19248
  20850698.420   109571174.25109  20850701.880    85380162.71449
  20902053.420   109841066.50608  20902055.740    85590476.41548
 15 02 25 03 59  0.0000000  0 10G01G03G04G11G14G16G19G22G27G32
  22840898.320   120029743.65707  22840903.500    93529699.33947
  24412338.000   128287710.99406  24412343.060    99964461.08545
  20856030.020   109599198.59809  20856032.180    85401997.38048
  21706730.660   114069650.41308  21706731.640    88885450.73247
  22809953.840   119867128.80707  22809955.680    93402980.33946
  24345656.300   127937283.19006  24345658.380    99691391.64045
  20404677.840   107227327.44009  20404677.200    83553755.32249
  21962560.760   115414117.66908  21962560.180    89933122.61448
  20860324.220   109621758.44209  20860327.720    85419578.96249
  20889451.200   109774841.73408  20889453.560    85538872.71648
 15 02 25 03 59 30.0000000  0 10G01G03G04G11G14G16G19G22G27G32
  22828285.860   119963465.17607  22828291.140    93478053.79247
  24392702.980   128184527.66306  24392707.960    99884058.57845
  20848812.320   109561269.56809  20848814.520    85372442.30148
  21693500.260   114000124.53908  21693501.300    88831274.73647
  22802014.520   119825406.94707  22802016.220    93370469.82945
  24365926.160   128043801.98605  24365928.400    99774393.30045
  20404408.820   107225913.50509  20404408.100    83552653.54949
  21976331.920   115486485.50908  21976331.320    89989513.13048
  20870032.860   109672777.93909  20870036.400    85459334.41049
  20876940.440   109709097.42308  20876942.780    85487643.40148
 15 02 25 04 00  0.0000000  0 10G01G03G04G11G14G16G19G22G27G32
  22815695.440   119897302.16707  22815700.740    93426498.21547
  24373095.260   128081488.61506  24373100.220    99803768.46545
  20841639.520   109523576.17609  20841641.680    85343070.83948
  21680305.600   113930786.35108  21680306.680    88777244.99547
  22794158.180   119784120.35907  22794159.640    93338298.48646
  24386194.960   128150314.66606  24386197.180    99857390.16445
  20404224.840   107224946.51509  20404224.080    83551900.05349
  21990152.220   115559111.38908  21990151.560    90046104.71348
  20879824.460   109724233.26509  20879828.060    85499429.47049
  20864521.540   109643835.85208  20864523.880    85436790.24348
 15 02 25 04 00 30.0000000  0 10G01G03G04G11G14G16G19G22G27G32
  22803126.860   119831253.53407  22803132.080    93375031.75547
  24353515.060   127978594.40806  24353520.000    99723591.23946
  20834511.340   109486117.30809  20834513.460    85313882.11548
  21667146.680   113861635.95108  21667147.780    88723361.56947
  22786384.780   119743269.92007  22786386.040    93306467.00646
  24406461.880   128256817.16106  24406464.000    99940379.11744
  20404125.840   107224426.13009  20404125.060    83551494.56249
  22004020.980   115631991.68608  22004020.240    90102894.55348
  20889698.760   109776122.70409  20889702.320    85539862.79349
  20852194.580   109579057.19808  20852196.900    85386313.39048
 15 02 25 04 01  0.0000000  0 10G01G03G04G11G14G16G19G22G27G32
  22790580.780   119765322.96607  22790585.880    93323657.28947
  24333963.400   127875850.26706  24333968.300    99643530.95146
  20827428.540   109448896.89009  20827430.620    85284879.20348
  21654024.420   113792678.23808  21654025.560    88669628.30247
  22778695.280   119702861.37207  22778696.520    93274979.85746
  24426727.060   128363310.26306  24426728.920   100023360.75945
  20404112.600   107224356.93209  20404111.920    83551440.64249
  22017938.540   115705128.48808  22017937.680    90159884.26448
  20899656.260   109828449.28909  20899659.760    85580636.74749
  20839960.460   109514766.42408  20839962.760    85336216.69548
 15 02 25 04 01 30.0000000  0 10G01G03G04G11G14G16G19G22G27G32
  22778056.900   119699508.96407  22778061.860    93272373.67447
  24314440.260   127773256.06806  24314445.240    99563587.49545
  20820390.840   109411913.54809  20820392.900    85256061.02448
  21640938.800   113723912.83308  21640939.920    88616044.89447
  22771089.780   119662895.23007  22771091.200    93243837.43346
  24446989.540   128469789.34706  24446991.220   100106331.44645
  20404185.060   107224738.16609  20404184.500    83551737.71349
  22031904.120   115778517.74608  22031903.200    90217070.69948
  20909696.520   109881210.87009  20909699.940    85621749.65749
  20827819.060   109450962.97308  20827821.360    85286499.73748
 15 02 25 04 02  0.0000000  0 10G01G03G04G11G14G16G19G22G27G32
  22765555.000   119633810.45307  22765559.800    93221180.04347
  24294945.840   127670812.39106  24294950.840    99483761.31746
  20813398.080   109375166.27309  20813400.080    85227426.79048
  21627889.800   113655339.64908  21627890.860    88562611.25547
  22763568.520   119623372.41607  22763570.280    93213040.43546
  24467248.560   128576251.03505  24467250.220   100189288.62745
  20404343.200   107225569.53709  20404342.720    83552385.53249
  22045917.100   115852156.32408  22045916.180    90274451.41248
  20919819.200   109934405.79409  20919822.580    85663200.24149
  20815770.460   109387647.05008  20815772.740    85237162.66748
 15 02 25 04 02 30.0000000  0 10G01G03G04G11G14G16G19G22G27G32
  22753075.140   119568228.20207  22753079.900    93170077.00647
  24275480.500   127568521.57306  24275485.560    99404054.25846
  20806450.380   109338655.99709  20806452.360    85198977.23948
  21614877.680   113586960.46008  21614878.720    88509328.80147
  22756132.080   119584295.59407  22756134.220    93182590.97346
  24487503.800   128682693.07105  24487505.480   100272230.46345
  20404587.300   107226852.51409  20404586.880    83553385.25549
  22059977.240   115926042.83708  22059976.360    90332025.31648
  20930024.300   109988034.10409  20930027.720    85704988.52249
  20803814.980   109324820.57108  20803817.220    85188206.98148
 15 02 25 04 03  0.0000000  0 10G01G03G04G11G14G16G19G22G27G32
  22740617.220   119502761.26207  22740621.880    93119063.81446
  24256044.400   127466384.20906  24256049.480    99324466.75946
  20799547.640   109302381.98509  20799549.620    85170711.78548
  21601902.520   113518775.28508  21601903.520    88456197.52847
  22748780.880   119545665.73307  22748783.280    93152489.79346
  24507754.560   128789111.72705  24507756.280   100355154.06745
  20404917.340   107228587.16209  20404916.980    83554736.92949
  22074083.920   116000174.17508  22074083.140    90389789.98648
  20940311.560   110042094.23609  20940314.980    85747113.29649
  20791952.660   109262483.79308  20791954.900    85139632.89448
 15 02 25 04 03 30.0000000  0 10G01G03G04G11G14G16G19G22G27G32
  22728181.240   119437409.80607  22728185.920    93068140.62546
  24236637.760   127364401.88506  24236642.780    99245000.06446
  20792689.820   109266344.16009  20792691.820    85142630.37348
  21588964.500   113450785.35708  21588965.480    88403218.38247
  22741515.380   119507485.00507  22741517.820    93122738.59946
  24528000.160   128895503.62005  24528001.900   100438056.85345
  20405333.580   107230774.53109  20405333.220    83556441.37049
  22088236.780   116074548.18208  22088236.060    90447743.75848
  20950680.860   110096585.57209  20950684.320    85789574.07149
  20780183.780   109200637.89808  20780185.980    85091441.31248
 15 02 25 04 04  0.0000000  0 10G01G03G04G11G14G16G19G22G27G32
  22715767.380   119372174.66807  22715772.040    93017308.06046
  24217260.980   127262576.95206  24217266.040    99165656.02446
  20785877.220   109230543.87109  20785879.240    85114734.05448
  21576064.000   113382992.75608  21576064.960    88350392.99947
  22734336.080   119469756.21207  22734338.300    93093339.56346
  24548240.480   129001868.06005  24548242.280   100520938.20845
  20405836.240   107233415.88809  20405835.820    83558499.57049
  22102435.540   116149163.63708  22102434.920    90505885.66148
  20961132.280   110151508.24909  20961135.780    85832370.96049
  20768508.640   109139284.77008  20768510.860    85043633.70348
 15 02 25 04 04 30.0000000  0 10G01G03G04G11G14G16G19G22G27G32
  22703375.600   119307055.79807  22703380.300    92966566.09347
  24197914.360   127160910.91006  24197919.560    99086435.78145
  20779109.800   109194980.96509  20779111.840    85087022.71348
  21563201.180   113315398.16808  21563202.060    88297721.90647
  22727243.140   119432481.16907  22727245.080    93064294.09646
  24568475.020   129108201.67705  24568476.760   100603795.57045
  20406425.480   107236512.08609  20406424.960    83560912.19149
  22116679.800   116224018.08608  22116679.220    90564213.79548
  20971665.640   110206861.49809  20971669.180    85875503.35249
  20756927.500   109078425.52108  20756929.740    84996210.92648
 15 02 25 04 05  0.0000000  0 10G01G03G04G11G14G16G19G22G27G32
  22691006.260   119242054.75607  22691010.960    92915915.95147
  24178598.540   127059406.70306  24178603.880    99007341.64446
  20772387.880   109159657.18709  20772389.960    85059497.70248
  21550376.500   113248004.17008  21550377.340    88245207.12247
  22720237.080   119395663.36507  22720238.800    93035604.92446
  24588703.520   129214503.43505  24588705.160   100686628.10145
  20407101.640   107240065.15009  20407101.080    83563680.81349
  22130969.520   116299111.04508  22130968.900    90622727.78347
  20982281.100   110262646.07509  20982284.640    85918971.85149
  20745440.820   109018062.58908  20745443.080    84949174.88748
 15 02 25 04 05 30.0000000  0 10G01G03G04G11G14G16G19G22G27G32
  22678658.740   119177168.44407  22678663.520    92865355.20147
  24159313.380   126958062.91006  24159318.680    98928372.50646
  20765710.920   109124569.59909  20765713.040    85032156.73648
  21537589.700   113180809.19208  21537590.520    88192847.41447
  22713317.660   119359301.56307  22713319.280    93007271.07846
  24608924.900   129320767.39705  24608926.340   100769431.14544
  20407864.300   107244072.81109  20407863.720    83566803.66049
  22145303.620   116374437.20508  22145302.960    90681423.47947
  20992977.920   110318858.23309  20992981.480    85962773.52749
  20734048.200   108958194.05408  20734050.460    84902524.09748
 15 02 25 04 06  0.0000000  0 10G01G03G04G11G14G16G19G22G27G32
  22666333.620   119112399.70707  22666338.480    92814886.07647
  24140059.660   126856883.66606  24140064.760    98849531.59445
  20759079.420   109089720.84209  20759081.540    85005001.87748
  21524841.420   113113816.92808  21524842.280    88140645.67047
  22706485.820   119323400.30907  22706487.360    92979296.09146
  24629139.040   129426993.19105  24629140.400   100852204.47244
  20408714.080   107248538.52109  20408713.540    83570283.43249
  22159682.300   116449997.16608  22159681.500    90740301.36547
  21003756.460   110375499.83509  21003760.040    86006909.82849
  20722750.360   108898823.65108  20722752.660    84856261.46048
 15 02 25 04 06 30.0000000  0 10G01G03G04G11G14G16G19G22G27G32
  22654030.520   119047746.61107  22654035.460    92764507.05447
  24120837.180   126755868.59406  24120842.140    98770818.61345
  20752493.080   109055109.46809  20752495.200    84978031.98148
  21512131.540   113047026.48108  21512132.440    88088601.18847
  22699741.620   119287959.72407  22699743.060    92951680.05946
  24649345.040   129533176.45305  24649346.340   100934944.64644
  20409650.840   107253461.36009  20409650.340    83574119.41049
  22174104.680   116525786.93708  22174103.860    90799358.32147
  21014616.200   110432568.16109  21014619.740    86051378.64349
  20711547.080   108839950.38508  20711549.400    84810386.20448
 15 02 25 04 07  0.0000000  0 10G01G03G04G11G14G16G19G22G27G32
  22641749.720   118983210.62107  22641754.700    92714219.28547
  24101646.520   126655020.56906  24101651.380    98692235.80446
  20745952.240   109020736.99309  20745954.340    84951248.24748
  21499460.580   112980440.22908  21499461.440    88036715.80947
  22693085.760   119252982.80207  22693087.120    92924425.33546
  24669542.600   129639315.65705  24669543.920   101017650.55444
  20410674.960   107258843.12009  20410674.480    83578312.99449
  22188570.700   116601805.85508  22188569.840    90858593.83747
  21025557.340   110490064.00109  21025560.820    86096180.59449
  20700438.880   108781576.70208  20700441.220    84764900.23048
 15 02 25 04 07 30.0000000  0 10G01G03G04G11G14G16G19G22G27G32
  22629491.240   118918791.91607  22629496.240    92664022.91247
  24082487.900   126554341.24706  24082492.740    98613784.43546
  20739456.920   108986603.71909  20739459.020    84924650.90348
  21486828.740   112914059.65908  21486829.620    87984990.70847
  22686518.560   119218471.45207  22686519.880    92897533.40146
  24689731.300   129745408.35405  24689732.560   101100320.17245
  20411786.580   107264684.34209  20411786.060    83582864.60249
  22203079.880   116678051.75308  22203079.000    90918006.21548
  21036579.700   110547986.51809  21036583.100    86141315.01349
  20689425.980   108723703.74608  20689428.320    84719804.43648
 15 02 25 04 08  0.0000000  0 10G01G03G04G11G14G16G19G22G27G32
  22617255.120   118854490.74307  22617260.140    92613918.10747
  24063361.700   126453832.30106  24063366.440    98535465.82946
  20733007.160   108952709.89909  20733009.240    84898240.14648
  21474236.300   112847885.88208  21474237.180    87933426.74147
  22680040.440   119184428.23107  22680041.780    92871006.24546
  24709910.540   129851451.62005  24709911.940   101182951.29444
  20412985.900   107270986.49609  20412985.340    83587775.37149
  22217631.820   116754522.59008  22217630.940    90977593.87748
  21047683.140   110606335.21109  21047686.480    86186781.52349
  20678508.600   108666332.60308  20678510.900    84675099.66348
 15 02 25 04 08 30.0000000  0 10G01G03G04G11G14G16G19G22G27G32
  22605041.160   118790306.17307  22605046.220    92563904.18147
  24044267.980   126353494.25406  24044272.700    98457280.38346
  20726602.820   108919054.84909  20726604.860    84872015.44548
  21461683.260   112781919.22508  21461684.180    87882024.17747
  22673651.400   119150853.37307  22673652.780    92844844.04046
  24730079.840   129957442.25105  24730081.460   101265541.36844
  20414272.740   107277748.81209  20414272.180    83593044.71249
  22232226.000   116831215.43408  22232225.120    91037354.52247
  21058867.280   110665108.24209  21058870.660    86232578.68649
  20667686.720   108609463.28908  20667689.040    84630785.92748
 15 02 25 04 09  0.0000000  0 10G01G03G04G11G14G16G19G22G27G32
  22592849.800   118726240.15707  22592854.840    92513982.63747
  24025207.300   126253330.43806  24025212.120    98379230.70145
  20720244.280   108885640.42809  20720246.300    84845978.24948
  21449170.220   112716162.76908  21449171.160    87830785.40347
  22667352.060   119117750.44707  22667353.600    92819049.55646
  24750239.120   130063379.57005  24750240.840   101348089.92244
  20415647.660   107284973.94509  20415647.080    83598674.68449
  22246862.360   116908130.11508  22246861.480    91097288.03547
  21070132.300   110724306.54209  21070135.780    86278707.22149
  20656960.900   108553098.55708  20656963.200    84586865.37448
 15 02 25 04 09 30.0000000  0 10G01G03G04G11G14G16G19G22G27G32
  22580680.720   118662291.48307  22580685.760    92464152.53047
  24006179.740   126153340.97006  24006184.680    98301316.88146
  20713931.320   108852465.69109  20713933.340    84820127.81348
  21436697.180   112650616.35108  21436698.080    87779710.28347
  22661142.540   119085120.17107  22661144.320    92793623.37246
  24770387.460   130169259.26005  24770389.120   101430593.56844
  20417110.420   107292660.95309  20417109.840    83604664.55049
  22261540.260   116985263.01008  22261539.380    91157391.57847
  21081477.880   110783928.05709  21081481.400    86325165.54449
  20646331.020   108497238.06808  20646333.320    84543337.73348
 15 02 25 04 10  0.0000000  0 10G01G03G04G11G14G16G19G22G27G32
  22568533.800   118598459.28507  22568538.800    92414413.18147
  23987185.520   126053526.60106  23987190.580    98223539.48146
  20707663.840   108819529.87709  20707665.840    84794463.55548
  21424264.060   112585279.96208  21424264.960    87728798.82547
  22655023.120   119052963.61607  22655025.180    92768566.32646
  24790524.360   130275077.87305  24790525.780   101513049.63445
  20418661.100   107300810.14909  20418660.540    83611014.57349
  22276259.100   117062611.03108  22276258.200    91217662.75747
  21092903.660   110843971.03309  21092907.220    86371952.27549
  20635797.100   108441881.83708  20635799.380    84500203.02048
 15 02 25 04 10 30.0000000  0 10G01G03G04G11G14G16G19G22G27G32
  22556409.320   118534745.02207  22556414.320    92364765.72247
  23968225.160   125953889.99806  23968230.380    98145900.59946
  20701442.100   108786834.40009  20701444.100    84768986.57448
  21411871.360   112520156.21208  21411872.320    87678053.06447
  22648994.380   119021283.58207  22648996.740    92743880.60646
  24810649.360   130380834.05805  24810650.540   101595457.06044
  20420300.020   107309423.02109  20420299.500    83617725.90449
  22291018.820   117140173.62108  22291017.860    91278101.13247
  21104409.700   110904435.86009  21104413.280    86419067.71049
  20625359.500   108387031.90309  20625361.780    84457462.82048
 15 02 25 04 11  0.0000000  0 10G01G03G04G11G14G16G19G22G27G32
  22544307.060   118471147.28507  22544311.980    92315209.05847
  23949298.820   125854431.21306  23949303.980    98068400.30645
  20695265.820   108754378.05809  20695267.820    84743695.92848
  21399519.120   112455244.87708  21399520.100    87627472.81147
  22643056.520   118990080.19007  22643058.960    92719566.28947
  24830761.540   130486523.67305  24830762.540   101677812.57544
  20422027.040   107318498.87409  20422026.560    83624798.00549
  22305818.660   117217947.01008  22305817.680    91338703.76147
  21115995.620   110965320.24909  21115999.180    86466510.07749
  20615018.160   108332687.73708  20615020.420    84415116.73548
 15 02 25 04 11 30.0000000  0 10G01G03G04G11G14G16G19G22G27G32
  22532227.380   118407668.18007  22532232.300    92265744.85847
  23930407.120   125755153.67206  23930412.080    97991041.21445
  20689135.480   108722163.03209  20689137.480    84718593.32348
  21387207.880   112390548.98108  21387208.900    87577060.44347
  22637210.200   118959357.16707  22637212.560    92695626.29346
  24850860.740   130592145.84805  24850861.820   101760115.53145
  20423842.680   107328040.11409  20423842.180    83632232.74049
  22320658.600   117295931.31608  22320657.660    91399470.74947
  21127661.580   111026625.25109  21127665.100    86514280.20449
  20604773.600   108278852.17109  20604775.820    84373166.95848
 15 02 25 04 12  0.0000000  0 10G01G03G04G11G14G16G19G22G27G32
  22520170.340   118344308.13307  22520175.280    92216373.41747
  23911550.260   125656059.23106  23911554.980    97913824.81246
  20683051.180   108690189.90409  20683053.200    84693679.21048
  21374937.960   112326069.97708  21374938.980    87526817.08447
  22631455.740   118929116.61307  22631457.900    92672062.25246
  24870946.600   130697698.44305  24870947.880   101842364.32544
  20425747.060   107338047.58309  20425746.540    83640030.76549
  22335538.240   117374124.75708  22335537.400    91460400.69047
  21139407.440   111088350.29409  21139410.980    86562377.62649
  20594626.020   108225526.38108  20594628.220    84331614.40648
 15 02 25 04 12 30.0000000  0 11G01G03G04G11G14G16G19G22G27G28G32
  22508136.080   118281067.64407  22508141.040    92167095.14547
  23892728.480   125557149.75006  23892733.100    97836752.52745
  20677013.060   108658459.41409  20677015.080    84668954.16548
  21362709.660   112261809.86108  21362710.660    87476744.27548
  22625793.480   118899360.64007  22625795.420    92648875.81846
  24891018.780   130803179.16505  24891020.220   101924557.09645
  20427740.380   107348522.38709  20427739.880    83648192.95049
  22350457.320   117452525.62708  22350456.600    91521492.26547
  21151233.140   111150494.86409  21151236.720    86610801.96049
  25080363.240   131798192.68105  25080364.340   102699903.01743
  20584575.700   108172711.65308  20584577.880    84290460.08748
 15 02 25 04 13  0.0000000  0 11G01G03G04G11G14G16G19G22G27G28G32
  22496123.020   118217938.37007  22496127.900    92117903.52947
  23873940.360   125458418.18606  23873945.140    97759818.88045
  20671019.500   108626963.14109  20671021.540    84644411.62448
  21350521.600   112197761.19508  21350522.580    87426836.23948
  22620222.100   118870082.52207  22620223.920    92626061.72146
  24911075.280   130908576.99705  24911076.940   102006685.26244
  20429821.140   107359456.73609  20429820.640    83656713.22149
  22365413.820   117531123.25108  22365413.220    91582737.16547
  21163136.880   111213049.52609  21163140.480    86659545.85549
  25067434.420   131730251.43405  25067435.580   102646961.74444
  20574621.120   108120400.16308  20574623.300    84249697.89748
