     2.11           OBSERVATION DATA    M                   RINEX VERSION / TYPE
SPIDER V4,0,0,3554                      2015 03 18 00:44    PGM / RUN BY / DATE 
CKHR                                                        MARKER NAME         
CKHR                                                        MARKER NUMBER       
                                                            OBSERVER / AGENCY   
496547              LEICA GRX1200+GNSS  8.10/4.007          REC # / TYPE / VERS 
10301042            LEIAR25         NONE                    ANT # / TYPE        
  5141838.0877   498328.5776  3730203.3049                  APPROX POSITION XYZ 
        0.0720        0.0000        0.0000                  ANTENNA: DELTA H/E/N
     1     1                                                WAVELENGTH FACT L1/2
     4    C1    L1    P2    L2                              # / TYPES OF OBSERV 
    30.000                                                  INTERVAL            
  2015    02    25    07    18    0.0000000     GPS         TIME OF FIRST OBS   
  2015    02    25    23    59   30.0000000     GPS         TIME OF LAST OBS    
    16                                                      LEAP SECONDS        
    53                                                      # OF SATELLITES     
   G 1    47    47    47    47                              PRN / # OF OBS      
   G 2   895   895   895   895                              PRN / # OF OBS      
   G 3   188   188   188   188                              PRN / # OF OBS      
   G 4    27    27    27    27                              PRN / # OF OBS      
   G 5   622   621   621   621                              PRN / # OF OBS      
   G 6   590   590   590   590                              PRN / # OF OBS      
   G 7   536   536   536   536                              PRN / # OF OBS      
   G 9   474   474   474   474                              PRN / # OF OBS      
   G10   566   566   566   566                              PRN / # OF OBS      
   G11    27    27    27    27                              PRN / # OF OBS      
   G12   810   810   810   810                              PRN / # OF OBS      
   G13   797   797   796   796                              PRN / # OF OBS      
   G14   491   491   491   491                              PRN / # OF OBS      
   G15   710   710   710   710                              PRN / # OF OBS      
   G16   162   162   162   162                              PRN / # OF OBS      
   G17   511   511   511   511                              PRN / # OF OBS      
   G18   456   456   456   456                              PRN / # OF OBS      
   G20   522   522   522   522                              PRN / # OF OBS      
   G21   395   395   395   395                              PRN / # OF OBS      
   G22    18    18    18    18                              PRN / # OF OBS      
   G23   288   288   288   288                              PRN / # OF OBS      
   G24   825   825   825   825                              PRN / # OF OBS      
   G25   844   844   844   844                              PRN / # OF OBS      
   G27   106   106   106   106                              PRN / # OF OBS      
   G28   596   596   596   596                              PRN / # OF OBS      
   G29   686   686   686   686                              PRN / # OF OBS      
   G30   678   678   678   678                              PRN / # OF OBS      
   G31   529   529   529   529                              PRN / # OF OBS      
   G32    27    27    27    27                              PRN / # OF OBS      
   R 1   641   641   641   641                              PRN / # OF OBS      
   R 2   564   564   564   562                              PRN / # OF OBS      
   R 3   577   577   577   577                              PRN / # OF OBS      
   R 4   407   407   407   407                              PRN / # OF OBS      
   R 5   262   262   262   262                              PRN / # OF OBS      
   R 6    46    46    46    46                              PRN / # OF OBS      
   R 7   297   297   297   297                              PRN / # OF OBS      
   R 8   524   524   523   523                              PRN / # OF OBS      
   R 9   484   484   482   479                              PRN / # OF OBS      
   R10   480   480   480   480                              PRN / # OF OBS      
   R11   583   583   583   574                              PRN / # OF OBS      
   R12   676   676   675   675                              PRN / # OF OBS      
   R13   762   762   762   762                              PRN / # OF OBS      
   R14   762   762   762   762                              PRN / # OF OBS      
   R15   674   674   674   673                              PRN / # OF OBS      
   R16   509   509   509   509                              PRN / # OF OBS      
   R17   567   567   567   567                              PRN / # OF OBS      
   R18   534   534   524   524                              PRN / # OF OBS      
   R19   313   313   313   312                              PRN / # OF OBS      
   R20    78    78    78    78                              PRN / # OF OBS      
   R21    27    27    27    27                              PRN / # OF OBS      
   R22   366   366   366   366                              PRN / # OF OBS      
   R23   620   620   620   620                              PRN / # OF OBS      
   R24   748   748   733   731                              PRN / # OF OBS      
BIT 2 OF LLI FLAGS DATA COLLECTED UNDER A/S CONDITION       COMMENT             
SNR is mapped to RINEX snr flag value [2-9]                 COMMENT             
Lx:     = 25dBHz -> 1; 26-27dBHz -> 2; 28-31dBHz -> 3       COMMENT             
       32-35dBHz -> 4; 36-38dBHz -> 5; 39-41dBHz -> 6       COMMENT             
       42-44dBHz -> 7; 45-48dBHz -> 8; >=49dBHz -> 9        COMMENT             
                                                            END OF HEADER       
 15 02 25 07 18  0.0000000  0 14G01G03G04G09G11G17G23G31G32R06R07R20
                                R21R22
  20619111.520   108354161.63209  20619112.920    84431819.76249
  20537052.680   107922939.84609  20537053.060    84095798.98849
  22306937.680   117223748.21209  22306937.380    91343178.82647
  22983239.380   120777738.59508  22983241.240    94112530.57247
  21621045.700   113619361.99009  21621043.560    88534558.94348
  22247396.480   116910856.97609  22247394.060    91099358.75748
  21138891.020   111085621.94509  21138887.220    86560209.13148
  23904670.120   125619889.26408  23904669.120    97885623.20746
  22581664.140   118667445.22509  22581662.900    92468134.80647
  20200838.020   107795542.15009  20200840.580    83840987.47708
  20296635.560   108649479.46809  20296636.120    84505152.27708
  22843377.260   122153802.91507  22843382.300    95008532.85207
  19615283.720   104965344.62409  19615285.040    81639717.41308
  20246537.860   108077393.74109  20246540.400    84060205.24408
 15 02 25 07 18 30.0000000  0 14G01G03G04G09G11G17G23G31G32R06R07R20
                                R21R22
  20624866.200   108384401.94909  20624867.500    84455383.64649
  20538600.920   107931075.51609  20538601.240    84102138.49449
  22322102.700   117303441.18209  22322102.500    91405277.22447
  22964109.200   120677209.06708  22964111.020    94034195.93147
  21636687.660   113701561.23909  21636685.580    88598610.28648
  22240162.320   116872841.41909  22240160.020    91069736.26048
  21128069.120   111028752.78709  21128065.440    86515895.54648
  23905499.000   125624245.46708  23905498.040    97889017.67646
  22595854.420   118742016.55409  22595853.540    92526242.30047
  20211645.140   107853210.43709  20211647.680    83885840.58908
  20290888.280   108618714.38709  20290888.880    84481223.90808
  22867712.880   122283936.49507  22867717.760    95109747.73907
  19626753.460   105026720.83409  19626754.660    81687454.47408
  20234704.760   108014227.75909  20234707.220    84011076.16708
 15 02 25 07 19  0.0000000  0 14G01G03G04G09G11G17G23G31G32R06R07R20
                                R21R22
  20630702.080   108415068.89409  20630703.240    84479279.96449
  20540197.320   107939464.23709  20540197.500    84108675.16749
  22337324.640   117383432.77009  22337324.440    91467608.29047
  22945029.960   120576947.03408  22945031.700    93956069.70647
  21652401.080   113784135.60009  21652399.020    88662953.94048
  22233036.520   116835395.20009  22233034.300    91040557.37648
  21117334.020   110972339.60309  21117330.520    86471937.24848
  23906434.600   125629162.86208  23906433.760    97892849.40546
  22610061.060   118816673.30808  22610060.200    92584416.37847
  20222501.160   107911139.37209  20222503.600    83930896.40508
  20285218.740   108588365.57309  20285219.420    84457619.28708
  22892091.380   122414298.90807  22892096.200    95211140.58007
  19638363.360   105088846.93809  19638364.520    81735774.75608
  20223000.820   107951751.40409  20223003.220    83962483.45308
 15 02 25 07 19 30.0000000  0 14G01G03G04G09G11G17G23G31G32R06R07R20
                                R21R22
  20636614.080   108446135.77309  20636615.040    84503487.90749
  20541836.600   107948078.43809  20541836.680    84115387.53049
  22352598.180   117463695.16009  22352597.880    91530150.38647
  22925997.000   120476927.61909  22925998.600    93878132.52247
  21668180.440   113867056.10309  21668178.380    88727567.30048
  22226014.080   116798492.10309  22226011.820    91011801.70148
  21106680.880   110916356.33009  21106677.400    86428313.94548
  23907472.040   125634614.93508  23907471.320    97897097.74746
  22624278.540   118891387.62909  22624277.980    92642635.26647
  20233400.480   107969299.58909  20233402.780    83976132.10408
  20279621.820   108558404.94509  20279622.580    84434316.58908
  22916506.820   122544859.23007  22916511.820    95312687.33207
  19650107.780   105151693.37009  19650108.940    81784655.29208
  20211421.620   107889940.68609  20211423.980    83914408.45008
 15 02 25 07 20  0.0000000  0 14G01G03G04G09G11G17G23G31G32R06R07R20
                                R21R22
  20642601.760   108477600.55509  20642602.540    84528005.90149
  20543518.180   107956915.20109  20543518.220    84122273.30949
  22367922.660   117544225.07909  22367922.200    91592900.92347
  22907010.160   120377150.55408  22907011.660    93800384.17647
  21684025.100   113950319.21309  21684022.960    88792447.61748
  22219094.740   116762131.14309  22219092.540    90983468.47148
  21096109.520   110860802.14709  21096105.860    86385024.99048
  23908610.960   125640600.06008  23908610.400    97901761.47346
  22638506.480   118966156.30508  22638506.120    92700896.52147
  20244342.180   108027686.35709  20244344.480    84021544.00808
  20274096.800   108528828.64709  20274097.540    84411312.80408
  22940958.120   122675611.26106  22940963.220    95414383.20207
  19661985.780   105215255.56009  19661987.160    81834092.51108
  20199967.260   107828796.35809  20199969.540    83866851.73808
 15 02 25 07 20 30.0000000  0 14G01G03G04G09G11G17G23G31G32R06R07R20
                                R21R22
  20648665.860   108509467.09009  20648666.440    84552836.93549
  20545242.680   107965977.47009  20545242.700    84129334.78949
  22383298.500   117625025.31109  22383298.000    91655862.07547
  22888070.400   120277621.44608  22888071.900    93722829.03547
  21699935.280   114033926.78009  21699933.040    88857596.32148
  22212279.500   116726317.42709  22212277.500    90955561.65348
  21085620.800   110805681.72009  21085616.840    86342074.00048
  23909852.080   125647122.45008  23909851.600    97906843.81446
  22652745.300   119040981.94609  22652744.920    92759202.15847
  20255326.660   108086301.59909  20255328.900    84067133.59708
  20268644.100   108499639.63809  20268644.800    84388610.23308
  22965445.200   122806555.19506  22965450.320    95516228.31607
  19673997.740   105279534.76109  19673999.400    81884087.38608
  20188638.960   107768325.46209  20188641.260    83819818.79608
 15 02 25 07 21  0.0000000  0 15G01G03G04G09G11G17G20G23G31G32R06R07
                                R20R21R22
  20654805.520   108541730.96409  20654805.940    84577977.59349
  20547009.040   107975259.97209  20547009.100    84136567.88549
  22398724.620   117706090.14009  22398724.120    91719029.42547
  22869177.300   120178337.67808  22869178.940    93645465.07847
  21715909.580   114117872.19309  21715907.420    88923008.27248
  22205567.780   116691047.52409  22205565.940    90928078.60548
  24518673.660   128846517.05407  24518676.720   100399860.37545
  21075213.900   110750991.17909  21075209.560    86299457.98748
  23911194.620   125654177.46608  23911194.100    97912341.22546
  22666994.080   119115859.02009  22666993.700    92817547.84847
  20266352.560   108145138.07109  20266354.800    84112895.26008
  20263262.580   108470832.08209  20263263.260    84366204.35008
  22989966.640   122937682.67007  22989972.100    95618216.14307
  19686142.520   105344523.96409  19686144.160    81934634.49408
  20177436.440   107708526.03409  20177438.780    83773308.10908
 15 02 25 07 21 30.0000000  0 15G01G03G04G09G11G17G20G23G31G32R06R07
                                R20R21R22
  20661022.400   108574400.65209  20661022.740    84603434.46849
  20548818.760   107984770.33109  20548818.900    84143978.54349
  22414202.460   117787426.96709  22414202.100    91782408.69947
  22850332.940   120079309.56109  22850334.600    93568300.33748
  21731949.260   114202161.86109  21731947.260    88988688.47248
  22198961.380   116656330.76009  22198959.580    90901026.56948
  24503083.280   128764587.99008  24503084.540   100336019.42344
  21064890.500   110696740.04509  21064885.860    86257184.37548
  23912640.160   125661774.01408  23912639.720    97918260.60146
  22681254.140   119190794.87209  22681253.480    92875939.36847
  20277421.040   108204201.66309  20277423.380    84158833.56408
  20257953.740   108442413.36309  20257954.340    84344100.90008
  23014523.420   123068998.65907  23014528.860    95720350.63407
  19698421.180   105410229.06109  19698422.680    81985738.41508
  20166361.960   107649409.80909  20166364.300    83727328.81908
 15 02 25 07 22  0.0000000  0 15G01G03G04G09G11G17G20G23G31G32R06R07
                                R20R21R22
  20667313.860   108607462.61309  20667314.280    84629197.00149
  20550669.060   107994494.19809  20550669.320    84151555.56149
  22429729.360   117869021.26709  22429729.100    91845988.56847
  22831535.060   119980525.34709  22831536.520    93491325.64047
  21748051.520   114286780.44909  21748049.680    89054624.98348
  22192457.920   116622154.39009  22192455.980    90874395.60748
  24487504.240   128682718.25808  24487504.560   100272224.76744
  21054648.040   110642915.39409  21054643.280    86215243.07448
  23914186.140   125669898.48508  23914185.720    97924591.36246
  22695522.540   119265774.91609  22695521.740    92934365.30047
  20288529.040   108263476.17809  20288531.540    84204935.90808
  20252714.860   108414368.63409  20252715.340    84322288.33308
  23039112.260   123200485.65707  23039117.760    95822618.10607
  19710830.620   105476633.74609  19710832.020    82037386.45708
  20155413.420   107590965.75609  20155415.760    83681872.31508
 15 02 25 07 22 30.0000000  0 16G01G03G04G09G11G17G20G23G31G32R06R07
                                R16R20R21R22
  20673681.740   108640926.28009  20673682.260    84655272.55049
  20552561.620   108004440.10209  20552561.960    84159305.58749
  22445306.820   117950880.99109  22445306.620    91909775.29747
  22812785.680   119881996.20608  22812786.960    93414549.70147
  21764217.940   114371735.49909  21764216.140    89120823.65148
  22186059.320   116588528.78909  22186057.140    90848193.81448
  24471938.200   128600916.89908  24471938.500   100208483.41445
  21044488.520   110589527.58409  21044483.840    86173642.16848
  23915834.460   125678560.51808  23915833.920    97931341.00646
  22709800.760   119340807.37208  22709800.020    92992832.06347
  20299677.980   108322968.85809  20299680.580    84251207.94508
  20247547.240   108386705.66809  20247547.640    84300772.68808
  23639836.000   126279762.46708  23639843.140    98217617.61306
  23063734.120   123332149.07707  23063739.640    95925022.78007
  19723372.080   105543744.94909  19723373.400    82089583.99208
  20144593.160   107533206.39409  20144595.480    83636948.35208
 15 02 25 07 23  0.0000000  0 16G01G03G04G09G11G17G20G23G31G32R06R07
                                R16R20R21R22
  20680126.100   108674792.12209  20680126.700    84681661.48149
  20554496.420   108014607.78909  20554496.840    84167228.43149
  22460934.720   118033005.59709  22460934.460    91973768.40047
  22794085.180   119783724.46809  22794086.340    93337974.33747
  21780448.220   114457025.43409  21780446.300    89187283.28248
  22179765.760   116555455.30109  22179763.480    90822422.22248
  24456385.460   128519184.74708  24456385.520   100144795.88345
  21034412.320   110536577.82309  21034407.720    86132382.60448
  23917585.140   125687760.80008  23917584.620    97938510.05346
  22724088.840   119415891.77809  22724088.220    93051339.31547
  20310867.620   108382678.18509  20310870.120    84297648.47208
  20242450.800   108359424.08209  20242451.200    84279553.66008
  23623633.220   126193211.82807  23623640.860    98150300.57006
  23088388.500   123463985.90807  23088394.040    96027562.32907
  19736045.100   105611560.32509  19736046.280    82142329.23408
  20133901.840   107476135.09209  20133904.100    83592559.54008
 15 02 25 07 23 30.0000000  0 16G01G03G04G09G11G17G20G23G31G32R06R07
                                R16R20R21R22
  20686647.500   108709063.05109  20686648.220    84708366.06949
  20556473.840   108024999.31909  20556474.340    84175325.70549
  22476613.400   118115397.08809  22476613.000    92037969.48347
  22775434.480   119685714.82708  22775435.580    93261603.20747
  21796742.520   114542651.47109  21796740.380    89254004.82048
  22173577.900   116522937.77809  22173575.660    90797083.86148
  24440845.980   128437524.07007  24440845.760   100081164.13445
  21024420.200   110484069.71409  21024415.660    86091467.19448
  23919438.880   125697502.23608  23919438.500    97946100.81946
  22738387.180   119491029.94408  22738386.720    93109888.45347
  20322097.920   108442604.34009  20322100.300    84344257.66408
  20237425.820   108332525.46009  20237426.340    84258632.49608
  23607487.700   126106966.87507  23607495.260    98083221.39106
  23113075.060   123595995.14807  23113080.820    96130235.96007
  19748849.680   105680080.26809  19748850.840    82195622.46608
  20123340.420   107419757.32509  20123342.700    83548710.16008
 15 02 25 07 24  0.0000000  0 17G01G03G04G09G11G17G20G23G31G32R06R07
                                R08R16R20R21R22
  20693245.300   108743735.41009  20693246.140    84735383.45849
  20558493.060   108035610.29509  20558493.600    84183593.97749
  22492341.920   118198050.54109  22492341.460    92102374.67447
  22756833.300   119587965.48709  22756834.460    93185434.91448
  21813099.580   114628607.95209  21813097.400    89320983.81648
  22167495.300   116490973.66709  22167493.180    90772176.73348
  24425319.560   128355931.62308  24425319.320   100017585.55745
  21014511.640   110432000.41809  21014507.140    86050893.69748
  23921394.940   125707781.05308  23921394.660    97954110.30346
  22752694.820   119566217.08709  22752694.360    93168475.75947
  20333367.620   108502741.16509  20333369.900    84391030.69708
  20232471.520   108306004.93209  20232472.060    84238005.41208
  23605133.320   126404422.75707                                
  23591399.700   126021028.48208  23591407.080    98016380.53506
  23137792.540   123728169.42607  23137798.580    96233037.94807
  19761784.740   105749298.32009  19761786.000    82249458.66308
  20112908.780   107364072.54409  20112911.100    83505399.76408
 15 02 25 07 24 30.0000000  0 17G01G03G04G09G11G17G20G23G31G32R06R07
                                R08R16R20R21R22
  20699919.000   108778806.65509  20699920.000    84762711.64649
  20560553.480   108046437.41009  20560553.980    84192030.65349
  22508119.560   118280962.11209  22508119.100    92166980.99947
  22738281.540   119490475.64009  22738282.760    93109468.82748
  21829518.480   114714889.89109  21829516.400    89388216.42248
  22161517.660   116459561.05409  22161515.580    90747699.33548
  24409805.480   128274404.51707  24409805.160    99954057.87844
  21004686.240   110380368.23409  21004681.880    86010660.80148
  23923452.800   125718595.25408  23923452.580    97962536.96446
  22767011.220   119641449.71709  22767010.800    93227098.49547
  20344675.880   108563084.22809  20344678.120    84437964.12208
  20227587.020   108279858.36409  20227587.700    84217669.17408
  23589145.440   126318811.73007  23589148.360    98247960.93906
  23575369.400   125935397.67807  23575376.740    97949778.99206
  23162539.800   123860502.42807  23162545.900    96335963.40807
  19774849.220   105819209.18109  19774850.780    82303833.71508
  20102606.920   107309080.74009  20102609.280    83462628.34908
 15 02 25 07 55  0.0000000  0 18G01G03G04G06G09G11G17G20G23G31G32R06
                                R07R08R16R21R22R23
  21251705.700   111678467.20009  21251707.380    87022188.01448
  20761430.240   109102052.25809  20761430.480    85014586.40048
  23556766.720   123791644.51008  23556766.880    96461021.03946
  23862879.660   125400278.34708  23862882.280    97714513.84047
  21715476.640   114115599.70309  21715476.560    88921245.40448
  22935441.800   120526559.59209  22935440.820    93916795.66346
  22001866.120   115620586.09209  22001864.520    90093956.56348
  23489418.740   123437727.38808  23489417.020    96185234.36345
  20569214.920   108091953.72109  20569210.380    84227477.11949
  24241933.020   127392217.09508  24241933.080    99266662.23446
  23652692.800   124295739.44908  23652693.040    96853823.45146
  21094064.520   112561969.96109  21094067.120    87548209.26307
  20054249.240   107351966.36609  20054250.400    83495978.15808
  22691988.900   121514569.64208  22691991.560    94511343.44907
  22739685.720   121471319.11307  22739692.120    94477720.06006
  20795455.400   111280682.24509  20795458.420    86551654.16508
  19739323.740   105369850.62209  19739326.240    81954337.67608
  22982772.680   122942335.81908  22982778.480    95621841.60905
 15 02 25 07 55 30.0000000  0 18G01G03G04G06G09G11G17G20G23G31G32R06
                                R07R08R16R21R22R23
  21263075.640   111738216.32009  21263077.260    87068745.74948
  20765881.620   109125444.66209  20765881.840    85032814.24648
  23575206.400   123888545.04108  23575206.860    96536527.81146
  23844086.600   125301520.18408  23844089.160    97637559.47446
  21700687.840   114037884.45209  21700687.720    88860688.12748
  22955018.620   120629436.02309  22955017.460    93996959.05747
  22002625.960   115624578.57909  22002624.280    90097067.56748
  23474756.400   123360676.19008  23474754.560    96125194.55646
  20564796.340   108068733.85809  20564791.860    84209383.72849
  24250235.740   127435847.58208  24250235.840    99300659.94146
  23667323.760   124372627.32908  23667324.340    96913735.97646
  21107088.200   112631467.07709  21107090.860    87602262.54907
  20053276.040   107346756.47809  20053277.140    83491926.03908
  22678545.640   121442581.80708  22678548.460    94455352.95007
  22728797.940   121413159.01408  22728804.200    94432484.53206
  20815418.080   111387506.46809  20815421.100    86634739.60208
  19737925.880   105362389.17209  19737928.540    81948534.33008
  22961640.100   122829290.62608  22961645.980    95533917.58605
 15 02 25 07 56  0.0000000  0 18G01G03G04G06G09G11G17G20G23G31G32R06
                                R07R08R16R21R22R23
  21274540.360   111798463.67009  21274541.960    87115691.71848
  20770390.400   109149139.10209  20770390.660    85051277.43348
  23593702.780   123985743.97408  23593703.540    96612267.08246
  23825327.280   125202939.60508  23825329.880    97560743.49646
  21685990.620   113960650.74909  21685990.520    88800506.06848
  22974655.540   120732627.98808  22974654.220    94077368.30447
  22003515.900   115629254.37009  22003514.040    90100711.02048
  23460130.100   123283814.49608  23460127.960    96065302.41746
  20560487.720   108046091.74409  20560483.260    84191740.52449
  24258656.020   127480095.59508  24258656.120    99335138.82146
  23681978.300   124449637.83708  23681978.880    96973744.06446
  21120150.940   112701172.96409  21120153.760    87656478.19307
  20052379.580   107341956.87309  20052380.520    83488193.00508
  22665164.540   121370925.69508  22665167.000    94399620.42307
  22718037.860   121355679.80708  22718043.700    94387778.54406
  20835492.040   111494925.44309  20835494.860    86718287.62508
  19736701.620   105355854.25109  19736704.380    81943451.61508
  22940596.760   122716722.81608  22940602.620    95446364.87905
 15 02 25 07 56 30.0000000  0 18G01G03G04G06G09G11G17G20G23G31G32R06
                                R07R08R16R21R22R23
  21286079.060   111859100.28709  21286080.780    87162941.00348
  20774935.940   109173026.95109  20774936.360    85069891.32948
  23612235.140   124083131.49008  23612235.700    96688153.34746
  23806581.620   125104430.27808  23806584.140    97483982.99646
  21671364.620   113883791.62509  21671364.660    88740615.87648
  22994331.560   120836025.16009  22994330.200    94157937.43547
  22004515.140   115634505.09409  22004513.160    90104802.47748
  23445519.260   123207034.26608  23445516.980    96005473.81045
  20556268.480   108023919.23309  20556263.940    84174463.24549
  24267173.000   127524851.61008  24267173.000    99370013.56247
  23696635.700   124526662.44208  23696636.200    97033763.14346
  21133232.080   112770976.27609  21133234.880    87710769.63907
  20051538.940   107337455.81709  20051539.660    83484692.17108
  22651824.560   121299490.45608  22651826.960    94344059.71907
  22707385.400   121298775.05208  22707390.920    94343519.37806
  20855655.840   111602824.57809  20855658.380    86802209.10808
  19735630.420   105350136.49109  19735633.280    81939004.47108
  22919622.840   122604526.54008  22919628.740    95359101.13405
 15 02 25 07 57  0.0000000  0 18G01G03G04G06G09G11G17G20G23G31G32R06
                                R07R08R16R21R22R23
  21297691.160   111920122.73609  21297693.000    87210490.91848
  20779517.660   109197105.13209  20779518.360    85088653.52648
  23630802.660   124180703.46708  23630803.060    96764183.32045
  23787849.280   125005991.33808  23787851.680    97407277.37146
  21656809.580   113807305.66609  21656809.880    88681016.45848
  23014045.700   120939622.54009  23014044.300    94238662.57046
  22005623.060   115640327.14209  22005621.060    90109339.10848
  23430923.240   123130332.43308  23430921.160    95945706.17245
  20552137.980   108002213.19409  20552133.360    84157549.44448
  24275785.920   127570111.68608  24275785.700    99405281.10246
  23711295.160   124603697.96008  23711295.820    97093790.71846
  21146330.700   112840873.00309  21146333.600    87765133.71107
  20050753.160   107333249.25009  20050753.860    83481420.37808
  22638525.060   121228273.11007  22638527.700    94288668.52907
  22696840.700   121242445.54908  22696846.100    94299707.59406
  20875908.100   111711197.18309  20875910.520    86886498.83808
  19734711.900   105345233.69709  19734714.840    81935191.17508
  22898718.580   122492702.63408  22898724.460    95272126.99905
 15 02 25 07 57 30.0000000  0 18G01G03G04G06G09G11G17G20G23G31G32R06
                                R07R08R16R21R22R23
  21309376.520   111981530.11209  21309378.440    87258340.78048
  20784135.500   109221373.18309  20784136.500    85107563.68348
  23649404.980   124278458.33608  23649405.220    96840355.84146
  23769130.680   124907624.60408  23769133.120    97330627.98546
  21642325.720   113731193.99709  21642326.340    88621708.71048
  23033797.400   121043417.74609  23033796.040    94319541.88447
  22006839.480   115646719.57209  22006837.560    90114320.19948
  23416342.180   123053709.42008  23416340.540    95885999.99045
  20548096.280   107980973.71709  20548091.600    84140999.20749
  24284494.400   127615874.49708  24284494.040    99440940.39547
  23725956.540   124680743.74508  23725957.540    97153826.27946
  21159446.540   112910861.31009  21159449.500    87819569.03207
  20050022.040   107329335.39309  20050022.740    83478376.25808
  22625266.060   121157273.19408  22625268.860    94233446.45807
  22686404.180   121186694.41608  22686409.100    94256345.63906
  20896248.020   111820039.01809  20896250.400    86971153.52808
  19733946.140   105341145.93609  19733949.000    81932011.79408
  22877884.580   122381255.32208  22877890.500    95185445.79705
 15 02 25 07 58  0.0000000  0 18G01G03G04G06G09G11G17G20G23G31G32R06
                                R07R08R16R21R22R23
  21321135.980   112043326.59309  21321137.920    87306493.84048
  20788790.420   109245835.63509  20788791.600    85126625.32448
  23668042.740   124376399.45608  23668043.320    96916673.45446
  23750427.140   124809336.91208  23750429.560    97254040.21446
  21627914.240   113655462.81909  21627915.200    88562697.42948
  23053587.180   121147413.63408  23053586.000    94400577.55346
  22008165.300   115653686.92209  22008163.480    90119749.28448
  23401777.140   122977170.42508  23401775.840    95826359.23545
  20544144.140   107960204.87109  20544139.380    84124815.69849
  24293299.120   127662143.53508  24293298.740    99476994.17646
  23740620.840   124757804.37108  23740621.860    97213873.41946
  21172580.160   112980944.73509  21172583.180    87874078.31007
  20049346.280   107325717.98309  20049347.020    83475562.70108
  22612048.660   121086495.44708  22612051.640    94178397.11607
  22676077.380   121131530.22908  22676082.200    94213440.21706
  20916675.620   111929350.91609  20916678.080    87056173.81008
  19733334.140   105337878.86209  19733336.960    81929470.72208
  22857122.640   122270193.38708  22857128.600    95099064.32305
 15 02 25 07 58 30.0000000  0 18G01G03G04G06G09G11G17G20G23G31G32R06
                                R07R08R16R21R22R23
  21332968.200   112105505.00609  21332970.080    87354944.50848
  20793481.160   109270485.79809  20793482.380    85145833.22948
  23686714.340   124474519.11408  23686715.060    96993130.19445
  23731737.840   124711123.82308  23731740.160    97177510.54847
  21613574.240   113580106.98509  21613575.480    88503978.62548
  23073413.380   121251601.40209  23073412.500    94481762.72246
  22009599.120   115661221.46509  22009597.320    90125620.32748
  23387226.860   122900708.83408  23387225.780    95766778.82846
  20540280.320   107939900.22609  20540275.520    84108993.90349
  24302198.500   127708911.07208  24302198.400    99513436.38246
  23755286.640   124834872.99208  23755287.660    97273926.81046
  21185730.040   113051115.12909  21185733.060    87928655.24607
  20048724.440   107322389.09909  20048725.240    83472973.55208
  22598871.600   121015932.88708  22598874.600    94123515.20107
  22665859.800   121076949.67608  22665864.780    94170988.69207
  20937189.020   112039122.22809  20937191.540    87141551.41608
  19732874.660   105335426.19909  19732877.480    81927563.08508
  22836432.340   122159514.69408  22836438.380    95012980.94405
 15 02 25 07 59  0.0000000  0 19G01G03G04G06G09G11G17G20G23G31G32R06
                                R07R08R09R16R21R22R23
  21344873.680   112168068.12409  21344875.460    87403694.95548
  20798208.380   109295326.87409  20798209.480    85165189.89748
  23705420.160   124572819.38408  23705421.180    97069727.64045
  23713063.840   124612990.88608  23713066.140    97101043.34947
  21599306.580   113505131.31009  21599308.100    88445556.04448
  23093276.420   121355982.42709  23093275.660    94563098.49147
  22011141.540   115669326.76909  22011139.720    90131936.12948
  23372692.120   122824328.47008  23372691.140    95707261.67146
  20536505.480   107920063.26109  20536500.660    84093536.53049
  24311192.940   127756179.29907  24311193.420    99550268.70746
  23769954.420   124911952.94308  23769955.540    97333989.00645
  21198896.760   113121375.13409  21198899.600    87983301.87507
  20048156.840   107319350.81209  20048157.700    83470610.40508
  22585735.480   120945588.81908  22585738.240    94068803.22607
  23553777.740   125775857.70508  23553783.120                  
  22655752.820   121022960.00608  22655757.980    94128996.75907
  20957788.160   112149352.47309  20957790.740    87227285.96408
  19732568.440   105333791.62409  19732571.260    81926291.72808
  22815815.120   122049226.80008  22815821.180    94927201.52405
 15 02 25 07 59 30.0000000  0 19G01G03G04G06G09G11G17G20G23G31G32R06
                                R07R08R09R16R21R22R23
  21356852.180   112231015.27509  21356853.860    87452744.63148
  20802971.920   109320358.60209  20802972.880    85184695.10348
  23724160.020   124671298.74608  23724161.600    97146464.63746
  23694405.380   124514940.03208  23694407.660    97024640.11946
  21585111.480   113430537.08609  21585113.360    88387430.69948
  23113175.960   121460554.97909  23113175.180    94644583.49446
  22012792.400   115678001.97309  22012790.520    90138695.98848
  23358172.940   122748029.73008  23358171.940    95647808.12046
  20532819.420   107900693.40009  20532814.680    84078443.13949
  24320282.520   127803946.68608  24320283.340    99587490.02945
  23784624.320   124989043.73008  23784625.240    97394059.63845
  21212080.060   113191723.40209  21212082.880    88038017.13407
  20047643.340   107316601.95609  20047644.200    83468472.36408
  22572640.120   120875463.05908  22572642.500    94014261.01407
  23533142.320   125665673.16307  23533149.580    97739990.67604
  22645757.060   120969564.50108  22645762.520    94087466.94107
  20978472.320   112260037.63409  20978474.960    87313374.33108
  19732415.680   105332975.65509  19732418.340    81925657.05408
  22795271.760   121939333.80808  22795277.860    94841729.27105
 15 02 25 08 00  0.0000000  0 19G01G03G04G06G09G11G17G20G23G31G32R06
                                R07R08R09R16R21R22R23
  21368903.020   112294342.68809  21368904.620    87502090.62248
  20807771.160   109345577.73809  20807771.960    85204346.36348
  23742933.200   124769952.88808  23742934.940    97223337.84946
  23675762.340   124416970.34008  23675764.660    96948300.15946
  21570988.760   113356322.60809  21570990.900    88329601.26048
  23133111.000   121565313.55909  23133110.100    94726213.45447
  22014550.960   115687243.20609  22014549.020    90145896.91348
  23343668.800   122671809.62808  23343667.740    95588415.85146
  20529221.700   107881787.90009  20529217.060    84063711.60049
  24329466.620   127852209.31808  24329467.180    99625097.27945
  23799295.780   125066142.10008  23799296.340    97454136.22546
  21225279.080   113262155.71309  21225281.780    88092797.77507
  20047183.040   107314138.04409  20047183.960    83466555.95608
  22559584.780   120805551.95308  22559586.860    93959885.72607
  23512521.840   125555560.86507  23512529.300    97654347.96203
  22635872.620   120916763.44408  22635878.360    94046399.46707
  20999240.140   112371170.39109  20999242.760    87399810.83408
  19732415.860   105332975.65709  19732418.300    81925657.01908
  22774802.420   121829836.59108  22774808.520    94756564.82905
 15 02 25 08 00 30.0000000  0 19G01G03G04G06G09G11G17G20G23G31G32R06
                                R07R08R09R16R21R22R23
  21381026.220   112358050.17909  21381027.740    87551732.78248
  20812606.060   109370984.58409  20812606.720    85224143.89348
  23761739.640   124868780.90108  23761741.340    97300346.54746
  23657135.180   124319084.47408  23657137.380    96872025.45646
  21556938.800   113282489.74309  21556941.060    88272069.17848
  23153081.220   121670256.73509  23153080.100    94807987.24547
  22016417.220   115697050.51009  22016415.320    90153538.93648
  23329179.820   122595669.01508  23329178.620    95529085.52846
  20525712.440   107863346.87409  20525707.840    84049341.98449
  24338744.800   127900965.87908  24338744.580    99663089.43144
  23813968.700   125143248.35608  23813969.380    97514218.90246
  21238493.520   113332670.53909  21238496.180    88147642.60007
  20046775.900   107311958.35309  20046776.740    83464860.61508
  22546569.640   120735856.15608  22546571.380    93905677.88807
  23491915.500   125445525.68907  23491922.480    97568765.23203
  22626100.340   120864561.17908  22626106.180    94005797.74007
  21020091.040   112482747.37809  21020093.720    87486592.83408
  19732568.880   105333792.29909  19732571.340    81926292.16208
  22754407.960   121720740.13108  22754413.960    94671712.09005
 15 02 25 08 30 30.0000000  0 20G01G03G04G06G07G09G10G11G17G20G23G32
                                R06R07R08R09R16R21R22R23
  22234661.400   116843932.33908  22234663.720    91047229.65448
  21167459.180   111235748.62609  21167459.420    86677207.16848
  24940694.040   131064230.86107  24940698.440   102127990.53444
  22584996.400   118684957.29509  22584998.240    92481792.25748
  24539942.520   128958267.12508  24539946.680   100486978.14445
  20855138.000   109594491.28709  20855138.360    85398304.50249
  23668248.320   124377486.73908  23668250.400    96917524.98446
  24400685.740   128226465.20908  24400687.440    99916737.82345
  22318123.720   117282531.70109  22318123.140    91388983.24748
  22490267.980   118187156.36309  22490266.520    92093881.08847
  20474120.620   107592229.50209  20474116.080    83838082.16949
  24696202.580   129779420.73908  24696205.320   101126832.72245
  22052798.700   117677962.69008  22052804.880    91527322.80707
  20111003.580   107655775.30909  20111004.700    83732274.10408
  21837101.940   116936690.84209  21837103.840    90950762.15807
  22315229.440   119162084.27609  22315235.460    92681644.05504
  22265999.800   118940974.12208  22266004.580    92509668.04307
  22393994.620   119834791.48708  22393998.940    93204853.44907
  20019060.780   106863104.44409  20019063.640    83115759.82708
  21696930.780   116063949.12108  21696936.340    90271984.61306
 15 02 25 08 58  0.0000000  0 17G01G03G06G07G09G10G17G20G23R06R07R08
                                R09R10R16R22R23
  23205810.820   121947358.48708  23205814.960    95023930.22047
  21603518.560   113527257.16409  21603519.800    88462801.70348
  21735876.580   114222801.14409  21735878.560    89004788.50548
  23469274.500   123331870.60808  23469275.280    96102758.02347
  20470747.740   107574504.86909  20470747.940    83824289.69949
  22834682.100   119997063.33208  22834681.860    93504206.05646
  22881753.140   120244424.32309  22881753.100    93696953.62347
  21783477.400   114472945.48809  21783475.560    89199690.55048
  20681255.540   108680730.60609  20681251.560    84686267.88248
  22819542.920   121769451.96108  22819548.220    94709595.26106
  20297064.140   108651773.09009  20297065.420    84506939.95908
  21298923.560   114054769.27309  21298925.040    88709270.29408
  21446532.120   114523282.68008  21446534.320    89073677.46605
  23499497.860   125265540.19908  23499510.160    97428809.55704
  22369931.420   119496158.76608  22369936.440    92941475.97607
  20721976.500   110615316.72809  20721978.540    86034144.15508
  21098037.140   112860270.06309  21098042.440    87780232.78506
 15 02 25 08 58 30.0000000  0 17G01G03G06G07G09G10G17G20G23R06R07R08
                                R09R10R16R22R23
  23224816.520   122047233.54708  23224820.720    95101754.78547
  21612437.680   113574127.51109  21612439.100    88499323.98048
  21722134.040   114150583.25709  21722135.960    88948514.81848
  23450020.520   123230690.38608  23450021.460    96023916.40747
  20466092.860   107550042.58709  20466092.940    83805228.16849
  22820035.560   119920095.18209  22820035.240    93444230.89246
  22894067.640   120309136.44309  22894067.460    93747378.53947
  21771291.340   114408907.32609  21771289.500    89149790.67948
  20687026.700   108711057.79409  20687022.660    84709899.42048
  22833580.620   121844358.80408  22833585.820    94767855.97906
  20301384.620   108674900.78109  20301385.840    84524928.13608
  21290021.620   114007099.98608  21290023.220    88672194.15308
  21433515.900   114453776.84508  21433518.740    89019617.42405
  23476029.540   125140442.27108  23476042.100    97331511.49804
  22375811.820   119527571.35008  22375816.860    92965907.89407
  20738088.600   110701323.94509  20738090.440    86101038.56608
  21091036.840   112822822.47009  21091041.940    87751106.86206
 15 02 25 08 59  0.0000000  0 17G01G03G06G07G09G10G17G20G23R06R07R08
                                R09R10R16R22R23
  23243866.920   122147343.20708  23243871.100    95179762.14447
  21621395.580   113621202.02409  21621397.180    88536005.34748
  21708464.280   114078747.60009  21708466.080    88892538.97348
  23430787.120   123129618.14208  23430788.060    95945158.91447
  20461523.460   107526029.83409  20461523.460    83786516.91949
  22805412.080   119843248.28408  22805411.600    93384350.18647
  22906449.200   120374200.35609  22906448.800    93798077.57147
  21759134.660   114345023.69709  21759132.940    89100011.22348
  20692867.180   108741749.52409  20692863.120    84733815.00448
  22847624.260   121919297.84908  22847629.540    94826141.73007
  20305739.120   108698210.88709  20305740.460    84543058.18508
  21281152.520   113959605.91108  21281154.020    88635254.30708
  21420616.880   114384896.97908  21420619.920    88966044.20605
  23452563.900   125015358.00508  23452576.360    97234224.09604
  22381836.100   119559752.29308  22381841.040    92990937.42506
  20754309.560   110787912.59009  20754311.320    86168385.20108
  21084185.780   112786174.38709  21084190.960    87722602.79306
 15 02 25 08 59 30.0000000  0 17G01G03G06G07G09G10G17G20G23R06R07R08
                                R09R10R16R22R23
  23262957.500   122247664.45908  23262961.760    95257934.35647
  21630388.260   113668459.74909  21630390.120    88572829.46448
  21694863.660   114007275.54109  21694865.360    88836846.45248
  23411570.820   123028635.58308  23411571.560    95866471.28247
  20457035.400   107502445.00609  20457035.440    83768139.11549
  22790807.760   119766502.35309  22790807.320    93324548.17346
  22918893.040   120439591.78709  22918892.300    93849031.81247
  21747003.440   114281273.84709  21747001.780    89050336.01648
  20698772.700   108772783.05709  20698768.640    84757996.92748
  22861669.900   121994247.78408  22861675.440    94884435.95206
  20310123.640   108721681.60809  20310125.100    84561313.13608
  21272311.960   113912264.76909  21272313.400    88598433.40308
  21407831.740   114316625.03709  21407834.600    88912943.85405
  23429097.540   124890269.85508  23429110.140    97136933.71104
  22388000.080   119592679.24808  22388004.680    93016547.20806
  20770634.640   110875057.04209  20770636.420    86236164.13208
  21077480.520   112750305.98409  21077485.800    87694705.14006
 15 02 25 09 00  0.0000000  0 17G01G03G06G07G09G10G17G20G23R06R07R08
                                R09R10R16R22R23
  23282088.700   122348198.84808  23282092.740    95336272.66247
  21639416.620   113715904.25409  21639418.580    88609799.12648
  21681333.340   113936173.09309  21681335.000    88781441.93948
  23392372.800   122927748.98908  23392373.200    95787858.43546
  20452629.360   107479291.18009  20452629.420    83750097.15749
  22776223.340   119689861.02908  22776222.940    93264827.64647
  22931399.100   120505311.21608  22931398.180    93900241.64047
  21734898.500   114217662.11109  21734896.900    89000768.41348
  20704743.660   108804160.57509  20704739.620    84782446.87548
  22875718.160   122069212.03408  22875723.880    94942741.32006
  20314538.680   108745315.48409  20314540.140    84579694.99208
  21263500.540   113865079.98008  21263502.080    88561734.10908
  21395161.900   114248968.75808  21395164.660    88860322.30605
  23405631.920   124765186.08208  23405644.600    97039646.76705
  22394304.240   119626354.53608  22394308.640    93042739.04006
  20787063.660   110962756.73909  20787065.540    86304374.92008
  21070922.020   112715222.24609  21070927.280    87667417.76806
 15 02 25 09 00 30.0000000  0 17G01G03G06G07G09G10G17G20G23R06R07R08
                                R09R10R16R22R23
  23301259.900   122448943.03808  23301263.720    95414774.44347
  21648480.320   113763534.27109  21648482.320    88646913.33348
  21667873.560   113865441.30409  21667875.220    88726326.24248
  23373193.200   122826959.32209  23373193.380    95709321.08346
  20448304.920   107456566.39409  20448305.000    83732389.50949
  22761658.700   119613323.57409  22761658.340    93205188.08746
  22943966.480   120571354.36008  22943965.740    93951703.70747
  21722819.680   114154187.87709  21722818.120    88951307.96748
  20710779.500   108835878.86009  20710775.460    84807162.36748
  22889768.880   122144189.02708  22889774.580    95001056.55806
  20318983.940   108769111.13709  20318985.420    84598202.67008
  21254717.840   113818049.39509  21254719.540    88525154.75008
  21382607.620   114181930.29208  21382610.520    88808181.32005
  23382167.560   124640109.07908  23382180.200    96942365.09104
  22400748.020   119660775.65408  22400752.360    93069510.93606
  20803595.640   111051006.31909  20803597.720    86373013.38208
  21064510.320   112680923.42909  21064515.380    87640740.89206
 15 02 25 09 14 30.0000000  0 17G01G03G06G07G09G10G17G20G23R06R07R08
                                R09R10R16R22R23
  23852954.100   125348118.47008  23852958.700    97673875.03046
  21916919.460   115174186.58109  21916921.120    89746128.74848
  21321736.320   112046479.79909  21321738.220    87308953.31549
  22846049.580   120056801.81309  22846049.380    93550753.29447
  20360144.100   106993278.36909  20360144.460    83371388.11349
  22362574.960   117516124.31308  22362574.460    91571003.61247
  23318784.240   122541036.96208  23318783.700    95486519.66347
  21396103.200   112437282.42209  21396101.800    87613459.92648
  20905108.260   109857085.31809  20905104.200    85602906.51648
  23284437.260   124250218.42608  23284444.260    96639087.36606
  20455566.700   109500250.23908  20455569.240    85166870.97308
  21020371.400   112563133.08809  21020372.820    87549109.07108
  21081054.320   112571655.66308  21081057.740    87555744.12705
  22729189.560   121159372.37108  22729199.480    94235102.34905
  22636962.880   120922597.07807  22636970.420    94050936.76507
  21305339.420   113729347.94308  21305345.280    88456183.67908
  20945651.800   112045112.72209  20945656.640    87146219.84207
 15 02 25 09 15  0.0000000  0 17G01G03G06G07G09G10G17G20G23R06R07R08
                                R09R10R16R22R23
  23873137.720   125454182.96308  23873142.460    97756522.41546
  21927037.100   115227354.73809  21927038.740    89787558.37748
  21310541.500   111987650.69309  21310543.400    87263112.44449
  22827656.600   119960146.38509  22827656.440    93475437.37847
  20358156.240   106982831.77809  20358156.580    83363247.88049
  22348655.160   117442975.63309  22348654.780    91514004.64047
  23332908.540   122615261.27408  23332908.180    95544356.66647
  21384872.960   112378267.27509  21384871.520    87567474.09448
  20912912.080   109898095.02809  20912908.100    85634862.07948
  23298583.260   124325704.03008  23298590.180    96697798.13606
  20460870.700   109528642.29509  20460873.060    85188953.61808
  21012407.220   112520485.29509  21012408.740    87515938.53808
  21072164.880   112524187.19308  21072168.380    87518824.19805
  22706135.640   121036482.65808  22706145.700    94139521.59905
  22647348.000   120978071.31808  22647355.200    94094083.35206
  21324533.120   113831804.40308  21324538.720    88535871.91808
  20943599.600   112034135.68309  20943604.660    87137682.10807
 15 02 25 09 15 30.0000000  0 17G01G03G06G07G09G10G17G20G23R06R07R08
                                R09R10R16R22R23
  23893352.240   125560410.09208  23893357.240    97839296.44646
  21937193.300   115280725.49909  21937195.020    89829145.86348
  21299433.300   111929276.92909  21299435.240    87217626.39048
  22809300.540   119863684.97709  22809300.420    93400272.66947
  20356248.680   106972807.18909  20356248.960    83355436.47249
  22334761.420   117369963.74909  22334761.120    91457112.23947
  23347079.480   122689731.04908  23347079.420    95602384.91346
  21373676.480   112319429.25509  21373674.940    87521626.27848
  20920774.000   109939410.49009  20920770.140    85667055.88448
  23312734.920   124401218.91108  23312741.880    96756531.70607
  20466205.320   109557197.77208  20466207.440    85211163.38608
  21004472.020   112477992.65909  21004473.600    87482888.68608
  21063412.760   112477451.84108  21063416.480    87482474.47305
  22683110.160   120913744.87908  22683120.300    94044059.06005
  22657865.780   121034252.45708  22657872.200    94137779.78506
  21343808.240   113934695.36308  21343813.660    88615898.09808
  20941701.320   112023981.63909  20941706.620    87129784.48107
 15 02 25 09 16  0.0000000  0 17G01G03G06G07G09G10G17G20G23R06R07R08
                                R09R10R16R22R23
  23913594.580   125666783.36408  23913599.680    97922184.43146
  21947385.340   115334284.58909  21947387.120    89870880.12548
  21288409.440   111871346.43509  21288411.380    87172485.73949
  22790979.280   119767406.14609  22790979.260    93325250.21147
  20354418.520   106963189.38109  20354418.700    83347942.04849
  22320891.100   117297074.88008  22320890.720    91400315.70547
  23361293.960   122764429.26908  23361294.120    95660591.18747
  21362511.100   112260754.59209  21362509.520    87475905.75948
  20928691.080   109981015.65209  20928687.340    85699475.42748
  23326889.420   124476748.85908  23326896.420    96815277.01306
  20471567.460   109585901.18608  20471569.620    85233488.23108
  20996563.040   112435640.26208  20996564.640    87449947.90708
  21054795.880   112431438.07308  21054799.640    87446685.99105
  22660111.260   120791148.69808  22660121.520    93948706.65205
  22668512.620   121091123.37108  22668518.500    94182012.69006
  21363161.140   114038001.52108  21363166.340    88696247.21608
  20939954.240   112014636.31909  20939959.640    87122515.86107
 15 02 25 09 16 30.0000000  0 17G01G03G06G07G09G10G17G20G23R06R07R08
                                R09R10R16R22R23
  23933865.840   125773309.04108  23933871.020    98005191.12846
  21957614.820   115388040.53509  21957616.580    89912767.76148
  21277472.000   111813869.76809  21277473.880    87127698.71149
  22772694.820   119671320.85209  22772694.920    93250378.56247
  20352667.160   106953985.84309  20352667.320    83340770.41749
  22307045.960   117224318.44909  22307045.580    91343622.38047
  23375553.000   122839360.84608  23375553.240    95718979.28546
  21351378.780   112202253.58009  21351377.180    87430320.55148
  20936664.660   110022917.05309  20936660.920    85732125.79848
  23341048.200   124552302.17308  23341055.280    96874040.44306
  20476958.980   109614761.80209  20476961.100    85255935.32208
  20988681.700   112393436.22609  20988683.380    87417122.51508
  21046316.340   112386157.21508  21046320.060    87411467.53605
  22637141.400   120668707.16008  22637151.820    93853474.51805
  22679289.580   121148690.35208  22679295.260    94226786.90606
  21382592.520   114141726.85808  21382597.560    88776922.35108
  20938359.900   112006108.01409  20938365.380    87115882.69207
 15 02 25 09 17  0.0000000  0 17G01G03G06G07G09G10G17G20G23R06R07R08
                                R09R10R16R22R23
  23954163.920   125879976.26408  23954169.420    98088308.12046
  21967880.100   115441984.58609  21967881.940    89954801.97148
  21266619.700   111756840.35209  21266621.540    87083260.19748
  22754446.060   119575423.18909  22754446.280    93175653.11247
  20350992.680   106945186.83009  20350992.960    83333914.00849
  22293224.340   117151686.03208  22293224.200    91287025.68347
  23389854.260   122914513.72009  23389854.500    95777539.83847
  21340277.900   112143917.63109  21340276.240    87384863.96548
  20944692.640   110065104.29909  20944688.940    85764998.90748
  23355209.800   124627870.59008  23355216.940    96932815.64506
  20482378.180   109643769.83909  20482380.080    85278497.08508
  20980826.380   112351371.30409  20980827.960    87384405.32208
  21037972.920   112341603.14009  21037976.420    87376814.34505
  22614199.840   120546416.07908  22614210.060    93758359.34705
  22690194.440   121206941.93808  22690200.180    94272093.55207
  21402099.780   114245857.83308  21402104.760    88857912.98907
  20936916.760   111998388.02809  20936922.140    87109878.20407
 15 02 25 09 17 30.0000000  0 17G01G03G06G07G09G10G17G20G23R06R07R08
                                R09R10R16R22R23
  23974489.580   125986788.42808  23974495.300    98171538.00946
  21978182.160   115496122.41309  21978184.100    89996987.16748
  21255854.000   111700265.93909  21255855.820    87039176.21449
  22736234.580   119479721.25509  22736234.920    93101080.15448
  20349396.060   106936796.99809  20349396.400    83327376.42449
  22279427.580   117079184.21508  22279427.560    91230530.75347
  23404198.120   122989890.68208  23404198.480    95836274.99447
  21329209.640   112085753.36709  21329208.000    87339541.16248
  20952775.720   110107581.32109  20952772.160    85798097.80148
  23369375.340   124703459.40308  23369382.440    96991606.71905
  20487825.940   109672930.85309  20487827.580    85301177.82008
  20972998.020   112309450.79209  20972999.560    87351800.44108
  21029767.160   112297784.02508  21029770.540    87342732.76605
  22591288.460   120424285.57908  22591298.780    93663369.14905
  22701227.980   121265881.51308  22701233.860    94317935.28507
  21421683.200   114350395.71508  21421688.200    88939220.09007
  20935625.680   111991481.85309  20935631.060    87104506.68507
 15 02 25 09 18  0.0000000  0 17G01G03G06G07G09G10G17G20G23R06R07R08
                                R09R10R16R22R23
  23994842.440   126093743.16108  23994848.380    98254879.02446
  21988520.940   115550453.81309  21988523.160    90039323.20748
  21245175.240   111644148.48409  21245177.100    86995448.31549
  22718060.820   119384217.67009  22718061.200    93026661.78648
  20347877.120   106928815.13509  20347877.500    83321156.75349
  22265655.840   117006813.25609  22265655.760    91174137.80247
  23418583.780   123065487.89408  23418584.460    95895181.77247
  21318174.120   112027761.36009  21318172.560    87294352.57348
  20960913.720   110150346.54509  20960910.260    85831421.28148
  23383544.560   124779068.63607  23383551.620    97050413.67805
  20493302.100   109702244.30709  20493303.580    85323977.12308
  20965196.400   112267673.93709  20965198.120    87319307.31108
  21021699.520   112254702.60709  21021702.720    87309224.94705
  22568407.800   120302319.39608  22568417.900    93568506.69505
  22712389.880   121325506.31008  22712395.780    94364310.02806
  21441342.020   114455335.76108  21441347.080    89020840.01408
  20934486.780   111985389.33009  20934492.120    87099768.03407
 15 02 25 09 18 30.0000000  0 17G01G03G06G07G09G10G17G20G23R06R07R08
                                R09R10R16R22R23
  24015222.040   126200837.57308  24015228.160    98338328.86346
  21998896.380   115604978.20609  21998898.840    90081809.63248
  21234583.600   111588489.39009  21234585.560    86952077.58249
  22699925.100   119288914.22509  22699925.520    92952399.35248
  20346435.600   106921239.62309  20346436.020    83315253.71649
  22251909.040   116934573.17509  22251908.900    91117846.80547
  23433010.640   123141301.77308  23433011.580    95954257.37947
  21307171.540   111969942.29609  21307170.000    87249298.73448
  20969106.040   110193397.10909  20969102.640    85864967.09748
  23397717.480   124854698.23407  23397724.680    97109236.42905
  20498806.500   109731709.25609  20498807.880    85346894.25108
  20957421.420   112226039.81308  20957423.320    87286925.19608
  21013770.340   112212360.64608  21013773.380    87276292.26505
  22545558.720   120180521.63508  22545568.840    93473775.25206
  22723679.620   121385813.02208  22723685.460    94411215.15107
  21461075.160   114560672.63208  21461080.340    89102768.56008
  20933499.880   111980109.54009  20933505.200    87095661.47107
 15 02 25 09 19  0.0000000  0 17G01G03G06G07G09G10G17G20G23R06R07R08
                                R09R10R16R22R23
  24035628.080   126308070.39508  24035634.180    98421886.58546
  22009308.760   115659696.44109  22009311.420    90124447.10048
  21224079.700   111533291.66409  21224081.740    86909066.36149
  22681828.240   119193814.71809  22681828.680    92878295.84447
  20345071.420   106914070.27009  20345071.820    83309667.16449
  22238187.440   116862465.59309  22238187.220    91061659.04647
  23447478.340   123217329.68708  23447479.380    96013499.76047
  21296202.140   111912297.65209  21296200.580    87204380.81148
  20977352.620   110236732.51709  20977349.160    85898734.87448
  23411894.300   124930348.72908  23411901.580    97168075.43105
  20504339.360   109761326.40409  20504340.760    85369929.76508
  20949673.300   112184549.00609  20949675.100    87254654.53708
  21005980.240   112170761.57308  21005983.200    87243937.37405
  22522742.180   120058897.56008  22522752.160    93379178.88605
  22735096.800   121446800.30408  22735102.560    94458649.56807
  21480881.900   114666402.52108  21480887.180    89185002.80008
  20932664.960   111975642.89609  20932670.280    87092187.37107
 15 02 25 09 19 30.0000000  0 17G01G03G06G07G09G10G17G20G23R06R07R08
                                R09R10R16R22R23
  24056059.780   126415437.92708  24056065.640    98505549.24246
  22019757.840   115714607.07909  22019760.560    90167234.48948
  21213663.760   111478555.93209  21213665.820    86866415.13749
  22663770.480   119098920.51409  22663770.880    92804352.29847
  20343784.000   106907304.61709  20343784.360    83304395.18649
  22224490.940   116790489.70609  22224490.580    91005573.93347
  23461985.960   123293566.97508  23461986.760    96072905.29746
  21285265.840   111854826.80509  21285264.180    87159598.30748
  20985652.760   110280349.19109  20985649.180    85932721.81948
  23426074.960   125006019.18908  23426082.340    97226929.98805
  20509900.240   109791093.98409  20509901.760    85393082.28108
  20941951.600   112143199.60509  20941953.360    87222493.86908
  20998329.420   112129906.67509  20998332.340    87212161.25905
  22499958.820   119937450.28308  22499968.660    93284720.02805
  22746640.460   121508463.71308  22746646.280    94506609.86407
  21500761.100   114772519.43808  21500766.600    89267538.05508
  20931981.680   111971987.99609  20931987.000    87089344.60607
 15 02 25 09 20  0.0000000  0 18G01G03G06G07G09G10G17G20G23R06R07R08
                                R09R10R16R22R23R24
  24076516.960   126522939.46508  24076522.680    98589316.34346
  22030243.920   115769711.57309  22030246.720    90210172.95148
  21203336.500   111424285.72509  21203338.480    86824126.65048
  22645752.520   119004235.65109  22645752.900    92730571.90547
  20342573.480   106900943.06309  20342573.760    83299438.09449
  22210819.900   116718647.65308  22210819.520    90949593.07647
  23476533.200   123370012.18008  23476533.820    96132472.85546
  21274363.080   111797532.34409  21274361.400    87114953.25148
  20994006.400   110324247.10309  20994002.740    85966927.92748
  23440259.700   125081710.80208  23440267.120    97285800.98105
  20515489.340   109821012.95109  20515491.000    85416352.54508
  20934256.460   112101992.51208  20934258.320    87190443.89708
  20990818.660   112089799.63809  20990821.480    87180966.85505
  22477209.940   119816185.89808  22477219.680    93190403.43305
  22758310.420   121570802.10108  22758316.320    94555095.14007
  21520712.240   114879020.40008  21520718.040    89350372.01408
  20931450.300   111969145.72009  20931455.660    87087133.90707
  23631374.460   126367582.11908  23631378.280                  
 15 02 25 09 20 30.0000000  0 19G01G02G03G06G07G09G10G17G20G23R06R07
                                R08R09R10R16R22R23R24
  24096999.020   126630572.12608  24097004.680    98673185.58146
  24846045.480   130566849.38408  24846044.600   101740394.91945
  22040766.860   115825009.32009  22040769.660    90253261.98948
  21193098.120   111370482.44109  21193100.000    86782202.00148
  22627774.760   118909761.70809  22627775.100    92656955.85548
  20341439.460   106894983.89709  20341439.780    83294794.55149
  22197174.260   116646939.41809  22197173.940    90893716.54347
  23491119.220   123446661.08508  23491119.660    96192199.13347
  21263493.780   111740414.10209  21263492.180    87070445.51048
  21002413.060   110368423.76109  21002409.240    86001351.23348
  23454448.360   125157423.11908  23454455.840    97344688.17305
  20521106.500   109851082.58909  20521108.280    85439739.98308
  20926587.740   112060926.91309  20926589.580    87158503.96608
  20983448.280   112050442.32909  20983451.060    87150355.55105
  22454496.140   119695107.99808  22454505.680    93096231.83006
  22770106.060   121633812.38108  22770112.060    94604103.02407
  21540734.460   114985900.04508  21540740.420    89433500.50808
  20931070.640   111967115.12109  20931076.140    87085554.49907
  23613853.180   126273887.62108  23613856.680    98213037.16405
 15 02 25 09 31 30.0000000  0 19G01G02G03G06G07G09G10G17G20G23G30R07
                                R08R09R10R16R22R23R24
  24553163.420   129027748.08207  24553171.460   100541132.20645
  24421319.500   128334902.92108  24421318.620   100001218.85046
  22281676.320   117090997.08009  22281678.640    91239749.12948
  20991198.560   110309492.86109  20991200.840    85955457.67049
  22243549.940   116890643.63709  22243550.460    91083620.19648
  20335539.020   106863978.34409  20335539.520    83270633.90749
  21903797.300   115105230.83009  21903797.320    89692387.72847
  23820667.140   125178448.21708  23820669.160    97541657.41746
  21033340.240   110530948.47709  21033338.120    86128002.35548
  21200210.240   111407856.15609  21200206.580    86811301.06248
  24476042.240   128622467.92808  24476048.180   100225321.01745
  20651836.300   110550893.98309  20651837.800    85984036.20208
  20764538.100   111193157.64809  20764539.200    86483571.62208
  20857763.480   111379294.05808  20857766.620    86628349.94405
  21965451.240   117088217.15108  21965461.100    91068651.25406
  23060444.040   123184748.76407  23060451.120    95810390.52507
  21997507.120   117424184.85308  21997512.080    91329943.40707
  20960961.500   112127009.17309  20960966.880    87209919.17307
  23253594.120   124347416.87707  23253597.600    96714672.50205
 15 02 25 09 42 30.0000000  0 18G02G03G06G07G09G10G17G20G23G30R07R08
                                R09R10R16R22R23R24
  24009909.780   126172928.56808  24009908.380    98316559.97846
  22540774.700   118452568.55109  22540777.740    92300715.86247
  20836705.880   109497626.80009  20836707.860    85322834.80249
  21884730.800   115005037.05509  21884730.720    89614313.33148
  20364637.800   107016892.94309  20364637.920    83389787.47849
  21624801.240   113639097.37809  21624801.240    88549946.38348
  24162509.960   126974845.72508  24162512.260    98941446.26146
  20821971.440   109420197.55709  20821970.140    85262487.34448
  21420445.760   112565200.44509  21420442.440    87713130.42248
  24013494.840   126191764.77808  24013499.720    98331266.54446
  20796341.700   111324442.20109  20796344.520    86585690.51108
  20615146.500   110393173.92308  20615148.820    85861366.22008
  20804400.520   111094336.29509  20804403.540    86406717.66605
  21503211.260   114624216.55209  21503220.020    89152208.46906
  23405711.080   125029103.31608  23405717.360    97244885.95505
  22479300.300   119996031.53908  22479306.540    93330272.10407
  21062644.100   112670941.32509  21062649.880    87632979.24706
  22946246.380   122703889.52708  22946249.600    95436374.46705
 15 02 25 09 43  0.0000000  0 18G02G03G06G07G09G10G17G20G23G30R07R08
                                R09R10R16R22R23R24
  23991605.180   126076737.81408  23991604.040    98241606.19346
  22552986.160   118516739.53909  22552989.060    92350719.09347
  20830867.400   109466944.83409  20830869.320    85298926.74449
  21869111.260   114922955.86309  21869111.160    89550353.95548
  20366753.400   107028010.36909  20366753.500    83398450.35749
  21612493.160   113574418.05209  21612493.080    88499546.89448
  24178237.720   127057494.69208  24178239.980    99005847.84146
  20812849.120   109372258.73309  20812847.640    85225132.38148
  21430937.660   112620335.81809  21430934.280    87756092.99048
  23992537.900   126081635.42508  23992542.540    98245451.54846
  20803241.680   111361376.49509  20803244.100    86614417.09308
  20608656.380   110358419.33609  20608658.780    85834334.83408
  20803736.380   111090789.69109  20803739.460    86403959.16205
  21482987.880   114516414.87409  21482996.580    89068362.80007
  23422603.560   125119339.24908  23422609.760    97315069.41905
  22501647.820   120115322.99508  22501653.800    93423054.11707
  21068921.400   112704520.87208  21068927.340    87659096.58907
  22933635.080   122636451.23108  22933638.440    95383922.49605
 15 02 25 09 43 30.0000000  0 18G02G03G06G07G09G10G17G20G23G30R07R08
                                R09R10R16R22R23R24
  23973341.500   125980761.44608  23973340.460    98166819.41346
  22565237.920   118581122.83109  22565241.000    92400887.76447
  20825136.860   109436830.06509  20825138.740    85275460.64549
  21853558.320   114841224.35409  21853558.100    89486667.06148
  20368938.640   107039493.81709  20368938.800    83407398.44149
  21600221.740   113509931.57009  21600221.660    88449297.66547
  24193979.980   127140219.15808  24193982.000    99070308.25145
  20803773.460   109324565.32909  20803771.840    85187968.65148
  21441471.680   112675692.97609  21441468.400    87799228.37148
  23971593.320   125971571.85308  23971598.020    98159687.81346
  20810173.480   111398480.76309  20810175.420    86643275.88308
  20602195.240   110323819.47809  20602197.540    85807423.79208
  20803229.120   111088081.30609  20803232.300    86401852.59905
  21462842.560   114409029.40909  21462851.220    88984840.85706
  23439597.500   125210117.47908  23439603.520    97385674.63205
  22524030.060   120234800.10908  22524035.840    93515980.50907
  21075342.280   112738867.95909  21075348.200    87685810.90406
  22921149.020   122569682.07108  22921151.940    95331990.90705
 15 02 25 09 44  0.0000000  0 18G02G03G06G07G09G10G17G20G23G30R07R08
                                R09R10R16R22R23R24
  23955115.860   125884984.39108  23955114.620    98092187.94846
  22577526.760   118645700.95009  22577530.060    92451208.23947
  20819511.120   109407266.20209  20819512.960    85252423.83049
  21838069.060   114759827.51709  21838068.780    89423240.93848
  20371189.940   107051324.46809  20371190.140    83416617.07549
  21587983.840   113445621.32109  21587983.760    88399185.76848
  24209732.600   127222998.42408  24209734.480    99134811.36046
  20794741.260   109277100.77109  20794739.600    85150983.23748
  21452044.220   112731252.42709  21452041.100    87842521.37848
  23950658.360   125861559.26208  23950663.320    98073963.80846
  20817133.580   111435737.18109  20817135.040    86672253.00608
  20595759.560   110289356.45508  20595761.780    85780619.18708
  20802875.600   111086193.75309  20802878.720    86400384.47405
  21442772.720   114302046.38208  21442781.360    88901631.91306
  23456688.960   125301416.86808  23456695.020    97456685.16406
  22546442.860   120354440.57508  22546448.620    93609033.93207
  21081902.820   112773962.47008  21081908.740    87713106.55606
  22908785.120   122503566.49808  22908787.800    95280567.67505
 15 02 25 09 44 30.0000000  0 18G02G03G06G07G09G10G17G20G23G30R07R08
                                R09R10R16R22R23R24
  23936928.960   125789411.04608  23936927.680    98017715.26646
  22589853.020   118710475.62109  22589856.220    92501681.89447
  20813990.760   109378256.44109  20813992.600    85229818.78749
  21822644.180   114678769.71509  21822644.000    89360079.02248
  20373507.420   107063502.83709  20373507.640    83426106.66049
  21575780.060   113381490.12609  21575779.920    88349213.39548
  24225495.320   127305831.16008  24225497.100    99199356.11745
  20785753.180   109229868.17909  20785751.500    85114178.57448
  21462655.280   112787013.97909  21462652.220    87885971.86848
  23929733.960   125751602.07708  23929739.100    97988282.97346
  20824122.340   111473148.07108  20824123.760    86701350.28508
  20589349.800   110255032.14608  20589351.960    85753922.47408
  20802676.320   111085129.50208  20802679.460    86399556.68105
  21422779.620   114195472.66008  21422788.420    88818741.30907
  23473877.440   125393235.15107  23473883.780    97528099.23206
  22568885.900   120474241.60608  22568891.520    93702212.27407
  21088602.920   112809803.95508  21088608.940    87740983.17906
  22896544.220   122438109.21808  22896547.020    95229656.45505
 15 02 25 09 45  0.0000000  0 18G02G03G06G07G09G10G17G20G23G30R07R08
                                R09R10R16R22R23R24
  23918781.040   125694042.34908  23918779.560    97943402.00646
  22602216.360   118775445.29809  22602219.460    92552307.49847
  20808575.820   109349800.62909  20808577.620    85207645.39049
  21807283.960   114598051.91009  21807283.960    89297182.04548
  20375890.460   107076026.04409  20375890.760    83435864.95749
  21563610.320   113317537.40609  21563610.120    88299380.09448
  24241267.240   127388712.67508  24241269.040    99263938.90246
  20776809.180   109182867.40209  20776807.540    85077554.56348
  21473304.300   112842975.08009  21473301.320    87929577.86048
  23908820.460   125641701.39508  23908825.620    97902646.16046
  20831139.500   111510711.89008  20831141.100    86730566.52408
  20582965.660   110220845.05108  20582967.740    85727332.48908
  20802630.960   111084887.38909  20802634.200    86399368.34805
  21402863.880   114089311.15909  21402872.920    88736171.36607
  23491162.120   125485567.40207  23491168.740    97599913.03506
  22591358.000   120594197.27208  22591363.480    93795510.89507
  21095441.960   112846388.37608  21095448.040    87769437.66806
  22884426.520   122373311.21608  22884429.340    95179258.00305
 15 02 25 09 45 30.0000000  0 18G02G03G06G07G09G10G17G20G23G30R07R08
                                R09R10R16R22R23R24
  23900673.460   125598885.90409  23900671.760    97869254.16646
  22614617.700   118840615.25508  22614620.880    92603089.18647
  20803267.500   109321905.39809  20803269.300    85185908.79349
  21791989.880   114517681.69709  21791989.960    89234555.90148
  20378339.920   107088898.11109  20378340.280    83445895.08249
  21551475.740   113253769.65309  21551475.560    88249690.92348
  24257048.840   127471645.35908  24257050.540    99328561.53745
  20767910.600   109136105.17209  20767909.060    85041116.42348
  21483991.980   112899139.35209  21483989.000    87973342.14948
  23887919.360   125531865.23908  23887924.380    97817059.60046
  20838186.200   111548433.97608  20838187.900    86759905.82608
  20576608.180   110186800.92408  20576610.280    85700853.69708
  20802740.700   111085473.15709  20802743.800    86399823.91005
  21383027.400   113983572.02409  21383036.500    88653929.90607
  23508543.240   125578415.17807  23508550.140    97672127.81006
  22613859.120   120714308.55908  22613864.620    93888930.50907
  21102420.580   112883718.89409  21102426.640    87798472.42406
  22872433.720   122309180.81208  22872436.600    95129378.80205
 15 02 25 09 46  0.0000000  0 18G02G03G06G07G09G10G17G20G23G30R07R08
                                R09R10R16R22R23R24
  23882606.360   125503942.70008  23882604.580    97795272.45246
  22627056.760   118905984.08908  22627060.240    92654025.78047
  20798065.780   109294570.65809  20798067.660    85164608.95549
  21776762.200   114437660.09009  21776762.320    89172201.41348
  20380855.220   107102116.26509  20380855.640    83456194.89149
  21539376.280   113190186.59309  21539376.140    88200145.68047
  24272839.360   127554624.81308  24272841.060    99393220.65045
  20759057.340   109089581.08409  20759055.860    85004863.85248
  21494717.860   112955503.78509  21494714.780    88017262.42648
  23867030.700   125422094.68708  23867035.660    97731524.17346
  20845262.260   111586313.58908  20845264.220    86789367.66908
  20570277.100   110152898.28408  20570279.140    85674484.95008
  20803005.200   111086885.45009  20803008.260    86400922.32905
  21363270.640   113878258.00009  21363279.720    88572019.09607
  23526019.840   125671773.36307  23526027.000    97744739.54506
  22636388.180   120834569.41808  22636393.700    93982466.47807
  21109537.980   112921791.31009  21109543.940    87828084.23306
  22860565.900   122245718.88908  22860568.920    95080019.55305
 15 02 25 09 46 30.0000000  0 18G02G03G06G07G09G10G17G20G23G30R07R08
                                R09R10R16R22R23R24
  23864580.160   125409214.84708  23864578.340    97721458.56846
  22639533.620   118971551.22708  22639537.240    92705116.97547
  20792970.860   109267797.22209  20792972.860    85143746.50849
  21761601.320   114357989.35409  21761601.420    89110120.31348
  20383436.060   107115678.69709  20383436.520    83466762.96749
  21527312.120   113126788.74709  21527311.920    88150744.74648
  24288638.120   127637647.27608  24288639.900    99457913.26045
  20750249.620   109043295.90109  20750248.060    84968797.44948
  21505481.520   113012066.63509  21505478.280    88061337.30648
  23846154.960   125312392.08508  23846159.800    97646041.67946
  20852367.740   111624350.58008  20852369.900    86818951.91008
  20563972.440   110119137.05108  20563974.380    85648226.18408
  20803424.420   111089124.24508  20803427.460    86402663.57705
  21343594.440   113773373.57009  21343603.520    88490442.41907
  23543591.300   125765637.60007  23543598.620    97817744.91306
  22658944.360   120954974.92608  22658949.880    94076114.94407
  21116793.520   112960602.70409  21116799.380    87858270.80106
  22848823.520   122182927.65708  22848826.740    95031181.94305
 15 02 25 09 47  0.0000000  0 18G02G03G06G07G09G10G17G20G23G30R07R08
                                R09R10R16R22R23R24
  23846595.200   125314703.68608  23846593.440    97647813.53646
  22652048.120   119037315.42908  22652051.940    92756361.67248
  20787982.860   109241585.19709  20787984.940    85123321.51349
  21746507.500   114278670.81809  21746507.540    89048313.65648
  20386081.940   107129582.91909  20386082.440    83477597.37749
  21515283.200   113063576.02509  21515282.940    88101488.06348
  24304444.200   127720708.40908  24304446.160    99522636.00146
  20741487.360   108997249.61209  20741485.760    84932917.18348
  21516282.280   113068824.93809  21516278.980    88105564.48048
  23825292.340   125202758.83408  23825297.220    97560613.21546
  20859502.560   111662543.79309  20859504.880    86848657.65208
  20557694.000   110085516.04408  20557695.880    85622076.48708
  20803998.300   111092188.62309  20804001.380    86405046.95105
  21323999.400   113668921.70809  21324008.420    88409202.18307
  23561256.780   125860003.06608  23561264.080    97891140.16505
  22681526.560   121075519.20008  22681532.000    94169871.34007
  21124186.400   113000149.31409  21124192.220    87889029.20106
  22837206.820   122120808.17408  22837209.820    94982866.77905
 15 02 25 09 47 30.0000000  0 18G02G03G06G07G09G10G17G20G23G30R07R08
                                R09R10R16R22R23R24
  23828652.560   125220414.79908  23828650.860    97574341.72546
  22664600.880   119103279.90309  22664604.720    92807762.43247
  20783102.600   109215939.03209  20783104.660    85103337.45149
  21731481.720   114199709.74609  21731481.680    88986785.54948
  20388793.220   107143830.77309  20388793.780    83488699.55449
  21503290.200   113000552.73909  21503290.020    88052379.00448
  24320257.700   127803808.55508  24320260.000    99587389.13945
  20732771.380   108951446.60409  20732769.760    84897226.49748
  21527120.500   113125780.42909  21527117.260    88149945.29848
  23804444.080   125093200.77508  23804449.120    97475243.34146
  20866667.300   111700896.98209  20866669.660    86878487.83608
  20551442.460   110052038.79809  20551444.300    85596038.59808
  20804727.380   111096081.97609  20804730.520    86408075.08105
  21304487.100   113564910.48109  21304496.060    88328304.64107
  23579016.160   125954869.31908  23579023.300    97964924.93105
  22704134.580   121196201.46008  22704140.020    94263735.03407
  21131716.860   113040431.76609  21131722.720    87920359.94106
  22825716.880   122059366.46208  22825719.900    94935078.81205
 15 02 25 09 48  0.0000000  0 18G02G03G06G07G09G10G17G20G23G30R07R08
                                R09R10R16R22R23R24
  23810752.200   125126347.84608  23810750.520    97501042.83846
  22677191.220   119169441.64508  22677195.120    92859316.92647
  20778329.680   109190857.03709  20778331.700    85083793.00649
  21716523.920   114121105.91809  21716523.860    88925535.82248
  20391569.100   107158417.99009  20391569.640    83500066.16049
  21491332.920   112937717.22709  21491332.820    88003416.25848
  24336077.420   127886941.54508  24336080.220    99652167.87946
  20724101.520   108905885.78009  20724099.860    84861724.53248
  21537995.460   113182928.70809  21537992.260    88194476.35748
  23783610.100   124983717.71808  23783615.260    97389931.90946
  20873861.460   111739407.20109  20873863.960    86908440.14908
  20545217.140   110018702.44909  20545218.920    85570110.29308
  20805611.200   111100801.29609  20805614.240    86411745.64205
  21285057.820   113461341.36809  21285066.700    88247750.98007
  23596868.080   126050229.63708  23596875.040    98039093.98405
  22726767.040   121317013.97608  22726772.460    94357700.04607
  21139383.720   113081444.39109  21139389.620    87952258.58307
  22814353.520   121998601.80908  22814356.780    94887817.44805
 15 02 25 09 48 30.0000000  0 17G02G03G06G07G09G10G17G20G23G30R07R08
                                R09R10R22R23R24
  23792895.000   125032507.48008  23792893.300    97427920.52946
  22689819.460   119235802.53509  22689823.280    92911026.56147
  20773664.720   109166342.37009  20773666.700    85064690.63349
  21701634.840   114042863.33809  21701634.840    88864567.59448
  20394409.620   107173345.19909  20394410.180    83511697.70549
  21479411.980   112875072.44309  21479411.900    87954602.14548
  24351903.260   127970106.33608  24351906.440    99716971.40145
  20715478.280   108860569.92309  20715476.540    84826413.45148
  21548907.240   113240270.23909  21548904.040    88239157.99848
  23762791.300   124874314.28308  23762796.480    97304682.51646
  20881085.260   111778076.93709  20881087.880    86938516.53108
  20539018.560   109985509.19809  20539020.340    85544293.28508
  20806650.000   111106348.69708  20806652.840    86416060.27105
  21265712.620   113358220.61409  21265721.360    88167546.03607
  22749423.460   121437954.36908  22749428.960    94451764.52907
  21147187.000   113123186.97109  21147193.080    87984724.98206
  22803117.580   121938518.87008  22803120.900    94841086.28605
 15 02 25 09 49  0.0000000  0 17G02G03G06G07G09G10G17G20G23G30R07R08
                                R09R10R22R23R24
  23775080.840   124938893.55808  23775079.140    97354974.67447
  22702485.140   119302360.14809  22702488.740    92962889.51147
  20769107.520   109142393.89109  20769109.480    85046029.43449
  21686814.520   113964982.27509  21686814.660    88803881.05848
  20397314.160   107188608.66009  20397314.720    83523591.25149
  21467527.220   112812617.06609  21467526.980    87905935.61048
  24367734.140   128053297.50708  24367737.480    99781795.47245
  20706901.400   108815497.84309  20706899.620    84791292.31848
  21559855.080   113297801.16909  21559851.940    88283987.20048
  23741987.680   124764990.74808  23741992.820    97219495.36946
  20888338.380   111816904.17308  20888341.060    86968715.40808
  20532846.400   109952457.04009  20532848.160    85518586.01708
  20807843.320   111112721.84608  20807846.320    86421017.13805
  21246451.960   113255550.56509  21246460.600    88087691.59307
  22772102.440   121559015.49908  22772108.220    94545922.89207
  21155125.740   113165654.13409  21155131.900    88017754.90606
  22792009.040   121879117.28708  22792012.660    94794885.06405
 15 02 25 09 49 30.0000000  0 17G02G03G06G07G09G10G17G20G23G30R07R08
                                R09R10R22R23R24
  23757310.700   124845510.81308  23757308.940    97282208.93347
  22715188.640   119369116.70508  22715192.160    93014907.50547
  20764658.680   109119014.99209  20764660.680    85027812.07849
  21672063.860   113887467.43809  21672064.160    88743479.89448
  20400282.900   107204209.28309  20400283.400    83535747.52849
  21455679.160   112750354.27309  21455678.700    87857419.15448
  24383569.880   128136514.02308  24383573.080    99846639.31046
  20698371.540   108770673.21909  20698369.840    84756364.03148
  21570839.120   113355522.09809  21570836.000    88328964.47348
  23721200.080   124655752.02108  23721205.300    97134374.34046
  20895621.380   111855891.09508  20895624.060    86999038.49608
  20526701.040   109919548.47709  20526702.760    85492990.43508
  20809191.720   111119922.92608  20809195.000    86426617.94005
  21227277.100   113153338.15809  21227285.860    88008193.14507
  22794803.760   121680195.70408  22794809.900    94640173.88707
  21163199.900   113208845.31209  21163206.060    88051347.98406
  22781028.920   121820401.90508  22781032.140    94749217.54605
 15 02 25 09 50  0.0000000  0 17G02G03G06G07G09G10G17G20G23G30R07R08
                                R09R10R22R23R24
  23739584.960   124752361.39708  23739583.160    97209625.02447
  22727929.900   119436071.72908  22727933.540    93067080.09647
  20760318.380   109096206.42809  20760320.440    85010039.12549
  21657383.280   113810320.66909  21657383.540    88683365.52148
  20403315.520   107220145.33409  20403315.940    83548165.17549
  21443867.760   112688284.90309  21443867.240    87809053.41148
  24399409.900   128219752.97008  24399412.760    99911500.61446
  20689888.880   108726096.89109  20689887.340    84721629.20848
  21581859.000   113413431.28309  21581855.860    88374088.42748
  23700428.980   124546600.47508  23700434.280    97049321.25146
  20902934.220   111895037.80308  20902937.100    87029485.85408
  20520582.300   109886783.14609  20520584.060    85467506.24908
  20810695.140   111127951.46008  20810698.540    86432862.30805
  21208188.800   113051587.12909  21208197.540    87929053.49107
  22817526.360   121801489.87508  22817532.900    94734513.51707
  21171408.840   113252757.16208  21171414.940    88085501.58306
  22770177.560   121762374.73708  22770180.880    94704085.32705
 15 02 25 09 50 30.0000000  0 17G02G03G06G07G09G10G17G20G23G30R07R08
                                R09R10R22R23R24
  23721905.020   124659452.86408  23721903.060    97137228.82646
  22740709.780   119503230.14509  22740713.320    93119411.19347
  20756087.800   109073974.30909  20756089.860    84992715.35549
  21642774.220   113733549.45109  21642774.340    88623543.80948
  20406412.640   107236420.39709  20406413.000    83560846.99949
  21432094.240   112626415.09509  21432093.760    87760843.18748
  24415254.420   128303016.02508  24415257.220    99976380.69946
  20681454.700   108681775.24409  20681453.300    84687092.85548
  21592915.380   113471532.31609  21592912.240    88419361.88248
  23679675.860   124437543.71008  23679681.300    96964342.05846
  20910278.040   111934349.84408  20910281.100    87060061.81808
  20514491.420   109854166.43309  20514493.120    85442137.65908
  20812354.440   111136812.51508  20812357.640    86439754.20305
  21189188.780   112950307.05309  21189197.540    87850280.15707
  22840270.360   121922898.78208  22840277.420    94828942.35207
  21179752.940   113297392.20509  21179759.020    88120217.67406
  22759456.420   121705043.04508  22759459.560    94659494.02605
 15 02 25 09 51  0.0000000  0 17G02G03G06G07G09G10G17G20G23G30R07R08
                                R09R10R22R23R24
  23704269.480   124566777.60408  23704267.360    97065014.37546
  22753526.420   119570582.01908  22753530.080    93171893.03447
  20751965.260   109052309.94209  20751967.300    84975833.98549
  21628235.160   113657146.15709  21628235.140    88564008.78948
  20409572.060   107253023.33409  20409572.460    83573784.30449
  21420357.080   112564736.18909  21420356.600    87712781.70648
  24431101.040   128386290.32008  24431103.940   100041269.50346
  20673067.400   108637699.60409  20673065.960    84652748.19048
  21604006.040   113529813.94109  21604003.000    88464776.05948
  23658939.480   124328574.59508  23658945.060    96879431.16646
  20917651.020   111973817.39708  20917654.040    87090758.73208
  20508426.480   109821688.55109  20508428.180    85416877.05908
  20814167.640   111146495.93008  20814171.040    86447285.67705
  21170276.180   112849492.72409  21170284.960    87771869.06407
  22863033.240   122044408.08208  22863040.340    94923449.30507
  21188229.840   113342737.56509  21188235.880    88155486.22006
  22748863.740   121648398.89308  22748866.980    94615437.47106
 15 02 25 09 51 30.0000000  0 17G02G03G06G07G09G10G17G20G23G30R07R08
                                R09R10R22R23R24
  23686680.440   124474346.69609  23686678.140    96992990.31147
  22766381.420   119638135.59408  22766385.520    93224532.03647
  20747952.540   109031222.70409  20747954.580    84959402.33249
  21613768.120   113581121.51909  21613768.100    88504768.83048
  20412795.220   107269961.07009  20412795.660    83586982.49949
  21408658.060   112503257.75209  21408657.640    87664876.44948
  24446950.780   128469581.03008  24446953.760   100106171.13345
  20664728.820   108593879.64509  20664727.260    84618602.75348
  21615132.260   113588282.83709  21615129.400    88510336.16248
  23638221.980   124219704.11808  23638227.460    96794597.15346
  20925054.820   112013449.30808  20925057.600    87121583.49008
  20502389.080   109789358.31509  20502390.760    85391731.29108
  20816136.520   111157009.90108  20816140.140    86455463.18305
  21151453.280   112749156.57609  21151462.140    87693829.87707
  22885815.740   122166021.69108  22885822.720    95018037.38907
  21196840.560   113388798.76009  21196846.560    88191311.53206
  22738401.620   121592453.27608  22738404.820    94571924.22806
 15 02 25 09 52  0.0000000  0 18G02G03G06G07G09G10G17G20G23G30R01R07
                                R08R09R10R22R23R24
  23669137.520   124382158.12408  23669135.160    96921155.07647
  22779273.860   119705886.12309  22779278.160    93277324.49747
  20744048.960   109010709.00509  20744050.960    84943417.58549
  21599372.660   113505473.30309  21599372.760    88445822.17348
  20416081.020   107287227.59009  20416081.420    83600436.88149
  21396996.520   112441975.99109  21396996.080    87617124.41948
  24462802.180   128552880.55208  24462805.380   100171079.62445
  20656438.220   108550311.88009  20656436.520    84584653.82948
  21626293.000   113646933.04309  21626290.320    88556037.52948
  23617522.980   124110930.28308  23617528.280    96709838.43746
  23644043.980   126390963.94508  23644052.660    98304107.93305
  20932488.560   112053241.23109  20932490.960    87152532.68408
  20496378.420   109757171.40409  20496380.140    85366696.99808
  20818260.020   111168349.33208  20818263.800    86464282.66705
  21132720.100   112649298.62509  21132729.060    87616162.62907
  22908616.100   122287730.62708  22908623.100    95112699.59007
  21205583.640   113435568.16609  21205589.580    88227687.65706
  22728069.700   121537203.73908  22728073.160    94528952.39306
 15 02 25 09 52 30.0000000  0 18G02G03G06G07G09G10G17G20G23G30R01R07
                                R08R09R10R22R23R24
  23651641.080   124290214.09008  23651638.900    96849510.44046
  22792203.860   119773833.47208  22792208.140    93330270.34547
  20740254.700   108990769.77209  20740256.680    84927880.48549
  21585049.260   113430203.59009  21585049.440    88387170.46848
  20419429.040   107304821.42809  20419429.520    83614146.31749
  21385372.660   112380892.12109  21385372.200    87569526.59848
  24478654.700   128636185.71208  24478658.220   100235992.54645
  20648195.760   108506997.25509  20648193.960    84550902.16348
  21637487.920   113705762.67909  21637485.240    88601878.73048
  23596842.880   124002255.65308  23596848.060    96625157.06146
  23629516.960   126313310.43408  23629526.380    98243710.87505
  20939952.160   112093193.03709  20939954.340    87183606.23808
  20490394.480   109725127.87009  20490396.280    85341774.22808
  20820538.140   111180513.94608  20820541.960    86473743.95505
  21114077.540   112549923.39909  21114086.580    87538870.80407
  22931433.340   122409530.13608  22931440.620    95207432.20707
  21214458.480   113483042.83809  21214464.580    88264612.31506
  22717868.300   121482652.01408  22717871.680    94486523.30306
 15 02 25 09 53  0.0000000  0 18G02G03G06G07G09G10G17G20G23G30R01R07
                                R08R09R10R22R23R24
  23634192.380   124198520.97808  23634190.280    96778061.27447
  22805172.080   119841981.47608  22805176.260    93383372.52047
  20736570.700   108971410.00309  20736572.660    84912794.90449
  21570799.120   113355318.69409  21570799.360    88328818.61148
  20422839.840   107322745.16909  20422840.380    83628112.82649
  21373787.360   112320011.20509  21373786.980    87522086.92248
  24494508.460   128719497.75507  24494512.160   100300910.80845
  20640002.460   108463941.52009  20640000.740    84517352.23848
  21648717.520   113764774.44909  21648714.840    88647861.85648
  23576182.920   123893686.87808  23576187.880    96540558.11746
  23614989.540   126235653.08408  23614998.600    98183310.74405
  20947446.440   112133309.83309  20947448.680    87214808.10308
  20484438.200   109693231.97709  20484440.020    85316966.27808
  20822971.520   111193507.47509  20822975.220    86483849.96805
  21095527.180   112451039.17709  21095536.040    87461960.88807
  22954267.560   122531419.85108  22954275.180    95302234.99707
  21223465.400   113531223.46308  21223471.500    88302086.04306
  22707798.540   121428804.43408  22707801.900    94444641.87305
 15 02 25 09 53 30.0000000  0 18G02G03G06G07G09G10G17G20G23G30R01R07
                                R08R09R10R22R23R24
  23616791.300   124107078.04809  23616789.280    96706807.06747
  22818177.900   119910326.72309  22818181.860    93436628.40747
  20732996.480   108952627.42609  20732998.500    84898159.09349
  21556622.120   113280817.80109  21556622.340    88270765.98848
  20426312.520   107340994.16509  20426313.080    83642332.77249
  21362240.280   112259331.26909  21362239.980    87474803.85048
  24510362.460   128802810.04108  24510366.100   100365829.24145
  20631857.940   108421142.70109  20631856.440    84484002.50248
  21659980.900   113823963.48709  21659978.140    88693983.11548
  23555543.060   123785223.35608  23555547.820    96456041.22447
  23600461.240   126157988.62008  23600470.260    98122905.14405
  20954970.920   112173588.16609  20954973.180    87246135.63508
  20478509.000   109661480.88309  20478510.720    85292270.95108
  20825559.440   111207326.09708  20825563.100    86494597.71705
  21077069.120   112352646.86109  21077077.740    87385433.56507
  22977117.420   122653392.38908  22977125.180    95397102.22807
  21232603.180   113580104.10909  21232609.360    88340104.22906
  22697860.100   121375659.91208  22697863.480    94403307.27005
 15 02 25 09 54  0.0000000  0 18G02G03G06G07G09G10G17G20G23G30R01R07
                                R08R09R10R22R23R24
  23599438.240   124015887.52009  23599436.300    96635749.55047
  22831221.280   119978868.93608  22831224.780    93490037.80947
  20729532.220   108934422.72209  20729534.260    84883973.57749
  21542518.580   113206702.76709  21542518.660    88213014.04648
  20429846.760   107359566.78709  20429847.380    83656804.91449
  21350731.620   112198852.94709  21350731.320    87427677.88148
  24526216.140   128886119.51108  24526219.580   100430745.53546
  20623762.540   108378601.86209  20623761.200    84450853.78648
  21671277.760   113883328.34609  21671274.960    88740241.38748
  23534923.760   123676867.57008  23534928.280    96371608.26746
  23585931.220   126080316.23308  23585939.380    98062493.25805
  20962525.460   112214028.34408  20962527.860    87277589.05008
  20472606.780   109629874.45209  20472608.520    85267688.16808
  20828301.780   111221969.19008  20828305.300    86505986.73405
  21058704.260   112254751.12209  21058712.580    87309292.47207
  22999981.900   122775442.98008  22999989.740    95492030.18306
  21241871.120   113629681.17009  21241877.360    88378664.07206
  22688053.440   121323220.01908  22688056.940    94362520.70705
 15 02 25 09 54 30.0000000  0 18G02G03G06G07G09G10G17G20G23G30R01R07
                                R08R09R10R22R23R24
  23582134.520   123924956.01808  23582132.560    96564893.86747
  22844302.820   120047612.07009  22844306.060    93543603.71047
  20726178.920   108916800.95709  20726180.940    84870242.29449
  21528489.700   113132979.92509  21528489.560    88155567.69848
  20433443.080   107378465.74209  20433443.740    83671531.33349
  21339262.360   112138581.42109  21339261.980    87380713.04748
  24542069.640   128969427.32008  24542072.720   100495660.48645
  20615717.220   108336323.96609  20615715.960    84417909.96548
  21682608.500   113942871.54809  21682605.820    88786638.61748
  23514326.160   123568626.22008  23514330.560    96287264.46746
  23571400.140   126002639.66708  23571408.760    98002078.24305
  20970111.000   112254634.49709  20970113.320    87309171.55908
  20466732.400   109598417.35209  20466734.100    85243221.51208
  20831199.300   111237440.40809  20831202.540    86518019.86305
  21040433.960   112157360.04909  21040442.160    87233543.89007
  23022860.740   122897571.29608  23022868.840    95587018.54507
  21251269.540   113679956.00209  21251275.740    88417766.63006
  22678379.740   121271491.19408  22678383.160    94322287.17706
 15 02 25 09 55  0.0000000  0 17G02G03G06G07G09G10G20G23G30R01R07R08
                                R09R10R22R23R24
  23564879.060   123834277.90308  23564877.080    96494235.63647
  22857421.100   120116547.93009  22857424.700    93597319.79747
  20722935.200   108899754.95609  20722937.180    84856959.65949
  21514534.320   113059643.49309  21514534.020    88098422.44848
  20437099.720   107397681.57809  20437100.400    83686504.68149
  21327831.140   112078510.00709  21327830.800    87333904.15748
  20607720.820   108294302.54309  20607719.580    84385165.99548
  21693971.260   114002583.47309  21693968.720    88833167.32248
  23493749.220   123460493.97208  23493753.540    96203005.67746
  23556866.740   125924950.88708  23556874.740    97941653.57605
  20977726.120   112295399.14909  20977728.540    87340877.33108
  20460884.380   109567101.64709  20460886.080    85218864.84608
  20834250.200   111253731.05609  20834253.440    86530690.32005
  21022257.540   112060470.07209  21022265.900    87158185.05707
  23045751.920   123019765.06508  23045760.200    95682057.82707
  21260796.340   113730917.17709  21260802.460    88457403.01206
  22668837.800   121220467.09108  22668841.340    94282601.76705
 15 02 25 09 55 30.0000000  0 17G02G03G06G07G09G10G20G23G30R01R07R08
                                R09R10R22R23R24
  23547674.580   123743867.94508  23547672.560    96423786.32747
  22870578.220   120185688.29509  22870582.140    93651195.27947
  20719803.500   108883297.54409  20719805.520    84844135.66549
  21500655.120   112986707.78609  21500654.780    88041589.45148
  20440818.700   107417224.78409  20440819.340    83701733.11749
  21316440.420   112018651.80809  21316440.160    87287261.40748
  20599775.840   108252550.78709  20599774.540    84352632.13748
  21705368.140   114062474.71809  21705365.760    88879835.74348
  23473195.780   123352485.40808  23473200.060    96118843.25546
  23542333.140   125847261.84208  23542341.000    97881228.79805
  20985373.300   112336334.53209  20985375.780    87372715.90908
  20455065.040   109535939.78809  20455066.800    85194627.82108
  20837456.540   111270852.50608  20837459.860    86544006.95705
  21004178.040   111964097.11809  21004186.680    87083228.34307
  23068656.980   123142031.97008  23068665.220    95777153.97507
  21270453.020   113782573.30509  21270459.100    88497579.89606
  22659430.460   121170161.80608  22659434.060    94243475.42805
 15 02 25 09 56  0.0000000  0 17G02G03G06G07G09G10G20G23G30R01R07R08
                                R09R10R22R23R24
  23530520.100   123653720.99908  23530518.120    96353541.98146
  22883772.740   120255025.80308  22883776.740    93705224.38347
  20716782.460   108867422.30009  20716784.660    84831765.31649
  21486851.080   112914167.68609  21486850.840    87985064.72048
  20444598.360   107437086.75009  20444598.920    83717209.94349
  21305089.160   111959000.71009  21305088.940    87240780.03248
  20591881.040   108211062.53409  20591879.620    84320303.61648
  21716797.600   114122536.68809  21716795.220    88926637.22248
  23452664.940   123244595.94808  23452669.280    96034773.63147
  23527798.160   125769564.61108  23527805.900    97820797.62305
  20993050.960   112377433.84208  20993053.560    87404681.98708
  20449273.180   109504924.83609  20449274.940    85170505.06408
  20840816.960   111288796.92409  20840820.160    86557963.70405
  20986195.080   111868238.25109  20986203.720    87008671.46807
  23091573.580   123264360.05208  23091581.560    95872297.70707
  21280237.580   113834914.32509  21280243.800    88538289.49506
  22650156.440   121120569.77708  22650159.760    94204903.84805
 15 02 25 09 56 30.0000000  0 17G02G03G06G07G09G10G20G23G30R01R07R08
                                R09R10R22R23R24
  23513416.160   123563839.31308  23513414.020    96283504.32547
  22897004.760   120324559.85909  22897008.780    93759406.62347
  20713872.240   108852129.61309  20713874.640    84819848.91449
  21473122.660   112842025.01209  21473122.480    87928849.66648
  20448438.300   107457265.57409  20448438.840    83732933.67749
  21293777.440   111899557.18609  21293777.180    87194460.41148
  20584036.440   108169838.59609  20584034.940    84288181.06348
  21728259.220   114182767.39809  21728256.820    88973570.17548
  23432157.120   123136827.79608  23432161.620    95950798.52547
  23513261.580   125691859.02908  23513269.800    97760360.00405
  21000759.080   112418696.76408  21000761.800    87436775.30808
  20443508.760   109474056.56709  20443510.520    85146496.39808
  20844331.220   111307563.00708  20844334.360    86572559.52505
  20968309.500   111772897.91409  20968318.000    86934517.91407
  23114500.640   123386744.75308  23114508.280    95967485.46306
  21290149.460   113887936.28809  21290155.840    88579528.71406
  22641016.180   121071692.57108  22641019.480    94166888.24305
 15 02 25 09 57  0.0000000  0 17G02G03G06G07G09G10G20G23G30R01R07R08
                                R09R10R22R23R24
  23496363.660   123474227.74008  23496361.380    96213677.15847
  22910274.520   120394292.85608  22910278.880    93813743.84347
  20711073.600   108837422.85209  20711076.060    84808389.06249
  21459470.780   112770284.41609  21459470.640    87872947.91948
  20452338.720   107477762.39909  20452339.260    83748905.18849
  21282506.000   111840325.13309  21282505.680    87148305.56548
  20576242.840   108128883.18309  20576241.360    84256267.73548
  21739753.120   114243167.73009  21739750.640    89020635.29948
  23411673.420   123029186.17708  23411678.000    95866922.02147
  23498723.760   125614147.26308  23498731.760    97699917.51305
  21008498.520   112460126.58709  21008501.260    87468998.43908
  20437772.240   109443337.91009  20437774.020    85122604.09508
  20847999.700   111327152.64308  20848002.940    86587795.89505
  20950522.440   111678082.57709  20950530.720    86860772.67807
  23137437.920   123509184.21708  23137445.320    96062715.80406
  21300188.540   113941638.52409  21300194.980    88621297.01406
  22632010.440   121023534.69008  22632013.600    94129432.12805
 15 02 25 09 57 30.0000000  0 17G02G03G06G07G09G10G20G23G30R01R07R08
                                R09R10R22R23R24
  23479363.080   123384889.24408  23479360.880    96144062.79447
  22923582.200   120464224.96808  22923586.700    93868236.25947
  20708386.760   108823303.17409  20708389.100    84797386.68449
  21445895.980   112698948.59409  21445895.860    87817361.58548
  20456299.460   107498576.18109  20456299.980    83765123.69949
  21271275.120   111781306.14209  21271274.760    87102316.74548
  20568500.600   108088197.99709  20568499.180    84224564.98348
  21751279.080   114303736.74609  21751276.620    89067831.86148
  23391214.460   122921674.17408  23391219.020    95783146.48347
  23484185.020   125536429.51508  23484193.000    97639470.45105
  21016269.120   112501723.65908  21016272.040    87501351.65708
  20432063.800   109412769.67909  20432065.560    85098828.79008
  20851822.260   111347565.45008  20851825.680    86603672.51405
  20932834.780   111583797.31309  20932843.040    86787439.72507
  23160384.820   123631674.66208  23160392.120    96157985.82606
  21310354.300   113996018.00109  21310360.640    88663592.06106
  22623139.600   120976098.18808  22623142.660    94092537.06305
 15 02 25 09 58  0.0000000  0 17G02G03G06G07G09G10G20G23G30R01R07R08
                                R09R10R22R23R24
  23462414.380   123295823.83408  23462412.320    96074661.24446
  22936927.340   120534353.67908  22936931.900    93922881.87447
  20705811.320   108809768.94309  20705813.580    84786840.50449
  21432398.160   112628017.11109  21432398.100    87762090.32848
  20460319.800   107519703.11309  20460320.340    83781586.22349
  21260084.360   111722498.70909  21260084.100    87056492.79148
  20560809.560   108047781.71409  20560808.180    84193071.75448
  21762836.480   114364471.02809  21762833.980    89115157.20747
  23370780.260   122814292.03508  23370784.800    95699472.15547
  23469644.740   125458703.17408  23469652.340    97579016.64905
  21024070.720   112543486.65808  21024073.700    87533833.93508
  20426383.160   109382349.83409  20426384.860    85075168.89508
  20855798.420   111368798.03708  20855801.780    86620186.76105
  20915246.720   111490043.77309  20915255.180    86714520.34807
  23183340.060   123754209.08708  23183347.460    96253290.06606
  21320645.560   114051069.09208  21320651.880    88706409.48406
  22614403.420   120929382.33008  22614406.380    94056202.52305
 15 02 25 09 58 30.0000000  0 17G02G03G06G07G09G10G20G23G30R01R07R08
                                R09R10R22R23R24
  23445518.340   123207034.64709  23445516.160    96005474.88546
  22950310.020   120604679.38108  22950314.440    93977680.97347
  20703347.560   108796821.46009  20703349.800    84776751.52649
  21418977.740   112557492.64309  21418977.780    87707136.20748
  20464399.560   107541142.36509  20464400.140    83798292.10749
  21248934.220   111663904.77409  21248934.020    87010835.19648
  20553170.060   108007636.05909  20553168.660    84161789.40648
  21774425.100   114425369.74509  21774422.660    89162610.67347
  23350371.460   122707043.00708  23350375.980    95615901.53247
  23455102.860   125380968.57208  23455110.760    97518556.49005
  21031903.380   112585415.77009  21031906.620    87566445.38608
  20420730.260   109352079.12509  20420731.960    85051624.99808
  20859928.080   111390850.35709  20859931.620    86637338.55905
  20897759.180   111396826.33309  20897767.740    86642017.91807
  23206302.820   123876784.04508  23206310.500    96348625.78307
  21331061.860   114106789.23309  21331068.300    88749747.25706
  22605802.640   120883389.47408  22605805.660    94020430.29505
 15 02 25 09 59  0.0000000  0 17G02G03G06G07G09G10G20G23G30R01R07R08
                                R09R10R22R23R24
  23428675.500   123118524.85408  23428673.240    95936506.25447
  22963730.320   120675202.55608  22963734.560    94032633.95947
  20700995.740   108784462.09309  20700997.980    84767120.82149
  21405635.340   112487378.27509  21405635.440    87652501.66248
  20468538.540   107562893.16909  20468539.200    83815240.76549
  21237825.140   111605526.09109  21237824.900    86965345.32848
  20545582.540   107967763.11509  20545581.080    84130719.56148
  21786044.720   114486431.25209  21786042.340    89210190.99548
  23329988.680   122599930.42008  23329993.060    95532437.24946
  23440559.520   125303226.17808  23440567.440    97458090.26505
  21039767.500   112627512.40709  21039770.560    87599187.16108
  20415105.500   109321959.11709  20415107.280    85028198.31708
  20864211.100   111413721.97908  20864214.860    86655127.59205
  20880373.320   111304150.36609  20880381.880    86569936.66607
  23229272.320   123999395.74108  23229280.280    96443990.09307
  21341602.680   114163175.16708  21341609.240    88793602.88806
  22597337.480   120838122.01808  22597340.580    93985222.30505
 15 02 25 09 59 30.0000000  0 17G02G03G06G07G09G10G20G23G30R01R07R08
                                R09R10R22R23R24
  23411885.960   123030295.46508  23411883.760    95867756.13647
  22977188.000   120745921.76708  22977192.220    94087739.68747
  20698755.660   108772690.27709  20698757.900    84757947.95149
  21392371.160   112417674.80709  21392371.240    87598187.27948
  20472736.300   107584952.83109  20472737.060    83832430.09149
  21226757.060   111547362.66009  21226756.760    86920023.18348
  20538046.940   107928162.83409  20538045.420    84099862.16848
  21797694.980   114547653.52909  21797692.720    89257896.57148
  23309632.100   122492955.72108  23309636.380    95449080.39747
  23426014.540   125225474.77808  23426022.160    97397617.01605
  21047662.760   112669775.60008  21047665.820    87632058.46008
  20409508.720   109291988.58209  20409510.440    85004887.88808
  20868647.140   111437410.63308  20868650.800    86673552.10105
  20863089.720   111212018.50609  20863098.220    86498278.56507
  23252247.740   124122038.75908  23252255.900    96539378.73306
  21352267.160   114220222.38009  21352273.780    88837972.83206
  22589008.000   120793580.37408  22589011.260    93950578.80906
 15 02 25 10 00  0.0000000  0 17G02G03G06G07G09G10G20G23G30R01R07R08
                                R09R10R22R23R24
  23395150.980   122942352.59408  23395148.720    95799229.24647
  22990683.580   120816840.40208  22990687.840    94143000.82147
  20696628.160   108761510.21009  20696630.420    84749236.18049
  21379186.200   112348387.84509  21379186.320    87544197.46548
  20476993.260   107607323.43809  20476994.080    83849861.71349
  21215730.880   111489419.34309  21215730.540    86874872.56248
  20530564.200   107888840.32009  20530562.660    84069221.22448
  21809376.240   114609038.48709  21809373.980    89305728.92648
  23289302.900   122386125.21908  23289307.120    95365835.91447
  23411468.440   125147717.76708  23411476.300    97337139.41505
  21055589.760   112712209.31808  21055592.840    87665062.40008
  20403940.540   109262171.52009  20403942.300    84981696.83208
  20873236.760   111461918.95308  20873240.480    86692614.12205
  20845909.740   111120438.84209  20845918.240    86427049.94507
  23275228.980   124244712.35308  23275237.040    96634791.23806
  21363055.380   114277931.17809  21363061.940    88882857.35406
  22580815.220   120749769.93208  22580818.700    93916504.03306
 15 02 25 10 00 30.0000000  0 17G02G03G06G07G09G10G20G23G30R01R07R08
                                R09R10R22R23R24
  23378470.540   122854696.18708  23378468.320    95730925.58747
  23004216.440   120887955.53608  23004220.760    94198415.10347
  20694612.920   108750919.84209  20694615.140    84740983.91849
  21366080.420   112279516.92109  21366080.580    87490531.82048
  20481308.680   107630000.96309  20481309.520    83867532.49749
  21204746.280   111431694.63109  21204745.880    86829892.27348
  20523133.920   107849793.73309  20523132.400    84038795.28548
  21821087.720   114670582.14609  21821085.360    89353684.94647
  23269001.080   122279438.68208  23269005.320    95282703.59347
  23396920.720   125069952.06908  23396928.560    97276655.03105
  21063548.200   112754811.33108  21063551.200    87698197.24108
  20398400.660   109232505.82709  20398402.540    84958623.49408
  20877979.300   111487243.27608  20877982.860    86712310.81705
  20828833.580   111029412.77209  20828842.040    86356251.90407
  23298214.640   124367409.54208  23298222.560    96730222.06306
  21373966.080   114336295.25009  21373972.480    88928251.52206
  22572759.000   120706689.37208  22572761.820    93882996.90805
 15 02 25 10 01  0.0000000  0 17G02G03G06G07G09G10G20G23G30R01R07R08
                                R09R10R22R23R24
  23361845.240   122767329.89008  23361843.060    95662847.98847
  23017787.040   120959268.31408  23017791.460    94253983.36247
  20692710.300   108740921.07309  20692712.420    84733192.65149
  21353054.460   112211065.19709  21353054.600    87437192.83148
  20485682.420   107652985.17209  20485683.380    83885442.26449
  21193803.800   111374191.07709  21193803.300    86785084.32148
  20515756.700   107811026.03609  20515755.200    84008586.66748
  21832829.440   114732284.60209  21832827.020    89401764.70248
  23248727.400   122172900.19008  23248731.700    95199686.65947
  23382371.560   124992178.65208  23382379.160    97216164.59805
  21071538.480   112797583.27808  21071541.400    87731464.25508
  20392889.380   109202992.92908  20392891.380    84935669.02008
  20882874.700   111513383.59008  20882878.180    86732642.16205
  20811862.100   110938945.78809  20811870.540    86285888.72307
  23321203.980   124490127.21808  23321211.780    96825668.81606
  21384998.860   114395312.40809  21385005.020    88974153.67006
  22564839.760   120664341.53308  22564842.760    93850059.74705
 15 02 25 10 01 30.0000000  0 17G02G03G06G07G09G10G20G23G30R01R07R08
                                R09R10R22R23R24
  23345275.600   122680256.45109  23345273.480    95594998.59047
  23031395.160   121030778.70008  23031399.800    94309705.59847
  20690920.380   108731514.69609  20690922.500    84725862.97049
  21340108.840   112143035.09509  21340108.920    87384182.37848
  20490114.300   107676274.87709  20490115.280    83903590.05949
  21182903.640   111316910.06809  21182903.040    86740449.77748
  20508432.900   107772538.74209  20508431.360    83978596.53948
  21844601.060   114794144.34409  21844598.580    89449967.02148
  23228482.420   122066512.60908  23228486.740    95116787.29947
  23367820.940   124914398.09108  23367828.480    97155668.66505
  21079560.660   112840525.75209  21079563.600    87764863.86708
  20387406.780   109173633.87909  20387408.760    84912834.19708
  20887922.760   111540339.12109  20887926.220    86753607.54305
  20794996.160   110849042.30609  20795004.680    86215963.81307
  23344196.360   124612861.57808  23344204.020    96921128.53306
  21396153.120   114454979.64808  21396159.220    89020561.43406
  22557057.880   120622728.05808  22557060.680    93817693.69905
 15 02 25 10 02  0.0000000  0 17G02G03G06G07G09G10G20G23G30R01R07R08
                                R09R10R22R23R24
  23328762.320   122593478.87409  23328760.240    95527379.73547
  23045040.840   121102487.17208  23045045.380    94365582.18647
  20689243.280   108722701.88409  20689245.540    84718995.81549
  21327243.980   112075429.32409  21327243.960    87331502.58348
  20494604.200   107699869.29509  20494605.120    83921975.30649
  21172046.140   111259853.18209  21172045.400    86695989.86348
  20501162.820   107734333.81209  20501161.280    83948826.43348
  21856402.500   114856160.93109  21856400.000    89498291.54648
  23208266.760   121960279.22608  23208271.100    95034008.07747
  23353269.080   124836610.73108  23353276.880    97095167.43605
  21087614.820   112883639.79309  21087617.820    87798396.93508
  20381953.120   109144429.36509  20381954.960    84890119.56708
  20893123.300   111568109.22309  20893126.540    86775206.48905
  20778236.880   110759706.87509  20778245.580    86146480.71407
  23367191.140   124735608.85608  23367198.880    97016598.33606
  21407428.240   114515293.46409  21407434.480    89067472.07206
  22549413.660   120581851.27008  22549416.720    93785900.67505
 15 02 25 10 02 30.0000000  0 17G02G03G06G07G09G10G20G23G30R01R07R08
                                R09R10R22R23R24
  23312305.760   122506999.26708  23312303.680    95459993.02947
  23058723.980   121174393.22008  23058728.400    94421612.72547
  20687679.200   108714482.96109  20687681.560    84712591.43149
  21314460.120   112008249.72009  21314460.020    87279154.85448
  20499151.780   107723766.73109  20499152.640    83940596.65349
  21161231.360   111203021.29509  21161230.620    86651705.28248
  20493946.560   107696411.98609  20493945.020    83919276.92648
  21868233.360   114918332.49109  21868230.840    89546736.81948
  23188080.880   121854202.46808  23188085.280    94951350.89547
  23338716.040   124758816.13508  23338723.680    97034660.52605
  21095701.100   112926925.79609  21095704.120    87832063.73008
  20376528.420   109115379.89809  20376530.160    84867525.52708
  20898476.020   111596692.37208  20898479.380    86797437.77505
  20761585.080   110670943.75709  20761593.900    86077442.74607
  23390187.520   124858364.57408  23390195.520    97112074.65406
  21418823.540   114576250.15609  21418829.860    89114882.73906
  22541907.500   120541712.23508  22541910.180    93754681.41105
 15 02 25 10 03  0.0000000  0 17G02G03G06G07G09G10G20G23G30R01R07R08
                                R09R10R22R23R24
  23295905.920   122420817.64409  23295903.840    95392838.55447
  23072444.160   121246494.07808  23072449.240    94477795.02147
  20686227.820   108706855.82309  20686230.160    84706648.17649
  21301757.120   111941495.62809  21301757.100    87227138.70148
  20503756.300   107747963.14509  20503757.100    83959450.97949
  21150459.080   111146412.98109  21150458.340    86607594.92048
  20486783.900   107658772.06709  20486782.380    83889947.09048
  21880093.000   114980654.97009  21880090.580    89595299.70848
  23167924.860   121748282.38508  23167929.420    94868815.80747
  23324161.000   124681011.32708  23324168.900    96974145.74005
  21103819.060   112970381.46209  21103821.940    87865862.52308
  20371132.300   109086483.44409  20371133.980    84845050.49808
  20903980.120   111626084.77308  20903983.620    86820298.47505
  20745041.040   110582754.00809  20745049.820    86008850.74807
  23413184.400   124981122.15708  23413192.460    97207552.48806
  21430337.920   114637843.87609  21430344.220    89162788.87106
  22534538.920   120502309.70108  22534541.540    93724035.02705
 15 02 25 10 03 30.0000000  0 17G02G03G06G07G09G10G20G23G30R01R07R08
                                R09R10R22R23R24
  23279563.640   122334938.70108  23279561.540    95325919.91047
  23086201.800   121318791.75808  23086206.900    94534130.73647
  20684889.660   108699823.24609  20684891.880    84701168.21549
  21289135.900   111875171.26309  21289136.000    87175457.41048
  20508417.820   107772459.39309  20508418.580    83978538.94049
  21139730.040   111090031.98109  21139729.420    86563661.68748
  20479675.560   107621417.84509  20479674.100    83860839.88648
  21891981.640   115043129.50909  21891979.100    89643981.09748
  23147799.720   121642523.99808  23147804.300    94786406.70047
  23309604.520   124603198.80708  23309612.460    96913624.92505
  21111969.040   113014009.49908  21111972.120    87899795.36708
  20365765.160   109057742.46009  20365766.840    84822696.40608
  20909636.000   111656287.35608  20909639.460    86843789.33205
  20728605.900   110495144.27209  20728614.520    85940709.86307
  23436181.320   125103879.43308  23436189.540    97303030.07106
  21441971.020   114700072.72609  21441977.360    89211188.96806
  22527308.880   120463647.42008  22527311.800    93693964.37806
 15 02 25 10 04  0.0000000  0 17G02G03G06G07G09G10G20G23G30R01R07R08
                                R09R10R22R23R24
  23263279.240   122249363.79608  23263277.080    95259238.19247
  23099996.740   121391284.80608  23100001.240    94590618.68146
  20683664.440   108693384.43209  20683666.600    84696150.93149
  21276596.740   111809277.48509  21276596.800    87124111.61948
  20513135.800   107797252.77409  20513136.580    83997858.42449
  21129044.260   111033878.29909  21129043.700    86519905.57348
  20472621.600   107584349.28209  20472620.180    83831955.27548
  21903898.680   115105753.80109  21903896.080    89692779.16947
  23127705.640   121536928.67908  23127710.160    94704124.66247
  23295046.340   124525377.33408  23295054.440    96853097.17206
  21120151.120   113057809.27208  21120154.360    87933861.77308
  20360426.860   109029156.35809  20360428.580    84800462.76508
  20915443.100   111687297.51208  20915446.660    86867908.28005
  20712279.780   110408116.79309  20712288.280    85873021.86207
  23459177.240   125226631.15508  23459185.500    97398503.35806
  21453722.020   114762932.15008  21453728.400    89260079.52206
  22520217.260   120425725.51408  22520220.360    93664469.58205
 15 02 25 10 04 30.0000000  0 17G02G03G06G07G09G10G20G23G30R01R07R08
                                R09R10R22R23R24
  23247053.100   122164095.02008  23247051.000    95192795.02547
  23113828.820   121463972.51208  23113833.900    94647258.23746
  20682552.040   108687539.38209  20682554.340    84691596.31449
  21264139.900   111743815.73109  21264139.780    87073102.47148
  20517909.960   107822341.45909  20517910.800    84017408.00849
  21118401.940   110977952.75309  21118401.380    86476327.22248
  20465622.200   107547567.25009  20465620.800    83803293.92948
  21915843.680   115168525.29209  21915841.140    89741691.93547
  23107642.960   121431498.66808  23107647.440    94621971.42447
  23280486.520   124447546.48408  23280494.760    96792562.14005
  21128365.100   113101780.07508  21128368.400    87968061.20808
  20355117.480   109000725.11808  20355119.180    84778349.56808
  20921401.200   111719113.36108  20921404.800    86892653.89305
  20696063.580   110321676.30309  20696072.200    85805790.41507
  23482171.280   125349372.39908  23482179.540    97493968.49606
  21465589.940   114826417.34809  21465596.440    89309456.79306
  22513264.180   120388544.64008  22513267.440    93635551.13406
 15 02 25 10 05  0.0000000  0 17G02G03G06G07G09G10G20G23G30R01R07R08
                                R09R10R22R23R24
  23230885.920   122079135.77109  23230883.760    95126593.03547
  23127698.400   121536855.72409  23127703.260    94704050.25547
  20681552.940   108682289.60509  20681555.420    84687505.55549
  21251765.940   111678789.62009  21251765.620    87022432.79748
  20522740.320   107847725.07509  20522741.100    84037187.42849
  21107803.440   110922257.75609  21107803.020    86432928.52948
  20458677.840   107511074.10309  20458676.380    83774857.70048
  21927816.820   115231444.40709  21927814.380    89790719.75148
  23087612.500   121326237.73608  23087616.960    94539949.94047
  23265924.940   124369706.52608  23265933.040    96732019.97705
  21136611.440   113145924.27608  21136614.920    88002395.49808
  20349837.380   108972450.55608  20349839.140    84756358.24808
  20927510.080   111751734.41308  20927513.960    86918025.75705
  20679958.300   110235826.67609  20679966.900    85739018.53907
  23505162.620   125472100.47108  23505171.140    97589423.37006
  21477574.540   114890526.58209  21477581.160    89359319.44306
  22506450.120   120352107.23508  22506453.420    93607210.93806
 15 02 25 10 05 30.0000000  0 17G02G03G06G07G09G10G20G23G30R01R07R08
                                R09R10R22R23R24
  23214778.540   121994490.66609  23214776.300    95060635.84747
  23141605.560   121609936.56109  23141610.440    94760996.19947
  20680667.720   108677637.73409  20680670.220    84683880.69249
  21239475.540   111614202.46209  21239474.920    86972105.15348
  20527627.000   107873404.43709  20527627.700    84057197.28449
  21097249.380   110866796.71109  21097249.140    86389712.14048
  20451789.200   107474873.60809  20451787.660    83746649.50048
  21939818.220   115294511.91909  21939815.740    89839863.20248
  23067615.160   121221150.81008  23067619.500    94458064.04347
  23251362.020   124291860.14808  23251370.240    96671472.90205
  21144890.760   113190243.93108  21144894.280    88036866.25808
  20344587.000   108944335.20209  20344588.760    84734490.74708
  20933770.000   111785161.69508  20933773.860    86944024.69805
  20663965.260   110150574.70109  20663973.760    85672711.50507
  23528151.040   125594813.32108  23528159.820    97684866.42007
  21489675.480   114955257.95709  21489682.040    89409665.96806
  22499775.780   120316416.80708  22499779.020    93579451.71205
 15 02 25 10 06  0.0000000  0 17G02G03G06G07G09G10G20G23G30R01R07R08
                                R09R10R22R23R24
  23198731.360   121910162.00009  23198729.120    94994925.20947
  23155550.060   121683214.59709  23155555.100    94818095.78447
  20679896.440   108673584.02609  20679898.860    84680721.92849
  21227269.080   111550056.47509  21227268.260    86922121.28648
  20532569.720   107899377.98309  20532570.300    84077436.36849
  21086740.140   110811570.58109  21086739.940    86346678.79348
  20444956.380   107438966.71809  20444954.820    83718670.08748
  21951847.600   115357726.31909  21951845.180    89889121.11147
  23047651.360   121116240.46409  23047655.680    94376315.74447
  23236797.920   124214007.02008  23236806.060    96610920.52205
  21153203.080   113234739.70009  21153206.500    88071473.99308
  20339366.440   108916379.71609  20339368.220    84712747.58408
  20940180.660   111819393.50608  20940184.040    86970649.40505
  20648085.160   110065924.54409  20648093.480    85606872.52107
  23551135.800   125717506.63908  23551144.700    97780294.30307
  21501892.060   115020607.44909  21501898.480    89460493.23206
  22493241.420   120281474.26508  22493244.740    93552274.16505
 15 02 25 10 06 30.0000000  0 17G02G03G06G07G09G10G20G23G30R01R07R08
                                R09R10R22R23R24
  23182743.900   121826147.12109  23182741.580    94929459.07947
  23169530.980   121756684.53808  23169535.800    94875344.93247
  20679238.160   108670123.73509  20679240.420    84678025.56749
  21215146.000   111486348.87109  21215145.120    86872478.99948
  20537567.180   107925639.29509  20537567.740    84097899.67849
  21076275.040   110756575.71309  21076274.720    86303825.65148
  20438178.680   107403350.07409  20438177.180    83690916.84548
  21963903.640   115421080.97509  21963901.180    89938488.29947
  23027720.720   121011504.28408  23027725.000    94294703.16447
  23222231.560   124136142.18408  23222239.560    96550359.06105
  21161547.480   113279406.63709  21161550.840    88106214.88208
  20334174.860   108888579.39409  20334176.720    84691125.09908
  20946740.680   111854423.05409  20946744.100    86997894.55505
  20632317.640   109981874.67509  20632325.780    85541500.45707
  23574115.240   125840171.22608  23574124.080    97875699.82306
  21514222.480   115086566.37309  21514228.880    89511794.49306
  22486846.060   120247275.73208  22486849.160    93525675.30705
 15 02 25 10 07  0.0000000  0 17G02G03G06G07G09G10G20G23G30R01R07R08
                                R09R10R22R23R24
  23166817.820   121742455.16609  23166815.440    94864244.60847
  23183549.640   121830352.43108  23183554.380    94932748.33847
  20678694.000   108667263.56409  20678696.160    84675796.83149
  21203107.700   111423087.59209  21203106.980    86823184.50848
  20542620.280   107952193.25409  20542620.840    84118591.03049
  21065855.340   110701819.74109  21065855.040    86261158.67048
  20431457.560   107368031.01809  20431456.120    83663395.49648
  21975987.360   115484581.05709  21975984.920    89987968.81547
  23007824.900   120906951.33609  23007829.120    94213233.35947
  23207664.160   124058271.88108  23207672.340    96489793.31405
  21169925.280   113324252.32809  21169928.340    88141094.79308
  20329013.580   108860941.33309  20329015.540    84669628.82508
  20953451.060   111890255.28408  20953454.540    87025764.03405
  20616664.620   109898435.53209  20616672.820    85476603.40807
  23597089.740   125962809.50908  23597098.300    97971084.91906
  21526667.380   115153137.46109  21526673.740    89563571.89706
  22480591.340   120213828.74108  22480594.320    93499660.97406
 15 02 25 10 07 30.0000000  0 17G02G03G06G07G09G10G20G23G30R01R07R08
                                R09R10R22R23R24
  23150952.340   121659081.79209  23150950.060    94799278.34447
  23197604.740   121904211.48208  23197609.380    94990300.68347
  20678262.680   108664997.19309  20678264.900    84674030.79149
  21191153.320   111360267.89709  21191152.940    86774234.10748
  20547727.540   107979031.85009  20547728.020    84139504.17349
  21055479.920   110647297.12209  21055479.740    86218673.51448
  20424792.040   107333003.96509  20424790.620    83636101.67548
  21988097.320   115548218.81209  21988094.820    90037556.60647
  22987963.180   120802577.60808  22987967.460    94131903.20647
  23193094.720   123980389.89408  23193102.820    96429218.50305
  21178335.140   113369269.89109  21178337.960    88176108.36008
  20323881.540   108833459.37109  20323883.520    84648253.94708
  20960310.120   111926881.81209  20960313.560    87054251.28805
  20601125.540   109815604.13109  20601133.800    85412179.03707
  23620057.140   126085410.42207  23620065.440    98066440.88906
  21539224.580   115220309.81009  21539230.900    89615816.94606
  22474476.120   120181127.74608  22474478.740    93474226.83905
 15 02 25 10 08  0.0000000  0 17G02G03G06G07G09G10G20G23G30R01R07R08
                                R09R10R22R23R24
  23135148.980   121576034.53009  23135146.700    94734566.21747
  23211697.160   121978266.41708  23211701.620    95048005.66747
  20677945.280   108663329.92009  20677947.620    84672731.58549
  21179284.380   111297897.03209  21179284.240    86725633.43748
  20552889.620   108006158.65109  20552890.100    84160641.90149
  21045150.180   110593014.16609  21045150.040    86176375.11148
  20418183.400   107298275.48809  20418182.000    83609040.51548
  22000234.140   115611997.92109  22000231.620    90087254.56047
  22968137.060   120698390.91708  22968141.300    94050718.82147
  23178523.900   123902500.41408  23178531.960    96368637.86705
  21186778.040   113414465.23809  21186780.900    88211260.21708
  20318779.780   108806139.30009  20318781.720    84627004.99308
  20967318.500   111964305.86008  20967321.880    87083358.85205
  20585702.220   109733389.90509  20585710.580    85348234.68607
  23643017.820   126207975.25308  23643026.020    98161768.85206
  21551894.360   115288084.70308  21551900.800    89668530.66106
  22468501.300   120149178.57308  22468504.360    93449377.53205
 15 02 25 10 08 30.0000000  0 16G02G03G06G07G09G10G20G23G30R01R07R08
                                R09R10R23R24
  23119408.540   121493318.13309  23119406.220    94670111.90847
  23225827.300   122052519.46908  23225832.060    95105864.99447
  20677742.480   108662264.45409  20677744.880    84671901.31849
  21167501.660   111235978.95109  21167501.620    86677385.59448
  20558106.700   108033574.74909  20558107.240    84182005.05549
  21034866.880   110538974.67109  21034866.620    86134266.41648
  20411632.460   107263849.87409  20411631.040    83582215.36248
  22012398.040   115675919.57909  22012395.600    90137063.58547
  22948347.460   120594396.32508  22948351.620    93969684.13947
  23163952.240   123824606.84208  23163960.500    96308054.01405
  21195254.660   113459841.17908  21195257.660    88246552.54508
  20313708.820   108778984.07909  20313710.720    84605884.26308
  20974476.260   112002528.47008  20974479.640    87113087.51605
  20570395.880   109651799.15809  20570404.300    85284775.27507
  21564676.460   115356460.73608  21564683.120    89721711.91406
  22462668.000   120117985.08508  22462670.700    93425115.90405
 15 02 25 10 09  0.0000000  0 17G02G03G06G07G09G10G20G23G30R01R07R08
                                R09R10R11R23R24
  23103730.840   121410931.82608  23103728.500    94605914.82247
  23239994.140   122126967.06208  23239999.220    95163875.91747
  20677653.720   108661797.65709  20677656.080    84671537.54849
  21155804.940   111174512.25709  21155804.800    86629489.47748
  20563377.940   108061275.34409  20563378.560    84203589.90049
  21024629.540   110485176.57909  21024629.160    86092345.83148
  20405138.640   107229724.78209  20405137.300    83555624.37948
  22024588.160   115739978.93409  22024585.740    90186979.91247
  22928594.300   120490593.17008  22928598.420    93888798.64647
  23149379.100   123746704.89408  23149387.080    96247463.64505
  21203764.520   113505394.90109  21203767.780    88281983.14508
  20308668.060   108751990.93108  20308670.000    84584889.58408
  20981782.640   112041544.23108  20981786.060    87143433.09005
  20555206.660   109570832.23109  20555215.060    85221801.04107
  23554438.280   125867784.91307  23554453.600                  
  21577569.640   115425430.63808  21577576.380    89775355.05906
  22456975.420   120087544.45108  22456977.840    93401439.87205
 15 02 25 10 09 30.0000000  0 17G02G03G06G07G09G10G20G23G30R01R07R08
                                R09R10R11R23R24
  23088116.020   121328875.95508  23088113.700    94541975.21247
  23254197.640   122201606.53308  23254202.940    95222036.38647
  20677678.520   108661927.50609  20677680.820    84671638.68649
  21144194.120   111113496.81809  21144193.800    86581944.98548
  20568702.660   108089256.76609  20568703.320    84225393.56649
  21014437.880   110431618.79709  21014437.520    86050612.49248
  20398701.800   107195899.30109  20398700.540    83529266.86048
  22036803.840   115804172.70509  22036801.460    90237000.96547
  22908877.780   120386981.93509  22908881.760    93808062.70747
  23134804.180   123668792.67408  23134811.820    96186865.28705
  21212307.280   113551124.69108  21212310.600    88317550.69008
  20303657.180   108725158.20709  20303659.220    84564019.66308
  20989236.740   112081349.12808  20989240.180    87174392.42005
  20540134.760   109490490.64309  20540143.160    85159313.18907
  23528858.680   125731094.90907  23528872.800                  
  21590572.760   115494988.13908  21590579.580    89829455.23206
  22451423.540   120057855.60408  22451426.140    93378348.55106
 15 02 25 10 10  0.0000000  0 17G02G03G06G07G09G10G20G23G30R01R07R08
                                R09R10R11R23R24
  23072564.520   121247152.65508  23072562.180    94478294.74047
  23268437.740   122276437.65708  23268443.020    95280346.20147
  20677816.900   108662654.08609  20677819.160    84672204.81749
  21132669.500   111052934.34209  21132669.000    86534753.44948
  20574080.560   108117517.56909  20574081.220    84247414.93049
  21004292.280   110378303.02609  21004291.900    86009067.73548
  20392322.260   107162374.40309  20392320.980    83503143.55448
  22049044.860   115868499.44209  22049042.520    90287125.62347
  22889198.320   120283565.19109  22889202.020    93727478.30247
  23120227.160   123590870.08908  23120234.600    96126258.91305
  21220882.980   113597030.66509  21220886.160    88353255.27208
  20298676.400   108698486.61309  20298678.440    84543275.06908
  20996838.260   112121941.22708  20996841.760    87205964.02905
  20525180.900   109410778.35109  20525189.280    85097314.77107
  23503278.900   125594404.93807  23503293.040                  
  21603685.000   115565129.57308  21603691.920    89884009.57206
  22446012.280   120028919.26708  22446015.080    93355842.51906
 15 02 25 10 10 30.0000000  0 17G02G03G06G07G09G10G20G23G30R01R07R08
                                R09R10R11R23R24
  23057077.720   121165769.47108  23057075.380    94414879.31347
  23282715.200   122351465.09108  23282720.080    95338808.95746
  20678069.740   108663982.47709  20678072.000    84673239.88849
  21121232.260   110992831.50809  21121231.740    86487920.08748
  20579512.280   108146061.25009  20579512.960    84269656.72949
  20994193.840   110325234.88409  20994193.320    85967715.93348
  20386001.220   107129156.57009  20385999.900    83477259.52848
  22061311.860   115932962.97809  22061309.460    90337356.89547
  22869557.300   120180350.54309  22869560.780    93647051.41947
  23105649.220   123512942.16408  23105656.220    96065648.30705
  21229492.560   113643118.19309  21229495.540    88389101.05808
  20293726.760   108671981.80509  20293728.760    84522660.19508
  21004587.780   112163323.71208  21004591.660    87238150.37305
  20510346.760   109331704.06209  20510355.160    85035812.59007
  23477700.800   125457723.95207  23477714.640                  
  21616906.500   115635855.56209  21616913.540    89939018.57906
  22440742.820   120000741.21708  22440745.800    93333926.24505
 15 02 25 10 11  0.0000000  0 17G02G03G06G07G09G10G20G23G30R01R07R08
                                R09R10R11R23R24
  23041655.960   121084727.75909  23041653.640    94351729.94447
  23297029.740   122426687.52908  23297035.020    95397423.61647
  20678436.820   108665911.77909  20678439.120    84674743.19849
  21109882.620   110933188.97109  21109882.140    86441445.39048
  20584997.320   108174885.37209  20584998.060    84292117.04349
  20984142.580   110272414.86209  20984141.960    85926557.45948
  20379738.620   107096245.96209  20379737.280    83451614.89748
  22073604.360   115997560.82509  22073602.140    90387692.79747
  22849954.920   120077339.60608  22849958.340    93566783.25847
  23091069.840   123435007.89708  23091076.820    96005032.80705
  21238136.100   113689387.35909  21238139.040    88425088.11508
  20288808.180   108645643.18208  20288810.140    84502174.58508
  21012484.700   112205493.41108  21012488.780    87270948.98305
  20495632.820   109253270.12209  20495641.200    84974808.45607
  23452124.900   125321054.77807  23452138.100                  
  21630236.420   115707161.08209  21630243.400    89994478.30906
  22435615.260   119973321.48808  22435618.160    93312599.76205
 15 02 25 10 11 30.0000000  0 17G02G03G06G07G09G10G20G23G30R01R07R08
                                R09R10R11R23R24
  23026299.180   121004027.61908  23026296.960    94288846.73847
  23311380.680   122502102.37008  23311386.140    95456188.26747
  20678917.840   108668439.81209  20678920.200    84676713.06449
  21098620.560   110874006.41209  21098620.080    86395329.13148
  20590535.020   108203986.22909  20590535.840    84314792.99449
  20974138.300   110219842.09509  20974137.600    85885591.66348
  20373534.340   107063641.89609  20373532.980    83426209.13548
  22085921.820   116062289.50309  22085919.720    90438130.65147
  22830391.300   119974532.81408  22830394.840    93486674.20147
  23076488.760   123357064.95608  23076496.000    95944410.60105
  21246813.240   113735836.10808  21246816.300    88461214.86508
  20283920.400   108619469.30508  20283922.320    84481817.11908
  21020528.500   112248446.27008  21020532.560    87304356.72805
  20481039.400   109175478.69909  20481047.780    84914304.05907
  23426551.560   125184399.05207  23426564.740                  
  21643673.700   115779040.27309  21643680.520    90050384.26006
  22430629.160   119946658.18008  22430631.840    93291861.61105
 15 02 25 10 12  0.0000000  0 17G02G03G06G07G09G10G20G23G30R01R07R08
                                R09R10R11R23R24
  23011007.600   120923670.21509  23011005.460    94226230.61847
  23325768.140   122577707.83708  23325773.280    95515101.47146
  20679512.600   108671565.26509  20679514.980    84679148.43549
  21087446.100   110815284.13609  21087445.700    86349571.52448
  20596124.920   108233361.04709  20596125.720    84337682.42849
  20964181.040   110167516.48209  20964180.280    85844818.44848
  20367388.240   107031343.94109  20367386.920    83401041.89148
  22098263.780   116127146.54409  22098261.640    90488668.54147
  22810866.720   119871931.38109  22810870.480    93406725.17447
  23061906.000   123279112.23808  23061913.240    95883780.73405
  21255523.700   113782463.29409  21255526.740    88497480.37908
  20279063.220   108593459.30208  20279065.120    84461587.11008
  21028718.300   112292178.85108  21028722.160    87338370.92905
  20466566.720   109098331.60709  20466575.060    84854300.80107
  23400981.080   125047759.30807  23400994.040                  
  21657217.080   115851487.17808  21657223.860    90106731.74406
  22425784.220   119920750.64108  22425787.320    93271711.31905
 15 02 25 10 12 30.0000000  0 17G02G03G06G07G09G10G20G23G30R01R07R08
                                R09R10R11R23R24
  22995783.120   120843665.26908  22995780.980    94163889.12947
  23340193.140   122653511.35008  23340198.660    95574168.96847
  20680222.620   108675295.74409  20680224.940    84682055.25749
  21076361.020   110757031.51409  21076360.680    86304179.88048
  20601768.140   108263015.97409  20601768.860    84360790.12749
  20954272.380   110115446.76909  20954271.700    85804244.63748
  20361302.220   106999361.35909  20361300.760    83376120.39048
  22110631.340   116192137.89609  22110629.040    90539311.08347
  22791383.160   119769545.61308  22791387.020    93326944.18447
  23047322.900   123201157.37108  23047330.260    95823149.19805
  21264269.040   113829277.37409  21264271.920    88533891.30108
  20274238.260   108567621.67309  20274240.180    84441491.16208
  21037055.120   112336696.62808  21037058.780    87372995.83605
  20452216.960   109021840.16709  20452225.220    84794807.50807
  23375415.660   124911147.29107  23375428.420                  
  21670867.160   115924505.44208  21670873.960    90163523.62906
  22421082.300   119895607.14708  22421085.580    93252155.26305
 15 02 25 10 13  0.0000000  0 17G02G03G06G07G09G10G20G23G30R01R07R08
                                R09R10R11R23R24
  22980624.620   120764007.08208  22980622.500    94101817.85747
  23354654.020   122729504.27908  23354659.520    95633384.07347
  20681046.240   108679622.96809  20681048.500    84685427.08149
  21065364.080   110699242.08609  21065363.800    86259149.16748
  20607462.820   108292941.29709  20607463.440    84384108.52549
  20944411.040   110063625.99709  20944410.580    85763864.82148
  20355274.900   106967687.12409  20355273.300    83351439.16448
  22123022.760   116257254.58809  22123020.380    90590051.28547
  22771939.560   119667369.82209  22771943.500    93247326.83847
  23032737.760   123123191.86408  23032745.500    95762509.42405
  21273047.700   113876270.41508  21273050.660    88570441.38008
  20269444.000   108541948.63708  20269446.000    84421523.24508
  21045536.960   112381989.13508  21045540.620    87408223.29905
  20437989.340   108945999.68509  20437997.540    84735820.52207
  23349854.600   124774558.49207  23349867.320                  
  21684621.700   115998082.56609  21684628.460    90220750.17706
  22416521.720   119871220.04008  22416524.360    93233187.50405
 15 02 25 10 13 30.0000000  0 17G02G03G06G07G09G10G20G23G30R01R07R08
                                R09R10R11R23R24
  22965533.660   120684703.51309  22965531.480    94040022.90147
  23369151.880   122805691.50508  23369157.660    95692750.53247
  20681984.360   108684552.19209  20681986.540    84689267.98849
  21054456.580   110641922.74709  21054456.340    86214484.75848
  20613209.680   108323140.87409  20613210.220    84407640.61849
  20934598.340   110012060.70709  20934598.080    85723684.06948
  20349307.520   106936327.79409  20349305.820    83327003.30949
  22135438.800   116322500.49609  22135436.320    90640892.16347
  22752537.500   119565411.92809  22752541.420    93167879.25447
  23018151.740   123045221.24908  23018159.880    95701865.69505
  21281860.760   113923447.76908  21281863.800    88607134.80308
  20264681.520   108516446.16308  20264683.660    84401687.97708
  21054164.580   112428059.62908  21054168.200    87444055.86705
  20423885.640   108870819.24309  20423893.700    84677346.87707
  23324299.700   124638002.38207  23324312.260    96940720.75105
  21698480.960   116072219.88408  21698487.700    90278412.44206
  22412103.680   119847595.23608  22412106.380    93214812.63406
 15 02 25 10 14  0.0000000  0 17G02G03G06G07G09G10G20G23G30R01R07R08
                                R09R10R11R23R24
  22950509.400   120605750.07809  22950507.060    93978500.77547
  23383685.680   122882065.95708  23383691.320    95752262.93846
  20683035.580   108690076.67909  20683037.840    84693572.75249
  21043637.600   110585068.40809  21043637.340    86170182.68848
  20619007.160   108353606.63009  20619007.680    84431380.12749
  20924833.380   109960745.56709  20924833.120    85683698.24548
  20343398.980   106905278.00709  20343397.300    83302808.65948
  22147877.920   116387867.72709  22147875.380    90691827.60047
  22733176.140   119463667.85709  22733180.060    93088598.29347
  23003563.300   122967238.75908  23003571.320    95641212.65605
  21290707.120   113970803.55408  21290710.320    88643967.02608
  20259949.800   108491108.23408  20259951.980    84381980.68108
  21062936.300   112474899.18008  21062939.840    87480486.58005
  20409905.220   108796295.78009  20409913.260    84619384.21607
  23298750.240   124501475.96307  23298763.000    96834533.86005
  21712442.860   116146906.44509  21712449.620    90336501.88506
  22407826.960   119824726.46208  22407829.980    93197025.80206
 15 02 25 10 14 30.0000000  0 17G02G03G06G07G09G10G20G23G30R01R07R08
                                R09R10R11R23R24
  22935553.180   120527154.08909  22935550.720    93917257.17947
  23398256.060   122958632.40708  23398261.340    95811924.89246
  20684200.940   108696201.34709  20684203.360    84698345.18249
  21032908.340   110528685.60609  21032908.000    86126248.04748
  20624855.960   108384342.07609  20624856.480    84455329.79749
  20915117.320   109909686.81409  20915116.980    85643912.20548
  20337550.380   106874544.01109  20337548.820    83278860.08949
  22160340.800   116453359.76809  22160338.300    90742860.27347
  22713856.880   119362145.28808  22713860.840    93009489.93747
  22988973.700   122889249.41608  22988981.680    95580554.32205
  21299587.980   114018343.60308  21299591.460    88680942.55208
  20255249.880   108465940.63309  20255252.160    84362405.87808
  21071852.440   112522510.52308  21071855.980    87517517.58105
  20396049.620   108722437.68109  20396057.680    84561939.06707
  23273208.280   124364988.60308  23273220.920    96728377.27605
  21726507.640   116222143.28208  21726514.440    90395019.33606
  22403692.780   119802619.19708  22403695.860    93179831.26005
 15 02 25 10 15  0.0000000  0 17G02G03G06G07G09G10G20G23G30R01R07R08
                                R09R10R11R23R24
  22920665.280   120448917.55209  22920662.800    93856293.68147
  23412862.780   123035390.13008  23412868.040    95871735.91247
  20685480.480   108702925.74509  20685483.000    84703584.93249
  21022269.060   110472775.92809  21022268.640    86082682.07648
  20630755.680   108415345.49809  20630756.300    84479488.27449
  20905450.240   109858885.24909  20905449.860    85604326.56948
  20331761.980   106844126.72309  20331760.600    83255158.31248
  22172827.060   116518975.14509  22172824.580    90793989.05647
  22694580.220   119260846.51609  22694584.220    92930555.97047
  22974382.980   122811253.09508  22974390.740    95519890.54305
  21308503.160   114066067.96308  21308506.940    88718061.42508
  20250581.860   108440943.71909  20250584.240    84342963.82508
  21080912.600   112570891.17808  21080916.120    87555146.93205
  20382319.500   108649247.77809  20382327.520    84505013.63107
  23247674.420   124228543.77908  23247686.840    96622253.79605
  21740674.400   116297925.63408  21740681.360    90453961.06106
  22399700.960   119781273.63708  22399704.200    93163229.15705
 15 02 25 10 15 30.0000000  0 17G02G03G06G07G09G10G20G23G30R01R07R08
                                R09R10R11R23R24
  22905846.740   120371046.14509  22905844.400    93795614.70347
  23427506.440   123112342.16308  23427511.400    95931698.35946
  20686874.900   108710253.19309  20686877.320    84709294.59149
  21011720.740   110417344.41609  21011720.240    86039488.70548
  20636706.760   108446618.87609  20636707.520    84503857.10649
  20895832.980   109808345.88809  20895832.640    85564945.24748
  20326034.800   106814030.88009  20326033.540    83231707.00148
  22185337.280   116584716.24509  22185334.780    90845215.81047
  22675347.300   119159777.54808  22675351.320    92851801.06548
  22959791.580   122733253.51508  22959799.000    95459224.18405
  21317453.520   114113980.16008  21317457.220    88755326.39408
  20245946.660   108416121.89508  20245948.900    84323657.95108
  21090116.960   112620042.09108  21090120.360    87593375.38305
  20368716.180   108576733.65209  20368724.180    84448613.79207
  23222149.820   124092149.03907  23222161.860    96516169.28905
  21754943.060   116374252.93108  21754950.140    90513326.63506
  22395852.420   119760693.55008  22395855.580    93147222.37305
 15 02 25 10 16  0.0000000  0 17G02G03G06G07G09G10G20G23G30R01R07R08
                                R09R10R11R23R24
  22891097.720   120293540.06609  22891095.440    93735220.38247
  23442186.500   123189485.61608  23442191.920    95991809.95047
  20688383.600   108718180.95609  20688385.920    84715472.02149
  21001263.200   110362390.10609  21001262.680    85996667.17348
  20642708.500   108478158.28309  20642709.340    84528433.23449
  20886265.340   109758067.54609  20886265.040    85525767.32048
  20320368.640   106784255.03709  20320367.360    83208505.04248
  22197870.660   116650579.43409  22197868.180    90896537.68747
  22656158.180   119058938.47809  22656162.100    92773225.26347
  22945198.960   122655247.59808  22945206.500    95398552.98205
  21326438.680   114162078.25908  21326442.060    88792735.97208
  20241343.680   108391472.97708  20241345.800    84304486.55808
  21099464.620   112669958.46708  21099468.140    87632199.17005
  20355239.660   108504895.88109  20355247.680    84392739.98907
  23196634.780   123955805.91607  23196646.500    96410124.99505
  21769312.220   116451118.31508  21769319.460    90573110.70606
  22392146.680   119740876.98008  22392149.800    93131809.46205
 15 02 25 10 16 30.0000000  0 17G02G03G06G07G09G10G20G23G30R01R07R08
                                R09R10R11R23R24
  22876417.660   120216395.87709  22876415.360    93675108.03447
  23456902.000   123266814.62708  23456907.320    96052066.15547
  20690005.420   108726703.37809  20690007.720    84722112.83649
  20990895.720   110307909.04009  20990895.260    85954214.40948
  20648759.540   108509956.72809  20648760.400    84553211.21949
  20876746.440   109708045.85409  20876746.200    85486789.38248
  20314762.780   106754795.58409  20314761.340    83185549.62049
  22210425.920   116716557.63409  22210423.620    90947949.17347
  22637012.300   118958326.41509  22637016.180    92694826.38247
  22930604.280   122577230.46008  22930611.400    95337872.99105
  21335457.740   114210357.22808  21335460.960    88830286.23008
  20236772.080   108366992.23808  20236774.200    84285445.98108
  21108954.180   112720632.42208  21108958.000    87671612.20305
  20341889.600   108433732.64209  20341897.620    84337390.82007
  23171129.240   123819512.78108  23171140.880    96304119.64105
  21783780.120   116528511.89908  21783787.280    90633305.61606
  22388582.660   119721818.32808  22388585.800    93116986.08106
 15 02 25 10 17  0.0000000  0 17G02G03G06G07G09G10G20G23G30R01R07R08
                                R09R10R11R23R24
  22861808.920   120139626.12809  22861806.500    93615287.48547
  23471654.460   123344338.89608  23471659.960    96112474.49846
  20691742.260   108735830.29209  20691744.540    84729224.69149
  20980620.540   110253912.74709  20980620.100    85912139.39148
  20654861.500   108542022.96509  20654862.440    84578197.86649
  20867278.580   109658292.31309  20867278.360    85448020.39648
  20309219.220   106725663.40409  20309217.620    83162849.22448
  22223004.760   116782659.80509  22223002.480    90999457.28547
  22617911.960   118857954.07909  22617915.840    92616614.28047
  22916009.400   122499212.37708  22916016.780    95277192.34606
  21344512.480   114258827.74608  21344515.740    88867985.45508
  20232233.960   108342690.85908  20232236.120    84266544.90508
  21118586.980   112772071.67808  21118591.060    87711620.45705
  20328668.580   108363257.24009  20328676.500    84282576.64807
  23145635.780   123683284.05308  23145647.080    96198164.39806
  21798347.880   116606439.57408  21798354.900    90693915.92306
  22385162.420   119703528.27308  22385165.260    93102760.46406
 15 02 25 10 17 30.0000000  0 17G02G03G06G07G09G10G20G23G30R01R07R08
                                R09R10R11R23R24
  22847270.380   120063225.47709  22847267.840    93555754.50647
  23486442.660   123422050.20908  23486447.760    96173028.62446
  20693592.520   108745553.69709  20693594.840    84736801.33749
  20970436.480   110200395.26109  20970436.060    85870437.45648
  20661012.700   108574347.70809  20661013.680    84603385.95349
  20857860.540   109608800.21009  20857860.300    85409455.12148
  20303736.620   106696852.07309  20303734.960    83140398.83448
  22235605.480   116848877.10709  22235603.320    91051055.09647
  22598856.200   118757816.25409  22598860.100    92538584.90847
  22901412.960   122421185.45708  22901419.980    95216504.73405
  21353601.860   114307482.74709  21353605.020    88905828.15808
  20227727.880   108318561.50308  20227730.100    84247777.61808
  21128361.240   112824266.00408  21128365.500    87752215.98605
  20315575.760   108293465.55309  20315583.660    84228294.24107
  23120153.540   123547115.76508  23120164.820    96092256.31804
  21813013.320   116684889.18408  21813020.220    90754932.17905
  22381884.320   119685999.11708  22381887.640    93089126.69905
 15 02 25 10 18  0.0000000  0 17G02G03G06G07G09G10G20G23G30R01R07R08
                                R09R10R11R23R24
  22832803.340   119987200.76009  22832800.820    93496514.47547
  23501267.200   123499952.73608  23501272.640    96233731.66946
  20695557.020   108755877.81109  20695559.460    84744846.06849
  20960344.740   110147362.67509  20960344.280    85829113.36948
  20667213.660   108606934.10909  20667214.660    84628777.93149
  20848493.460   109559575.63309  20848493.140    85371098.30448
  20298316.140   106668367.62609  20298314.560    83118203.16148
  22248228.660   116915213.20909  22248226.720    91102745.47347
  22579846.500   118657920.14509  22579850.420    92460743.87948
  22886815.720   122343154.40508  22886822.880    95155813.98805
  21362726.620   114356327.39509  21362729.820    88943818.35208
  20223255.040   108294609.66408  20223257.180    84229148.39308
  21138277.500   112877217.31308  21138281.720    87793400.30405
  20302612.480   108224364.94609  20302620.460    84174549.34507
  23094684.160   123411016.61708  23094694.720    95986401.86605
  21827776.420   116763861.34108  21827783.460    90816354.87006
  22378749.520   119669235.74008  22378753.040    93076088.46706
 15 02 25 10 18 30.0000000  0 17G02G03G06G07G09G10G20G23G30R01R07R08
                                R09R10R11R23R24
  22818408.100   119911553.72609  22818405.720    93437568.73648
  23516127.620   123578045.68408  23516132.800    96294583.12946
  20697635.800   108766801.95509  20697638.280    84753358.35849
  20950345.440   110094815.88109  20950344.960    85788167.81348
  20673464.080   108639780.30909  20673465.080    84654372.34649
  20839177.400   109510619.18409  20839177.000    85332950.42148
  20292957.980   106640210.84409  20292956.540    83096262.80549
  22260874.220   116981665.87009  22260872.380    91154526.67947
  22560883.260   118558267.86209  22560887.160    92383092.83548
  22872217.500   122265118.99408  22872224.840    95095119.83405
  21371886.720   114405361.02509  21371889.780    88981955.56008
  20218815.460   108270835.42508  20218817.460    84210657.32008
  21148334.900   112930922.62408  21148339.020    87835171.03505
  20289779.500   108155958.68509  20289787.580    84121344.49807
  23069228.400   123274990.28208  23069238.560    95880604.12704
  21842636.240   116843351.32608  21842643.420    90878180.30506
  22375757.900   119653237.65808  22375761.440    93063645.52306
 15 02 25 10 19  0.0000000  0 17G02G03G06G07G09G10G20G23G30R01R07R08
                                R09R10R11R23R24
  22804084.560   119836283.36509  22804082.280    93378916.52547
  23531023.680   123656325.23408  23531029.200    96355579.98846
  20699828.200   108778322.50609  20699830.620    84762335.38249
  20940438.220   110042753.08309  20940437.800    85747599.40649
  20679763.080   108672881.63009  20679764.040    84680165.55349
  20829911.980   109461929.14409  20829911.580    85295010.13548
  20287661.880   106612379.70309  20287660.500    83074576.19449
  22273541.260   117048231.09409  22273539.400    91206395.60347
  22541966.420   118458858.71809  22541970.240    92305631.25148
  22857617.820   122187075.90408  22857625.220    95034419.67306
  21381081.640   114454581.50409  21381084.660    89020238.08608
  20214408.620   108247236.65408  20214410.580    84192302.71408
  21158532.480   112985376.14708  21158536.480    87877523.72705
  20277076.920   108088246.82009  20277084.920    84068679.75407
  23043786.280   123139036.97608  23043796.560    95774863.21805
  21857591.360   116923351.29108  21857598.680    90940402.39506
  22372908.760   119638001.74308  22372911.940    93051795.33106
 15 02 25 10 19 30.0000000  0 17G02G03G06G07G09G10G20G23G30R01R07R08
                                R09R10R11R23R24
  22789834.240   119761397.60909  22789831.960    93320564.00547
  23545956.340   123734796.59208  23545962.240    96416726.28446
  20702135.120   108790444.58309  20702137.400    84771781.12349
  20930624.480   109991181.42909  20930624.140    85707413.70949
  20686111.460   108706242.09009  20686112.340    84706160.68849
  20820698.560   109413512.37209  20820698.160    85257282.78148
  20282429.040   106584880.78109  20282427.640    83053148.45049
  22286230.500   117114912.95109  22286228.580    91258355.40847
  22523097.320   118359700.84409  22523101.080    92228365.45148
  22843017.880   122109031.03708  22843025.180    94973718.11405
  21390312.460   114503994.43609  21390315.840    89058670.26908
  20210035.640   108223819.44908  20210037.600    84174089.31708
  21168870.640   113040580.81608  21168874.380    87920460.64405
  20264506.280   108021238.16309  20264514.260    84016561.94507
  23018359.800   123003167.09408  23018369.980    95669187.12205
  21872642.080   117003862.15008  21872649.440    91003021.82206
  22370203.220   119623533.59308  22370206.340    93040542.33205
 15 02 25 10 20  0.0000000  0 17G02G03G06G07G09G10G20G23G30R01R07R08
                                R09R10R11R23R24
  22775656.460   119686892.87509  22775654.160    93262508.38247
  23560924.380   123813453.28508  23560930.440    96478017.04047
  20704555.220   108803161.88709  20704557.440    84781690.68849
  20920903.340   109940096.55409  20920903.080    85667607.32548
  20692507.760   108739854.38009  20692508.600    84732352.05649
  20811536.240   109365363.89509  20811535.760    85219764.49848
  20277258.620   106557709.59609  20277257.140    83031976.09649
  22298940.560   117181704.29709  22298938.580    91310400.52547
  22504275.240   118260790.84309  22504279.040    92151292.82048
  22828416.540   122030978.28408  22828423.980    94913010.42805
  21399578.160   114553594.56408  21399581.680    89097248.08508
  20205695.640   108200578.51508  20205697.520    84156013.02908
  21179347.760   113096528.00208  21179351.340    87963975.07005
  20252067.060   107954929.73709  20252074.960    83964988.75907
  22992948.380   122867378.40407  22992958.860    95563574.20405
  21887786.540   117084873.65908  21887793.760    91066030.67206
  22367640.100   119609827.18708  22367642.820    93029881.79605
 15 02 25 10 20 30.0000000  0 17G02G03G06G07G09G10G20G23G30R01R07R08
                                R09R10R11R23R24
  22761552.080   119612773.82109  22761549.820    93204753.29147
  23575928.320   123892297.52508  23575934.220    96539453.95847
  20707088.960   108816476.70109  20707091.220    84792065.84449
  20911275.500   109889502.00809  20911275.280    85628183.00848
  20698952.120   108773719.64909  20698952.980    84758740.55149
  20802425.680   109317487.80009  20802425.240    85182458.45648
  20272151.300   106530870.00409  20272149.800    83011062.12049
  22311671.820   117248606.66609  22311669.780    91362532.15947
  22485501.340   118162133.85809  22485505.060    92074417.32848
  22813814.280   121952920.62208  22813821.620    94852298.91106
  21408879.300   114603384.95508  21408882.920    89135973.86208
  20201389.120   108177517.33008  20201391.020    84138076.54608
  21189963.980   113153217.70608  21189967.700    88008067.00705
  20239760.280   107889327.50609  20239768.140    83913964.84407
  22967553.240   122731677.17407  22967563.960    95458029.21805
  21903024.320   117166384.42208  21903031.420    91129427.80306
  22365219.920   119596884.98308  22365222.380    93019815.61205
 15 02 25 10 21  0.0000000  0 17G02G03G06G07G09G10G20G23G30R01R07R08
                                R09R10R11R23R24
  22747521.600   119539042.90909  22747519.320    93147300.66447
  23590967.880   123971328.96008  23590974.080    96601036.62646
  20709736.320   108830388.42509  20709738.600    84802906.12049
  20901741.240   109839399.49009  20901741.060    85589142.08948
  20705444.340   108807836.55109  20705445.240    84785325.12149
  20793367.200   109269885.39509  20793366.860    85145365.67948
  20267107.260   106504363.21109  20267105.800    82990407.46649
  22324423.980   117315619.17809  22324421.800    91414749.61447
  22466776.100   118063732.57009  22466779.760    91997741.06548
  22799211.120   121874858.39208  22799218.640    94791583.87406
  21418216.260   114653366.05108  21418219.740    89174847.95808
  20197116.300   108154636.78509  20197118.280    84120280.56208
  21200718.720   113210647.14608  21200722.440    88052734.28605
  20227586.500   107824434.56009  20227594.340    83863492.58807
  22942175.320   122596067.78408  22942186.120    95352555.62805
  21918354.440   117248389.26408  21918361.440    91193209.22606
  22362942.720   119584707.20708  22362945.100    93010343.99006
 15 02 25 10 21 30.0000000  0 17G02G03G06G07G09G10G20G23G30R01R07R08
                                R09R10R11R23R24
  22733565.640   119465703.71309  22733563.300    93090153.25747
  23606042.980   124050548.25708  23606049.040    96662765.75046
  20712497.400   108844897.87209  20712499.720    84814212.16049
  20892301.140   109789791.69309  20892300.960    85550486.67348
  20711984.340   108842204.84809  20711985.340    84812105.58149
  20784361.260   109222559.11309  20784361.020    85108488.07548
  20262126.900   106478191.44509  20262125.500    82970013.88049
  22337197.000   117382741.63309  22337194.840    91467052.74647
  22448100.280   117965590.71009  22448103.820    91921266.96448
  22784607.280   121796792.80308  22784614.880    94730866.23106
  21427589.260   114703539.52508  21427592.760    89213871.69208
  20192877.620   108131938.95608  20192879.640    84102626.68908
  21211611.760   113268814.80008  21211615.420    88097975.74905
  20215546.460   107760254.97709  20215554.360    83813575.19007
  22916815.680   122460555.56808  22916826.440    95247157.56305
  21933776.480   117330885.75708  21933783.520    91257373.04206
  22360808.640   119573294.71008  22360810.980    93001467.59105
 15 02 25 10 22  0.0000000  0 17G02G03G06G07G09G10G20G23G30R01R07R08
                                R09R10R11R23R24
  22719684.960   119392760.32609  22719682.600    93033314.28247
  23621154.180   124129956.89108  23621160.340    96724642.40446
  20715372.480   108860006.50909  20715374.800    84825985.10149
  20882955.820   109740681.84409  20882955.600    85512219.26548
  20718572.300   108876825.11109  20718573.400    84839082.38949
  20775408.480   109175512.36709  20775408.300    85071828.29048
  20257211.020   106452358.40309  20257209.580    82949884.23549
  22349991.140   117449975.01709  22349989.060    91519442.31247
  22429474.760   117867712.81309  22429478.180    91844998.54448
  22770003.320   121718726.11508  22770010.860    94670147.72706
  21436998.620   114753907.92608  21437002.260    89253047.03408
  20188673.520   108109426.66508  20188675.580    84085117.13108
  21222642.680   113327719.87208  21222646.540    88143790.73405
  20203641.280   107696794.42309  20203649.260    83764217.01807
  22891475.480   122325146.58508  22891485.960    95141839.72005
  21949289.860   117413871.22708  21949297.000    91321917.16506
  22358818.000   119562649.66008  22358820.360    92993188.07006
 15 02 25 10 22 30.0000000  0 17G02G03G06G07G09G10G20G23G30R01R07R08
                                R09R10R11R23R24
  22705879.140   119320210.51009  22705876.740    92976781.96847
  23636300.260   124209549.80008  23636306.480    96786662.64447
  20718360.540   108875709.11809  20718362.840    84838220.87349
  20873704.680   109692066.62009  20873704.360    85474337.27448
  20725207.100   108911691.19109  20725208.200    84866250.73749
  20766508.180   109128741.69009  20766508.060    85035383.61848
  20252358.920   106426860.51909  20252357.400    82930015.75048
  22362805.180   117517313.15909  22362803.240    91571913.50647
  22410899.080   117770096.69009  22410902.460    91768934.10348
  22755398.240   121640653.75508  22755405.860    94609424.79306
  21446443.500   114804467.09708  21446446.820    89292370.75908
  20184503.340   108087096.03009  20184505.500    84067748.85408
  21233810.380   113387354.91108  21233814.320    88190173.48805
  20191870.700   107634050.84809  20191878.700    83715416.49107
  22866154.520   122189840.10208  22866164.980    95036601.59605
  21964892.920   117497336.64608  21964900.060    91386834.57406
  22356969.620   119552766.67708  22356972.120    92985501.32706
 15 02 25 10 23  0.0000000  0 17G02G03G06G07G09G10G20G23G30R01R07R08
                                R09R10R11R23R24
  22692149.680   119248062.12609  22692147.260    92920562.48747
  23651482.320   124289332.41308  23651488.620    96848830.68546
  20721462.600   108892011.09109  20721465.000    84850923.69049
  20864549.100   109643953.21509  20864548.560    85436846.30748
  20731889.580   108946807.63809  20731890.620    84893614.18349
  20757661.840   109082254.55609  20757661.760    84999159.89348
  20247572.020   106401705.15809  20247570.460    82910414.16848
  22375640.100   117584761.08209  22375638.300    91624470.24547
  22392374.780   117672750.82909  22392378.060    91693080.26348
  22740793.180   121562581.64108  22740801.040    94548702.05906
  21455925.200   114855223.66308  21455928.380    89331847.98608
  20180368.500   108064953.90609  20180370.660    84050527.20008
  21245115.440   113447722.87908  21245119.440    88237126.28805
  20180236.420   107572033.28709  20180244.340    83667180.65207
  22840854.700   122054646.49907  22840865.160    94931451.21205
  21980585.980   117581283.35208  21980593.020    91452126.35306
  22355264.960   119543651.89408  22355268.020    92978412.01906
 15 02 25 10 23 30.0000000  0 17G02G03G06G07G09G10G20G23G30R01R07R08
                                R09R10R11R23R24
  22678496.040   119176312.02109  22678493.660    92864653.31647
  23666699.580   124369298.77108  23666705.880    96911141.95947
  20724677.660   108908906.45409  20724680.200    84864088.88249
  20855488.280   109596337.78309  20855487.520    85399743.36949
  20738618.460   108982167.67309  20738619.380    84921167.43949
  20748868.680   109036046.80309  20748868.680    84963153.85848
  20242849.380   106376887.66709  20242847.880    82891075.85549
  22388494.680   117652312.35909  22388492.860    91677107.51547
  22373901.260   117575672.39409  22373904.480    91617434.80048
  22726187.260   121484504.92208  22726195.040    94487975.76306
  21465442.700   114906171.96408  21465446.060    89371474.35608
  20176268.020   108042995.50309  20176270.120    84033448.43708
  21256556.260   113508815.49008  21256560.240    88284642.70305
  20168737.900   107510739.29209  20168745.640    83619507.56607
  22815575.700   121919564.23808  22815586.120    94826387.42405
  21996367.080   117665701.13308  21996374.140    91517784.48806
  22353702.760   119535299.14008  22353705.960    92971915.42306
 15 02 25 10 24  0.0000000  0 17G02G03G06G07G09G10G20G23G30R01R07R08
                                R09R10R11R23R24
  22664919.520   119104967.02609  22664917.140    92809059.82947
  23681952.340   124449453.06508  23681959.000    96973599.57446
  20728006.460   108926399.13209  20728009.100    84877719.52449
  20846523.260   109549226.12509  20846522.380    85363033.01048
  20745394.300   109017774.39009  20745395.100    84948912.91849
  20740129.800   108990123.96509  20740129.820    84927369.84948
  20238192.180   106352414.09709  20238190.720    82872005.55149
  22401369.560   117719970.15509  22401367.760    91729827.79847
  22355479.920   117478868.44709  22355483.120    91542003.23648
  22711581.140   121406428.18108  22711589.320    94427249.48606
  21474997.140   114957317.70108  21475000.800    89411254.29508
  20172202.960   108021226.57309  20172204.940    84016517.06008
  21268132.800   113570634.52108  21268136.900    88332724.09905
  20157376.480   107450176.25309  20157384.180    83572403.01307
  22790319.320   121784602.32208  22790329.580    94721417.17305
  22012236.300   117750590.54008  22012243.480    91583809.45306
  22352283.920   119527713.05608  22352287.300    92966015.11906
 15 02 25 10 24 30.0000000  0 17G02G03G06G07G09G10G20G23G30R01R07R08
                                R09R10R11R23R24
  22651419.120   119034021.77709  22651416.700    92753777.81947
  23697239.360   124529786.69508  23697246.320    97036196.99746
  20731447.340   108944480.54509  20731449.960    84891808.90449
  20837652.740   109502611.37209  20837651.860    85326709.83048
  20752215.280   109053618.40409  20752215.980    84976843.29449
  20731444.040   108944479.73009  20731443.980    84891802.92048
  20233599.140   106328277.78209  20233597.680    82853198.01849
  22414262.980   117787725.69509  22414261.380    91782624.19647
  22337109.800   117382333.53509  22337112.980    91466781.27748
  22696973.600   121328343.82608  22696981.920    94366517.28705
  21484587.060   115008652.96209  21484590.580    89451181.62908
  20168171.860   107999639.79309  20168173.780    83999727.32708
  21279843.420   113633168.78108  21279847.660    88381361.78905
  20146151.220   107390339.31609  20146158.920    83525863.18607
  22765084.660   121649756.26008  22765094.800    94616536.96905
  22028191.280   117835938.62208  22028198.580    91650191.16606
  22351007.000   119520884.73208  22351010.400    92960704.16506
 15 02 25 10 25  0.0000000  0 17G02G03G06G07G09G10G20G23G30R01R07R08
                                R09R10R11R23R24
  22637996.540   118963485.76209  22637994.120    92698814.70047
  23712562.340   124610306.95508  23712569.140    97098939.85046
  20735001.580   108963157.79509  20735004.140    84906362.58349
  20828878.500   109456502.61909  20828877.700    85290780.95448
  20759082.600   109089706.10409  20759083.260    85004963.56649
  20722813.080   108899123.12009  20722812.920    84856460.12348
  20229071.940   106304487.45909  20229070.480    82834660.10649
  22427176.360   117855585.49909  22427174.720    91835501.88647
  22318792.880   117286077.98609  22318796.040    91391777.01348
  22682366.200   121250259.73008  22682374.580    94305785.28706
  21494214.120   115060186.25709  21494217.440    89491263.00808
  20164176.220   107978243.48009  20164178.200    83983085.75508
  21291688.920   113696423.28808  21291693.260    88430559.68905
  20135063.980   107331238.79509  20135071.780    83479896.13407
  22739874.040   121515038.82008  22739884.220    94511756.83805
  22044232.640   117921748.93408  22044240.120    91716932.39706
  22349873.340   119514822.00808  22349876.720    92955988.69806
 15 02 25 10 25 30.0000000  0 17G02G03G06G07G09G10G20G23G30R01R07R08
                                R09R10R11R23R24
  22624652.140   118893360.88909  22624649.780    92644171.96947
  23727920.360   124691013.13508  23727926.820    97161827.55746
  20738668.940   108982429.84409  20738671.440    84921379.74249
  20820200.720   109410901.07909  20820200.040    85255247.31648
  20765995.840   109126035.71409  20765996.640    85033272.34149
  20714237.100   108854055.19509  20714236.860    84821342.27548
  20224610.840   106281044.30709  20224609.340    82816392.70949
  22440109.460   117923548.50809  22440107.720    91888459.99647
  22300529.500   117190103.91209  22300532.780    91316992.08848
  22667758.960   121172176.08108  22667766.940    94245053.61606
  21503878.120   115111917.97509  21503881.640    89531498.69708
  20160216.380   107957038.60108  20160218.280    83966593.05308
  21303668.740   113760394.64808  21303673.000    88480315.15705
  20124115.280   107272877.42209  20124123.320    83434503.98207
  22714688.080   121380453.26107  22714698.220    94407079.24505
  22060359.540   118008016.79108  22060367.100    91784029.50806
  22348882.500   119509523.71208  22348885.840    92951867.80606
 15 02 25 10 26  0.0000000  0 17G02G03G06G07G09G10G20G23G30R01R07R08
                                R09R10R11R23R24
  22611385.420   118823643.85009  22611383.020    92589847.01347
  23743312.600   124771898.73107  23743319.400    97224855.09746
  20742448.200   109002290.28109  20742450.720    84936855.39049
  20811618.400   109365801.67609  20811617.940    85220104.95248
  20772953.700   109162600.15709  20772954.720    85061764.10249
  20705715.200   108809271.36209  20705714.840    84786445.79948
  20220215.040   106257943.69409  20220213.460    82798392.22349
  22453060.680   117991607.34209  22453059.000    91941492.76047
  22282319.160   117094408.16809  22282322.520    91242424.03948
  22653150.860   121094086.86408  22653158.260    94184317.62706
  21513578.080   115163842.45108  21513581.940    89571884.30108
  20156291.400   107936020.37508  20156293.280    83950245.54808
  21315780.980   113825073.80608  21315785.400    88530621.09705
  20113304.800   107215252.44009  20113312.980    83389684.57207
  22689526.460   121245998.35208  22689536.880    94302503.30705
  22076570.020   118094731.55108  22076577.560    91851474.19505
  22348033.620   119504984.08108  22348036.980    92948336.95806
 15 02 25 10 26 30.0000000  0 17G02G03G06G07G09G10G20G23G30R01R07R08
                                R09R10R11R23R24
  22598198.240   118754344.54109  22598195.760    92535847.56847
  23758740.300   124852971.40508  23758746.860    97288028.39746
  20746340.700   109022746.19509  20746343.380    84952795.03949
  20803133.320   109321213.57009  20803133.100    85185361.00248
  20779957.500   109199405.87109  20779958.700    85090443.86449
  20697249.020   108764780.88109  20697248.520    84751777.91048
  20215886.240   106235194.75309  20215884.560    82780665.77249
  22466031.420   118059768.78909  22466029.660    91994605.48747
  22264163.680   116999001.03109  22264167.140    91168080.88748
  22638543.500   121016000.77409  22638550.520    94123584.07206
  21523315.780   115215968.08409  21523319.500    89612426.37208
  20152402.860   107915197.61609  20152404.740    83934050.06408
  21328026.800   113890466.03108  21328031.240    88581481.66605
  20102634.500   107158374.04809  20102642.720    83345445.84007
  22664391.680   121111685.84508  22664402.040    94198038.09805
  22092864.760   118181896.63808  22092872.180    91919269.12806
  22347327.820   119501209.93908  22347331.640    92945401.51306
 15 02 25 10 27  0.0000000  0 17G02G03G06G07G09G10G20G23G30R01R07R08
                                R09R10R11R23R24
  22585090.460   118685462.42709  22585087.940    92482173.22647
  23774202.980   124934227.85607  23774209.980    97351344.84246
  20750345.980   109043794.31709  20750348.700    84969196.14549
  20794745.360   109277135.40709  20794745.400    85151014.40849
  20787006.540   109236448.92809  20787007.760    85119308.57249
  20688838.360   108720582.44109  20688837.800    84717337.57548
  20211624.060   106212796.25509  20211622.340    82763212.38248
  22479021.020   118128029.47109  22479019.320    92047795.55047
  22246063.180   116903882.53309  22246066.620    91093962.62448
  22623936.300   120937915.44508  22623942.860    94062851.06606
  21533090.700   115268292.77009  21533094.240    89653123.25808
  20148550.460   107894568.47209  20148552.360    83918005.16208
  21340405.220   113956565.30008  21340409.500    88632892.15505
  20092104.480   107102243.07609  20092112.580    83301788.42807
  22639283.900   120977517.36108  22639294.240    94093684.95205
  22109242.300   118269504.86408  22109249.740    91987408.73005
  22346764.700   119498198.63308  22346768.800    92943059.37905
 15 02 25 10 27 30.0000000  0 17G02G03G06G07G09G10G20G23G30R01R07R08
                                R09R10R11R23R24
  22572061.500   118616994.72709  22572058.920    92428821.78447
  23789699.820   125015662.50308  23789705.920    97414800.22446
  20754462.980   109065428.77809  20754465.580    84986054.14149
  20786453.920   109233563.64609  20786454.100    85117062.41549
  20794099.480   109273722.88709  20794100.740    85148353.18549
  20680482.460   108676672.35809  20680481.940    84683121.94448
  20207427.720   106190744.24209  20207425.980    82746028.99349
  22492028.340   118196382.87909  22492026.540    92101057.86047
  22228017.140   116809050.05709  22228020.520    91020067.24848
  22609327.960   120859825.76908  22609334.640    94002114.76306
  21542901.920   115320812.16608  21542905.420    89693971.57608
  20144733.380   107874128.67208  20144735.400    83902107.52508
  21352914.580   114023363.51408  21352918.620    88684846.28104
  20081714.180   107046856.52309  20081722.080    83258710.01107
  22614202.960   120843492.21907  22614213.160    93989443.24105
  22125700.860   118357546.87508  22125708.400    92055885.70806
  22346343.260   119495944.19108  22346346.960    92941305.89706
 15 02 25 10 28  0.0000000  0 17G02G03G06G07G09G10G20G23G30R01R07R08
                                R09R10R11R23R24
  22559113.640   118548953.39809  22559111.040    92375802.60148
  23805231.940   125097284.79608  23805238.940    97478401.69046
  20758693.300   109087658.63209  20758695.820    85003376.08949
  20778260.980   109190508.98509  20778261.120    85083513.36249
  20801238.020   109311236.22609  20801239.240    85177584.34349
  20672183.520   108633061.57809  20672183.060    84649139.53948
  20203299.380   106169049.82109  20203297.640    82729124.24649
  22505054.880   118264838.20309  22505053.220    92154399.59047
  22210027.920   116714515.97409  22210031.140    90946404.38348
  22594720.660   120781742.39408  22594727.760    93941383.29106
  21552751.360   115373536.62308  21552755.020    89734979.38708
  20140953.860   107853889.29509  20140955.800    83886365.78908
  21365555.940   114090867.61208  21365559.920    88737349.43605
  20071466.020   106992227.19109  20071473.720    83216220.54807
  22589151.340   120709624.49108  22589161.480    93885324.08205
  22142241.420   118446027.68308  22142249.080    92124703.98106
  22346065.180   119494456.05508  22346068.300    92940148.43106
 15 02 25 10 28 30.0000000  0 17G02G03G06G07G09G10G20G23G30R01R07R08
                                R09R10R11R23R24
  22546245.580   118481331.43609  22546242.980    92323110.18447
  23820798.280   125179084.50808  23820804.620    97542141.60444
  20763035.000   109110473.59909  20763037.440    85021153.95549
  20770164.920   109147963.16709  20770164.820    85050360.81348
  20808420.120   109348978.07709  20808421.260    85206993.56049
  20663940.020   108589742.03509  20663939.640    84615384.06348
  20199237.520   106147704.60009  20199235.740    82712491.59649
  22518098.980   118333385.07209  22518097.360    92207812.64147
  22192094.120   116620273.32909  22192097.200    90872968.60548
  22580112.720   120703655.79108  22580120.220    93880649.33706
  21562637.480   115426457.09609  21562641.120    89776139.64808
  20137210.140   107833841.59509  20137212.020    83870773.11508
  21378327.100   114159064.58408  21378331.240    88790391.48205
  20061358.600   106938348.35809  20061366.220    83174314.80107
  22564128.060   120575908.66908  22564138.180    93781323.08906
  22158861.420   118534933.36608  22158869.080    92193852.69605
  22345928.420   119493723.64108  22345931.260    92939578.77006
 15 02 25 10 29  0.0000000  0 17G02G03G06G07G09G10G20G23G30R01R07R08
                                R09R10R11R23R24
  22533459.640   118414141.15909  22533457.100    92270754.16747
  23836399.860   125261071.84708  23836407.100    97606027.53247
  20767489.740   109133883.27409  20767492.300    85039395.24849
  20762167.920   109105937.75209  20762167.500    85017613.75949
  20815647.400   109386957.58509  20815648.480    85236587.96549
  20655754.240   108546725.74909  20655753.900    84581864.88948
  20195244.380   106126720.58209  20195242.600    82696140.40648
  22531162.200   118402032.56509  22531160.760    92261304.11047
  22174218.220   116526335.07209  22174221.260    90799770.00448
  22565506.360   120625577.10508  22565514.140    93819921.51406
  21572562.280   115479584.60208  21572565.800    89817460.92808
  20133504.360   107813997.48008  20133506.300    83855338.78708
  21391229.460   114227961.98308  21391233.660    88843978.30005
  20051394.360   106885233.05909  20051401.940    83133002.90807
  22539136.160   120442359.58907  22539146.020    93677451.70906
  22175562.000   118624269.81808  22175569.600    92263336.46305
  22345934.660   119493756.84908  22345937.020    92939604.59406
 15 02 25 10 29 30.0000000  0 17G02G03G06G07G09G10G20G23G30R01R07R08
                                R09R10R11R23R24
  22520753.500   118347369.93809  22520750.920    92218724.66847
  23852034.640   125343231.24008  23852041.760    97670047.65545
  20772054.600   109157872.02009  20772057.280    85058087.75949
  20754267.300   109064418.93909  20754266.640    84985261.46448
  20822916.820   109425158.63709  20822917.880    85266354.98848
  20647623.640   108503999.56709  20647623.380    84548571.77348
  20191317.260   106106083.73709  20191315.540    82680059.74648
  22544241.720   118470765.04209  22544240.200    92314861.81047
  22156397.900   116432688.90509  22156401.000    90726799.02248
  22550898.820   120547491.70508  22550906.340    93759188.43106
  21582522.840   115532904.33708  21582526.080    89858931.73308
  20129833.940   107794342.62509  20129835.880    83840051.67608
  21404259.600   114297541.51808  21404263.620    88898095.68205
  20041570.920   106832868.70809  20041578.600    83092275.10407
  22514173.360   120308966.35008  22514183.060    93573701.69906
  22192339.480   118714017.39108  22192347.000    92333140.00505
  22346081.080   119494540.03108  22346083.420    92940213.72506
 15 02 25 10 30  0.0000000  0 17G02G03G06G07G09G10G20G23G30R01R07R08
                                R09R10R11R23R24
  22508129.840   118281032.36409  22508127.240    92167033.07547
  23867704.180   125425574.46108  23867711.160    97734210.96446
  20776731.740   109182451.09209  20776734.440    85077240.25049
  20746465.580   109023420.09309  20746464.760    84953314.33649
  20830230.440   109463591.98009  20830231.520    85296303.02349
  20639550.760   108461576.52809  20639550.580    84515514.87448
  20187458.800   106085807.80509  20187457.180    82664260.32749
  22557339.380   118539593.46509  22557337.900    92368494.28547
  22138635.940   116339349.41409  22138639.180    90654067.01548
  22536292.460   120469412.24308  22536299.760    93698459.99606
  21592521.880   115586429.94408  21592525.240    89900562.65408
  20126201.380   107774890.35909  20126203.320    83824922.13708
  21417419.140   114367812.15608  21417423.100    88952750.58605
  20031891.080   106781270.32609  20031898.940    83052143.06107
  22489242.800   120175745.90708  22489252.320    93470086.07305
  22209195.300   118804184.10608  22209202.900    92403269.54905
  22346369.740   119496084.44908  22346372.360    92941414.92006
 15 02 25 10 30 30.0000000  0 17G02G03G06G07G09G10G20G23G30R01R07R08
                                R09R10R11R23R24
  22495588.820   118215129.49009  22495586.240    92115680.21347
  23883408.520   125508100.34408  23883415.240    97798516.61046
  20781520.880   109207619.00509  20781523.620    85096851.57149
  20738762.800   108982941.64509  20738761.900    84921772.69848
  20837587.980   109502255.74009  20837589.080    85326430.60449
  20631535.740   108419457.44209  20631535.620    84482694.80748
  20183669.200   106065893.47809  20183667.620    82648742.66148
  22570455.100   118608516.72109  22570453.700    92422200.63647
  22120932.760   116246318.58909  22120936.080    90581575.50348
  22521687.160   120391338.39208  22521694.080    93637735.91706
  21602559.280   115640160.70209  21602562.820    89942353.13708
  20122606.720   107755641.21208  20122608.700    83809950.57208
  21430707.260   114438770.36508  21430711.440    89007940.22505
  20022355.300   106730439.94109  20022363.340    83012608.33707
  22464345.200   120042701.62208  22464354.320    93366607.41505
  22226128.500   118894764.58108  22226136.340    92473720.89206
  22346800.600   119498388.98608  22346803.460    92943207.31506
 15 02 25 10 31  0.0000000  0 17G02G03G06G07G09G10G20G23G30R01R07R08
                                R09R10R11R23R24
  22483129.400   118149655.69708  22483127.000    92064661.70848
  23899146.020   125590800.26408  23899153.000    97862957.86746
  20786420.420   109233366.76309  20786423.160    85116914.72349
  20731157.680   108942976.78809  20731156.760    84890631.27148
  20844987.600   109541140.53809  20844988.680    85356730.42049
  20623577.340   108377635.44509  20623577.160    84450106.25048
  20179947.040   106046333.57909  20179945.500    82633501.18549
  22583587.060   118677525.25009  22583585.940    92475973.43647
  22103287.340   116153590.80009  22103290.560    90509320.12948
  22507081.300   120313262.36308  22507088.140    93577010.21206
  21612633.520   115694089.15708  21612637.260    89984297.40208
  20119048.580   107736587.86609  20119050.740    83795131.29708
  21444122.020   114510404.37408  21444126.240    89063655.50505
  20012962.540   106680371.69209  20012970.520    82973666.39807
  22439479.720   119909829.58308  22439488.820    93263262.75805
  22243136.620   118985746.19308  22243144.640    92544484.22305
  22347371.840   119501444.19508  22347375.200    92945583.56406
 15 02 25 10 31 30.0000000  0 17G02G03G06G07G09G10G20G23G30R01R07R08
                                R09R10R11R23R24
  22470753.440   118084619.83609  22470751.140    92013984.45447
  23914918.060   125673680.75808  23914925.300    97927539.81646
  20791431.540   109259700.50809  20791434.220    85137434.48949
  20723651.740   108903533.37209  20723650.860    84859896.16249
  20852430.300   109580252.11709  20852431.380    85387206.95849
  20615677.180   108336119.30909  20615676.840    84417756.01648
  20176293.940   106027136.60809  20176292.440    82618542.50949
  22596736.360   118746625.43009  22596735.340    92529817.64047
  22085701.340   116061175.64609  22085704.400    90437308.37448
  22492476.460   120235192.00808  22492483.480    93516288.88906
  21622746.180   115748222.91608  21622750.060    90026401.33408
  20115528.620   107717738.79809  20115530.800    83780470.90208
  21457664.200   114582718.13108  21457668.300    89119899.50705
  20003714.580   106631075.10409  20003722.560    82935324.63807
  22414648.580   119777140.95808  22414657.800    93160060.76705
  22260220.180   119077131.27308  22260228.160    92615561.38205
  22348084.780   119505256.69608  22348088.140    92948548.80705
 15 02 25 10 32  0.0000000  0 17G02G03G06G07G09G10G20G23G30R01R07R08
                                R09R10R11R23R24
  22458461.260   118020023.79709  22458458.940    91963649.90347
  23930723.980   125756740.73208  23930731.360    97992261.62746
  20796553.900   109286618.67609  20796556.620    85158409.64249
  20716245.060   108864611.68109  20716244.300    84829567.58649
  20859915.700   109619588.63809  20859916.900    85417858.76249
  20607835.280   108294909.72009  20607834.880    84385644.65048
  20172710.040   106008303.21009  20172708.600    82603867.13649
  22609902.880   118815815.45809  22609901.780    92583731.87247
  22068175.080   115969074.97509  22068178.060    90365541.66248
  22477872.780   120157127.08608  22477879.820    93455571.76306
  21632897.100   115802562.01608  21632901.040    90068664.96708
  20112046.900   107699093.99408  20112048.920    83765969.36808
  21471332.860   114655707.73208  21471336.960    89176669.13504
  19994611.820   106582552.27309  19994619.820    82897584.68807
  22389852.440   119644639.54708  22389861.920    93057004.38805
  22277378.220   119168914.85908  22277386.080    92686948.47605
  22348939.120   119509824.84908  22348942.520    92952101.77906
 15 02 25 10 32 30.0000000  0 17G02G03G06G07G09G10G20G23G30R01R07R08
                                R09R10R11R23R24
  22446252.760   117955866.91609  22446250.240    91913657.56348
  23946563.460   125839976.82808  23946570.800    98057120.64146
  20801786.760   109314117.49609  20801789.580    85179837.26549
  20708937.400   108826210.34909  20708936.820    84799644.48349
  20867443.100   109659145.95109  20867444.420    85448682.60849
  20600051.360   108254005.41709  20600051.040    84353771.16848
  20169194.980   105989831.72909  20169193.640    82589473.77849
  22623085.760   118885091.76509  22623084.540    92637713.31447
  22050708.560   115877288.52309  22050711.520    90294019.80748
  22463269.680   120079064.91509  22463276.660    93394856.78006
  21643086.020   115857103.98809  21643089.880    90111086.41108
  20108603.040   107680652.19708  20108604.980    83751625.74808
  21485126.800   114729366.78408  21485130.860    89233959.46205
  19985654.100   106534802.60609  19985662.060    82860446.09307
  22365091.760   119512327.10608  22365101.440    92954094.97506
  22294609.440   119261089.14308  22294617.180    92758639.44705
  22349934.100   119515144.67008  22349937.180    92956239.38706
 15 02 25 10 33  0.0000000  0 17G02G03G06G07G09G10G20G23G30R01R07R08
                                R09R10R11R23R24
  22434128.580   117892153.35209  22434125.920    91864010.64847
  23962436.720   125923390.78407  23962443.840    98122118.30146
  20807130.400   109342198.23509  20807133.280    85201718.32449
  20701729.400   108788332.57909  20701729.020    84770129.34849
  20875012.720   109698925.09809  20875014.160    85479679.30949
  20592326.280   108213409.92209  20592325.960    84322138.32248
  20165749.520   105971725.70409  20165748.200    82575365.18749
  22636285.400   118954455.85009  22636284.080    92691763.15047
  22033302.800   115785821.00509  22033305.760    90222746.46348
  22448667.760   120001008.80808  22448674.760    93334146.52106
  21653313.560   115911851.62709  21653317.260    90153667.80208
  20105197.600   107662416.55808  20105199.540    83737442.45608
  21499046.060   114803694.59908  21499050.140    89291769.92505
  19976842.320   106487830.68709  19976850.200    82823912.40507
  22340367.600   119380209.90708  22340377.540    92851337.44006
  22311913.320   119353651.81808  22311920.940    92830632.49705
  22351069.940   119521217.81708  22351072.960    92960962.91406
 15 02 25 10 33 30.0000000  0 17G02G03G06G07G09G10G20G23G30R01R07R08
                                R09R10R11R23R24
  22422088.660   117828883.18809  22422085.940    91814709.25847
  23978343.520   126006979.89508  23978350.980    98187252.38746
  20812584.240   109370857.76409  20812587.100    85224050.37749
  20694620.800   108750976.84409  20694620.500    84741020.98549
  20882623.960   109738922.63209  20882625.480    85510846.18749
  20584659.920   108173122.58909  20584659.460    84290745.59748
  20162373.480   105953984.28709  20162372.160    82561540.69649
  22649501.280   119023904.63609  22649499.700    92745879.01747
  22015957.880   115694672.85109  22015960.880    90151721.97548
  22434066.620   119922956.86908  22434073.480    93273439.47806
  21663579.420   115966803.49209  21663582.920    90196408.01808
  20101830.520   107644386.05708  20101832.520    83723418.72208
  21513089.480   114878685.37108  21513093.540    89350096.01705
  19968176.520   106441636.56609  19968184.260    82787983.68007
  22315680.420   119248290.15708  22315690.120    92748733.41706
  22329288.620   119446596.63908  22329296.260    92902922.77406
  22352345.940   119528040.58208  22352348.860    92966269.47606
 15 02 25 10 34  0.0000000  0 17G02G03G06G07G09G10G20G23G30R01R07R08
                                R09R10R11R23R24
  22410134.860   117766065.83909  22410132.160    91765760.69347
  23994284.760   126090751.02807  23994292.680    98252528.32246
  20818149.420   109400102.20209  20818152.220    85246838.21249
  20687613.240   108714151.64909  20687612.940    84712326.04249
  20890277.980   109779144.71509  20890279.540    85542188.04249
  20577053.840   108133152.03009  20577053.260    84259599.71348
  20159068.400   105936615.95309  20159067.080    82548006.92549
  22662734.360   119093444.44209  22662732.700    92800065.77447
  21998675.600   115603853.84109  21998678.640    90080953.96648
  22419467.600   119844917.19708  22419474.420    93212742.00106
  21673884.940   116021967.81509  21673888.280    90239313.53808
  20098503.340   107626569.37609  20098505.480    83709561.30208
  21527257.760   114954343.33508  21527262.020    89408941.01905
  19959658.480   106396230.26609  19959666.060    82752667.69907
  22291032.440   119116579.64308  22291042.060    92646292.14906
  22346735.680   119539925.93908  22346743.420    92975512.09606
  22353763.240   119535619.63408  22353766.080    92972164.25306
 15 02 25 10 34 30.0000000  0 17G02G03G06G07G09G10G20G23G30R01R07R08
                                R09R10R11R23R24
  22398265.660   117703692.89309  22398262.940    91717158.41048
  24010258.680   126174692.82808  24010266.300    98317937.24746
  20823823.640   109429920.08209  20823826.420    85270072.87349
  20680704.780   108677847.34709  20680704.480    84684036.98449
  20897972.520   109819579.30709  20897973.980    85573695.48749
  20569506.200   108093488.96409  20569505.640    84228693.42848
  20155832.540   105919611.54609  20155831.180    82534756.72649
  22675982.520   119163063.49809  22675980.760    92854314.31246
  21981454.340   115513355.71109  21981457.440    90010436.00048
  22404868.800   119766879.26808  22404875.780    93152045.89206
  21684227.980   116077333.89309  21684231.320    90282375.94308
  20095214.240   107608956.54709  20095216.440    83695862.42308
  21541548.280   115030653.98408  21541552.600    89468293.68605
  19951286.500   106351602.54409  19951293.900    82717957.27807
  22266422.400   118985071.95908  22266431.860    92544008.69605
  22364251.720   119633624.56508  22364259.580    93048388.67605
  22355319.700   119543942.62108  22355322.600    92978637.66006
 15 02 25 10 35  0.0000000  0 17G02G03G06G07G09G10G20G23G30R01R07R08
                                R09R10R11R23R24
  22386483.320   117641776.27009  22386480.620    91668911.69948
  24026266.480   126258815.04507  24026274.000    98383486.71445
  20829608.640   109460320.31009  20829611.360    85293761.32349
  20673897.560   108642075.03109  20673897.200    84656162.46649
  20905709.280   109860235.37509  20905710.600    85605375.50849
  20562019.260   108054144.88109  20562018.740    84198035.70948
  20152668.120   105902982.42309  20152666.760    82521798.95749
  22689247.540   119232771.34909  22689245.820    92908632.02247
  21964296.540   115423191.11009  21964299.620    89940177.93548
  22390272.560   119688854.05108  22390279.440    93091359.64606
  21694610.480   116132912.38608  21694614.000    90325603.58308
  20091965.520   107591559.02509  20091967.640    83682331.01208
  21555962.380   115107624.31908  21555966.680    89528159.44804
  19943062.920   106307766.25909  19943070.320    82683862.41807
  22241852.980   118853781.39808  22241862.200    92441894.09006
  22381837.760   119727698.14408  22381845.900    93121556.85505
  22357017.060   119553019.21608  22357019.980    92985697.18206
 15 02 25 10 35 30.0000000  0 17G02G03G06G07G09G10G20G23G30R01R07R08
                                R09R10R11R23R24
  22374786.420   117580309.08209  22374783.840    91621015.21648
  24042307.260   126343107.92908  24042314.240    98449169.32246
  20835502.560   109491292.87709  20835505.140    85317895.74849
  20667190.000   108606826.58609  20667189.640    84628696.16049
  20913486.220   109901102.67209  20913487.500    85637220.11849
  20554591.620   108015112.36909  20554591.140    84167620.76748
  20149573.640   105886720.59409  20149572.260    82509127.39749
  22702527.480   119302558.06009  22702525.880    92963011.15846
  21947200.960   115333353.52509  21947204.000    89870174.68448
  22375677.120   119610833.03008  22375684.060    93030676.69206
  21705031.080   116188695.32909  21705034.800    90368990.20208
  20088755.520   107574369.04308  20088757.580    83668961.03208
  21570497.760   115185241.85208  21570501.980    89588528.59504
  19934986.480   106264714.73709  19934994.040    82650377.93807
  22217323.320   118722703.54208  22217332.400    92339944.95205
  22399491.340   119822133.00508  22399499.660    93195006.04605
  22358853.380   119562838.59008  22358856.240    92993334.45306
 15 02 25 10 36  0.0000000  0 17G02G03G06G07G09G10G20G23G30R01R07R08
                                R09R10R11R23R24
  22363176.840   117519300.65109  22363174.320    91573476.18447
  24058381.400   126427578.54607  24058389.220    98514990.15646
  20841506.500   109522843.88409  20841509.040    85342480.90149
  20660583.660   108572110.26109  20660583.280    84601644.49649
  20921304.480   109942187.32509  20921305.720    85669234.09849
  20547224.900   107976400.26009  20547224.440    84137455.49748
  20146550.680   105870834.67509  20146549.320    82496748.74849
  22715823.840   119372430.23109  22715822.260    93017456.93247
  21930169.520   115243852.73309  21930172.420    89800433.86248
  22361083.820   119532824.14108  22361090.920    92970003.19706
  21715491.520   116244690.18509  21715495.300    90412541.66108
  20085585.800   107557394.91309  20085587.780    83655758.93608
  21585155.120   115263510.17008  21585159.040    89649403.91004
  19927059.060   106222457.66809  19927066.740    82617511.36507
  22192835.680   118591850.05808  22192844.800    92238170.31906
  22417213.060   119916931.64508  22417221.400    93268738.17205
  22360829.700   119573407.18008  22360832.880    93001554.43306
 15 02 25 10 36 30.0000000  0 17G02G03G06G07G09G10G20G23G30R01R07R08
                                R09R10R11R23R24
  22351653.180   117458743.68209  22351650.660    91526288.94247
  24074487.860   126512216.54108  24074495.160    98580941.68146
  20847618.560   109554962.74009  20847621.160    85367508.54249
  20654076.960   108537917.38209  20654076.540    84575000.70149
  20929162.000   109983478.56609  20929163.200    85701409.06949
  20539917.580   107938000.35209  20539917.120    84107533.49548
  20143597.680   105855316.42409  20143596.300    82484656.59449
  22729134.480   119442377.43009  22729133.060    93071961.14347
  21913200.840   115154681.74409  21913203.660    89730950.03448
  22346491.100   119454818.29408  22346498.240    92909332.02506
  21725989.880   116300888.35108  21725993.800    90456251.22708
  20082454.860   107540628.33309  20082456.740    83642718.26208
  21599931.780   115342416.49708  21599935.800    89710775.42204
  19919279.080   106180986.83609  19919286.860    82585256.29207
  22168388.980   118461215.23508  22168397.960    92136565.75006
  22435000.200   120012080.19708  22435008.580    93342742.45205
  22362944.140   119584714.02208  22362947.260    93010348.62506
 15 02 25 10 37  0.0000000  0 17G02G03G06G07G09G10G20G23G30R01R07R08
                                R09R10R11R23R24
  22340218.220   117398652.96609  22340215.640    91479465.03647
  24090628.140   126597034.43508  24090636.340    98647033.12846
  20853840.900   109587661.05709  20853843.640    85392987.69949
  20647672.460   108504261.33109  20647671.960    84548775.20349
  20937060.920   110024988.02309  20937062.160    85733754.06148
  20532672.360   107899926.86609  20532671.980    84077865.84248
  20140717.280   105840179.72509  20140715.840    82472861.74149
  22742461.600   119512411.35409  22742459.960    93126532.94746
  21896297.740   115065855.71909  21896300.600    89661735.00548
  22331901.640   119376829.21808  22331908.680    92848673.89706
  21736528.480   116357302.77508  21736532.440    90500129.03808
  20079365.220   107524083.59608  20079367.140    83629850.12708
  21614829.720   115421970.08608  21614833.840    89772650.38004
  19911649.440   106140317.46809  19911657.360    82553624.57807
  22143986.500   118330816.84408  22143995.500    92035145.11405
  22452854.260   120107586.89008  22452862.680    93417025.27505
  22365198.840   119596770.88408  22365202.240    93019726.13706
 15 02 25 10 37 30.0000000  0 17G02G03G06G07G09G10G20G23G30R01R07R08
                                R09R10R11R23R24
  22328870.480   117339020.19009  22328867.860    91432997.96748
  24106800.600   126682021.11807  24106808.420    98713256.28045
  20860171.440   109620927.35509  20860174.100    85418909.44949
  20641368.380   108471132.87009  20641367.840    84522960.83649
  20944999.140   110066704.16609  20945000.380    85766260.11448
  20525487.620   107862170.97609  20525487.260    84048445.67048
  20137907.740   105825415.52709  20137906.260    82461357.16149
  22755803.000   119582520.98109  22755801.660    93181163.70547
  21879458.760   114977366.83109  21879461.760    89592782.69048
  22317313.400   119298846.80509  22317320.380    92788020.99306
  21747105.820   116413924.19608  21747109.560    90544167.84508
  20076315.220   107507751.04109  20076317.120    83617147.03708
  21629846.220   115502157.01908  21629850.360    89835017.94905
  19904168.640   106100441.18109  19904176.680    82522609.71907
  22119627.120   118200648.80708  22119636.160    91933903.62006
  22470772.300   120203436.62108  22470781.060    93491574.93306
  22367591.540   119609565.88108  22367595.140    93029677.77806
 15 02 25 10 38  0.0000000  0 17G02G03G06G07G09G10G20G23G30R01R07R08
                                R09R10R11R23R24
  22317611.240   117279852.16609  22317608.540    91386893.04047
  24123006.260   126767180.82208  24123013.760    98779614.17446
  20866610.740   109654765.12209  20866613.140    85445276.50549
  20635165.840   108438537.92409  20635165.260    84497562.18949
  20952977.380   110108630.48909  20952978.640    85798929.95348
  20518364.460   107824738.65709  20518364.140    84019277.64148
  20135170.240   105811029.81509  20135168.740    82450147.51349
  22769159.600   119652710.34909  22769158.260    93235856.64146
  21862685.320   114889222.18209  21862688.380    89524098.61548
  22302727.460   119220876.72008  22302734.440    92727377.62406
  21757722.540   116470757.52508  21757726.620    90588371.43408
  20073306.020   107491636.92509  20073307.860    83604613.85208
  21644981.520   115582978.42308  21644985.720    89897878.99104
  19896838.040   106061364.96109  19896846.060    82492217.12607
  22095312.520   118070720.30508  22095321.560    91832848.45006
  22488754.500   120299629.73908  22488763.580    93566391.63605
  22370122.780   119623102.08308  22370126.940    93040205.91506
 15 02 25 10 38 30.0000000  0 17G02G03G06G07G09G10G20G23G30R01R07R08
                                R09R10R11R23R24
  22306439.880   117221145.79009  22306437.140    91341147.82648
  24139244.020   126852507.95308  24139251.720    98846102.52246
  20873157.420   109689168.07409  20873159.720    85472083.96749
  20629063.900   108406471.62709  20629063.240    84472575.46649
  20960994.480   110150760.84909  20960995.840    85831758.77548
  20511302.180   107787626.07009  20511301.920    83990358.75048
  20132504.140   105797019.06509  20132502.600    82439230.03149
  22782530.300   119722973.62509  22782529.100    93290607.16047
  21845976.920   114801419.31509  21845979.980    89455680.85448
  22288142.900   119142914.22708  22288150.140    92666740.19406
  21768377.980   116527798.22008  21768382.480    90632736.32708
  20070336.820   107475737.30708  20070338.780    83592247.48908
  21660234.020   115664425.72208  21660238.100    89961226.84004
  19889656.900   106023085.37109  19889664.940    82462444.12907
  22071042.580   117941030.45708  22071051.600    91731978.89406
  22506799.040   120396156.00008  22506808.100    93641467.45405
  22372791.560   119637373.42808  22372795.180    93051305.80406
 15 02 25 10 39  0.0000000  0 17G02G03G06G07G09G10G20G23G30R01R07R08
                                R09R10R11R23R24
  22295358.440   117162912.30909  22295355.720    91295771.11248
  24155515.140   126938011.06108  24155522.740    98912727.97646
  20879812.880   109724144.07109  20879815.400    85499337.95448
  20623064.440   108374944.07309  20623063.700    84448008.54549
  20969051.960   110193103.07709  20969053.340    85864752.69248
  20504302.860   107750844.04809  20504302.600    83961697.43548
  20129911.280   105783393.19209  20129909.700    82428612.45549
  22795916.620   119793319.06209  22795915.480    93345421.69246
  21829335.740   114713969.64709  21829338.740    89387538.30748
  22273561.800   119064969.62708  22273568.720    92606116.64506
  21779074.240   116585056.25808  21779078.840    90677270.25808
  20067409.620   107460062.52208  20067411.700    83580055.99808
  21675604.720   115746504.49308  21675608.820    90025065.82004
  19882627.300   105985613.50409  19882635.320    82433299.36807
  22046819.960   117811592.74708  22046828.600    91631305.43806
  22524907.100   120493020.71508  22524915.840    93716806.49605
  22375599.340   119652387.27008  22375602.820    93062983.15706
 15 02 25 10 39 30.0000000  0 17G02G03G06G07G09G10G20G23G30R01R07R08
                                R09R10R11R23R24
  22284366.040   117105146.84909  22284363.300    91250759.07448
  24171818.300   127023682.85308  24171826.000    98979484.87346
  20886575.800   109759685.24309  20886578.700    85527032.33749
  20617166.400   108343949.50309  20617165.600    84423856.94649
  20977148.320   110235649.44709  20977149.680    85897905.67748
  20497365.500   107714387.49409  20497365.180    83933289.73948
  20127390.580   105770146.82409  20127389.040    82418290.59649
  22809317.260   119863739.19609  22809316.240    93400294.43347
  21812761.020   114626869.01609  21812763.900    89319667.74148
  22258982.820   118987036.68208  22258989.600    92545502.17906
  21789810.120   116642525.31908  21789814.780    90721968.32108
  20064523.400   107444607.28508  20064525.540    83568035.25808
  21691091.680   115829204.31808  21691095.900    90089387.84004
  19875748.360   105948944.46409  19875756.200    82404779.02607
  22022644.120   117682404.67708  22022652.260    91530826.11006
  22543076.240   120590211.93208  22543084.820    93792399.50405
  22378544.380   119668135.49708  22378547.880    93075231.74906
 15 02 25 10 40  0.0000000  0 17G02G03G06G07G09G10G20G23G30R01R07R08
                                R09R10R11R23R24
  22273463.200   117047852.01509  22273460.440    91206113.75848
  24188153.460   127109523.31108  24188161.240    99046373.19545
  20893446.360   109795790.72809  20893449.400    85555166.44949
  20611369.980   108313489.09009  20611369.140    84400121.57349
  20985283.440   110278399.23609  20985284.720    85931217.17949
  20490490.400   107678258.36109  20490490.060    83905137.17548
  20124942.380   105757281.63009  20124940.880    82408265.75549
  22822732.080   119934233.89709  22822731.020    93455225.27947
  21796253.260   114540120.29109  21796256.140    89252071.38948
  22244406.220   118909116.40108  22244413.040    92484897.54106
  21800585.600   116700206.57108  21800590.520    90766831.45308
  20061678.540   107429373.20209  20061680.580    83556186.52908
  21706694.500   115912522.10608  21706698.760    90154190.51804
  19869020.460   105913080.85709  19869028.180    82376885.11807
  21998515.880   117553471.34608  21998523.620    91430544.95506
  22561305.420   120687725.65908  22561314.300    93868243.36105
  22381626.480   119684617.26708  22381630.560    93088050.88706
 15 02 25 10 40 30.0000000  0 17G02G03G06G07G09G10G20G23G30R01R07R08
                                R09R10R11R23R24
  22262650.800   116991032.55309  22262648.020    91161838.88448
  24204521.140   127195534.72807  24204529.000    99113394.79746
  20900425.020   109832462.22909  20900427.860    85583741.60349
  20605675.800   108283566.54709  20605675.080    84376805.31949
  20993457.640   110321354.26909  20993458.880    85964688.61449
  20483678.380   107642460.88009  20483678.060    83877243.05748
  20122567.500   105744801.94509  20122566.060    82398541.31549
  22836161.540   120004805.19209  22836160.260    93510215.81347
  21779813.460   114453728.85609  21779816.440    89184753.45348
  22229832.660   118831212.64908  22229839.660    92424305.76406
  21811401.340   116758103.32508  21811406.420    90811862.14708
  20058875.740   107414364.44308  20058877.660    83544513.05608
  21722412.920   115996457.30608  21722417.160    90219473.40204
  19862444.420   105878026.98009  19862452.120    82349621.01407
  21974436.660   117424800.19008  21974444.160    91330467.70306
  22579594.560   120785560.70408  22579603.900    93944337.11605
  22384846.040   119701833.85608  22384849.780    93101441.51106
 15 02 25 10 41  0.0000000  0 17G02G03G06G07G09G10G20G23G30R01R07R08
                                R09R10R11R23R24
  22251928.700   116934688.31009  22251925.940    91117934.28548
  24220920.740   127281714.18808  24220928.780    99180547.20345
  20907510.840   109869696.02109  20907513.340    85612754.90449
  20600083.580   108254180.16309  20600083.020    84353906.85049
  21001670.200   110364511.00409  21001671.380    85998317.21449
  20476929.340   107606994.31009  20476928.960    83849606.77748
  20120265.760   105732706.57509  20120264.360    82389116.34149
  22849604.860   120075449.97409  22849603.720    93565263.57247
  21763441.640   114367694.78709  21763444.720    89117713.97248
  22215261.880   118753324.08108  22215269.000    92363725.83106
  21822257.160   116816214.11909  21822262.040    90857059.32508
  20056114.880   107399580.12808  20056116.720    83533014.13008
  21738245.700   116081003.81308  21738250.000    90285231.73304
  19856020.300   105843782.65909  19856028.020    82322986.55707
  21950406.780   117296393.13308  21950414.200    91230595.84006
  22597942.460   120883709.39408  22597951.980    94020674.81105
  22388202.360   119719781.38308  22388206.240    93115400.70306
 15 02 25 10 41 30.0000000  0 17G02G03G06G07G09G10G20G23G30R01R07R08
                                R09R10R11R23R24
  22241297.280   116878820.64609  22241294.580    91074401.06548
  24237352.180   127368060.87707  24237360.300    99247830.00546
  20914703.240   109907490.28809  20914705.540    85642204.95049
  20594593.520   108225330.32309  20594593.000    84331426.48449
  21009920.800   110407867.88909  21009922.000    86032101.78249
  20470243.380   107571859.41309  20470242.920    83822228.95048
  20118037.300   105720996.16209  20118035.900    82379991.34249
  22863061.960   120146167.16809  22863060.760    93620367.81546
  21747138.180   114282020.00509  21747141.340    89050954.46948
  22200693.860   118675450.47208  22200701.100    92303157.48406
  21833152.900   116874539.06208  21833157.400    90902423.07607
  20053396.100   107385020.76408  20053397.920    83521690.18408
  21754192.260   116166157.46008  21754196.840    90351462.29204
  19849748.180   105810348.55409  19849755.940    82296982.28207
  21926427.020   117168254.10008  21926434.500    91130932.41406
  22616348.280   120982167.31808  22616357.640    94097253.00905
  22391695.040   119738457.43008  22391698.340    93129926.44305
 15 02 25 10 42  0.0000000  0 17G02G03G06G07G09G10G20G23G30R01R07R08
                                R09R10R11R23R24
  22230757.400   116823433.90109  22230754.860    91031242.58148
  24253815.920   127454576.41308  24253824.460    99315244.27046
  20922002.200   109945846.13309  20922004.520    85672092.58249
  20589206.200   108197020.04409  20589205.640    84309366.54949
  21018209.700   110451426.25609  21018210.900    86066043.33348
  20463621.260   107537060.09509  20463620.740    83795112.60848
  20115882.860   105709674.48509  20115881.460    82371169.24649
  22876533.100   120216958.39709  22876532.040    93675529.69347
  21730904.020   114196709.36709  21730907.240    88984478.70548
  22186129.400   118597595.49808  22186136.600    92242603.63606
  21844089.160   116933080.79208  21844093.360    90947955.42907
  20050719.900   107370690.20908  20050721.800    83510544.21608
  21770252.240   116251917.03308  21770256.920    90418164.10704
  19843628.900   105777729.19109  19843636.580    82271611.68907
  21902498.640   117040389.85308  21902506.340    91031482.69706
  22634811.300   121080931.85908  22634820.500    94174069.68305
  22395324.020   119757862.87508  22395327.800    93145019.53706
 15 02 25 10 42 30.0000000  0 17G02G03G06G07G09G10G20G23G30R01R07R08
                                R09R10R11R23R24
  22220308.620   116768525.24409  22220306.220    90988456.64148
  24270310.480   127541255.17207  24270318.180    99382785.85345
  20929406.460   109984757.00109  20929409.100    85702412.70849
  20583920.660   108169244.81409  20583920.100    84287723.53549
  21026535.620   110495179.86009  21026536.960    86100137.01849
  20457062.340   107502592.72209  20457061.760    83768254.92148
  20113801.720   105698737.56609  20113800.280    82362646.95549
  22890017.260   120287817.63909  22890015.880    93730744.62846
  21714738.640   114111760.12909  21714741.800    88918284.54548
  22171567.600   118519754.32408  22171574.700    92182060.50606
  21855065.040   116991834.74008  21855069.080    90993652.83508
  20048085.720   107356584.68609  20048087.660    83499573.25808
  21786424.100   116338273.66608  21786428.700    90485330.30204
  19837661.740   105745920.78309  19837669.340    82246871.84507
  21878621.600   116912799.72108  21878629.540    90932246.16106
  22653329.760   121179993.50008  22653339.100    94251117.43005
  22399088.100   119777990.96808  22399091.840    93160674.66705
 15 02 25 10 43  0.0000000  0 17G02G03G06G07G09G10G20G23G30R01R07R08
                                R09R10R11R23R24
  22209952.620   116714104.11309  22209950.300    90946050.59148
  24286837.700   127628104.58608  24286845.780    99450460.34946
  20936917.520   110024229.72709  20936920.520    85733170.64449
  20578738.660   108142013.72009  20578738.100    84266504.51849
  21034900.020   110539135.75909  21034901.500    86134388.35148
  20450568.480   107468467.14009  20450567.860    83741663.56248
  20111795.580   105688194.64309  20111794.080    82354431.67049
  22903515.660   120358752.75909  22903514.660    93786018.64547
  21698644.040   114027182.84509  21698647.160    88852380.21948
  22157010.140   118441936.26108  22157017.200    92121535.41306
  21866082.240   117050809.94608  21866086.400    91039522.33808
  20045495.440   107342713.65309  20045497.320    83488784.67508
  21802708.760   116425231.96608  21802713.280    90552964.46104
  19831848.540   105714933.42709  19831856.140    82222770.60207
  21854798.220   116785496.56508  21854806.340    90833232.80906
  22671904.460   121279355.92208  22671914.140    94328399.14205
  22402988.480   119798848.09908  22402992.520    93176896.82906
 15 02 25 10 43 30.0000000  0 17G02G03G06G07G09G10G20G23G30R01R07R08
                                R09R10R11R23R24
  22199688.360   116660165.02809  22199686.040    90904020.14648
  24303395.680   127715116.47008  24303403.860    99518261.36144
  20944533.780   110064254.99909  20944537.060    85764359.12949
  20573658.740   108115319.05909  20573658.200    84245703.50149
  21043301.200   110583285.03309  21043302.820    86168790.35448
  20444138.340   107434676.69909  20444137.760    83715333.35548
  20109863.100   105678039.29209  20109861.620    82346518.39949
  22917026.920   120429755.25909  22917026.460    93841345.15446
  21682619.240   113942972.09009  21682622.320    88786761.50748
  22142455.740   118364134.36008  22142462.720    92061022.82806
  21877139.220   117109999.27508  21877143.780    91085558.36208
  20042947.700   107329070.66409  20042949.540    83478173.46508
  21819103.720   116512780.19108  21819108.140    90621057.44604
  19826188.020   105684760.39509  19826195.740    82199302.72107
  21831027.940   116658476.58208  21831036.120    90734439.67806
  22690533.320   121379006.42708  22690543.220    94405904.90505
  22407023.440   119820424.74108  22407027.760    93193678.58206
 15 02 25 10 44  0.0000000  0 17G02G03G06G07G09G10G20G23G30R01R07R08
                                R09R10R11R23R24
  22189516.720   116606713.02309  22189514.420    90862369.26348
  24319985.200   127802293.34408  24319992.980    99586191.11446
  20952255.780   110104834.68709  20952259.060    85795979.63049
  20568681.780   108089165.03909  20568681.220    84225323.77249
  21051739.680   110627629.88109  21051741.420    86203344.76348
  20437772.800   107401226.09709  20437772.280    83689267.96548
  20108005.120   105668275.86409  20108003.680    82338910.53149
  22930551.480   120500827.28109  22930550.900    93896725.90046
  21666665.300   113859133.52709  21666668.220    88721432.81148
  22127904.980   118286352.55608  22127911.880    92000525.91906
  21888236.880   117169406.19608  21888241.580    91131763.62708
  20040443.300   107315660.12608  20040445.200    83467743.05008
  21835609.140   116600917.96208  21835613.680    90689608.98104
  19820681.160   105655406.64109  19820688.840    82176472.06107
  21807312.140   116531747.50208  21807320.240    90635872.80706
  22709215.980   121478943.93408  22709225.800    94483633.87105
  22411193.280   119842722.32708  22411197.180    93211021.12406
 15 02 25 10 44 30.0000000  0 17G02G03G06G07G09G10G20G23G30R01R07R08
                                R09R10R11R23R24
  22179437.840   116553748.18009  22179435.440    90821097.97948
  24336605.920   127889632.77708  24336614.260    99654247.30346
  20960082.760   110145965.43509  20960085.940    85828029.52549
  20563807.500   108063550.39909  20563806.900    84205364.34049
  21060214.980   110672167.33609  21060216.700    86238049.25549
  20431471.860   107368114.99609  20431471.360    83663467.12748
  20106221.560   105658903.60609  20106220.200    82331607.47349
  22944088.920   120571966.34309  22944088.640    93952158.82447
  21650782.280   113775667.61209  21650785.160    88656394.50348
  22113357.820   118208589.78809  22113364.720    91940043.81006
  21899375.040   117229029.75108  21899380.000    91178137.39408
  20037982.300   107302481.71109  20037984.220    83457493.17408
  21852224.000   116689639.48008  21852228.640    90758614.53504
  19815327.980   105626871.98709  19815335.640    82154278.49907
  21783651.280   116405312.00208  21783659.220    90537534.26006
  22727951.040   121579161.99108  22727960.600    94561581.05805
  22415497.220   119865736.97408  22415501.600    93228921.32106
 15 02 25 10 45  0.0000000  0 17G02G03G06G07G09G10G20G23G30R01R07R08
                                R09R10R11R23R24
  22169452.460   116501274.38509  22169449.960    90780209.31548
  24353257.760   127977136.11707  24353265.860    99722431.39445
  20968014.760   110187647.75309  20968017.820    85860509.20849
  20559036.340   108038477.59709  20559035.680    84185827.10449
  21068727.180   110716898.29009  21068728.760    86272904.52049
  20425236.280   107335347.14909  20425235.800    83637933.74448
  20104513.120   105649925.90309  20104511.800    82324611.84449
  22957639.340   120643174.05209  22957638.840    94007645.24646
  21634971.000   113692578.69309  21634973.800    88591649.93648
  22098814.800   118130849.23908  22098821.780    91879579.01706
  21910554.120   117288871.93108  21910559.140    91224681.18508
  20035565.320   107289538.67908  20035567.260    83447426.36908
  21868947.940   116778943.18508  21868952.320    90828072.90804
  19810129.160   105599159.62609  19810136.860    82132724.47907
  21760046.540   116279176.60108  21760054.400    90439429.11006
  22746737.820   121679657.75108  22746747.240    94639744.23305
  22419935.380   119889469.05408  22419939.920    93247379.54306
 15 02 25 10 45 30.0000000  0 17G02G03G06G07G09G10G20G23G30R01R07R08
                                R09R10R11R23R24
  22159560.840   116449293.82408  22159558.380    90739704.98348
  24369940.640   128064803.56508  24369948.700    99790743.24246
  20976051.600   110229880.80509  20976054.460    85893418.02248
  20554368.540   108013947.95609  20554367.880    84166713.11349
  21077276.060   110761822.41109  21077277.500    86307910.28748
  20419066.460   107302924.34709  20419065.960    83612669.22548
  20102880.200   105641344.51409  20102878.800    82317925.03149
  22971202.860   120714450.15109  22971202.200    94063184.99146
  21619232.080   113609869.83009  21619234.840    88527201.52048
  22084276.200   118053131.99908  22084283.080    91819132.28506
  21921774.460   117348934.35008  21921779.040    91271396.29607
  20033192.660   107276832.88909  20033194.560    83437544.06808
  21885780.080   116868825.92908  21885784.540    90897981.60804
  19805084.980   105572271.53709  19805092.760    82111811.54607
  21736498.960   116153346.25908  21736506.620    90341561.21106
  22765575.740   121780427.44508  22765585.220    94718120.45305
  22424507.360   119913917.01708  22424511.740    93266394.54906
 15 02 25 10 46  0.0000000  0 17G02G03G06G07G09G10G20G23G30R01R07R08
                                R09R10R11R23R24
  22149763.380   116397808.09709  22149760.980    90699586.26048
  24386654.500   128152633.82108  24386663.400    99859182.01447
  20984192.780   110272662.57909  20984195.560    85926754.43748
  20549804.100   107989961.52509  20549803.460    84148022.42249
  21085861.460   110806938.19409  21085862.740    86343065.42649
  20412962.500   107270847.62909  20412961.980    83587674.39448
  20101322.780   105633160.04409  20101321.340    82311547.52149
  22984779.220   120785793.90509  22984778.660    94118777.39347
  21603565.800   113527542.90709  21603568.440    88463050.74048
  22069742.040   117975438.68608  22069748.960    91758704.22506
  21933035.920   117409217.31108  21933040.260    91318282.94507
  20030864.520   107264365.59908  20030866.400    83427847.28708
  21902719.780   116959283.42308  21902724.380    90968337.36804
  19800195.520   105546208.57409  19800203.360    82091540.40507
  21713009.240   116027825.10008  21713016.840    90243933.78906
  22784464.040   121881465.97708  22784473.580    94796705.77605
  22429212.500   119939078.49908  22429217.060    93285964.57805
 15 02 25 10 46 30.0000000  0 17G02G03G06G07G09G10G20G23G30R01R07R08
                                R09R10R11R23R24
  22140060.360   116346818.38609  22140057.900    90659854.01748
  24403398.900   128240625.72407  24403408.040    99927746.73645
  20992437.880   110315990.75409  20992440.700    85960516.62149
  20545342.920   107966517.83509  20545342.260    84129754.63449
  21094482.920   110852243.71809  21094484.100    86378368.40349
  20406924.440   107239117.52209  20406923.980    83562949.65048
  20099840.980   105625372.83309  20099839.520    82305479.56349
  22998368.320   120857203.45209  22998367.240    94174421.14946
  21587972.440   113445599.43309  21587975.040    88399198.73448
  22055212.420   117897769.64908  22055219.260    91698295.00406
  21944338.480   117469720.31508  21944342.700    91365340.70407
  20028580.940   107252137.08709  20028582.740    83418336.21108
  21919766.340   117050310.94708  21919771.080    91039136.45404
  19795460.940   105520971.20909  19795468.820    82071911.39307
  21689578.000   115902616.36308  21689585.660    90146549.34406
  22803401.820   121982768.23808  22803411.260    94875496.23305
  22434050.540   119964950.85508  22434054.680    93306087.42605
 15 02 25 10 47  0.0000000  0 17G02G03G06G07G09G10G20G23G30R01R07R08
                                R09R10R11R23R24
  22130452.040   116296325.97609  22130449.480    90620509.28948
  24420173.820   128328778.14308  24420183.180    99996436.52346
  21000786.600   110359863.39009  21000789.540    85994703.05549
  20540985.120   107943617.11509  20540984.380    84111909.94049
  21103140.140   110897737.64009  21103141.300    86413818.17849
  20400952.540   107207735.32309  20400952.160    83538495.99948
  20098434.940   105617983.67509  20098433.420    82299721.77549
  23011969.540   120928678.07509  23011968.580    94230115.53247
  21572452.320   113364041.34309  21572454.980    88335647.03348
  22040687.340   117820125.17908  22040694.140    91637904.89106
  21955682.100   117530443.61208  21955686.240    91412569.81008
  20026342.120   107240148.44109  20026343.940    83409011.69408
  21936919.040   117141904.47108  21936923.740    91110375.77004
  19790881.460   105496560.47009  19790889.420    82052925.30007
  21666206.040   115777724.47008  21666213.900    90049411.34006
  22822387.760   122084328.89108  22822397.200    94954487.64605
  22439021.180   119991531.51008  22439025.380    93326761.24105
 15 02 25 10 47 30.0000000  0 17G02G03G06G07G09G10G20G23G30R01R07R08
                                R09R10R11R23R24
  22120938.580   116246332.20209  22120935.920    90581553.09648
  24436979.280   128417089.93307  24436988.900   100065250.47345
  21009238.560   110404278.41609  21009241.560    86029312.11349
  20536730.720   107921259.46709  20536729.900    84094488.40849
  21111832.820   110943418.42609  21111834.100    86449413.55048
  20395047.040   107176701.92409  20395046.740    83514314.13548
  20097104.820   105610993.47909  20097103.220    82294274.86749
  23025583.060   121000216.62009  23025582.160    94285859.75046
  21557005.960   113282870.49409  21557008.640    88272397.06648
  22026166.940   117742505.76008  22026173.700    91577534.28406
  21967067.060   117591387.31408  21967071.300    91459970.33007
  20024148.300   107228400.52208  20024150.140    83399874.40908
  21954176.900   117234059.54408  21954181.260    91182051.88904
  19786457.120   105472976.89109  19786465.220    82034582.54307
  21642894.160   115653153.21708  21642902.220    89952522.71106
  22841420.940   122186143.21208  22841430.300    95033676.34905
  22444123.920   120018818.10908  22444127.740    93347984.10405
 15 02 25 10 48  0.0000000  0 17G02G03G06G07G09G10G20G23G30R01R07R08
                                R09R10R11R23R24
  22111520.160   116196838.39109  22111517.560    90542986.50148
  24453814.820   128505559.99808  24453824.260   100134187.83445
  21017793.360   110449233.68109  21017796.240    86064342.13349
  20532579.500   107899444.57209  20532578.740    84077489.80549
  21120560.780   110989284.48009  21120562.160    86485153.30049
  20389208.100   107146018.02109  20389207.820    83490404.61148
  20095850.700   105604402.89709  20095849.040    82289139.34349
  23039208.240   121071817.92909  23039207.280    94341652.87946
  21541633.680   113202088.63309  21541636.280    88209450.21348
  22011651.340   117664911.76508  22011658.060    91517183.42606
  21978493.260   117652551.35608  21978497.560    91507542.22307
  20021999.580   107216894.21609  20022001.500    83390925.04108
  21971538.940   117326771.90308  21971543.240    91254161.40704
  19782188.160   105450221.03809  19782196.260    82016883.57807
  21619643.040   115528906.52408  21619651.240    89855886.51706
  22860500.460   122288205.68508  22860509.760    95113058.06705
  22449358.140   120046807.98208  22449362.040    93369753.92605
 15 02 25 10 48 30.0000000  0 18G02G03G05G06G07G09G10G20G23G30R01R07
                                R08R09R10R11R23R24
  22102197.520   116147848.22009  22102195.120    90504812.36948
  24470680.860   128594189.40308  24470690.100   100203249.28445
  24680958.200                                                  
  21026451.060   110494729.26909  21026453.660    86099793.19348
  20528531.940   107878174.71309  20528531.240    84060915.91049
  21129324.200   111035336.53709  21129325.600    86521037.99748
  20383436.360   107115687.04209  20383436.040    83466770.09448
  20094673.060   105598214.35709  20094671.400    82284317.10049
  23052845.740   121143482.92809  23052844.940    94397495.64847
  21526336.160   113121699.78409  21526338.780    88146809.61448
  21997140.960   117587345.74008  21997147.800    91456854.36706
  21989960.800   117713937.94708  21989965.360    91555287.21607
  20019896.580   107205632.68808  20019898.620    83382166.07108
  21989004.920   117420039.47308  21989009.420    91326702.75004
  19778075.020   105428295.60209  19778083.160    81999830.49807
  21596453.800   115404990.66808  21596461.960    89759507.63006
  22879626.020   122390513.56108  22879635.440    95192630.66405
  22454723.820   120075500.65808  22454727.600    93392070.41005
 15 02 25 10 49  0.0000000  0 18G02G03G05G06G07G09G10G20G23G30R01R07
                                R08R09R10R11R23R24
  22092971.680   116099366.58209  22092969.420    90467034.46548
  24487577.860   128682981.31708  24487586.940   100272437.38344
  24663095.060   129605435.21908  24663096.620   100991251.28045
  21035212.020   110540767.35809  21035214.340    86135666.95948
  20524588.880   107857453.95909  20524588.140    84044769.89049
  21138123.500   111081577.37009  21138124.980    86557069.77448
  20377732.760   107085714.40009  20377732.420    83443414.80148
  20093572.800   105592432.84109  20093571.280    82279812.01649
  23066495.780   121215215.20308  23066495.380    94453390.79646
  21511114.580   113041710.00109  21511117.220    88084479.97348
  21982636.800   117509812.97608  21982643.740    91396551.16606
  22001470.800   117775551.49008  22001475.540    91603208.71507
  20017840.200   107194621.10709  20017842.380    83373601.49308
  22006574.900   117513861.99608  22006579.580    91399675.74104
  19774118.600   105407205.85709  19774126.720    81983427.37907
  21573327.940   115281413.75708  21573336.020    89663392.37506
  22898797.540   122493066.52908  22898807.160    95272393.86405
  22460221.440   120104897.82008  22460225.060    93414934.80905
 15 02 25 10 49 30.0000000  0 18G02G03G05G06G07G09G10G20G23G30R01R07
                                R08R09R10R11R23R24
  22083841.080   116051384.77109  22083838.800    90429646.05148
  24504503.700   128771924.53208  24504512.560   100341743.44546
  24645225.920   129511534.17308  24645227.760   100918081.71746
  21044073.840   110587335.69309  21044076.020    86171953.91448
  20520748.380   107837272.37909  20520747.640    84029043.99549
  21146956.560   111127995.39309  21146958.100    86593239.62148
  20372095.580   107056090.86709  20372095.200    83420331.53248
  20092548.220   105587049.06209  20092546.840    82275616.85049
  23080156.680   121287003.37809  23080156.100    94509329.55846
  21495967.420   112962111.04109  21495970.000    88022454.84648
  21968137.000   117432303.43308  21968143.860    91336266.01606
  22013021.360   117837381.79308  22013025.960    91651298.82408
  20015828.840   107183850.26909  20015830.960    83365224.14608
  22024246.060   117608225.02908  22024250.860    91473069.12404
  19770317.120   105386941.56009  19770325.160    81967666.27807
  21550264.420   115158169.62508  21550272.340    89567535.91106
  22918011.960   122595849.04608  22918021.700    95352335.59405
  22465848.400   120134986.46308  22465851.900    93438337.02306
 15 02 25 10 50  0.0000000  0 18G02G03G05G06G07G09G10G20G23G30R01R07
                                R08R09R10R11R23R24
  22074807.120   116003910.20309  22074804.660    90392652.88348
  24521459.020   128861023.64308  24521468.100   100411170.88346
  24627354.120   129417618.31208  24627355.980   100844900.59545
  21053037.020   110634437.78709  21053039.280    86208656.79948
  20517011.500   107817635.23909  20517010.820    84013742.34649
  21155824.200   111174594.89809  21155825.740    86629550.89749
  20366526.140   107026822.98609  20366525.620    83397525.40048
  20091600.580   105582069.41409  20091599.240    82271736.60049
  23093829.220   121358852.08609  23093828.580    94565315.48246
  21480895.960   112882910.33309  21480898.580    87960740.07648
  21953642.700   117354823.24808  21953649.440    91276003.69506
  22024613.540   117899434.95808  22024618.140    91699562.25708
  20013863.740   107173326.91309  20013865.760    83357039.30908
  22042018.740   117703129.88708  22042023.520    91546883.93004
  19766671.900   105367509.87109  19766679.740    81952552.77307
  21527265.000   115035267.85808  21527272.720    89471945.77106
  22937269.420   122698861.96608  22937279.020    95432456.54005
  22471605.320   120165769.85508  22471608.880    93462279.61705
 15 02 25 10 50 30.0000000  0 18G02G03G05G06G07G09G10G20G23G30R01R07
                                R08R09R10R11R23R24
  22065870.760   115956948.69909  22065868.100    90356059.49548
  24538444.820   128950282.06008  24538454.040   100480722.52146
  24609480.600   129323693.24808  24609482.640   100771712.32945
  21062102.140   110682076.11809  21062104.580    86245777.53049
  20513379.160   107798547.42109  20513378.520    83998868.73249
  21164727.000   111221378.97309  21164728.540    86666005.98648
  20361025.520   106997916.31809  20361024.820    83375000.72648
  20090730.860   105577498.97609  20090729.480    82268175.20449
  23107513.720   121430764.73409  23107513.240    94621351.15946
  21465901.480   112804114.33209  21465904.140    87899340.65648
  21939154.960   117277377.99308  21939161.520    91215768.53506
  22036248.040   117961715.28808  22036252.700    91748002.37408
  20011945.800   107163056.50709  20011947.800    83349051.19408
  22059893.160   117798576.98708  22059897.740    91621120.47804
  19763183.660   105348915.18909  19763191.460    81938090.25707
  21504331.260   114912717.03908  21504338.760    89376628.56806
  22956569.820   122802104.80508  22956579.100    95512756.27605
  22477492.480   120197249.73608  22477496.120    93486763.90105
 15 02 25 10 51  0.0000000  0 18G02G03G05G06G07G09G10G20G23G30R01R07
                                R08R09R10R11R23R24
  22057030.720   115910493.90509  22057028.000    90319860.94448
  24555459.040   129039691.47707  24555468.460   100550391.80046
  24591604.160   129229752.27608  24591606.020   100698511.56646
  21071267.480   110730241.21909  21071270.300    86283308.72049
  20509849.920   107780001.18709  20509849.260    83984417.13849
  21173663.180   111268338.94009  21173664.760    86702598.13349
  20355592.380   106969364.69609  20355591.600    83352752.70248
  20089937.740   105573331.18409  20089936.340    82264927.56749
  23121209.120   121502733.10709  23121208.300    94677430.34346
  21450983.000   112725717.51109  21450985.660    87838252.27748
  21924672.440   117199960.54408  21924679.020    91155555.02306
  22047923.700   118024215.76408  22047928.620    91796613.73108
  20010073.860   107153032.74409  20010075.960    83341254.92608
  22077866.820   117894554.43108  22077871.120    91695769.52904
  19759851.200   105331150.64909  19759858.900    81924273.41207
  21481462.640   114790513.94408  21481470.000    89281581.84406
  22975910.700   122905564.93408  22975919.660    95593225.08405
  22483507.620   120229415.68708  22483511.340    93511781.84205
 15 02 25 10 51 30.0000000  0 18G02G03G05G06G07G09G10G20G23G30R01R07
                                R08R09R10R11R23R24
  22048289.000   115864556.00809  22048286.340    90284065.18448
  24572503.280   129129259.68407  24572513.220   100620184.83145
  24573726.860   129135805.69508  24573728.500   100625306.42345
  21080534.400   110778939.83509  21080537.620    86321255.63848
  20506425.500   107762005.31809  20506424.760    83970394.39149
  21182634.200   111315482.31709  21182635.820    86739333.18348
  20350228.580   106941178.06309  20350227.880    83330789.09648
  20089223.080   105569575.80709  20089221.720    82262001.28349
  23134916.460   121574765.65209  23134915.740    94733559.45546
  21436142.520   112647730.55909  21436145.180    87777483.28148
  21910196.840   117122580.70608  21910203.320    91095370.75206
  22059642.140   118086945.67008  22059647.220    91845403.54508
  20008249.920   107143265.84208  20008252.000    83333658.43508
  22095940.560   117991067.12808  22095944.900    91770834.88304
  19756676.240   105314225.67809  19756683.780    81911109.57007
  21458661.460   114668671.56808  21458668.700    89186815.65906
  22995292.940   123009246.83207  22995302.120    95673866.30905
  22489652.520   120262274.64108  22489655.820    93537338.70405
 15 02 25 10 52  0.0000000  0 18G02G03G05G06G07G09G10G20G23G30R01R07
                                R08R09R10R11R23R24
  22039644.240   115819127.73009  22039641.640    90248666.53448
  24589576.200   129218977.06508  24589586.540   100690094.13345
  24555846.940   129041845.52207  24555848.660   100552090.76945
  21089901.000   110828161.29109  21089904.360    86359609.95848
  20503104.200   107744551.33509  20503103.360    83956793.89749
  21191638.340   111362799.22209  21191639.940    86776203.46448
  20344932.740   106913348.83809  20344932.180    83309103.98848
  20088585.400   105566224.92509  20088584.100    82259390.19649
  23148634.260   121646852.46309  23148633.580    94789730.86546
  21421378.880   112570146.87309  21421381.440    87717028.51048
  21895726.700   117045230.64508  21895733.360    91035209.65206
  22071401.800   118149896.03708  22071406.900    91894364.78607
  20006472.500   107133747.84709  20006474.600    83326255.53908
  22114112.000   118088101.84708  22114116.540    91846306.22904
  19753657.200   105298132.16009  19753664.680    81898592.40607
  21435926.880   114547185.38108  21435934.140    89092326.51506
  23014714.100   123113136.62708  23014723.640    95754669.23505
  22495924.900   120295814.81908  22495928.080    93563425.44105
 15 02 25 10 52 30.0000000  0 18G02G03G05G06G07G09G10G20G23G30R01R07
                                R08R09R10R11R23R24
  22031098.320   115774218.69909  22031095.760    90213672.50448
  24606678.760   129308850.93407  24606689.320   100760125.34845
  24537965.940   128947881.05808  24537967.600   100478871.73746
  21099368.380   110877911.74409  21099371.580    86398376.49149
  20499887.560   107727647.46709  20499886.680    83943622.07349
  21200676.920   111410296.62909  21200678.440    86813214.40549
  20339706.740   106885886.34809  20339706.240    83287704.64148
  20088026.420   105563287.46809  20088025.120    82257101.25249
  23162363.860   121719000.73909  23162363.020    94845950.20146
  21406693.860   112492976.54409  21406696.340    87656895.84348
  21881263.920   116967919.26008  21881270.720    90975078.63306
  22083204.320   118213075.97708  22083209.240    91943504.60807
  20004743.360   107124488.45309  20004745.520    83319053.78608
  22132382.160   118185662.83508  22132386.660    91922186.93804
  19750795.760   105282878.52009  19750803.140    81886728.49107
  21413261.220   114426067.62308  21413268.580    88998123.92706
  23034175.000   123217237.84008  23034184.820    95835636.60205
  22502325.600   120330041.88308  22502328.780    93590046.44205
 15 02 25 10 53  0.0000000  0 17G02G05G06G07G09G10G20G23G30R01R07R08
                                R09R10R11R23R24
  22022651.400   115729829.80509  22022648.820    90179083.76048
  24520084.240   128853912.14008  24520085.540   100405649.19346
  21108935.820   110928188.40309  21108938.820    86437553.04148
  20496775.360   107711292.81709  20496774.500    83930878.18949
  21209749.460   111457972.63609  21209750.940    86850364.50248
  20334550.740   106858791.18609  20334550.240    83266591.51748
  20087546.120   105560763.72409  20087544.840    82255134.68049
  23176104.820   121791209.30409  23176103.980    94902216.48646
  21392087.640   112416220.76209  21392090.140    87597086.18348
  21866808.460   116890646.80308  21866815.260    90914977.87906
  22095049.720   118276484.72608  22095054.720    91992822.37807
  20003062.680   107115488.34309  20003064.820    83312053.69008
  22150749.920   118283745.04308  22150754.340    91998473.00204
  19748091.940   105268465.09709  19748099.240    81875518.07107
  21390665.240   114305321.72808  21390672.580    88904210.57106
  23053674.580   123321545.34208  23053684.320    95916764.40605
  22508854.140   120364952.67408  22508857.720    93617199.18205
 15 02 25 10 53 30.0000000  0 17G02G05G06G07G09G10G20G23G30R01R07R08
                                R09R10R11R23R24
  22014302.700   115685956.99409  22014300.000    90144897.15448
  24502200.980   128759935.35008  24502202.640   100332420.59745
  21118601.980   110978984.37209  21118604.920    86477134.25648
  20493766.760   107695482.65909  20493765.900    83918558.58649
  21218854.800   111505821.19509  21218856.220    86887649.06248
  20329464.000   106832059.80009  20329463.420    83245761.85048
  20087143.720   105558649.29009  20087142.480    82253487.04449
  23189856.000   121863472.31608  23189855.440    94958525.16946
  21377559.660   112339876.67109  21377562.340    87537597.32948
  21852359.520   116813409.28608  21852366.300    90854904.31106
  22106937.280   118340117.82208  22106942.120    92042314.62807
  20001429.680   107106743.44309  20001431.720    83305252.08608
  22169213.520   118382339.51708  22169218.000    92075157.46404
  19745544.720   105254886.67709  19745551.940    81864957.09507
  21368138.740   114184947.22808  21368146.040    88810586.06406
  23073210.740   123426048.99108  23073220.220    95998044.77305
  22515509.140   120400539.15908  22515511.940    93644877.47005
 15 02 25 10 54  0.0000000  0 17G02G05G06G07G09G10G20G23G30R01R07R08
                                R09R10R11R23R24
  22006053.420   115642606.65309  22006050.560    90111117.67448
  24484317.300   128665956.74208  24484319.360   100259190.61646
  21128367.340   111030302.22909  21128370.400    86517122.15448
  20490862.720   107680221.91309  20490861.840    83906667.10949
  21227993.560   111553845.77309  21227995.060    86925070.79049
  20324447.560   106805697.88909  20324446.880    83225220.10448
  20086820.380   105556949.90309  20086819.120    82252162.83349
  23203618.320   121935794.02709  23203617.940    95014879.64046
  21363111.260   112263950.86809  21363114.100    87478434.42948
  21837918.160   116736212.00408  21837924.900    90794862.05306
  22118867.520   118403979.79408  22118871.860    92091984.92407
  19999845.500   107098259.84809  19999847.440    83298653.73108
  22187773.220   118481446.64108  22187777.700    92152240.71404
  19743155.160   105242148.68509  19743162.320    81855049.80507
  21345683.280   114064952.46208  21345690.500    88717256.93606
  23092783.340   123530749.18708  23092792.880    96079478.01605
  22522290.780   120436803.47808  22522292.980    93673083.03405
 15 02 25 10 54 30.0000000  0 17G02G05G06G07G09G10G20G23G30R01R07R08
                                R09R10R11R23R24
  21997902.600   115599774.02609  21997899.680    90077741.61348
  24466432.320   128571970.73708  24466433.920   100185954.74746
  21138230.340   111082133.75209  21138233.620    86557510.28848
  20488061.960   107665503.74309  20488061.000    83895198.40649
  21237164.460   111602039.12609  21237166.020    86962624.01449
  20319500.440   106779700.52109  20319499.680    83204962.40148
  20086575.100   105555660.50709  20086573.780    82251158.08149
  23217390.440   122008167.45509  23217390.300    95071274.37246
  21348741.680   112188439.12709  21348744.600    87419594.15948
  21823483.420   116659049.94008  21823490.180    90734847.14706
  22130839.160   118468065.17508  22130843.680    92141828.96107
  19998309.160   107090032.80309  19998311.100    83292254.90608
  22206426.900   118581056.04908  22206431.460    92229714.59004
  19740922.160   105230245.24709  19740929.200    81845791.59407
  21323298.500   113945335.76408  21323305.720    88624221.84806
  23112390.360   123635634.61208  23112400.340    96161055.31505
  22529197.380   120473736.73908  22529199.700    93701808.82705
 15 02 25 10 55  0.0000000  0 17G02G05G06G07G09G10G20G23G30R01R07R08
                                R09R10R11R23R24
  21989851.880   115557467.39609  21989848.980    90044775.41148
  24448547.340   128477985.37108  24448549.060   100112719.45746
  21148192.140   111134483.70909  21148195.520    86598302.40948
  20485365.780   107651335.32709  20485364.820    83884158.09049
  21246368.560   111650406.96609  21246370.200    87000313.21848
  20314624.200   106754075.79409  20314623.460    83184995.07148
  20086409.200   105554788.42109  20086407.840    82250478.51349
  23231173.700   122080598.70009  23231173.660    95127714.17246
  21334452.620   112113350.29609  21334455.560    87361083.44348
  21809056.740   116581930.97108  21809063.480    90674865.79006
  22142853.800   118532380.92208  22142858.860    92191852.17807
  19996822.240   107082070.26708  19996824.180    83286061.81208
  22225175.000   118681170.55908  22225179.780    92307581.30504
  19738846.980   105219183.47709  19738853.940    81837188.01607
  21300986.540   113826108.34508  21300993.820    88531489.53506
  23132032.640   123740707.48508  23132042.940    96242778.37305
  22536229.960   120511343.00308  22536232.980    93731058.07705
 15 02 25 10 55 30.0000000  0 17G02G05G06G07G09G10G20G23G30R01R07R08
                                R09R10R11R23R24
  21981900.220   115515681.06709  21981897.440    90012214.64048
  24430661.460   128383995.40908  24430663.900   100039480.63046
  21158251.120   111187343.35609  21158254.440    86639491.67748
  20482772.900   107637709.91609  20482772.000    83873540.88849
  21255604.380   111698941.48009  21255606.060    87038132.28749
  20309817.840   106728818.28809  20309817.100    83165313.88848
  20086321.580   105554327.83809  20086320.180    82250119.59948
  23244966.740   122153080.23509  23244966.560    95184193.14746
  21320243.220   112038679.58709  21320246.060    87302898.51948
  21794637.000   116504849.21008  21794643.700    90614913.35906
  22154910.380   118596920.61608  22154915.820    92242049.58008
  19995383.620   107074366.76309  19995385.660    83280070.18508
  22244015.840   118781778.99308  22244020.480    92385832.23404
  19736928.480   105208957.20809  19736935.420    81829234.27207
  21278747.020   113707267.50408  21278754.340    88439057.88906
  23151708.080   123845956.55408  23151718.480    96324638.49205
  22543386.500   120549612.74408  22543390.100    93760823.35605
 15 02 25 10 56  0.0000000  0 17G02G05G06G07G09G10G20G23G30R01R07R08
                                R09R10R11R23R24
  21974048.500   115474419.97909  21974045.820    89980063.14548
  24412775.600   128290004.90908  24412777.840    99966241.32446
  21168407.600   111240713.90109  21168410.780    86681079.04348
  20480284.000   107624630.67709  20480283.160    83863349.27949
  21264872.400   111747644.91009  21264874.020    87076082.98549
  20305082.180   106703932.40009  20305081.460    83145922.27248
  20086313.100   105554283.19409  20086311.720    82250084.79349
  23258769.880   122225614.88509  23258769.580    95240713.50246
  21306114.420   111964432.28609  21306117.080    87245043.52948
  21780224.960   116427809.27508  21780231.780    90554993.45806
  22167009.680   118661687.96008  22167015.160    92292424.04007
  19993994.300   107066926.94809  19993996.400    83274283.65408
  22262949.180   118882880.58908  22262953.620    92464466.73804
  19735167.380   105199569.56209  19735174.200    81821932.79007
  21256581.340   113588820.74008  21256588.780    88346932.76106
  23171416.420   123951380.52408  23171426.540    96406634.63305
  22550667.260   120588546.32008  22550671.480    93791104.95805
 15 02 25 10 56 30.0000000  0 17G02G05G06G07G09G10G20G23G30R01R07R08
                                R09R10R11R23R24
  21966297.320   115433687.22909  21966294.660    89948323.34848
  24394890.160   128196017.27808  24394892.020    99893004.21745
  21178661.320   111294595.13109  21178664.260    86723064.35949
  20477899.480   107612099.56909  20477898.600    83853584.79049
  21274172.760   111796518.14609  21274174.360    87114165.99349
  20300417.920   106679421.54609  20300417.180    83126822.89748
  20086384.200   105554656.92409  20086382.860    82250375.98949
  23272583.380   122298203.92009  23272583.000    95297276.27746
  21292066.920   111890612.28009  21292069.500    87187521.49248
  21765821.240   116350813.66108  21765828.160    90495108.04206
  22179151.840   118726685.59108  22179157.680    92342977.61108
  19992654.860   107059754.26509  19992656.960    83268704.88608
  22281974.300   118984473.31608  22281979.040    92543483.16004
  19733564.140   105191023.02309  19733570.960    81815285.50307
  21234490.540   113470774.35008  21234497.980    88255119.05506
  23191156.820   124056976.72708  23191166.660    96488764.79804
  22558071.980   120628143.19608  22558076.180    93821902.48205
 15 02 25 10 57  0.0000000  0 17G02G05G06G07G09G10G20G23G30R01R07R08
                                R09R10R11R23R24
  21958647.160   115393485.24409  21958644.480    89916997.12548
  24377005.640   128102034.54508  24377008.100    99819770.99446
  21189011.840   111348986.07509  21189014.620    86765446.84549
  20475619.440   107600117.48409  20475618.460    83844248.10249
  21283505.400   111845561.15309  21283506.980    87152381.28749
  20295825.400   106655287.99509  20295824.760    83108017.51448
  20086535.280   105555450.93109  20086534.000    82250994.66949
  23286407.200   122370847.77509  23286406.740    95353881.74246
  21278101.260   111817222.55209  21278103.900    87130334.74448
  21751426.340   116273864.70308  21751433.240    90435258.90206
  22191337.220   118791914.50109  22191343.180    92393711.05808
  19991365.860   107052851.15809  19991367.740    83263335.77608
  22301090.760   119086553.94008  22301095.780    92622879.05004
  19732118.880   105183318.82209  19732125.720    81809293.35307
  21212475.600   113353133.68508  21212482.920    88163620.90206
  23210928.440   124162740.92008  23210938.280    96571025.57705
  22565600.360   120668401.54108  22565604.380    93853214.39305
 15 02 25 10 57 30.0000000  0 17G02G05G06G07G09G10G20G23G30R01R07R08
                                R09R10R11R23R24
  21951098.000   115353813.94609  21951095.240    89886084.42648
  24359122.140   128008057.03008  24359125.080    99746541.85246
  21199458.320   111403883.20709  21199461.120    86808223.77548
  20473443.540   107588682.97609  20473442.500    83835338.10649
  21292869.820   111894771.57009  21292871.460    87190727.03148
  20291304.660   106631531.56409  20291304.120    83089506.01048
  20086766.280   105556664.93109  20086765.060    82251940.62949
  23300241.060   122443544.44609  23300240.640    95410528.39846
  21264217.600   111744263.66809  21264220.340    87073483.73948
  21737040.080   116196962.04508  21737046.900    90375445.77606
  22203565.900   118857373.62909  22203571.380    92444623.56507
  19990127.040   107046217.37309  19990128.900    83258176.16108
  22320297.600   119189116.88708  22320302.740    92702650.12904
  19730831.320   105176455.50709  19730838.160    81803955.23507
  21190537.100   113235901.34508  21190544.100    88072440.34306
  23230730.380   124268667.64408  23230740.440    96653412.76305
  22573251.840   120709316.87108  22573255.680    93885037.43405
 15 02 25 10 58  0.0000000  0 17G02G05G06G07G09G10G20G23G30R01R07R08
                                R09R10R11R23R24
  21943650.140   115314675.10909  21943647.300    89855586.63348
  24341240.020   127914086.50708  24341242.800    99673318.09246
  21210000.620   111459285.11209  21210003.680    86851394.02748
  20471371.920   107577796.65209  20471370.880    83826855.26749
  21302266.040   111944149.03209  21302267.680    87229202.93948
  20286856.200   106608154.32109  20286855.600    83071289.96248
  20087077.580   105558300.67309  20087076.340    82253215.21349
  23314084.820   122516294.20808  23314084.820    95467216.37146
  21250416.560   111671738.27709  21250419.280    87016970.50148
  21722662.820   116120107.65308  21722669.640    90315670.19006
  22215837.580   118923064.14908  22215843.120    92495716.07707
  19988938.840   107039855.07209  19988940.760    83253227.67908
  22339594.060   119292158.89308  22339599.040    92782793.81404
  19729701.600   105170433.68209  19729708.520    81799271.59407
  21168675.940   113119082.35408  21168682.700    87981581.27706
  23250562.120   124374753.32107  23250572.440    96735923.56905
  22581025.780   120750887.29308  22581030.080    93917369.88006
 15 02 25 10 58 30.0000000  0 17G02G05G06G07G09G10G20G23G30R01R07R08
                                R09R10R11R23R24
  21936303.700   115276069.01409  21936300.840    89825503.96248
  24323359.220   127820122.38108  24323361.780    99600099.29546
  21220638.280   111515188.18009  21220641.620    86894954.81148
  20469404.320   107567456.93909  20469403.320    83818798.35449
  21311693.600   111993691.18809  21311695.160    87267807.17648
  20282479.840   106585155.88209  20282479.200    83053369.08648
  20087468.880   105560356.90009  20087467.600    82254817.45149
  23327938.160   122589095.07809  23327938.580    95523944.12946
  21236698.120   111599646.87109  21236700.740    86960795.44048
  21708294.480   116043300.93308  21708301.240    90255931.65606
  22228152.260   118988984.92308  22228157.760    92546987.62407
  19987801.380   107033764.24408  19987803.400    83248490.34608
  22358979.240   119395674.15008  22358983.940    92863305.61404
  19728729.560   105165252.38809  19728736.500    81795241.70707
  21146892.680   113002679.60408  21146899.320    87891045.95306
  23270422.500   124480991.63807  23270433.020    96818553.04405
  22588921.400   120793108.22608  22588925.860    93950208.30905
 15 02 25 10 59  0.0000000  0 17G02G05G06G07G09G10G20G23G30R01R07R08
                                R09R10R11R23R24
  21929058.260   115237993.94709  21929055.480    89795835.07848
  24305479.480   127726163.73708  24305481.620    99526884.76346
  21231370.480   111571587.53809  21231373.960    86938902.30648
  20467540.160   107557660.78809  20467539.160    83811164.99449
  21321151.720   112043394.17609  21321153.260    87306536.73148
  20278175.180   106562534.66209  20278174.560    83035742.15548
  20087939.920   105562832.20309  20087938.600    82256746.24049
  23341800.820   122661943.36209  23341801.140    95580708.87246
  21223062.140   111527988.56609  21223064.500    86904957.85548
  21693934.800   115966540.49908  21693941.680    90196229.14106
  22240509.540   119055133.36608  22240514.760    92598436.28407
  19986714.400   107027943.42009  19986716.540    83243963.01908
  22378451.740   119499655.67708  22378456.540    92944180.02204
  19727914.720   105160908.59009  19727921.620    81791863.20707
  21125187.540   112886694.68408  21125194.200    87800835.60606
  23290310.020   124587375.05308  23290320.440    96901295.42204
  22596937.600   120835973.83008  22596941.100    93983548.19605
 15 02 25 10 59 30.0000000  0 17G02G05G06G07G09G10G20G23G30R01R07R08
                                R09R10R11R23R24
  21921914.360   115200452.52809  21921911.580    89766582.01448
  24287601.480   127632212.99708  24287602.940    99453676.41445
  21242197.240   111628482.37509  21242200.580    86983235.89048
  20465779.780   107548409.70809  20465778.760    83803956.36449
  21330640.520   112093258.46609  21330642.100    87345391.97348
  20273942.820   106540293.50509  20273942.220    83018411.36748
  20088491.100   105565728.68709  20088489.800    82259003.23549
  23355672.800   122734839.99009  23355672.580    95637511.32145
  21209509.220   111456766.68609  21209511.280    86849460.34648
  21679584.220   115889828.56109  21679591.180    90136564.33706
  22252909.640   119121511.46208  22252914.880    92650063.51307
  19985678.360   107022395.24708  19985680.460    83239647.75308
  22398010.880   119604100.72408  22398016.060    93025414.90104
  19727257.300   105157403.99309  19727263.980    81789137.42207
  21103561.440   112771132.88808  21103568.340    87710954.39906
  23310224.100   124693900.39708  23310234.200    96984148.23104
  22605074.140   120879482.77208  22605077.940    94017388.40305
 15 02 25 11 00  0.0000000  0 17G02G05G06G07G09G10G20G23G30R01R07R08
                                R09R10R11R23R24
  21914872.560   115163447.70009  21914869.800    89737747.07948
  24269725.260   127538272.74508  24269727.260    99380476.32546
  21253118.500   111685872.18609  21253121.560    87027955.14848
  20464123.300   107539704.85209  20464122.280    83797173.37249
  21340160.100   112143284.69909  21340161.820    87384373.39448
  20269783.300   106518435.15609  20269782.720    83001378.87148
  20089122.900   105569048.76309  20089121.640    82261590.28249
  23369554.280   122807786.38009  23369553.620    95694352.53146
  21196039.920   111385984.75109  21196041.900    86794305.64748
  21665243.360   115813168.35508  21665250.200    90076939.76406
  22265353.080   119188121.01708  22265358.060    92701870.79907
  19984693.880   107017123.30808  19984695.940    83235547.33508
  22417656.280   119709006.91608  22417661.760    93107008.47304
  19726757.340   105154739.43409  19726764.080    81787064.98307
  21082015.720   112655999.86208  21082022.700    87621406.62306
  23330164.140   124800564.77408  23330173.980    97067109.19104
  22613330.620   120923633.44808  22613334.900    94051727.73505
 15 02 25 11 00 30.0000000  0 17G02G05G06G07G09G10G20G23G30R01R07R08
                                R09R10R11R23R24
  21907932.660   115126978.57109  21907929.880    89709329.57648
  24251851.100   127444342.83808  24251853.740    99307284.28646
  21264133.240   111743752.63909  21264136.040    87073056.74648
  20462570.340   107531544.21309  20462569.340    83790814.44249
  21349710.020   112193469.84909  21349711.740    87423478.66548
  20265696.520   106496959.00309  20265696.000    82984644.20448
  20089835.120   105572791.21009  20089833.840    82264506.46949
  23383444.780   122880779.67709  23383444.200    95751230.28146
  21182654.200   111315642.55909  21182656.340    86739493.62148
  21650911.960   115736558.72808  21650918.740    90017354.54006
  22277839.500   119254960.46608  22277844.800    92753856.82607
  19983760.640   107012126.33808  19983762.780    83231660.80308
  22437387.040   119814367.64108  22437392.400    93188955.60604
  19726414.600   105152913.27109  19726421.600    81785644.64707
  21060550.760   112541298.05408  21060557.720    87532194.26106
  23350128.940   124907361.60608  23350138.800    97150173.14405
  22621706.260   120968421.15708  22621710.460    94086562.55805
 15 02 25 11 01  0.0000000  0 17G02G05G06G07G09G10G20G23G30R01R07R08
                                R09R10R11R23R24
  21901096.200   115091053.23109  21901093.500    89681335.80948
  24233980.560   127350431.62308  24233983.000    99234106.68946
  21275242.140   111802128.50609  21275244.800    87118544.35648
  20461122.180   107523934.21809  20461121.200    83784884.58049
  21359291.380   112243819.83109  21359293.040    87462712.36248
  20261684.020   106475873.19909  20261683.540    82968213.69548
  20090629.180   105576963.66409  20090627.840    82267757.70749
  23397345.240   122953826.23609  23397344.760    95808149.50546
  21169353.760   111245748.90609  21169356.120    86685031.08348
  21636591.660   115660007.93209  21636598.360    89957815.05506
  22290370.020   119322036.68908  22290375.320    92806027.07208
  19982880.340   107007412.90409  19982882.600    83227994.77008
  22457203.660   119920185.91608  22457208.780    93271258.59504
  19726230.320   105151932.12509  19726237.460    81784881.53307
  21039168.540   112427038.70208  21039175.400    87443326.01506
  23370118.960   125014293.45307  23370128.980    97233342.14605
  22630201.520   121013849.57108  22630205.360    94121895.66705
 15 02 25 11 01 30.0000000  0 17G02G05G06G07G09G10G20G23G30R01R07R08
                                R09R10R11R23R24
  21894363.120   115055671.19009  21894360.580    89653765.38748
  24216113.200   127256538.19608  24216115.540    99160943.05247
  21286444.280   111860995.86209  21286447.100    87164414.94248
  20459778.480   107516873.21609  20459777.500    83779382.50949
  21368903.680   112294332.09909  21368905.200    87502072.51548
  20257745.780   106455177.36109  20257745.260    82952087.06048
  20091504.940   105581565.33009  20091503.520    82271343.40049
  23411255.300   123026924.03909  23411254.980    95865108.68346
  21156138.680   111176303.99309  21156141.260    86630918.22148
  21622282.280   115583515.58008  21622288.780    89898321.04006
  22302944.520   119389348.51908  22302949.360    92858380.61407
  19982053.020   107002982.77108  19982055.380    83224549.08808
  22477104.880   120026455.99108  22477109.820    93353912.99004
  19726204.160   105151794.20709  19726211.400    81784774.26207
  21017869.420   112313223.95808  21017876.280    87354803.60106
  23390132.940   125121353.79808  23390143.340    97316611.04005
  22638815.880   121059913.83508  22638819.760    94157723.37105
 15 02 25 11 02  0.0000000  0 17G02G05G06G07G09G10G20G23G30R01R07R08
                                R09R10R11R23R24
  21887732.500   115020827.54309  21887730.100    89626614.48948
  24198248.440   127162657.93908  24198250.420    99087789.67246
  21297738.240   111920346.45309  21297741.360    87210662.09248
  20458538.040   107510354.97209  20458537.060    83774303.36649
  21378545.540   112344999.72709  21378546.960    87541553.73048
  20253880.800   106434866.61509  20253880.220    82936260.49548
  20092461.420   105586591.28309  20092459.940    82275259.71149
  23425173.980   123100066.39009  23425173.520    95922102.62846
  21143008.280   111107303.68809  21143010.860    86577151.79949
  21607982.760   115507076.52508  21607989.060    89838868.48206
  22315561.880   119456890.27508  22315566.560    92910912.93507
  19981277.780   106998831.32708  19981280.200    83221320.17008
  22497088.600   120133167.48508  22497093.440    93436910.69304
  19726335.180   105152493.46009  19726342.500    81785318.13707
  20996653.420   112199852.49608  20996660.200    87266625.95707
  23410169.000   125228532.27608  23410179.740    97399971.80505
  22647547.340   121106605.19408  22647551.640    94194038.77906
 15 02 25 11 02 30.0000000  0 17G02G05G06G07G09G10G20G23G30R01R07R08
                                R09R10R11R23R24
  21881205.740   114986529.12709  21881203.340    89599888.43948
  24180387.220   127068797.39308  24180389.100    99014651.65046
  21309124.660   111980183.68709  21309128.220    87257288.44948
  20457401.920   107504384.62409  20457400.860    83769651.15349
  21388217.880   112395827.41209  21388219.220    87581159.66448
  20250090.420   106414947.80509  20250089.760    82920739.33048
  20093499.720   105592047.61309  20093498.300    82279511.37849
  23439102.120   123173258.63108  23439101.800    95979135.39546
  21129963.920   111038755.40809  21129966.340    86523737.60848
  21593694.560   115430698.23608  21593700.680    89779463.18106
  22328223.360   119524667.77308  22328228.440    92963628.60407
  19980555.820   106994965.80708  19980558.420    83218313.64008
  22517155.200   120240322.04908  22517160.200    93520252.97904
  19726624.240   105154034.89609  19726631.680    81786517.01807
  20975522.160   112086933.90308  20975528.880    87178800.53007
  23430227.400   125335830.06408  23430238.200    97483425.43205
  22656396.560   121153925.83708  22656400.500    94230843.65305
 15 02 25 11 03  0.0000000  0 17G02G05G06G07G09G10G20G23G30R01R07R08
                                R09R10R11R23R24
  21874782.020   114952771.60209  21874779.480    89573583.87648
  24162529.420   126974953.58708  24162531.300    98941526.65746
  21320602.160   112040499.71009  21320606.120    87304287.90448
  20456368.980   107498956.65609  20456367.940    83765421.58649
  21397919.400   112446808.69209  21397920.680    87620885.29648
  20246373.780   106395416.62209  20246373.060    82905520.22048
  20094619.000   105597929.64209  20094617.620    82284094.76549
  23453038.460   123246494.63708  23453038.440    96036202.23646
  21117004.820   110970655.49009  21117007.120    86470672.79448
  21579416.800   115354375.86208  21579422.920    89720101.38706
  22340927.900   119592675.89208  22340933.480    93016523.66008
  19979886.540   106991381.90209  19979889.180    83215526.14208
  22537303.120   120347909.63508  22537308.120    93603932.07704
  19727070.120   105156412.49509  19727077.720    81788366.27607
  20954475.300   111974466.50908  20954482.080    87091326.05207
  23450306.040   125443237.12108  23450316.440    97566964.08804
  22665361.920   121201866.89508  22665365.280    94268131.12805
 15 02 25 11 03 30.0000000  0 17G02G05G06G07G09G10G20G23G30R01R07R08
                                R09R10R11R23R24
  21868462.960   114919563.73509  21868460.180    89547707.60348
  24144676.080   126881135.01108  24144678.180    98868421.36746
  21332171.860   112101299.82109  21332176.060    87351664.55749
  20455440.520   107494077.84909  20455439.520    83761619.92449
  21407651.300   112497950.17509  21407652.660    87660735.74648
  20242732.600   106376282.06609  20242731.920    82890610.17248
  20095820.860   105604245.53509  20095819.480    82289016.21449
  23466984.500   123319781.39309  23466984.560    96093308.62746
  21104132.680   110903013.23309  21104135.020    86417964.59149
  21565151.280   115278118.74108  21565157.460    89660790.33406
  22353677.080   119660922.37008  22353682.720    93069604.11907
  19979271.700   106988088.70709  19979274.240    83212964.75508
  22557532.860   120455933.83608  22557537.740    93687950.75704
  19727674.300   105159633.70309  19727682.020    81790871.65807
  20933515.160   111862462.51908  20933522.020    87004211.98007
  23470405.680   125550756.33407  23470415.960    97650589.86804
  22674443.960   121250433.04508  22674447.500    94305904.69205
 15 02 25 11 04  0.0000000  0 17G02G05G06G07G09G10G20G23G30R01R07R08
                                R09R10R11R23R24
  21862246.620   114886895.94109  21862243.740    89522252.16148
  24126826.020   126787332.45108  24126827.920    98795328.50746
  21343831.380   112162571.31209  21343835.600    87399408.49648
  20454614.580   107489737.69409  20454613.560    83758237.99449
  21417411.540   112549240.57109  21417413.000    87700702.23648
  20239165.140   106357534.99509  20239164.500    82876002.04848
  20097103.540   105610985.91209  20097102.080    82294268.42449
  23480938.380   123393108.22709  23480938.220    96150446.27446
  21091345.940   110835820.02409  21091348.460    86365606.29648
  21550896.220   115201917.30308  21550902.460    89601522.58006
  22366468.940   119729397.22708  22366474.340    93122862.13407
  19978709.360   106985076.94908  19978711.800    83210622.25208
  22577841.460   120564379.91408  22577846.500    93772297.55304
  19728434.720   105163687.34609  19728442.500    81794024.49307
  20912640.480   111750915.26108  20912647.280    86917453.13806
  23490523.240   125658372.63507  23490533.960    97734291.20804
  22683640.340   121299610.49208  22683644.560    94344153.70505
 15 02 25 11 04 30.0000000  0 17G02G05G06G07G09G10G20G23G30R01R07R08
                                R09R10R11R23R24
  21856134.540   114854776.41009  21856131.640    89497223.95748
  24108980.480   126693554.26508  24108982.420    98722254.66347
  21355581.760   112224318.84909  21355585.620    87447523.39048
  20453892.380   107485942.75009  20453891.320    83755280.90649
  21427201.340   112600685.98109  21427202.860    87740789.53148
  20235672.920   106339183.38109  20235672.280    82861702.09048
  20098468.420   105618158.26509  20098466.920    82299857.24949
  23494901.040   123466481.44909  23494900.820    96207620.06946
  21078646.420   110769084.62909  21078649.040    86313604.74448
  21536653.120   115125779.83208  21536659.380    89542304.60106
  22379304.900   119798107.52808  22379310.460    93176303.28407
  19978201.080   106982355.41408  19978203.500    83208505.50008
  22598229.600   120673250.68608  22598234.960    93856974.67104
  19729352.580   105168580.12809  19729360.440    81797829.99607
  20891853.380   111639835.95308  20891860.080    86831058.26906
  23510659.620   125766088.76508  23510670.760    97818070.21705
  22692951.980   121349403.23008  22692955.540    94382881.39005
 15 02 25 11 05  0.0000000  0 17G02G05G06G07G09G10G20G23G30R01R07R08
                                R09R10R11R23R24
  21850126.700   114823205.12109  21850123.840    89472622.93948
  24091139.660   126599800.84308  24091141.580    98649200.14346
  21367422.300   112286539.10709  21367425.540    87496006.62648
  20453273.700   107482691.83509  20453272.620    83752747.73249
  21437020.220   112652284.50509  21437021.760    87780996.12248
  20232255.940   106321227.43009  20232255.340    82847710.43148
  20099915.480   105625762.42009  20099913.980    82305782.53749
  23508872.200   123539899.54509  23508871.900    96264828.83546
  21066034.340   110702807.80609  21066036.860    86261960.51048
  21522422.040   115049706.91209  21522428.360    89483136.81806
  22392184.580   119867052.50508  22392190.540    93229926.99907
  19977746.980   106979924.29708  19977749.500    83206614.61708
  22618696.280   120782541.16708  22618701.880    93941978.18104
  19730427.620   105174310.53309  19730435.540    81802286.97407
  20871154.560   111529228.00208  20871161.100    86745029.99107
  23530813.820   125873899.30008  23530825.240    97901922.60104
  22702377.560   121399806.85006  22702382.300    94422084.11006
 15 02 25 11 05 30.0000000  0 17G02G05G06G07G09G10G20G23G30R01R07R08
                                R09R10R11R23R24
  21844222.920   114792181.19709  21844220.100    89448448.44448
  24073303.600   126506071.87308  24073305.500    98576164.63146
  21379352.120   112349227.86209  21379354.640    87544854.93548
  20452758.080   107479982.58009  20452757.060    83750636.63949
  21446867.740   112704033.38009  21446869.320    87821319.87748
  20228914.100   106303666.27309  20228913.560    82834026.41448
  20101444.560   105633797.31709  20101442.980    82312043.47349
  23522851.280   123613360.42108  23522851.080    96322070.92945
  21053509.660   110636989.46709  21053512.020    86210673.53748
  21508202.920   114973697.91908  21508209.260    89424018.75606
  22405107.640   119936230.76108  22405113.760    93283732.13707
  19977347.200   106977783.30509  19977349.680    83204949.38908
  22639240.400   120892245.15208  22639245.920    94027303.34404
  19731659.440   105180876.08609  19731667.240    81807393.52607
  20850544.320   111419093.52408  20850550.880    86659369.97607
  23550984.720   125981797.76108  23550996.180    97985843.44005
  22711916.820   121450815.96608  22711921.460    94461757.73205
 15 02 25 11 06  0.0000000  0 17G02G05G06G07G09G10G20G23G30R01R07R08
                                R09R10R11R23R24
  21838424.560   114761710.93509  21838421.740    89424705.36548
  24055473.460   126412374.24408  24055475.560    98503153.57946
  21391371.500   112412388.12109  21391373.580    87594070.63748
  20452346.420   107477819.78109  20452345.520    83748951.34349
  21456744.780   112755937.17109  21456746.380    87861764.34948
  20225648.740   106286506.84509  20225648.240    82820655.42848
  20103056.740   105642268.78109  20103055.080    82318644.58749
  23536839.400   123686868.86408  23536839.440    96379350.07546
  21041073.540   110571636.69209  21041075.800    86159749.34248
  21493997.120   114897759.88609  21494003.460    89364955.88806
  22418075.460   120005648.31608  22418081.220    93337723.39607
  19977002.940   106975939.12909  19977005.360    83203515.01508
  22659862.120   121002363.76208  22659867.520    94112951.01504
  19733048.880   105188281.50909  19733056.480    81813153.31807
  20830024.420   111309441.98208  20830031.120    86574085.58507
  23571172.280   126089785.36408  23571183.780    98069833.56405
  22721569.360   121502433.09007  22721573.620    94501904.36105
 15 02 25 11 06 30.0000000  0 17G02G05G06G07G09G10G20G23G30R01R07R08
                                R09R10R11R23R24
  21832730.800   114731789.94609  21832728.000    89401390.28948
  24037648.540   126318703.72508  24037650.400    98430163.60146
  21403478.880   112476011.92009  21403480.820    87643647.54648
  20452037.720   107476197.75409  20452036.880    83747687.42349
  21466650.080   112807989.41609  21466651.660    87902324.49148
  20222459.060   106269744.86909  20222458.580    82807594.14048
  20104751.100   105651172.30009  20104749.400    82325582.35849
  23550835.600   123760418.87908  23550835.840    96436661.61146
  21028725.220   110506745.66209  21028727.460    86109184.94649
  21479803.760   114821888.22709  21479810.080    89305944.62606
  22431087.060   120075299.45008  22431092.680    93391896.30607
  19976713.320   106974387.78009  19976715.700    83202308.38908
  22680559.700   121112887.36408  22680565.060    94198913.64404
  19734594.680   105196520.51209  19734602.180    81819561.42307
  20809594.580   111200271.84608  20809601.380    86489175.60807
  23591374.200   126197851.68507  23591385.740    98153884.90204
  22731334.160   121554648.88808  22731338.480    94542516.56305
 15 02 25 11 07  0.0000000  0 17G02G05G06G07G09G10G20G23G30R01R07R08
                                R09R10R11R23R24
  21827142.400   114702422.76109  21827139.620    89378506.74648
  24019829.580   126225064.93908  24019831.600    98357198.35547
  21415674.380   112540100.49909  21415676.680    87693586.62448
  20451832.620   107475119.54409  20451831.720    83746847.25849
  21476584.160   112860192.84109  21476585.660    87943002.44648
  20219345.880   106253384.91909  20219345.420    82794846.12648
  20106528.400   105660512.22709  20106526.780    82332860.19349
  23564840.400   123834013.64009  23564840.600    96494008.00546
  21016465.600   110442321.64409  21016468.000    86058984.46448
  21465623.740   114746088.11508  21465630.060    89246989.03406
  22444142.780   120145187.89408  22444148.340    93446253.80207
  19976479.320   106973134.58109  19976481.580    83201333.66008
  22701333.200   121223815.26908  22701338.580    94285190.73604
  19736297.480   105205596.12609  19736304.840    81826620.24807
  20789256.420   111091591.04908  20789263.060    86404646.20906
  23611590.660   126305996.02007  23611602.120    98237996.94004
  22741210.980   121607463.93508  22741214.940    94583594.83705
 15 02 25 11 07 30.0000000  0 16G02G05G06G07G09G10G20G23G30R01R07R08
                                R09R10R11R24
  21821659.680   114673611.02809  21821656.920    89356056.03748
  24002017.100   126131460.52408  24002019.180    98284259.93946
  21427957.700   112604652.12209  21427960.760    87743886.52148
  20451731.040   107474585.28309  20451730.060    83746430.94949
  21486546.880   112912547.26509  21486548.420    87983798.05948
  20216309.500   106237428.91809  20216309.080    82782412.87948
  20108388.940   105670289.53609  20108387.380    82340478.84449
  23578853.760   123907653.51408  23578853.940    96551389.58346
  21004295.260   110378366.99809  21004297.860    86009149.73049
  21451457.420   114670361.41909  21451463.820    89188090.54706
  22457243.000   120215314.76208  22457248.880    93500796.72507
  19976301.360   106972181.24109  19976303.540    83200592.15508
  22722181.780   121335143.99008  22722187.160    94371779.58504
  19738157.140   105215507.98709  19738164.300    81834329.48207
  20769010.600   110983403.71508  20769017.080    86320500.62807
  22751199.220   121660875.47408  22751202.940    94625137.01005
 15 02 25 11 08  0.0000000  0 16G02G05G06G07G09G10G20G23G30R01R07R08
                                R09R10R11R24
  21816282.180   114645352.21109  21816279.520    89334036.16948
  23984210.920   126037888.65808  23984213.000    98211346.86747
  21440327.940   112669660.91809  21440331.860    87794542.68248
  20451732.220   107474591.21609  20451731.200    83746435.57049
  21496537.460   112965048.50009  21496539.080    88024708.08548
  20213349.620   106221874.84609  20213349.240    82770292.83348
  20110332.320   105680501.72509  20110330.760    82348436.37249
  23592874.920   123981334.80008  23592875.380    96608803.38646
  20992213.980   110314880.03109  20992216.660    85959679.41248
  21437304.540   114594706.09009  21437310.880    89129247.55806
  22470387.400   120285676.95808  22470393.560    93555522.76108
  19976179.180   106971525.94509  19976181.180    83200082.46108
  22743103.820   121446866.00108  22743109.220    94458674.33704
  19740172.940   105226252.49609  19740179.900    81842686.34307
  20748857.280   110875711.29308  20748863.720    86236739.97107
  22761297.900   121714876.67308  22761302.020    94667137.88206
 15 02 25 11 08 30.0000000  0 16G02G05G06G07G09G10G20G23G30R01R07R08
                                R09R10R11R24
  21811009.980   114617646.42909  21811007.440    89312447.23648
  23966411.080   125944349.99108  23966413.020    98138459.66146
  21452784.720   112735123.90609  21452789.340    87845552.74448
  20451835.900   107475135.87909  20451834.820    83746859.99149
  21506555.680   113017695.02509  21506557.380    88065731.30548
  20210466.340   106206723.06009  20210465.960    82758486.25548
  20112358.420   105691148.72709  20112356.840    82356732.71649
  23606903.680   124055055.96609  23606904.240    96666248.31146
  20980222.040   110251861.74609  20980224.700    85910574.29749
  21423165.260   114519123.29709  21423171.540    89070460.97706
  22483575.620   120356273.81508  22483582.120    93610431.25507
  19976112.780   106971169.62609  19976114.700    83199805.30808
  22764098.480   121558976.37908  22764103.880    94545871.12104
  19742344.480   105237827.78409  19742351.400    81851689.35907
  20728797.020   110768516.67308  20728803.520    86153366.49507
  22771506.000   121769463.15808  22771510.320    94709593.98905
 15 02 25 11 09  0.0000000  0 16G02G05G06G07G09G10G20G23G30R01R07R08
                                R09R10R11R24
  21805843.540   114590496.18609  21805840.980    89291291.18648
  23948618.220   125850847.53408  23948619.740    98065600.63046
  21465327.980   112801039.94209  21465332.900    87896915.81948
  20452042.280   107476220.37909  20452041.200    83747705.04849
  21516601.640   113070487.38509  21516603.460    88106868.16848
  20207660.200   106191976.07709  20207659.720    82746995.10248
  20114467.620   105702232.57909  20114466.040    82365369.46049
  23620940.360   124128818.23209  23620940.880    96723725.26246
  20968319.940   110189315.14209  20968322.460    85861836.72049
  21409040.000   114443615.44109  21409046.200    89011732.67206
  22496808.060   120427107.15808  22496814.700    93665523.64508
  19976102.560   106971114.93009  19976104.540    83199762.76308
  22785165.400   121671472.17408  22785170.860    94633367.69704
  19744671.900   105250234.45309  19744678.900    81861338.98807
  20708831.020   110661825.51808  20708837.600    86070384.60807
  22781823.020   121824633.11408  22781827.420    94752503.81405
 15 02 25 11 09 30.0000000  0 16G02G05G06G07G09G10G20G23G30R01R07R08
                                R09R10R11R24
  21800783.000   114563902.77409  21800780.380    89270569.03148
  23930832.520   125757383.46708  23930834.120    97992771.61046
  21477957.380   112867407.32709  21477962.280    87948630.59948
  20452351.360   107477844.80009  20452350.380    83748970.83049
  21526675.400   113123425.53209  21526677.300    88148118.62548
  20204931.460   106177635.69809  20204930.860    82735820.78248
  20116660.240   105713754.72809  20116658.680    82374347.72449
  23634984.980   124202622.18909  23634985.460    96781234.66146
  20956508.040   110127242.55809  20956510.360    85813468.51449
  21394929.080   114368184.68509  21394935.200    88953064.35306
  22510084.900   120498177.82608  22510091.220    93720800.70607
  19976149.100   106971363.86909  19976151.020    83199956.36308
  22806303.900   121784350.15808  22806309.500    94721161.51804
  19747155.040   105263471.84209  19747162.200    81871634.73907
  20688960.300   110555642.70908  20688966.880    85987798.08707
  22792248.720   121880383.72308  22792252.680    94795865.36805
 15 02 25 11 10  0.0000000  0 16G02G05G06G07G09G10G20G23G30R01R07R08
                                R09R10R11R24
  21795827.940   114537863.78409  21795825.280    89250278.89248
  23913053.940   125663955.73908  23913055.240    97919970.81046
  21490671.860   112934220.20509  21490676.440    88000692.50248
  20452762.460   107480005.07409  20452761.500    83750654.16549
  21536776.180   113176505.29209  21536778.040    88189479.43748
  20202279.640   106163699.71409  20202278.980    82724961.57648
  20118935.740   105725712.36409  20118934.220    82383665.33649
  23649036.800   124276463.74808  23649037.060    96838773.39945
  20944785.940   110065642.25709  20944788.120    85765468.32049
  21380832.260   114292829.65109  21380838.360    88894454.91406
  22523405.360   120569482.79908  22523411.720    93776259.88807
  19976252.100   106971914.87509  19976253.920    83200384.90008
  22827512.500   121897602.72208  22827518.140    94809246.72003
  19749793.340   105277536.08609  19749800.500    81882573.60307
  20669184.820   110449968.50508  20669191.220    85905607.14107
  22802781.760   121936708.15108  22802785.320    94839673.15205
 15 02 25 11 10 30.0000000  0 16G02G05G06G07G09G10G20G23G30R01R07R08
                                R09R10R11R24
  21790979.100   114512383.30209  21790976.520    89230423.96748
  23895282.960   125570569.09508  23895284.220    97847202.10947
  21503471.440   113001479.36009  21503475.520    88053102.15348
  20453276.000   107482703.96909  20453275.120    83752757.18949
  21546904.420   113229729.10609  21546906.200    88230952.49948
  20199705.560   106150172.61209  20199704.860    82714420.97948
  20121294.860   105738109.55509  20121293.420    82393325.46349
  23663096.200   124350345.74708  23663096.540    96896343.59745
  20933154.460   110004519.09509  20933156.760    85717839.92648
  21366750.420   114217554.50609  21366756.500    88835907.60806
  22536770.140   120641025.26408  22536776.520    93831903.81307
  19976412.320   106972772.71509  19976414.100    83201052.07908
  22848791.120   122011228.78708  22848796.580    94897622.45403
  19752587.160   105292429.38509  19752594.440    81894157.27507
  20649505.880   110344810.55008  20649512.180    85823817.71207
  22813421.920   121993606.04008  22813425.940    94883926.93405
 15 02 25 11 11  0.0000000  0 16G02G05G06G07G09G10G20G23G30R01R07R08
                                R09R10R11R24
  21786237.120   114487464.10809  21786234.580    89211006.40148
  23877520.520   125477227.05108  23877522.020    97774468.16346
  21516355.820   113069184.09609  21516359.380    88105859.01348
  20453892.240   107485942.77109  20453891.440    83755280.93149
  21557060.300   113283097.99009  21557062.020    88272538.60248
  20197209.800   106137057.39709  20197209.120    82704201.32848
  20123738.100   105750948.70209  20123736.680    82403329.97149
  23677163.600   124424270.06808  23677163.900    96953946.79445
  20921614.360   109943876.44809  20921616.940    85670585.96648
  21352684.180   114142362.93809  21352690.360    88777425.31606
  22550179.660   120712807.75308  22550186.240    93887734.46307
  19976630.400   106973940.60109  19976632.240    83201960.42308
  22870139.380   122125226.19808  22870144.860    94986287.00204
  19755536.540   105308152.26709  19755544.020    81906386.17707
  20629924.560   110240174.66408  20629930.880    85742434.35707
  22824169.260   122051075.70708  22824173.640    94928625.51805
 15 02 25 11 11 30.0000000  0 16G02G05G06G07G09G10G20G23G30R01R07R08
                                R09R10R11R24
  21781601.300   114463102.84409  21781598.720    89192023.59548
  23859766.120   125383927.36908  23859767.460    97701767.14746
  21529323.660   113137328.03309  21529326.640    88158958.10048
  20454610.460   107489717.11809  20454609.660    83758221.98349
  21567242.900   113336607.32309  21567244.560    88314234.13748
  20194791.960   106124351.48009  20194791.220    82694300.61248
  20126264.760   105764226.12809  20126263.340    82413675.99849
  23691238.160   124498232.27008  23691238.380    97011579.53745
  20910165.300   109883712.02309  20910168.060    85623704.64949
  21338633.180   114067252.55409  21338639.520    88719006.15206
  22563633.180   120784825.76908  22563639.840    93943748.34407
  19976906.000   106975416.22309  19976907.860    83203108.11008
  22891555.560   122239586.64907  22891561.220    95075233.86504
  19758640.600   105324699.57509  19758648.240    81919256.29807
  20610440.900   110136060.61608  20610447.300    85661456.87307
  22835022.040   122109109.82908  22835026.400    94973763.00105
 15 02 25 11 12  0.0000000  0 16G02G05G06G07G09G10G20G23G30R01R07R08
                                R09R10R11R24
  21777072.680   114439305.39409  21777070.180    89173480.12248
  23842020.920   125290676.20009  23842022.340    97629103.99946
  21542375.340   113205913.61909  21542377.920    88212401.33448
  20455431.400   107494031.09009  20455430.600    83761583.52349
  21577452.960   113390261.27209  21577454.680    88356042.36448
  20192453.080   106112060.64109  20192452.320    82684723.32848
  20128875.960   105777947.80809  20128874.480    82424368.19449
  23705320.680   124572236.91408  23705321.280    97069245.32846
  20898808.600   109824032.32409  20898811.380    85577201.03149
  21324598.580   113992229.72109  21324604.860    88660655.08306
  22577132.000   120857085.41308  22577138.960    93999950.08507
  19977240.180   106977205.86209  19977242.120    83204500.04108
  22913039.800   122354311.28707  22913045.660    95164463.95804
  19761900.240   105342075.83409  19761907.840    81932771.16207
  20591056.740   110032477.73208  20591063.240    85580892.50907
  22845980.380   122167709.55107  22845985.580    95019340.45405
 15 02 25 11 12 30.0000000  0 16G02G05G06G07G09G10G20G23G30R01R07R08
                                R09R10R11R24
  21772651.060   114416069.92909  21772648.660    89155374.55748
  23824284.920   125197473.43008  23824286.360    97556478.55446
  21555509.880   113274935.96109  21555512.380    88266184.90048
  20456354.520   107498881.77409  20456353.640    83765363.28149
  21587689.900   113444056.70509  21587691.720    88397960.83848
  20190192.940   106100183.90609  20190192.240    82675468.72648
  20131571.280   105792111.78709  20131569.800    82435405.04049
  23719410.760   124646280.86808  23719411.840    97126941.74245
  20887544.020   109764836.53009  20887546.700    85531074.47349
  21310580.280   113917293.91709  21310586.400    88602371.69806
  22590675.560   120929583.82208  22590682.960    94056337.55807
  19977632.840   106979308.66709  19977634.860    83206135.54208
  22934590.940   122469393.38008  22934596.900    95253972.14704
  19765314.800   105360276.96609  19765322.220    81946927.59707
  20571772.220   109929427.36408  20571778.700    85500742.32607
  22857043.640   122226868.90508  22857048.680    95065353.25806
 15 02 25 11 13  0.0000000  0 16G02G05G06G07G09G10G20G23G30R01R07R08
                                R09R10R11R24
  21768336.000   114393394.03109  21768333.580    89137705.01348
  23806557.680   125104316.77008  23806559.100    97483889.02846
  21568726.160   113344389.15809  21568728.960    88320304.18648
  20457378.980   107504264.97209  20457378.040    83769557.98349
  21597953.040   113497989.53309  21597954.840    88439986.37348
  20188011.120   106088718.99209  20188010.580    82666535.02748
  20134350.280   105806715.34109  20134348.780    82446784.40849
  23733507.900   124720360.93709  23733509.160    97184666.33246
  20876371.140   109706122.82809  20876373.740    85485323.56549
  21296577.780   113842442.66309  21296583.960    88544154.09306
  22604263.140   121002318.16008  22604270.160    94112908.48507
  19978083.620   106981722.68609  19978085.620    83208013.09308
  22956207.720   122584825.21608  22956213.720    95343752.38303
  19768883.300   105379298.57309  19768890.680    81961722.16807
  20552587.500   109826910.11108  20552593.780    85421006.76507
  22868210.460   122286581.16208  22868215.360    95111796.01805
 15 02 25 11 13 30.0000000  0 16G02G05G06G07G09G10G20G23G30R01R07R08
                                R09R10R11R24
  21764128.220   114371281.75309  21764125.860    89120474.65948
  23788840.140   125011211.69508  23788841.760    97411339.75346
  21582024.460   113414274.24809  21582027.780    88374760.02348
  20458505.380   107510183.86809  20458504.400    83774170.11249
  21608242.800   113552062.63409  21608244.700    88482121.21248
  20185908.620   106077670.71609  20185908.180    82657925.97548
  20137213.780   105821762.62009  20137212.220    82458509.54049
  23747612.640   124794480.35909  23747613.960    97242421.55846
  20865290.960   109647896.27909  20865293.400    85439952.25649
  21282592.160   113767681.88008  21282598.440    88486006.83706
  22617895.540   121075291.99307  22617902.040    94169665.79207
  19978593.500   106984453.05709  19978595.460    83210136.69408
  22977889.880   122700606.48507  22977895.920    95433804.37304
  19772606.220   105399142.96509  19772613.480    81977156.69707
  20533503.860   109724933.49208  20533510.100    85341691.72607
  22879480.420   122346846.36008  22879485.000    95158668.83205
 15 02 25 11 14  0.0000000  0 16G02G05G06G07G09G10G20G23G30R01R07R08
                                R09R10R11R24
  21760027.340   114349731.16609  21760025.000    89103681.98348
  23771132.400   124918157.29009  23771134.040    97338829.90347
  21595404.000   113484586.25009  21595407.840    88429548.51348
  20459733.080   107516635.24909  20459732.060    83779197.15849
  21618558.640   113606272.84209  21618560.500    88524362.87948
  20183885.200   106067037.60409  20183884.720    82649640.41248
  20140161.320   105837251.94809  20140159.800    82470579.11949
  23761724.320   124868636.37408  23761725.600    97300205.27546
  20854303.320   109590155.93809  20854305.600    85394959.81449
  21268623.220   113693010.28609  21268629.560    88427928.94706
  22631572.480   121148503.33108  22631578.460    94226607.72306
  19979162.120   106987498.71408  19979164.260    83212505.52208
  22999636.320   122816730.58307  22999642.400    95524122.95204
  19776482.720   105419806.19909  19776489.880    81993228.09107
  20514521.700   109623498.96108  20514527.880    85262798.28907
  22890852.620   122407658.00907  22890855.760    95205966.66705
 15 02 25 11 14 30.0000000  0 16G02G05G06G07G09G10G20G23G30R01R07R08
                                R09R10R11R24
  21756034.560   114328748.40509  21756032.020    89087331.77248
  23753435.540   124825159.96008  23753437.380    97266364.52846
  21608865.360   113555327.64809  21608869.640    88484671.59748
  20461062.880   107523623.35309  20461061.860    83784642.43449
  21628901.460   113660624.49109  21628903.240    88566714.76948
  20181941.960   106056825.78009  20181941.460    82641683.13248
  20143193.960   105853188.77809  20143192.500    82482997.40849
  23775843.740   124942833.78108  23775844.980    97358021.24646
  20843409.420   109532908.43309  20843411.640    85350351.40749
  21254672.360   113618434.77809  21254678.580    88369925.79706
  22645294.620   121221957.35608  22645300.600    94283738.42507
  19979790.860   106990866.64009  19979793.280    83215125.00208
  23021447.080   122933198.22408  23021453.220    95614708.75104
  19780513.560   105441292.44709  19780520.560    82009939.61307
  20495642.800   109522615.52308  20495648.840    85184333.48207
  22902327.440   122469017.80907  22902331.280    95253690.85205
 15 02 25 11 15  0.0000000  0 16G02G05G06G07G09G10G20G23G30R01R07R08
                                R09R10R11R24
  21752148.580   114308327.02209  21752145.860    89071418.99048
  23735748.540   124732214.31909  23735750.180    97193939.45146
  21622406.740   113626488.67209  21622411.220    88540121.66148
  20462493.240   107531140.10109  20462492.360    83790499.63049
  21639269.740   113715109.61309  21639271.420    88609170.66948
  20180077.760   106047029.30109  20180077.240    82634049.51248
  20146310.520   105869566.55309  20146309.040    82495759.29149
  23789969.620   125017064.99009  23789970.680    97415863.59146
  20832608.160   109476147.92809  20832610.440    85306122.48348
  21240738.360   113543949.68509  21240744.540    88311992.97206
  22659060.480   121295646.77408  22659066.780    94341052.25907
  19980478.760   106994550.75009  19980481.280    83217990.39908
  23043320.140   123049998.10008  23043326.140    95705553.01004
  19784697.100   105463592.77109  19784704.140    82027284.29707
  20476866.340   109422279.81309  20476872.260    85106294.69507
  22913902.640   122530914.47208  22913906.260    95301832.65505
 15 02 25 11 15 30.0000000  0 16G02G05G06G07G09G10G20G23G30R01R07R08
                                R09R10R11R24
  21748369.660   114288468.20409  21748366.860    89055944.57848
  23718071.800   124639322.97208  23718073.500    97121556.65447
  21636027.840   113698067.58609  21636032.380    88595897.35748
  20464024.200   107539185.67809  20464023.460    83796768.91349
  21649663.440   113769728.45309  21649665.100    88651730.75448
  20178292.980   106037650.18709  20178292.460    82626741.10648
  20149511.240   105886386.31909  20149509.720    82508865.58349
  23804102.100   125091330.64708  23804102.940    97473732.77246
  20821900.040   109419876.78509  20821902.400    85262274.88049
  21226821.780   113469557.62409  21226828.020    88254132.50906
  22672870.340   121369572.66208  22672877.300    94398549.94507
  19981226.240   106998553.34809  19981228.760    83221103.51708
  23065254.820   123167126.99108  23065260.780    95796653.15104
  19789033.100   105486706.30109  19789040.280    82045261.47107
  20458193.340   109322497.01908  20458199.140    85028685.93607
  22925577.700   122593345.59408  22925581.760    95350390.03605
 15 02 25 11 16  0.0000000  0 16G02G05G06G07G09G10G20G23G30R01R07R08
                                R09R10R11R24
  21744698.600   114269176.17209  21744695.800    89040911.81848
  23700406.500   124546491.31208  23700408.180    97049220.38146
  21649728.800   113770065.42109  21649733.280    88651999.47848
  20465656.400   107547763.22109  20465655.720    83803452.71249
  21660083.060   113824483.87309  21660084.780    88694397.26448
  20176588.540   106028693.09509  20176588.000    82619761.54748
  20152796.940   105903652.58909  20152795.400    82522319.79349
  23818241.680   125165633.92608  23818242.420    97531631.26645
  20811286.080   109364099.99109  20811288.500    85218812.48049
  21212923.560   113395263.80208  21212929.920    88196348.46407
  22686725.480   121443739.11508  22686732.180    94456234.80007
  19982034.260   107002879.83009  19982036.660    83224468.53608
  23087250.940   123284584.35908  23087256.960    95888008.71904
  19793522.120   105510635.82909  19793529.440    82063873.31707
  20439625.000   109223274.25708  20439630.840    84951512.77007
  22937352.360   122656310.85608  22937356.800    95399362.93605
 15 02 25 11 16 30.0000000  0 16G02G05G06G07G09G10G20G23G30R01R07R08
                                R09R10R11R24
  21741135.500   114250451.57209  21741132.680    89026321.20348
  23682752.740   124453720.96808  23682754.340    96976931.87547
  21663509.000   113842479.59409  21663513.320    88708426.01848
  20467389.560   107556871.72109  20467388.980    83810550.23749
  21670528.600   113879375.28809  21670530.320    88737169.73648
  20174964.680   106020159.19309  20174964.040    82613111.74348
  20156167.580   105921365.65309  20156166.140    82536122.15649
  23832388.360   125239974.79008  23832389.300    97589559.03546
  20800766.620   109308819.10409  20800768.960    85175736.49149
  21199043.980   113321070.11209  21199050.500    88138642.28907
  22700625.280   121518145.73908  22700631.880    94514106.38507
  19982902.960   107007531.40109  19982905.220    83228086.38808
  23109307.760   123402366.26408  23109314.060    95979616.70604
  19798163.860   105535379.67709  19798171.280    82083118.51807
  20421162.120   109124615.32009  20421168.060    84874778.13507
  22949226.240   122719806.36608  22949230.360    95448748.17705
 15 02 25 11 17  0.0000000  0 16G02G05G06G07G09G10G20G23G30R01R07R08
                                R09R10R11R24
  21737679.680   114232291.26009  21737676.880    89012170.29248
  23665110.360   124361010.19508  23665112.000    96904689.78446
  21677367.340   113915304.20409  21677371.460    88765172.36548
  20469222.980   107566506.95509  20469222.520    83818058.20349
  21680999.320   113934398.71709  21681001.040    88780045.08148
  20173420.900   106012046.12009  20173420.180    82606789.84848
  20159622.680   105939522.68909  20159621.400    82550270.46549
  23846541.460   125314349.75608  23846542.740    97647513.33946
  20790341.260   109254032.15909  20790343.340    85133045.38949
  21185182.840   113246974.68009  21185189.340    88081012.52407
  22714569.580   121592790.09908  22714576.280    94572162.93907
  19983831.980   107012506.34908  19983834.340    83231955.75908
  23131424.000   123520465.00908  23131430.200    96071471.14004
  19802957.440   105560932.63609  19802964.940    82102993.02707
  20402805.020   109026520.87708  20402810.940    84798482.53407
  22961198.120   122783825.24408  22961202.560    95498540.52505
 15 02 25 11 17 30.0000000  0 16G02G05G06G07G09G10G20G23G30R01R07R08
                                R09R10R11R24
  21734332.080   114214699.91309  21734329.320    88998462.73548
  23647480.420   124268364.26208  23647481.960    96832498.19647
  21691303.960   113988540.21809  21691307.860    88822239.29748
  20471157.260   107576671.81709  20471156.820    83825978.86649
  21691495.660   113989557.06509  21691497.360    88823025.56248
  20171958.060   106004358.50209  20171957.280    82600799.47848
  20163163.100   105958127.82209  20163161.880    82564767.94449
  23860701.600   125388761.93108  23860703.080    97705496.64545
  20780010.780   109199744.10809  20780012.660    85090743.04949
  21171341.220   113172983.11709  21171347.640    88023463.56706
  22728558.860   121667675.38408  22728566.040    94630406.84807
  19984822.280   107017810.06508  19984824.900    83236080.84608
  23153599.500   123638880.38407  23153605.320    96163571.85002
  19807903.340   105587297.31409  19807910.900    82123498.89007
  20384554.940   108928998.36508  20384560.900    84722631.77407
  22973267.880   122848367.46108  22973272.040    95548739.97805
 15 02 25 11 18  0.0000000  0 16G02G05G06G07G09G10G20G23G30R01R07R08
                                R09R10R11R24
  21731091.720   114197671.91409  21731089.020    88985194.16248
  23629861.900   124175778.65608  23629863.600    96760353.65247
  21705317.180   114062178.96209  21705320.820    88879620.05048
  20473191.140   107587359.66609  20473190.560    83834307.06949
  21702016.380   114044843.70609  21702018.120    88866106.00848
  20170575.240   105997091.67409  20170574.480    82595137.00448
  20166787.740   105977175.59409  20166786.540    82579610.34149
  23874867.840   125463205.07609  23874869.000    97763504.15845
  20769774.240   109145950.36009  20769776.060    85048825.88149
  21157518.140   113099090.58909  21157524.580    87965991.62907
  22742591.980   121742795.85508  22742599.780    94688833.63907
  19985873.160   107023437.71008  19985875.860    83240457.87508
  23175832.060   123757602.18106                                
  19813000.060   105614465.82209  19813007.720    82144629.94407
  20366411.400   108832045.25308  20366417.420    84647223.88007
  22985433.640   122913422.94508  22985437.860    95599338.57105
 15 02 25 11 18 30.0000000  0 16G02G05G06G07G09G10G20G23G30R01R07R08
                                R09R10R11R24
  21727960.280   114181216.03309  21727957.600    88972371.38648
  23612256.940   124083264.01408  23612258.520    96688264.40146
  21719408.160   114136226.16909  21719411.540    88937319.09748
  20475325.920   107598577.75009  20475325.260    83843048.43349
  21712562.960   114100266.36009  21712564.880    88909292.43348
  20169274.200   105990254.87809  20169273.500    82589809.61448
  20170498.260   105996674.72309  20170497.120    82594804.43649
  23889041.620   125537687.32908  23889042.480    97821542.14445
  20759633.460   109092660.66109  20759635.320    85007301.48449
  21143715.580   113025307.90509  21143721.960    87908605.13007
  22756670.840   121818159.82608  22756678.240    94747449.94207
  19986986.360   107029399.53909  19986989.120    83245094.83808
  23198122.920   123876634.65608  23198129.360    96348551.59104
  19818248.900   105642444.66709  19818256.520    82166391.25907
  20348376.840   108735674.20908  20348382.940    84572268.70607
  22997696.260   122978996.13908  22997700.420    95650339.84205
