     2.11           OBSERVATION DATA    M                   RINEX VERSION / TYPE
SPIDER V4,0,0,3554                      2015 03 18 02:44    PGM / RUN BY / DATE 
CKTS                                                        MARKER NAME         
CKTS                                                        MARKER NUMBER       
                                                            OBSERVER / AGENCY   
496659              LEICA GRX1200+GNSS  8.10/4.007          REC # / TYPE / VERS 
10321004            LEIAR25         NONE                    ANT # / TYPE        
  5190783.6897   517202.7561  3658836.0979                  APPROX POSITION XYZ 
        0.0720        0.0000        0.0000                  ANTENNA: DELTA H/E/N
     1     1                                                WAVELENGTH FACT L1/2
     4    C1    L1    P2    L2                              # / TYPES OF OBSERV 
    30.000                                                  INTERVAL            
  2015    02    25    00    00    0.0000000     GPS         TIME OF FIRST OBS   
  2015    02    25    23    59   30.0000000     GPS         TIME OF LAST OBS    
    16                                                      LEAP SECONDS        
    54                                                      # OF SATELLITES     
   G 1   819   818   818   818                              PRN / # OF OBS      
   G 2   761   761   759   759                              PRN / # OF OBS      
   G 3   852   852   852   852                              PRN / # OF OBS      
   G 4   842   842   842   842                              PRN / # OF OBS      
   G 5   490   490   490   490                              PRN / # OF OBS      
   G 6   645   645   645   645                              PRN / # OF OBS      
   G 7   665   665   664   664                              PRN / # OF OBS      
   G 9   806   806   806   806                              PRN / # OF OBS      
   G10   640   639   638   638                              PRN / # OF OBS      
   G11   777   777   777   777                              PRN / # OF OBS      
   G12   790   790   789   789                              PRN / # OF OBS      
   G13   778   778   778   778                              PRN / # OF OBS      
   G14   765   765   765   765                              PRN / # OF OBS      
   G15   592   591   591   591                              PRN / # OF OBS      
   G16   554   554   554   554                              PRN / # OF OBS      
   G17   775   774   773   773                              PRN / # OF OBS      
   G18   722   722   722   722                              PRN / # OF OBS      
   G19   666   666   666   666                              PRN / # OF OBS      
   G20   747   746   746   746                              PRN / # OF OBS      
   G21   731   731   731   731                              PRN / # OF OBS      
   G22   659   659   658   658                              PRN / # OF OBS      
   G23   750   749   749   749                              PRN / # OF OBS      
   G24   830   830   829   829                              PRN / # OF OBS      
   G25   855   855   855   855                              PRN / # OF OBS      
   G27   814   814   814   814                              PRN / # OF OBS      
   G28   615   614   613   613                              PRN / # OF OBS      
   G29   737   737   737   737                              PRN / # OF OBS      
   G30   713   713   713   713                              PRN / # OF OBS      
   G31   691   691   691   691                              PRN / # OF OBS      
   G32   765   765   765   765                              PRN / # OF OBS      
   R 1   488   488   487   487                              PRN / # OF OBS      
   R 2   551   551   551   551                              PRN / # OF OBS      
   R 3   797   797   797   797                              PRN / # OF OBS      
   R 4   762   762   761   759                              PRN / # OF OBS      
   R 5   540   540   540   540                              PRN / # OF OBS      
   R 6   688   688   687   687                              PRN / # OF OBS      
   R 7   776   776   776   776                              PRN / # OF OBS      
   R 8   767   767   767   766                              PRN / # OF OBS      
   R 9   799   799   794   793                              PRN / # OF OBS      
   R10   517   517   511   511                              PRN / # OF OBS      
   R11   530   530   522   522                              PRN / # OF OBS      
   R12   679   679   679   679                              PRN / # OF OBS      
   R13   776   776   775   775                              PRN / # OF OBS      
   R14   766   766   766   766                              PRN / # OF OBS      
   R15   599   599   599   599                              PRN / # OF OBS      
   R16   806   806   805   805                              PRN / # OF OBS      
   R17   613   613   613   613                              PRN / # OF OBS      
   R18   939   939   939   938                              PRN / # OF OBS      
   R19   993   993   993   993                              PRN / # OF OBS      
   R20   582   582   582   582                              PRN / # OF OBS      
   R21   365   365   365   361                              PRN / # OF OBS      
   R22   617   617   616   615                              PRN / # OF OBS      
   R23   656   656   651   651                              PRN / # OF OBS      
   R24   494   494   490   490                              PRN / # OF OBS      
BIT 2 OF LLI FLAGS DATA COLLECTED UNDER A/S CONDITION       COMMENT             
SNR is mapped to RINEX snr flag value [2-9]                 COMMENT             
Lx:     = 25dBHz -> 1; 26-27dBHz -> 2; 28-31dBHz -> 3       COMMENT             
       32-35dBHz -> 4; 36-38dBHz -> 5; 39-41dBHz -> 6       COMMENT             
       42-44dBHz -> 7; 45-48dBHz -> 8; >=49dBHz -> 9        COMMENT             
                                                            END OF HEADER       
 15 02 25 00 00  0.0000000  0  8G16G18G21G22G25G27G29G31
  22085276.720   116058913.97609  22085272.900    90435500.41947
  22785745.060   119739973.70409  22785741.660    93303895.37146
  21122620.460   111000122.33709  21122616.180    86493586.69948
  24291366.200   127652022.32608  24291365.500    99469119.58345
  24490604.480   128698976.65508  24490605.460   100284910.57845
  23273432.960   122302731.34008  23273432.480    95300834.07347
  23546030.940   123735214.51708  23546029.000    96417034.95046
  22563912.820   118574153.45509  22563909.600    92395425.98448
 15 02 25 00 00 30.0000000  0  8G16G18G21G22G25G27G29G31
  22070556.860   115981560.82109  22070553.020    90375225.22947
  22773075.280   119673393.11709  22773071.820    93252014.41746
  21128335.580   111030155.47409  21128331.300    86516989.13348
  24273496.160   127558117.22008  24273495.360    99395947.31045
  24509416.600   128797834.47108  24509417.860   100361942.49145
  23260631.440   122235458.36008  23260630.740    95248413.58947
  23559717.720   123807137.83108  23559715.340    96473079.09146
  22580057.900   118658996.73109  22580054.740    92461537.60547
 15 02 25 00 01  0.0000000  0  8G16G18G21G22G25G27G29G31
  22055879.580   115904431.98209  22055875.960    90315124.84147
  22760453.740   119607066.59209  22760450.420    93200331.45646
  21134120.840   111060557.54408  21134116.620    86540679.04948
  24255619.020   127464174.54808  24255618.060    99322745.71945
  24528260.400   128896858.65408  24528261.720   100439104.05145
  23247849.200   122168287.74508  23247848.800    95196072.86147
  23573411.580   123879100.00508  23573408.700    96529153.51346
  22596251.980   118744097.53209  22596248.840    92527849.88748
 15 02 25 00 01 30.0000000  0  8G16G18G21G22G25G27G29G31
  22041243.360   115827518.82609  22041239.940    90255192.54147
  22747878.860   119540985.62209  22747875.600    93148839.81946
  21139973.880   111091315.41908  21139969.680    86564646.25748
  24237733.240   127370185.75308  24237731.960    99249508.17444
  24547133.380   128996036.62608  24547134.940   100516385.46545
  23235084.280   122101208.19708  23235084.140    95143803.13047
  23587110.740   123951089.98208  23587107.800    96585249.52046
  22612492.480   118829441.87309  22612489.360    92594351.95447
 15 02 25 00 02  0.0000000  0  8G16G18G21G22G25G27G29G31
  22026648.340   115750821.81709  22026645.020    90195428.65447
  22735350.880   119475151.46308  22735347.640    93097540.49746
  21145894.140   111122426.33708  21145889.880    86588888.50348
  24219838.940   127276151.70208  24219837.340    99176235.31545
  24566035.200   129095365.36208  24566036.580   100593784.32245
  23222336.460   122034218.14608  23222336.460    95091603.13747
  23600814.960   124023105.82108  23600812.380    96641365.70946
  22628778.420   118915024.84409  22628775.360    92661039.95347
 15 02 25 00 02 30.0000000  0  8G16G18G21G22G25G27G29G31
  22012095.620   115674346.58909  22012092.100    90135837.52847
  22722871.020   119409570.01509  22722867.780    93046438.09146
  21151881.880   111153892.07408  21151877.660    86613407.28348
  24201937.140   127182078.58708  24201935.420    99102932.03245
  24584966.220   129194846.99108  24584967.200   100671302.31545
  23209606.520   121967321.07409  23209606.340    95039475.55147
  23614524.560   124095151.04608  23614521.940    96697504.80146
  22645109.960   119000847.09609  22645106.880    92727914.39248
 15 02 25 00 03  0.0000000  0  8G16G18G21G22G25G27G29G31
  21997585.400   115598094.69809  21997581.940    90076420.48247
  22710439.720   119344243.34509  22710436.540    92995534.22746
  21157936.780   111185710.66708  21157932.580    86638200.99648
  24184028.160   127087968.07008  24184026.460    99029599.59546
  24603925.980   129294479.65208  24603926.840   100748937.96844
  23196894.320   121900516.41208  23196893.420    94987419.96447
  23628239.820   124167224.91108  23628236.900    96753666.22346
  22661486.420   119086905.40109  22661483.340    92794972.79748
 15 02 25 00 03 30.0000000  0  8G16G18G21G22G25G27G29G31
  21983118.260   115522069.73409  21983114.720    90017180.26547
  22698057.660   119279174.75009  22698054.540    92944831.45446
  21164058.720   111217881.52109  21164054.440    86663269.18848
  24166112.740   126993824.16208  24166111.080    98956241.16945
  24622914.500   129394263.10107  24622914.720   100826691.20944
  23184199.600   121833805.24208  23184198.700    94935437.29647
  23641960.760   124239328.36708  23641958.200    96809850.66946
  22677907.380   119173197.93409  22677904.240    92862213.69947
 15 02 25 00 04  0.0000000  0  8G16G18G21G22G25G27G29G31
  21968694.920   115446273.87209  21968691.280    89958118.55547
  22685725.280   119214366.97809  22685721.980    92894331.90946
  21170247.380   111250403.34308  21170243.080    86688610.86848
  24148191.380   126899649.59108  24148189.820    98882858.80445
  24641931.220   129494196.08208  24641930.940   100904560.84544
  23171522.680   121767187.74109  23171521.780    94883527.57147
  23655687.460   124311461.56408  23655685.160    96866058.27346
  22694372.380   119259721.99309  22694369.160    92929635.00347
 15 02 25 00 04 30.0000000  0  8G16G18G21G22G25G27G29G31
  21954315.180   115370707.26909  21954311.320    89899235.48347
  22673442.640   119149820.93209  22673439.160    92844036.30846
  21176502.180   111283272.89708  21176497.900    86714223.52348
  24130264.400   126805444.70408  24130262.700    98809452.78545
  24660975.660   129594275.01407  24660975.280   100982544.28345
  23158863.320   121700661.76409  23158862.360    94831689.16547
  23669419.460   124383622.74709  23669416.300    96922287.80546
  22710880.500   119346472.65709  22710877.200    92997232.90247
 15 02 25 00 05  0.0000000  0  8G16G18G21G22G25G27G29G31
  21939979.800   115295373.93609  21939975.820    89840534.19347
  22661210.500   119085540.45809  22661206.900    92793947.64746
  21182823.120   111316489.71308  21182818.840    86740106.72648
  24112332.500   126711213.48908  24112330.720    98736026.27445
  24680048.140   129694500.21907  24680048.080   101060641.67245
  23146221.520   121634229.00808  23146220.380    94779923.37447
  23683156.880   124455813.39008  23683153.880    96978540.19746
  22727431.400   119433448.43409  22727428.080    93065006.19447
 15 02 25 00 05 30.0000000  0  8G16G18G21G22G25G27G29G31
  21925689.560   115220278.56209  21925685.580    89782018.34447
  22649029.800   119021530.74709  22649026.380    92744069.97946
  21189210.340   111350054.72808  21189206.000    86766261.30848
  24094396.740   126616961.47908  24094394.780    98662583.48345
  24699148.460   129794872.83108  24699148.500   101138853.90645
  23133597.720   121567891.95508  23133596.700    94728232.20247
  23696900.220   124528035.65908  23696897.400    97034817.21046
  22744025.100   119520648.83709  22744021.680    93132954.54247
 15 02 25 00 06  0.0000000  0  8G16G18G21G22G25G27G29G31
  21911443.740   115145415.88209  21911439.360    89723683.77347
  22636899.560   118957786.85409  22636896.460    92694399.45246
  21195662.220   111383959.19209  21195657.800    86792680.37548
  24076455.960   126522683.69408  24076453.960    98589120.64145
  24718275.060   129895383.91407  24718275.660   101217174.00945
  23120991.080   121501643.27309  23120990.200    94676609.89447
  23710648.160   124600282.29408  23710645.700    97091113.27146
  22760659.740   119608063.90609  22760656.100    93201070.15347
 15 02 25 00 06 30.0000000  0  8G16G18G21G22G25G27G29G31
  21897243.420   115070792.85409  21897239.220    89665535.98247
  22624821.320   118894315.73709  22624818.380    92644941.45946
  21202179.200   111418205.88009  21202174.680    86819366.06548
  24058511.580   126428387.26408  24058509.600    98515643.26145
  24737428.520   129996036.60307  24737429.520   101295604.47645
  23108402.140   121435487.25608  23108401.440    94625059.78547
  23724401.880   124672557.70608  23724399.320    97147431.76946
  22777335.520   119695695.06209  22777331.780    93269354.14847
 15 02 25 00 07  0.0000000  0  8G16G18G21G22G25G27G29G31
  21883089.700   114996415.03709  21883085.720    89607579.26447
  22612796.280   118831124.03009  22612793.200    92595701.18546
  21208761.780   111452797.54009  21208757.300    86846320.61948
  24040564.980   126334078.62408  24040562.980    98442156.31445
  24756609.320   130096833.44707  24756611.020   101374147.24145
  23095831.440   121369427.95508  23095830.600    94573585.03847
  23738161.640   124744865.84008  23738159.640    97203775.67247
  22794052.540   119783543.23809  22794048.920    93337807.22347
 15 02 25 00 07 30.0000000  0  8G16G18G21G22G25G27G29G31
  21868981.380   114922275.88209  21868977.860    89549808.54347
  22600822.920   118768204.33209  22600819.760    92546672.87946
  21215407.780   111487722.58708  21215403.400    86873534.95848
  24022614.820   126239750.89508  24022612.740    98368654.51345
  24775815.780   130197763.44707  24775817.460   101452793.80945
  23083277.320   121303455.93508  23083276.080    94522178.28447
  23751925.800   124817197.36008  23751923.660    97260137.84646
  22810808.500   119871596.10509  22810805.100    93406419.81447
 15 02 25 00 08  0.0000000  0  8G16G18G21G22G25G27G29G31
  21854920.240   114848383.61509  21854916.460    89492230.11848
  22588903.140   118705565.46309  22588899.900    92497863.38346
  21222118.140   111522985.88008  21222113.800    86901012.84048
  24004662.740   126145412.77708  24004660.520    98295144.60545
  24795048.560   130298831.38708  24795050.600   101531547.79244
  23070741.120   121237577.36308  23070739.720    94470844.30447
  23765695.620   124889558.28408  23765693.080    97316522.94445
  22827604.040   119959857.04809  22827600.780    93475194.54247
 15 02 25 00 08 30.0000000  0  8G16G18G21G22G25G27G29G31
  21840906.480   114774740.18609  21840902.580    89434845.62448
  22577037.320   118643209.51709  22577034.080    92449274.35846
  21228892.540   111558585.35608  21228888.220    86928752.74148
  23986709.280   126051067.00508  23986706.840    98221628.71145
  24814307.280   130400035.73707  24814309.300   101610408.10745
  23058222.700   121171792.15108  23058221.380    94419583.13847
  23779470.960   124961948.07908  23779468.280    97372930.55246
  22844438.540   120048322.81109  22844435.340    93544128.89147
 15 02 25 00 09  0.0000000  0  7G16G18G21G22G27G29G31
  21826940.740   114701349.25209  21826936.640    89377657.89148
  22565225.980   118581140.51109  22565222.900    92400908.94146
  21235730.820   111594520.71009  21235726.480    86956754.26648
  23968755.000   125956716.93708  23968752.180    98148109.45446
  23045721.920   121106101.15508  23045720.820    94368395.41247
  23793251.900   125034368.13008  23793249.920    97429361.69446
  22861311.660   120136991.44009  22861308.400    93613221.29847
 15 02 25 00 09 30.0000000  0  7G16G18G21G22G27G29G31
  21813022.860   114628209.38909  21813018.580    89320665.76848
  22553468.880   118519357.23009  22553465.900    92352766.12846
  21242632.100   111630787.01009  21242627.700    86985013.70248
  23950799.640   125862361.72408  23950796.640    98074586.22545
  23033238.600   121040501.16008  23033237.140    94317278.50247
  23807037.900   125106815.00308  23807036.640    97485813.74346
  22878222.220   120225856.76209  22878218.860    93682466.95447
 15 02 25 00 10  0.0000000  0  7G16G18G21G22G27G29G31
  21799152.920   114555321.89209  21799148.380    89263870.31047
  22541766.580   118457861.74109  22541763.580    92304847.59246
  21249595.840   111667381.49009  21249591.380    87013528.90048
  23932843.640   125768003.54708  23932840.520    98001060.64745
  23020772.480   120974991.20409  23020771.000    94266231.77747
  23820829.220   125179287.89309  23820827.780    97542286.11746
  22895169.460   120314914.96409  22895165.960    93751862.92847
 15 02 25 00 10 30.0000000  0  7G16G18G21G22G27G29G31
  21785331.800   114482691.66609  21785327.420    89207275.37247
  22530120.040   118396658.82609  22530116.900    92257157.01946
  21256622.180   111704305.18508  21256617.700    87042300.61648
  23914887.980   125673647.34608  23914884.780    97927536.59746
  23008324.100   120909573.95608  23008322.880    94215257.34147
  23834625.840   125251788.87708  23834623.960    97598780.36346
  22912153.340   120404165.81209  22912149.760    93821409.00347
 15 02 25 00 11  0.0000000  0  7G16G18G21G22G27G29G31
  21771560.520   114410323.50109  21771556.460    89150884.61048
  22518530.040   118335752.97509  22518526.780    92209697.94146
  21263711.220   111741558.95408  21263706.900    87071329.50948
  23896933.680   125579298.21108  23896930.480    97854018.07146
  22995893.800   120844251.83409  22995893.060    94164357.03347
  23848428.220   125324320.98408  23848426.300    97655298.81046
  22929173.780   120493608.62509  22929170.120    93891104.66747
 15 02 25 00 11 30.0000000  0  7G16G18G21G22G27G29G31
  21757838.720   114338215.93209  21757834.880    89094696.90648
  22506996.360   118275143.14109  22506993.120    92162469.51946
  21270862.040   111779137.46008  21270857.860    87100611.48848
  23878980.560   125484955.18708  23878977.280    97780504.27646
  22983480.900   120779021.32009  22983479.820    94113528.03947
  23862235.660   125396880.45908  23862234.120    97711838.62446
  22946229.520   120583236.90709  22946225.800    93960944.86347
 15 02 25 00 12  0.0000000  0  7G16G18G21G22G27G29G31
  21744167.680   114266375.05709  21744164.020    89038717.02448
  22495520.380   118214835.90709  22495517.080    92115476.89847
  21278075.200   111817043.18708  21278071.020    87130148.40248
  23861029.660   125390624.24208  23861026.520    97706999.89346
  22971085.960   120713886.10108  22971084.460    94062773.35447
  23876048.940   125469471.18008  23876047.820    97768402.73346
  22963320.700   120673051.59109  22963316.980    94030930.28747
 15 02 25 00 12 30.0000000  0  7G16G18G21G22G27G29G31
  21730547.060   114194798.17909  21730543.540    88982942.84448
  22484101.520   118154828.46809  22484098.020    92068717.87146
  21285349.300   111855268.83308  21285345.080    87159934.63848
  23843080.740   125296303.84408  23843077.740    97633503.73346
  22958708.160   120648841.17209  22958706.520    94012088.98947
  23889867.520   125542087.79608  23889866.040    97824987.10846
  22980445.740   120763044.23909  22980442.140    94101054.39447
 15 02 25 00 13  0.0000000  0  7G16G18G21G22G27G29G31
  21716976.640   114123484.74409  21716972.700    88927373.90048
  22472739.520   118095120.45809  22472735.860    92022192.14946
  21292683.620   111893810.45609  21292679.340    87189967.03348
  23825133.780   125201993.47508  23825130.840    97560015.39046
  22946347.280   120583883.87809  22946345.760    93961472.93947
  23903690.820   125614727.76008  23903688.940    97881589.69046
  22997603.720   120853209.69609  22997600.160    94171313.14747
 15 02 25 00 13 30.0000000  0  7G16G18G21G22G27G29G31
  21703458.400   114052445.77409  21703454.440    88872018.85548
  22461436.420   118035722.75509  22461432.780    91975908.24746
  21300079.360   111932674.76108  21300075.040    87220250.92848
  23807190.960   125107704.23908  23807187.820    97486543.46945
  22934004.600   120519022.84908  22934003.760    93910931.91847
  23917519.860   125687399.28008  23917517.980    97938216.78146
  23014795.680   120943553.58009  23014792.100    94241710.93547
 15 02 25 00 14  0.0000000  0  7G16G18G21G22G27G29G31
  21689992.100   113981680.32109  21689988.240    88816876.96448
  22450192.240   117976634.78409  22450188.780    91929865.69546
  21307535.620   111971857.10708  21307531.180    87250782.64048
  23789252.180   125013435.69008  23789248.680    97413087.67946
  22921679.560   120454255.04108  22921678.760    93860463.49847
  23931354.360   125760100.05308  23931352.520    97994866.69746
  23032020.400   121034069.55309  23032016.800    94312242.81747
 15 02 25 00 14 30.0000000  0  7G16G18G21G22G27G29G31
  21676577.880   113911187.73509  21676573.760    88761947.66648
  22439007.000   117917856.08809  22439003.540    91884064.13447
  21315051.440   112011352.97909  21315047.100    87281558.61548
  23771317.400   124919188.08108  23771313.700    97339648.20246
  22909371.660   120389577.62008  22909370.860    93810065.50847
  23945194.020   125832826.65408  23945192.160    98051536.74546
  23049276.700   121124751.83009  23049273.140    94382904.28347
 15 02 25 00 15  0.0000000  0 14G16G18G21G22G27G29G31R02R03R15R16R17
                                R18R19
  21663216.340   113840972.59709  21663212.420    88707234.59048
  22427881.520   117859390.99609  22427877.960    91838506.93446
  21322626.960   112051162.65808  21322622.680    87312579.13648
  23753387.420   124824965.75008  23753383.620    97266228.40646
  22897081.460   120324992.78508  22897081.020    93759739.69347
  23959039.040   125905581.41408  23959037.100    98108228.73746
  23066564.540   121215599.84509  23066561.080    94453694.90347
  22434600.580   119715345.87808  22434605.740    93111953.26607
  22881623.300   122487134.18607  22881624.060    95267775.71007
  21607506.000   115463947.00708  21607509.200    89805301.75907
  19794311.980   105737670.29508  19794314.240    82240410.04108
  21932376.160   117364560.18908  21932373.720    91283547.22207
  20040820.240   106979263.77809  20040821.660    83206105.78708
  22430242.480   119986685.58108  22430240.740    93322979.49707
 15 02 25 00 15 30.0000000  0 14G16G18G21G22G27G29G31R02R03R15R16R17
                                R18R19
  21649908.240   113771038.81909  21649904.580    88652740.81548
  22416816.520   117801243.84509  22416813.000    91793197.47047
  21330262.240   112091286.34109  21330258.060    87343844.33348
  23735462.980   124730773.05408  23735459.200    97192831.71546
  22884809.220   120260502.20908  22884808.860    93709487.34747
  23972889.580   125978366.21108  23972887.640    98164944.08246
  23083883.640   121306612.51409  23083880.300    94524613.80047
  22430141.800   119691554.16308  22430147.440    93093448.67808
  22862733.340   122386015.62108  22862733.540    95189127.97606
  21630198.940   115585211.39808  21630202.380    89899618.45008
  19795488.960   105743957.31309  19795491.220    82245299.94808
  21946236.480   117438730.43108  21946233.920    91341235.14207
  20043192.300   106991926.39009  20043192.800    83215954.47308
  22418174.060   119922129.22908  22418173.260    93272769.07508
 15 02 25 00 16  0.0000000  0 14G16G18G21G22G27G29G31R02R03R15R16R17
                                R18R19
  21636654.900   113701391.85309  21636651.140    88598470.39848
  22405813.020   117743420.06509  22405809.580    91748140.01346
  21337957.620   112131725.59108  21337953.420    87375355.47148
  23717545.360   124636616.04308  23717541.580    97119462.82646
  22872555.640   120196109.05908  22872554.940    93659310.88747
  23986745.960   126051184.07908  23986743.700    98221685.30645
  23101234.060   121397789.56509  23101230.700    94595660.81647
  22425813.680   119668460.50308  22425819.600    93075486.89007
  22843886.460   122285127.84107  22843886.780    95110659.76306
  21652954.340   115706809.37008  21652957.960    89994194.59407
  19796825.300   105751095.83108  19796827.480    82250852.09308
  21960100.220   117512919.37508  21960097.980    91398937.60007
  20045609.020   107004826.82209  20045609.760    83225988.10808
  22406145.080   119857784.48508  22406145.660    93222723.20507
 15 02 25 00 16 30.0000000  0 14G16G18G21G22G27G29G31R02R03R15R16R17
                                R18R19
  21623453.640   113632017.78609  21623449.520    88544412.66347
  22394868.460   117685905.87509  22394864.940    91703323.76347
  21345709.500   112172462.25308  21345705.360    87407098.30148
  23699631.980   124542481.30008  23699628.180    97046111.26546
  22860317.560   120131797.38408  22860316.720    93609197.89347
  24000606.180   126124018.89209  24000603.040    98278439.66745
  23118612.200   121489112.15009  23118608.780    94666821.24547
  22421614.360   119646050.18709  22421619.420    93058056.64207
  22825080.620   122184459.29107  22825081.400    95032362.05207
  21675768.380   115828720.88608  21675772.100    90089014.59107
  19798318.140   105759069.31009  19798320.220    82257053.69608
  21973964.140   117587110.39808  21973961.760    91456641.72706
  20048067.020   107017947.50709  20048067.840    83236193.10408
  22394152.700   119793634.68908  22394153.560    93172828.92107
 15 02 25 00 17  0.0000000  0 14G16G18G21G22G27G29G31R02R03R15R16R17
                                R18R19
  21610307.160   113562932.55709  21610303.140    88490580.05048
  22383985.780   117628717.16609  22383982.280    91658761.13947
  21353520.240   112213508.41008  21353516.080    87439082.31848
  23681725.940   124448385.08208  23681722.160    96972789.70446
  22848097.720   120067580.86308  22848096.580    93559159.04647
  24014472.340   126196884.35408  24014468.720    98335217.94745
  23136020.080   121580591.11409  23136016.760    94738103.49547
  22417546.440   119624338.75208  22417550.420    93041170.00207
  22806319.200   122084028.23808  22806320.000    94954249.05607
  21698642.900   115950955.41208  21698646.640    90184085.86207
  19799969.780   105767891.13209  19799971.700    82263915.10008
  21987831.120   117661316.37808  21987829.280    91514357.48907
  20050568.560   107031300.95609  20050569.680    83246579.12908
  22382199.160   119729693.04908  22382200.420    93123096.61407
 15 02 25 00 17 30.0000000  0 14G16G18G21G22G27G29G31R02R03R15R16R17
                                R18R19
  21597216.560   113494140.60609  21597212.540    88436975.92648
  22373165.640   117571858.13609  22373162.380    91614455.42947
  21361390.060   112254864.71209  21361385.900    87471308.00548
  23663828.080   124354331.99908  23663824.300    96899501.78846
  22835896.180   120003461.50108  22835895.320    93509195.93947
  24028344.240   126269782.51408  24028341.240    98392021.64446
  23153457.560   121672225.32909  23153454.400    94809506.70947
  22413610.440   119603330.76609  22413613.200    93024830.47407
  22787603.360   121983841.28507  22787603.920    94876325.91606
  21721577.460   116073510.49908  21721581.100    90279406.45007
  19801780.400   105777563.05608  19801782.340    82271437.66008
  22001701.340   117735538.40808  22001700.360    91572085.71607
  20053113.860   107044887.81709  20053115.660    83257146.69408
  22370284.960   119665961.17709  22370285.200    93073527.39707
 15 02 25 00 18  0.0000000  0 14G16G18G21G22G27G29G31R02R03R15R16R17
                                R18R19
  21584181.160   113425639.26109  21584177.060    88383598.25348
  22362407.780   117515326.14109  22362404.740    91570404.54247
  21369317.620   112296524.30809  21369313.480    87503769.99748
  23645937.900   124260319.56708  23645934.180    96826245.52846
  22823712.200   119939434.22708  22823711.120    93459304.54947
  24042221.480   126342708.27508  24042219.240    98448846.86246
  23170923.060   121764006.85209  23170920.040    94881024.73547
  22409805.500   119583022.46709  22409807.580    93009035.16107
  22768933.080   121883897.77108  22768933.780    94798592.11407
  21744570.140   116196376.05908  21744573.760    90374968.50007
  19803749.100   105788079.46908  19803751.000    82279617.09508
  22015573.060   117809770.74308  22015572.900    91629821.89907
  20055701.680   107058701.50909  20055704.080    83267890.67408
  22358409.380   119602433.33109  22358408.660    93024116.85407
 15 02 25 00 18 30.0000000  0 14G16G18G21G22G27G29G31R02R03R15R16R17
                                R18R19
  21571202.260   113357434.88909  21571198.440    88330452.02548
  22351713.620   117459127.59609  22351710.500    91526613.48647
  21377303.520   112338489.83609  21377299.320    87536470.42748
  23628056.800   124166354.83508  23628053.120    96753026.42246
  22811546.660   119875503.54709  22811545.300    93409488.42647
  24056104.640   126415666.02408  24056102.980    98505697.01946
  23188416.820   121855936.95809  23188413.860    94952658.51447
  22406132.320   119563420.21509  22406133.740    92993789.01507
  22750309.940   121784206.65608  22750310.580    94721054.61507
  21767621.120   116319553.13108  21767624.640    90470772.83707
  19805876.580   105799444.24808  19805878.600    82288456.36108
  22029447.740   117884016.75208  22029447.860    91687568.81407
  20058332.600   107072744.97109  20058335.000    83278813.36208
  22346572.780   119539113.51308  22346570.840    92974868.08606
 15 02 25 00 19  0.0000000  0 14G16G18G21G22G27G29G31R02R03R15R16R17
                                R18R19
  21558278.320   113289519.62809  21558274.400    88277531.02848
  22341081.700   117403255.50509  22341078.300    91483076.80647
  21385345.360   112380749.74108  21385341.100    87569400.25248
  23610183.540   124072430.80008  23610179.840    96679839.01446
  22799397.540   119811659.69009  22799396.600    93359739.97148
  24069992.480   126488646.17008  24069990.240    98562564.65945
  23205936.460   121948003.09609  23205933.520    95024398.29647
  22402589.660   119544516.00908  22402591.120    92979085.76807
  22731733.020   121684762.55207  22731733.660    94643709.24107
  21790727.820   116443027.84908  21790731.260    90566808.67907
  19808161.000   105811647.29509  19808162.980    82297947.62408
  22043322.820   117958266.23908  22043323.320    91745318.32107
  20061004.260   107087007.03409  20061007.080    83289906.04908
  22334772.540   119475991.10608  22334770.160    92925772.88406
 15 02 25 00 19 30.0000000  0 14G16G18G21G22G27G29G31R02R03R15R16R17
                                R18R19
  21545411.200   113221902.57409  21545407.200    88224842.40348
  22330513.440   117347718.38809  22330509.840    91439801.14047
  21393444.020   112423308.81209  21393439.860    87602563.13048
  23592319.800   123978556.47008  23592315.940    96606690.34546
  22787266.220   119747909.03909  22787265.460    93310064.16148
  24083885.840   126561655.19208  24083882.860    98619454.77945
  23223482.560   122040208.32608  23223479.560    95096246.47547
  22399178.980   119526317.84009  22399180.680    92964931.61007
  22713204.200   121585576.45108  22713205.000    94566564.56407
  21813890.540   116566802.11808  21813894.000    90663077.49107
  19810603.440   105824694.28608  19810605.240    82308095.22908
  22057199.880   118032524.61508  22057200.340    91803074.88007
  20063717.920   107101492.73509  20063720.060    83301172.75508
  22323010.360   119413072.06108  22323008.540    92876835.88307
 15 02 25 00 20  0.0000000  0 14G16G18G21G22G27G29G31R02R03R15R16R17
                                R18R19
  21532601.060   113154585.65609  21532597.160    88172387.69248
  22320009.160   117292517.93409  22320005.580    91396787.83747
  21401599.120   112466164.29409  21401595.040    87635957.02248
  23574466.020   123884734.37608  23574461.960    96533582.37546
  22775152.680   119684251.60209  22775151.860    93260460.97647
  24097784.560   126634692.26308  24097781.680    98676366.74246
  23241054.600   122132549.99108  23241051.560    95168200.97247
  22395900.840   119508827.31708  22395903.040    92951327.90307
  22694724.660   121486653.12708  22694725.240    94489624.20807
  21837108.320   116690870.78008  21837111.920    90759575.28507
  19813203.680   105838584.38909  19813205.500    82318898.65808
  22071078.580   118106791.32308  22071079.100    91860837.88507
  20066473.020   107116200.50809  20066475.140    83312612.12008
  22311286.160   119350355.93608  22311285.580    92828056.73407
 15 02 25 00 20 30.0000000  0 14G16G18G21G22G27G29G31R02R03R15R16R17
                                R18R19
  21519849.060   113087573.72809  21519845.260    88120170.61548
  22309570.000   117237659.26909  22309566.360    91354040.82947
  21409811.000   112509317.88308  21409806.860    87669583.19148
  23556623.040   123790969.67908  23556618.940    96460519.12746
  22763057.220   119620689.81208  22763056.240    93210932.29248
  24111689.140   126707760.66508  24111687.020    98733303.09146
  23258652.540   122225027.50309  23258649.360    95240261.29346
  22392756.340   119492048.57709  22392759.180    92938277.74507
  22676295.340   121387999.17308  22676295.400    94412893.41107
  21860380.960   116815232.37308  21860384.620    90856300.91007
  19815962.120   105853319.49908  19815963.860    82330359.26608
  22084958.840   118181067.83408  22084958.740    91918608.46107
  20069269.880   107131131.51109  20069272.080    83324225.10808
  22299599.940   119287844.53908  22299600.260    92779436.77607
 15 02 25 00 21  0.0000000  0 14G16G18G21G22G27G29G31R02R03R15R16R17
                                R18R19
  21507155.760   113020869.15009  21507151.880    88068192.99048
  22299196.240   117183144.40009  22299192.520    91311561.72947
  21418079.260   112552767.56709  21418075.000    87703440.07248
  23538791.380   123697265.01108  23538787.320    96387502.67446
  22750980.020   119557223.79708  22750979.280    93161478.27348
  24125599.340   126780860.45208  24125597.580    98790263.92745
  23276275.820   122317637.73709  23276272.280    95312425.03846
  22389745.740   119475983.33508  22389748.640    92925782.60407
  22657917.140   121289619.35308  22657917.140    94336375.79707
  21883707.760   116939882.99508  21883711.420    90953251.34507
  19818878.540   105868898.80708  19818880.280    82342476.51708
  22098841.180   118255353.57908  22098841.100    91976386.24208
  20072108.420   107146284.56209  20072110.700    83336010.84708
  22287951.800   119225537.19008  22287953.300    92730975.56508
 15 02 25 00 21 30.0000000  0 14G16G18G21G22G27G29G31R02R03R15R16R17
                                R18R19
  21494519.640   112954465.83609  21494515.620    88016450.18348
  22288886.560   117128967.24209  22288882.840    91269345.78047
  21426402.020   112596503.34109  21426397.520    87737519.91048
  23520970.200   123603615.20008  23520966.180    96314528.94546
  22738919.500   119493845.40808  22738919.060    93112092.57448
  24139514.120   126853983.20108  24139511.900    98847242.68145
  23293922.260   122410369.57009  23293918.440    95384683.55147
  22386867.720   119460624.88709  22386870.520    92913837.18207
  22639589.340   121191509.67508  22639589.580    94260068.32907
  21907086.180   117064809.93308  21907089.980    91050416.69907
  19821951.320   105885313.23008  19821953.140    82355243.26808
  22112723.380   118329639.56209  22112723.240    92034164.17807
  20074986.820   107161649.85409  20074989.000    83347961.61908
  22276340.640   119163424.97208  22276342.320    92682666.09707
 15 02 25 00 22  0.0000000  0 14G16G18G21G22G27G29G31R02R03R15R16R17
                                R18R19
  21481942.940   112888374.56709  21481938.880    87964950.44948
  22278643.160   117075138.68909  22278639.440    91227401.47847
  21434780.380   112640531.78108  21434775.760    87771827.78748
  23503161.600   123510030.90308  23503157.460    96241606.24346
  22726876.960   119430562.86808  22726876.440    93062781.51647
  24153434.840   126927137.00308  24153432.280    98904245.64945
  23311592.780   122503228.30908  23311589.040    95457040.95947
  22384124.260   119445982.90309  22384127.020    92902448.99907
  22621314.560   121093683.40908  22621315.040    94183981.26607
  21930517.040   117190017.01008  21930520.820    91147799.91507
  19825181.840   105902570.24008  19825183.760    82368665.37708
  22126607.100   118403933.42708  22126606.520    92091948.28307
  20077906.340   107177234.42309  20077908.440    83360082.93208
  22264767.820   119101516.02209  22264767.440    92634514.65806
 15 02 25 00 22 30.0000000  0 14G16G18G21G22G27G29G31R02R03R15R16R17
                                R18R19
  21469426.380   112822599.47409  21469422.360    87913697.16548
  22268467.040   117021663.02509  22268463.360    91185732.13547
  21443214.440   112684853.59109  21443209.940    87806364.24248
  23485366.440   123416517.14009  23485362.180    96168738.49646
  22714853.240   119367378.75708  22714852.540    93013547.14647
  24167361.580   127000324.40208  24167359.320    98961274.74046
  23329287.240   122596213.40208  23329283.780    95529496.84447
  22381515.540   119432061.56908  22381517.800    92891621.34507
  22603093.800   120996147.25807  22603094.580    94108119.86307
  21953999.940   117315502.70008  21954003.660    91245399.83807
  19828570.540   105920671.79208  19828572.500    82382744.35308
  22140492.380   118478236.84909  22140490.400    92149739.82606
  20080867.280   107193039.37509  20080869.240    83372375.67008
  22253233.320   119039812.18408  22253232.240    92586522.79007
 15 02 25 00 23  0.0000000  0 14G16G18G21G22G27G29G31R02R03R15R16R17
                                R18R19
  21456967.800   112757129.76109  21456964.000    87862681.82148
  22258356.020   116968529.19109  22258352.440    91144329.17647
  21451701.520   112729453.70509  21451697.080    87841117.61248
  23467582.620   123323063.16508  23467578.340    96095917.33046
  22702846.000   119304279.79609  22702845.280    92964379.11948
  24181292.640   127073532.40308  24181290.660    99018319.87945
  23347002.600   122689308.45509  23346999.400    95602038.37347
  22379038.880   119418848.78508  22379041.100    92881344.73107
  22584925.600   120898892.45408  22584926.500    94032477.28307
  21977531.600   117441248.97608  21977535.320    91343202.41507
  19832114.520   105939603.17208  19832116.560    82397468.73908
  22154376.940   118552535.90208  22154375.180    92207527.94707
  20083866.800   107209049.88709  20083868.420    83384828.31608
  22241733.840   118978299.13708  22241733.940    92538679.32607
 15 02 25 00 23 30.0000000  0 14G16G18G21G22G27G29G31R02R03R15R16R17
                                R18R19
  21444569.760   112691977.82409  21444565.880    87811914.07348
  22248312.320   116915749.33809  22248308.800    91103202.03047
  21460243.040   112774340.03408  21460238.760    87876093.96548
  23449812.620   123229681.87608  23449808.360    96023152.80646
  22690856.820   119241275.95708  22690856.280    92915285.25147
  24195229.700   127146770.82108  24195227.520    99075388.77845
  23364740.200   122782520.53008  23364737.180    95674671.06747
  22376697.200   119406355.97809  22376699.620    92871628.10207
  22566812.920   120801933.44708  22566813.620    93957064.73307
  22001113.300   117567262.29708  22001117.140    91441212.71807
  19835815.560   105959373.31108  19835817.640    82412845.50408
  22168262.480   118626839.83008  22168261.220    92265319.86607
  20086906.200   107225274.60509  20086908.320    83397447.55608
  22230271.560   118916986.41208  22230272.520    92490991.69307
 15 02 25 00 24  0.0000000  0 14G16G18G21G22G27G29G31R02R03R15R16R17
                                R18R19
  21432232.500   112627145.19509  21432228.660    87761395.14448
  22238336.240   116863324.83609  22238332.620    91062351.78647
  21468838.640   112819510.48508  21468834.480    87911291.70048
  23432056.760   123136374.90609  23432052.540    95950446.19946
  22678885.440   119178366.52708  22678884.640    92866264.93647
  24209172.420   127220038.94608  24209170.060    99132480.78246
  23382499.320   122875845.73708  23382496.440    95747391.92247
  22374491.040   119394583.76909  22374493.440    92862471.94707
  22548756.160   120705274.03408  22548756.940    93881885.22707
  22024743.720   117693535.80608  22024747.800    91539425.38107
  19839673.320   105979980.53009  19839675.340    82428873.33808
  22182148.660   118701147.37308  22182147.340    92323114.61107
  20089985.380   107241711.62709  20089987.860    83410231.86908
  22218846.940   118855872.89408  22218848.080    92443458.98407
 15 02 25 00 24 30.0000000  0 14G16G18G21G22G27G29G31R02R03R15R16R17
                                R18R19
  21419956.100   112562632.04709  21419952.240    87711125.15248
  22228427.820   116811255.56409  22228424.080    91021778.34347
  21477487.720   112864961.57108  21477483.420    87946708.11248
  23414315.340   123043143.30208  23414311.080    95877798.30846
  22666932.100   119115549.96409  22666930.620    92817316.92247
  24223120.380   127293335.06608  24223118.060    99189594.59145
  23400279.120   122969279.59508  23400276.440    95820197.43947
  22372420.240   119383531.61109  22372422.940    92853875.85208
  22530755.660   120608916.93308  22530756.500    93806940.85307
  22048421.840   117820064.15808  22048426.040    91637836.24607
  19843687.300   106001422.24208  19843689.240    82445550.19608
  22196034.680   118775456.10908  22196034.140    92380910.23607
  20093103.600   107258357.58009  20093106.160    83423178.76108
  22207459.380   118794955.89909  22207459.620    92396079.08207
 15 02 25 00 25  0.0000000  0 14G16G18G21G22G27G29G31R02R03R15R16R17
                                R18R19
  21407741.980   112498445.96109  21407737.980    87661110.02248
  22218588.560   116759549.63909  22218584.700    90981488.01647
  21486190.720   112910696.34708  21486186.420    87982345.63248
  23396589.840   122949995.07008  23396585.460    95805215.38146
  22654997.300   119052831.29909  22654996.160    92768445.26448
  24237074.400   127366664.51208  24237071.760    99246734.40445
  23418080.020   123062824.29208  23418077.600    95893089.35047
  22370485.580   119373206.12008  22370488.820    92845844.86207
  22512813.640   120512872.00808  22512814.300    93732239.27707
  22072148.000   117946849.02408  22072152.120    91736446.62907
  19847858.260   106023702.28608  19847860.120    82462879.10708
  22209922.160   118849770.30308  22209921.980    92438710.14007
  20096261.920   107275216.68309  20096264.160    83436291.34208
  22196109.440   118734240.32708  22196109.520    92348855.95907
 15 02 25 00 25 30.0000000  0 14G16G18G21G22G27G29G31R02R03R15R16R17
                                R18R19
  21395588.640   112434580.08809  21395584.700    87611344.39948
  22208817.020   116708199.69909  22208813.040    90941475.08447
  21494945.720   112956704.22408  21494941.420    88018195.91448
  23378879.000   122856923.92808  23378874.520    95732692.51646
  22643079.540   118990201.79209  22643078.480    92719643.10047
  24251033.220   127440018.04108  24251030.660    99303892.96346
  23435899.800   123156468.00708  23435897.560    95966058.38447
  22368685.320   119363599.46509  22368688.400    92838373.05507
  22494929.260   120417134.55808  22494929.640    93657776.82507
  22095919.460   118073875.93508  22095923.400    91835245.26507
  19852184.320   106046810.66808  19852186.140    82480852.28908
  22223808.960   118924080.67208  22223807.400    92496507.15806
  20099458.260   107292278.23409  20099461.100    83449561.47909
  22184795.000   118673716.23008  22184795.020    92301781.64507
 15 02 25 00 26  0.0000000  0 14G16G18G21G22G27G29G31R02R03R15R16R17
                                R18R19
  21383497.800   112371041.87709  21383493.660    87561834.09648
  22199114.460   116657212.85209  22199110.440    90901745.08847
  21503753.300   113002988.60609  21503749.060    88054261.64448
  23361184.240   122763937.67608  23361179.680    95660235.82546
  22631179.540   118927666.64108  22631177.960    92670914.37447
  24264997.620   127513400.86708  24264995.300    99361074.37046
  23453738.760   123250212.58508  23453736.660    96039106.03947
  22367020.800   119354718.17508  22367023.060    92831465.42006
  22477104.020   120321714.23507  22477103.960    93583561.06607
  22119736.540   118201146.58008  22119740.340    91934233.47407
  19856666.100   106070751.00109  19856667.940    82499472.52708
  22237695.920   118998391.66608  22237694.060    92554304.58307
  20102693.140   107309546.35009  20102696.440    83462992.21508
  22173517.300   118613388.31609  22173517.460    92254859.99407
 15 02 25 00 26 30.0000000  0 14G16G18G21G22G27G29G31R02R03R15R16R17
                                R18R19
  21371471.040   112307840.55109  21371466.860    87512586.31848
  22189482.780   116606598.49409  22189478.860    90862305.34147
  21512614.520   113049554.58409  21512610.240    88090546.82648
  23343507.360   122671045.87509  23343502.840    95587852.70346
  22619298.400   118865232.82108  22619297.060    92622264.66048
  24278968.820   127586820.27308  24278966.860    99418284.24646
  23471597.720   123344062.30808  23471595.620    96112235.59647
  22365493.740   119346570.31208  22365495.220    92825128.28407
  22459340.200   120226622.77308  22459339.820    93509601.09607
  22143599.700   118328663.80508  22143603.480    92033413.44807
  19861304.700   106095529.27308  19861306.540    82518744.48308
  22251583.900   119072710.04508  22251583.680    92612107.62508
  20105967.760   107327026.75009  20105971.020    83476588.08808
  22162278.020   118553263.02609  22162277.480    92208095.87007
 15 02 25 00 27  0.0000000  0 14G16G18G21G22G27G29G31R02R03R15R16R17
                                R18R19
  21359506.840   112244968.32709  21359502.880    87463594.98648
  22179920.400   116556348.45509  22179916.760    90823149.47647
  21521527.000   113096390.46108  21521522.860    88127042.30848
  23325847.060   122578241.20508  23325842.500    95515537.46647
  22607434.980   118802890.46709  22607434.060    92573686.22748
  24292944.900   127660266.10708  24292943.040    99475514.75446
  23489474.200   123438004.04408  23489472.080    96185436.84446
  22364102.480   119339146.90909  22364104.660    92819354.52608
  22441636.620   120131854.55708  22441636.480    93435892.52107
  22167506.160   118456412.65208  22167510.040    92132773.56707
  19866097.960   106121134.00209  19866099.960    82538659.28708
  22265471.540   119147024.72908  22265472.240    92669907.88507
  20109280.240   107344707.98709  20109283.340    83490340.12208
  22151074.240   118493329.40308  22151073.800    92161480.85007
 15 02 25 00 27 30.0000000  0 14G16G18G21G22G27G29G31R02R03R15R16R17
                                R18R19
  21347605.740   112182427.92609  21347601.720    87414862.22748
  22170427.860   116506465.35709  22170424.360    90784279.54647
  21530490.500   113143494.55708  21530486.520    88163746.81148
  23308204.040   122485526.65609  23308199.420    95443292.45846
  22595589.160   118740639.99509  22595588.400    92525179.37048
  24306926.240   127733738.86308  24306924.900    99532766.21045
  23507367.740   123532035.07708  23507365.600    96258707.71546
  22362847.400   119332449.57509  22362850.660    92814145.44908
  22423994.240   120037414.14708  22423994.300    93362438.88807
  22191455.220   118584389.37808  22191459.220    92232310.94007
  19871045.760   106147564.34709  19871047.740    82559216.20108
  22279357.560   119221335.52807  22279356.920    92727705.21706
  20112630.020   107362589.09209  20112632.560    83504247.64808
  22139905.920   118433587.53208  22139905.160    92115015.00506
 15 02 25 00 28  0.0000000  0 14G16G18G21G22G27G29G31R02R03R15R16R17
                                R18R19
  21335768.580   112120223.49809  21335764.500    87366391.23748
  22161005.900   116456953.27209  22161002.440    90745698.71947
  21539505.260   113190867.61709  21539501.300    88200660.84248
  23290579.120   122392906.48809  23290574.300    95371120.98446
  22583761.240   118678483.71409  22583760.220    92476745.90848
  24320913.220   127807240.68908  24320911.660    99590040.28145
  23525278.220   123626154.70608  23525276.120    96332047.61247
  22361729.020   119326481.37808  22361732.680    92809503.56408
  22406414.600   119943308.66808  22406414.760    93289245.77107
  22215446.460   118712591.49708  22215450.620    92332023.60907
  19876148.160   106174820.86609  19876150.140    82580415.72208
  22293243.540   119295644.28308  22293243.620    92785500.90507
  20116017.500   107380671.07909  20116020.060    83518311.42208
  22128774.040   118374038.77108  22128772.920    92068699.27707
 15 02 25 00 28 30.0000000  0 14G16G18G21G22G27G29G31R02R03R15R16R17
                                R18R19
  21323995.720   112058356.71709  21323991.580    87318183.34748
  22151654.940   116407813.73209  22151651.520    90707408.17547
  21548570.780   113238507.00709  21548566.800    88237782.45148
  23272972.820   122300384.16508  23272967.860    95299025.73546
  22571951.160   118616420.98009  22571950.260    92428385.33448
  24334905.920   127880771.01408  24334903.880    99647336.64246
  23543204.960   123720359.10009  23543202.740    96405453.51046
  22360747.080   119321242.57708  22360750.540    92805428.86907
  22388898.040   119849541.72108  22388898.420    93216315.94207
  22239478.960   118841014.18408  22239483.340    92431907.81107
  19881404.820   106202901.59609  19881406.840    82602256.25208
  22307129.320   119369949.72008  22307130.140    92843293.92107
  20119442.220   107398951.80509  20119443.900    83532529.79108
  22117677.820   118314681.77608  22117677.420    92022532.82907
 15 02 25 00 29  0.0000000  0 14G16G18G21G22G27G29G31R02R03R15R16R17
                                R18R19
  21312287.440   111996829.69009  21312283.520    87270240.19948
  22142375.200   116359048.32509  22142371.880    90669409.17247
  21557686.580   113286410.85909  21557682.700    88275110.11248
  23255385.320   122207961.60808  23255380.420    95227008.25846
  22560159.020   118554451.83609  22560158.000    92380097.71648
  24348903.900   127954329.72908  24348901.800    99704655.15845
  23561147.340   123814645.50008  23561144.980    96478923.34747
  22359901.940   119316734.29309  22359904.680    92801922.47307
  22371445.600   119756117.80208  22371446.140    93143652.93607
  22263552.120   118969654.01508  22263556.620    92531960.89307
  19886815.520   106231804.97108  19886817.480    82624736.64508
  22321014.440   119444251.11908  22321015.400    92901083.92307
  20122903.900   107417430.05009  20122905.680    83546901.74908
  22106617.480   118255515.90708  22106616.820    91976514.91407
 15 02 25 00 29 30.0000000  0 14G16G18G21G22G27G29G31R02R03R15R16R17
                                R18R19
  21300646.960   111935658.12909  21300643.000    87222574.04548
  22133169.720   116310672.58809  22133166.340    90631713.81047
  21566855.000   113334590.91608  21566851.160    88312653.02048
  23237819.780   122115654.84408  23237815.060    95155081.00646
  22548387.160   118492589.79009  22548385.760    92331893.53348
  24362909.020   128027930.63606  24362907.860    99762006.44346
  23579107.220   123909024.35608  23579104.840    96552465.20546
  22359196.960   119312970.87209  22359199.440    92798995.40107
  22354060.520   119663054.76908  22354061.220    93071270.61607
  22287667.520   119098519.23008  22287672.080    92632189.32507
  19892382.460   106261542.88109  19892384.540    82647866.13508
  22334901.520   119518561.66408  22334902.800    92958880.96108
  20126404.560   107436118.33209  20126406.740    83561437.07408
  22095595.380   118196554.19708  22095594.400    91930655.85007
 15 02 25 00 30  0.0000000  0 14G16G18G21G22G27G29G31R02R03R15R16R17
                                R18R19
  21289071.120   111874826.55309  21289067.040    87175172.79348
  22124035.500   116262671.11109  22124031.960    90594310.05947
  21576072.100   113383026.87708  21576068.120    88350395.32148
  23220273.460   122023448.75708  23220268.800    95083232.19346
  22536632.200   118430817.41509  22536630.760    92283759.19048
  24376919.080   128101555.78508  24376918.380    99819376.58645
  23597080.680   124003475.11008  23597078.260    96626063.06146
  22358628.520   119309935.41709  22358630.820    92796634.47307
  22336740.320   119570339.26808  22336740.880    92999158.57007
  22311821.100   119227588.21608  22311825.520    92732576.20007
  19898101.980   106292095.93909  19898104.340    82671629.58208
  22348786.320   119592863.10707  22348788.260    93016670.89307
  20129940.900   107454997.21608  20129943.440    83576120.63108
  22084607.420   118137778.14209  22084606.480    91884941.12007
 15 02 25 00 30 30.0000000  0 14G16G18G21G22G27G29G31R02R03R15R16R17
                                R18R19
  21277560.220   111814336.34409  21277556.200    87128037.61048
  22114972.600   116215044.91909  22114969.020    90557198.75547
  21585337.700   113431717.65808  21585333.720    88388336.19948
  23202746.740   121931345.30609  23202741.920    95011463.35646
  22524894.160   118369133.85609  22524892.880    92235694.14348
  24390934.260   128175204.23208  24390933.120    99876765.01346
  23615067.020   124097993.82608  23615064.520    96699713.94046
  22358196.100   119307627.91909  22358198.460    92794839.71107
  22319485.840   119477975.12208  22319485.880    92927319.81907
  22336011.800   119356855.39508  22336016.140    92833117.23707
  19903973.660   106323461.55908  19903976.080    82696025.05108
  22362669.300   119667154.01308  22362670.980    93074452.73207
  20133512.800   107474064.84509  20133515.280    83590951.00908
  22073653.880   118079185.96908  22073653.580    91839369.48207
 15 02 25 00 31  0.0000000  0 14G16G18G21G22G27G29G31R02R03R15R16R17
                                R18R19
  21266116.120   111754197.04909  21266112.060    87081175.83148
  22105982.720   116167803.19609  22105979.280    90520387.04747
  21594652.700   113480668.51909  21594648.800    88426479.73348
  23185241.520   121839354.73309  23185236.380    94939782.46046
  22513174.480   118307546.65109  22513172.980    92187704.10048
  24404955.400   128248883.91808  24404954.160    99934177.69845
  23633067.160   124192584.99208  23633064.760    96773421.21047
  22357901.560   119306056.68309  22357903.980    92793617.70307
  22302299.260   119385973.87508  22302299.440    92855763.34507
  22360240.180   119486323.50108  22360244.420    92933814.55307
  19909998.660   106355645.57909  19910000.940    82721057.07008
  22376551.720   119741441.28008  22376553.040    93132231.64607
  20137121.460   107493327.34309  20137123.620    83605932.94608
  22062736.260   118020784.79408  22062736.420    91793946.37908
 15 02 25 00 31 30.0000000  0 14G16G18G21G22G27G29G31R02R03R15R16R17
                                R18R19
  21254739.800   111694414.53309  21254735.920    87034592.02648
  22097067.080   116120951.45409  22097063.680    90483879.19247
  21604017.420   113529880.69308  21604013.480    88464826.86048
  23167758.860   121747483.08709  23167753.520    94868194.24446
  22501473.900   118246059.42508  22501471.980    92139791.96248
  24418982.760   128322598.01608  24418980.840    99991617.18145
  23651081.280   124287249.14308  23651079.020    96847185.35747
  22357745.840   119305225.92909  22357748.200    92792971.54807
  22285182.200   119294344.01008  22285182.300    92784495.69807
  22384506.120   119615992.36308  22384510.260    93034668.00807
  19916177.280   106388650.03609  19916179.360    82746727.17208
  22390434.400   119815727.92109  22390435.560    93190010.14307
  20140767.080   107512787.12609  20140769.100    83621068.35908
  22051855.000   117962577.22709  22051855.160    91748673.86407
 15 02 25 00 32  0.0000000  0 14G16G18G21G22G27G29G31R02R03R15R16R17
                                R18R19
  21243430.560   111634985.13409  21243426.900    86988283.41048
  22088225.040   116074486.16209  22088221.500    90447672.48647
  21613430.520   113579346.71009  21613426.580    88503371.82248
  23150298.100   121655727.33508  23150292.860    94796696.34146
  22489791.080   118184666.53309  22489789.620    92091953.39848
  24433015.840   128396340.85408  24433013.300   100049079.12745
  23669107.760   124381977.60008  23669105.480    96920999.63046
  22357728.180   119305130.60608  22357730.000    92792897.48907
  22268134.040   119203083.77608  22268134.380    92713515.55507
  22408807.720   119745851.89008  22408811.840    93135669.75507
  19922507.940   106422467.03409  19922510.060    82773029.28608
  22404315.880   119890007.94708  22404316.820    93247783.46207
  20144447.960   107532437.08709  20144450.300    83636351.63808
  22041009.000   117904557.02508  22041008.620    91703547.04907
 15 02 25 00 32 30.0000000  0 14G16G18G21G22G27G29G31R02R03R15R16R17
                                R18R19
  21232188.460   111575908.43809  21232185.060    86942249.66648
  22079456.320   116028406.32209  22079452.800    90411766.12147
  21622891.180   113629062.26008  21622887.180    88542111.20748
  23132859.420   121564087.74608  23132854.420    94725288.94146
  22478125.780   118123365.58509  22478125.120    92044186.46048
  24447054.000   128470110.26708  24447051.200   100106561.79845
  23687145.420   124476764.92208  23687143.060    96994859.73347
  22357847.940   119305768.89409  22357849.320    92793393.91307
  22251155.180   119112195.27008  22251155.700    92642824.53307
  22433143.640   119875895.25708  22433147.760    93236814.47107
  19928989.900   106457092.07109  19928991.960    82799959.85008
  22418195.040   119964277.83108  22418195.220    93305548.95007
  20148163.780   107552273.40109  20148166.520    83651779.86508
  22030197.220   117846720.81908  22030196.800    91658563.32508
 15 02 25 00 33  0.0000000  0 14G16G18G21G22G27G29G31R02R03R15R16R17
                                R18R19
  21221016.460   111517198.76909  21221012.880    86896501.86048
  22070763.620   115982726.14609  22070760.220    90376171.19747
  21632401.260   113679037.45008  21632397.060    88581052.92448
  23115445.720   121472579.02508  23115440.880    94653983.52247
  22466480.440   118062168.84709  22466479.820    91996500.68148
  24461098.980   128543918.16808  24461096.580   100164074.38946
  23705195.920   124571620.22508  23705193.420    97068772.84047
  22358107.520   119307153.55908  22358108.880    92794470.97807
  22234248.960   119021695.20508  22234249.300    92572435.61807
  22457515.560   120006130.82808  22457519.700    93338108.67307
  19935625.060   106492535.95608  19935627.140    82827527.33208
  22432074.480   120038549.78308  22432074.580    93363315.99607
  20151917.000   107572307.15909  20151919.560    83667361.67108
  22019421.740   117789080.32708  22019421.300    91613731.91207
 15 02 25 00 33 30.0000000  0 14G16G18G21G22G27G29G31R02R03R15R16R17
                                R18R19
  21209912.660   111458847.36809  21209908.940    86851033.21948
  22062145.200   115937436.34509  22062141.840    90340880.45847
  21641958.300   113729259.61409  21641953.920    88620187.04948
  23098055.460   121381193.12309  23098050.680    94582773.79847
  22454852.820   118001065.38109  22454851.900    91948887.61248
  24475149.380   128617753.58408  24475147.300   100221608.43246
  23723256.680   124666529.64708  23723254.020    97142728.07846
  22358504.560   119309274.10508  22358507.160    92796120.18608
  22217414.100   118931576.76608  22217414.140    92502343.50507
  22481920.280   120136541.32508  22481924.420    93439538.95007
  19942411.000   106528785.33909  19942413.040    82855721.29608
  22445951.780   120112812.20507  22445951.800    93421075.60807
  20155704.880   107592526.19909  20155706.920    83683087.63208
  22008680.600   117731623.52408  22008680.500    91569043.30807
 15 02 25 00 34  0.0000000  0 14G16G18G21G22G27G29G31R02R03R15R16R17
                                R18R19
  21198878.100   111400859.57309  21198874.320    86805847.93448
  22053601.940   115892541.61809  22053598.560    90305897.55547
  21651562.560   113779730.11709  21651558.120    88659514.70648
  23080689.720   121289935.52509  23080684.900    94511664.04547
  22443243.440   117940058.46009  22443242.280    91901349.75448
  24489205.600   128691619.67908  24489203.860   100279166.36546
  23741327.720   124761493.16708  23741325.040    97216725.48746
  22359040.620   119312134.20809  22359043.440    92798344.74307
  22200651.920   118841847.37608  22200652.380    92432554.03807
  22506357.960   120267127.41608  22506362.060    93541105.78107
  19949348.000   106565841.32909  19949349.920    82884542.59108
  22459827.840   120187067.53608  22459828.500    93478829.72107
  20159527.720   107612932.29309  20159529.580    83698958.98908
  21997974.360   117674353.01708  21997974.680    91524499.59507
 15 02 25 00 34 30.0000000  0 14G16G18G21G22G27G29G31R02R03R15R16R17
                                R18R19
  21187913.660   111343240.43209  21187909.520    86760949.89248
  22045134.940   115848047.35409  22045131.520    90271226.71047
  21661214.380   113830450.62109  21661209.900    88699037.18548
  23063349.440   121198811.83308  23063344.520    94440658.63646
  22431653.140   117879151.18109  22431652.060    91853889.54848
  24503268.000   128765519.66308  24503266.280   100336750.73645
  23759409.140   124856511.05009  23759406.620    97290765.25447
  22359715.760   119315737.43708  22359718.420    92801147.27307
  22183963.900   118752514.60608  22183964.240    92363073.03007
  22530828.300   120397887.99208  22530832.240    93642808.33407
  19956436.300   106603705.28509  19956438.100    82913992.31808
  22473703.580   120261318.78908  22473704.700    93536580.71007
  20163385.840   107633527.22109  20163388.040    83714977.27708
  21987303.440   117617271.13308  21987303.660    91480102.59308
 15 02 25 00 35  0.0000000  0 14G16G18G21G22G27G29G31R02R03R15R16R17
                                R18R19
  21177018.380   111285985.13909  21177014.400    86716335.39648
  22036743.100   115803948.04509  22036739.740    90236863.62047
  21670911.900   113881411.78508  21670907.520    88738747.19348
  23046033.840   121107817.73309  23046028.840    94369754.19247
  22420080.600   117818336.53109  22420079.460    91806501.54948
  24517335.500   128839446.58007  24517333.400   100394356.14645
  23777499.060   124951573.10208  23777496.600    97364839.43146
  22360528.880   119320077.14808  22360531.080    92804522.66207
  22167349.520   118663575.68008  22167349.380    92293898.31607
  22555328.980   120528810.71808  22555332.640    93744636.96907
  19963673.960   106642367.71009  19963675.900    82944063.08408
  22487577.000   120335557.87408  22487578.580    93594322.24807
  20167277.660   107654302.66109  20167280.060    83731135.97908
  21976666.140   117560369.79409  21976666.400    91435846.03807
 15 02 25 00 35 30.0000000  0 14G16G18G21G22G27G29G31R02R03R15R16R17
                                R18R19
  21166193.580   111229100.45209  21166189.580    86672009.65248
  22028427.740   115760250.38609  22028424.340    90202813.50947
  21680655.700   113932615.91009  21680651.320    88778646.47848
  23028744.320   121016960.78409  23028739.320    94298956.63147
  22408526.500   117757619.25209  22408525.360    91759189.37748
  24531409.300   128913404.69108  24531407.040   100451985.82245
  23795597.580   125046680.88608  23795595.080    97438949.27046
  22361481.080   119325158.26109  22361483.360    92808474.65808
  22150810.400   118575039.64908  22150810.120    92225036.98807
  22579860.060   120659896.49008  22579863.400    93846592.42807
  19971061.540   106681830.96909  19971063.540    82974756.70208
  22501448.900   120409789.62208  22501450.700    93652057.90606
  20171203.940   107675262.28609  20171206.680    83747437.85108
  21966063.780   117503653.40809  21966063.860    91391733.26808
 15 02 25 00 36  0.0000000  0 14G16G18G21G22G27G29G31R02R03R15R16R17
                                R18R19
  21155440.280   111172591.26909  21155436.400    86627976.54348
  22020189.700   115716958.81509  22020186.200    90169079.82147
  21690446.180   113984065.02709  21690441.760    88818736.70048
  23011481.900   120926246.20709  23011476.960    94228270.00547
  22396991.500   117697002.46509  22396990.740    91711955.51548
  24545489.520   128987397.08208  24545487.440   100509642.19645
  23813704.740   125141834.49108  23813702.200    97513094.75046
  22362573.120   119330984.13109  22362575.300    92813005.93208
  22134347.680   118486913.90208  22134347.340    92156494.78107
  22604420.940   120791142.80008  22604424.260    93948672.73607
  19978599.340   106722096.01809  19978601.200    83006073.94508
  22515319.680   120484016.17508  22515320.480    93709789.71306
  20175165.160   107696407.59509  20175168.240    83763884.21308
  21955496.120   117447123.79908  21955496.560    91347765.87108
 15 02 25 00 36 30.0000000  0 14G16G18G21G22G27G29G31R02R03R15R16R17
                                R18R19
  21144758.240   111116457.22409  21144754.300    86584235.74148
  22012028.740   115674072.35009  22012025.080    90135661.81147
  21700282.400   114035754.41009  21700277.980    88859014.14748
  22994246.580   120835674.24709  22994241.720    94157694.51747
  22385474.920   117636483.75908  22385474.760    91664798.11048
  24559575.900   129061421.29308  24559574.460   100567323.35746
  23831819.640   125237028.52808  23831816.940    97587271.76846
  22363803.940   119337552.57208  22363806.760    92818114.63007
  22117961.840   118399200.18308  22117961.600    92088273.02107
  22629010.840   120922544.41408  22629014.240    94050873.83706
  19986286.480   106763158.34609  19986288.140    83038011.29708
  22529189.440   120558234.60408  22529190.200    93767515.20407
  20179160.620   107717735.07109  20179163.820    83780472.25708
  21944962.780   117390777.92009  21944963.320    91303941.31507
 15 02 25 00 37  0.0000000  0 13G16G18G21G22G27G31R02R03R15R16R17R18
                                R19
  21134154.880   111060736.45409  21134150.920    86540816.93748
  22003952.100   115631629.08609  22003948.360    90102589.14047
  21710170.640   114087716.99409  21710166.180    88899504.48048
  22977045.720   120745283.56409  22977040.900    94087260.28047
  22373984.160   117576099.30209  22373983.280    91617745.29348
  23849948.560   125332295.83708  23849945.980    97661505.87946
  22365180.880   119344900.56708  22365182.660    92823829.87606
  22101660.480   118311939.29508  22101660.340    92020403.48107
  22653635.700   121054132.69108  22653639.360    94153220.10706
  19994129.140   106805052.03009  19994130.720    83070595.27608
  22543064.680   120632481.45108  22543065.400    93825262.67007
  20183196.760   107739279.85809  20183199.540    83797229.29008
  21934470.500   117334651.53208  21934470.920    91260287.46508
 15 02 25 00 37 30.0000000  0 13G16G18G21G22G27G31R02R03R15R16R17R18
                                R19
  21123615.680   111005352.79409  21123611.860    86497660.83648
  21995945.120   115589552.06509  21995941.460    90069801.85747
  21720095.780   114139874.17008  21720091.420    88940146.41748
  22959864.980   120654998.25809  22959860.060    94016908.13247
  22362504.140   117515770.54109  22362502.500    91570735.82848
  23868075.980   125427554.97908  23868073.280    97735733.60846
  22366688.640   119352948.39209  22366690.540    92830089.24807
  22085429.740   118225055.77808  22085429.560    91952827.43507
  22678279.720   121185822.98808  22678283.700    94255645.72106
  20002111.980   106847694.93209  20002113.620    83103761.95608
  22556930.060   120706675.94708  22556930.680    93882969.40207
  20187258.420   107760961.16809  20187261.020    83814092.53808
  21924004.180   117278663.98608  21924004.380    91216741.63708
 15 02 25 00 38  0.0000000  0 13G16G18G21G22G27G31R02R03R15R16R17R18
                                R19
  21113149.460   110950352.50309  21113145.500    86454803.44848
  21988016.620   115547887.51309  21988012.980    90037335.98547
  21730065.980   114192268.15309  21730061.600    88980972.88748
  22942713.240   120564865.50809  22942708.240    93946674.86647
  22351043.160   117455542.09409  22351041.740    91523804.62148
  23886209.760   125522847.41408  23886207.080    97809987.27746
  22368336.500   119361741.45709  22368338.600    92836928.30607
  22069278.740   118138598.94908  22069278.920    91885583.25607
  22702950.720   121317657.30207  22702955.000    94358183.34006
  20010243.080   106891129.83509  20010244.660    83137544.64408
  22570793.820   120780863.07408  22570794.600    93940670.47207
  20191353.820   107782823.08609  20191356.020    83831096.27108
  21913572.400   117222859.96808  21913572.760    91173338.54908
 15 02 25 00 38 30.0000000  0 13G16G18G21G22G27G31R02R03R15R16R17R18
                                R19
  21102756.480   110895737.13709  21102752.580    86412246.03448
  21980166.700   115506635.99509  21980162.980    90005191.96347
  21740080.740   114244895.97509  21740076.300    89021981.56947
  22925590.880   120474887.40908  22925585.880    93876562.11647
  22339601.080   117395413.65709  22339599.840    91476951.34348
  23904349.200   125618169.82908  23904346.680    97884264.29346
  22370123.960   119371279.15209  22370125.880    92844346.54907
  22053208.380   118052572.79408  22053208.600    91818674.03707
  22727647.620   121449629.61808  22727652.120    94460828.28706
  20018521.880   106935353.75509  20018523.520    83171941.03408
  22584655.980   120855042.33208  22584656.100    93998365.48006
  20195482.780   107804863.81409  20195484.900    83848239.06308
  21903174.600   117167238.00809  21903174.820    91130077.05407
 15 02 25 00 39  0.0000000  0 13G16G18G21G22G27G31R02R03R15R16R17R18
                                R19
  21092437.580   110841511.33009  21092433.720    86369992.15048
  21972396.240   115465802.30109  21972392.640    89973373.50647
  21750140.260   114297759.12009  21750135.880    89063173.65348
  22908498.800   120385069.08908  22908493.980    93806573.86047
  22328178.340   117335387.72808  22328177.200    91430177.89248
  23922494.240   125713521.69408  23922491.620    97958564.26546
  22372050.880   119381564.25908  22372053.520    92852346.03107
  22037219.760   117966983.94308  22037220.060    91752104.94907
  22752370.040   121581738.69408  22752374.720    94563579.56506
  20026948.360   106980366.96008  20026950.120    83206951.28308
  22598516.660   120929215.62208  22598516.420    94056055.74106
  20199645.500   107827084.60209  20199647.500    83865521.89608
  21892811.100   117111799.77108  21892810.620    91086958.44407
 15 02 25 00 39 30.0000000  0 13G16G18G21G22G27G31R02R03R15R16R17R18
                                R19
  21082192.240   110787672.07809  21082188.440    86328039.48448
  21964704.660   115425383.18809  21964701.340    89941878.10047
  21760243.200   114350850.31209  21760238.800    89104543.40348
  22891436.760   120295408.22809  22891432.060    93736708.32247
  22316773.980   117275459.47709  22316773.440    91383480.57848
  23940643.380   125808894.95908  23940640.700    98032880.87946
  22374117.120   119392591.68008  22374119.500    92860922.99307
  22021312.740   117881831.83908  22021312.860    91685875.57807
  22777116.320   121713974.76908  22777121.140    94666429.62706
  20035521.020   107026161.82108  20035523.060    83242569.49308
  22612375.640   121003377.16508  22612375.300    94113736.86706
  20203840.720   107849479.28409  20203842.740    83882939.96508
  21882480.920   117056539.61609  21882480.300    91043978.31107
 15 02 25 00 40  0.0000000  0 13G16G18G21G22G27G31R02R03R15R16R17R18
                                R19
  21072019.940   110734215.87909  21072016.060    86286385.30748
  21957091.160   115385374.61909  21957088.140    89910702.60647
  21770387.960   114404161.79308  21770383.620    89146084.84148
  22874404.160   120205901.60809  22874399.540    93666962.94447
  22305387.560   117215623.45209  22305387.240    91336855.06948
  23958794.980   125904281.04508  23958792.300    98107207.50846
  22376321.700   119404355.80808  22376324.180    92870072.87207
  22005486.860   117797114.64308  22005486.800    91619984.44407
  22801884.880   121846329.31108  22801889.820    94769371.80607
  20044238.560   107072729.99908  20044240.740    83278789.14308
  22626231.320   121077521.09208  22626231.160    94171404.37807
  20208067.360   107872041.15909  20208069.500    83900488.04508
  21872182.880   117001451.26508  21872182.020    91001131.79007
 15 02 25 00 40 30.0000000  0 13G16G18G21G22G27G31R02R03R15R16R17R18
                                R19
  21061922.980   110681155.52509  21061919.100    86245039.56948
  21949558.060   115345788.27409  21949555.080    89879856.11547
  21780576.260   114457702.68809  21780572.080    89187804.97248
  22857403.460   120116562.21309  22857398.840    93597347.87547
  22294020.840   117155890.19909  22294019.660    91290309.71548
  23976950.340   125999687.44608  23976947.580    98181549.98446
  22378666.520   119416867.16008  22378669.420    92879803.93907
  21989744.900   117712847.42608  21989745.040    91554443.29307
  22826676.600   121978806.91108  22826681.540    94872409.70207
  20053102.500   107120079.41008  20053104.620    83315616.44608
  22640085.560   121151657.60508  22640085.960    94229066.12307
  20212326.980   107894779.60409  20212329.220    83918173.53708
  21861918.600   116946544.13009  21861917.820    90958426.29708
 15 02 25 00 41  0.0000000  0 13G16G18G21G22G27G31R02R03R15R16R17R18
                                R19
  21051901.700   110628493.58009  21051897.920    86204004.32248
  21942105.920   115306626.86409  21942102.700    89849340.73747
  21790808.040   114511471.81609  21790804.120    89229702.99648
  22840435.420   120027394.15409  22840430.660    93527866.30347
  22282673.580   117096260.79208  22282672.360    91243845.25348
  23995109.080   126095112.16908  23995106.580    98255906.71346
  22381151.140   119430126.44408  22381154.600    92890116.68407
  21974087.980   117629035.24308  21974088.380    91489256.04307
  22851490.860   122111405.01308  22851495.680    94975541.31406
  20062112.420   107168208.67008  20062114.640    83353050.29308
  22653938.800   121225787.40507  22653939.280    94286722.60907
  20216619.680   107917694.40309  20216621.960    83935996.14008
  21851687.880   116891818.54908  21851687.340    90915862.01307
 15 02 25 00 41 30.0000000  0 13G16G18G21G22G27G31R02R03R15R16R17R18
                                R19
  21041956.520   110576231.22809  21041952.660    86163280.40148
  21934734.840   115267890.96009  21934731.300    89819156.92647
  21801082.800   114565465.98409  21801078.920    89271776.32947
  22823500.180   119938398.64109  22823495.280    93458519.18547
  22271345.860   117036734.38308  22271345.100    91197461.06748
  24013270.460   126190551.46908  24013268.180    98330274.75546
  22383776.180   119444132.73809  22383778.980    92901010.51407
  21958516.840   117545681.56108  21958517.360    91424425.43907
  22876326.580   122244118.30207  22876331.400    95078762.48606
  20071267.600   107217114.07909  20071269.840    83391087.82008
  22667789.480   121299909.45607  22667791.020    94344372.91407
  20220944.780   107940783.42308  20220947.540    83953954.27308
  21841490.920   116837272.85009  21841490.580    90873437.56307
 15 02 25 00 42  0.0000000  0 13G16G18G21G22G27G31R02R03R15R16R17R18
                                R19
  21032086.320   110524362.55109  21032082.400    86122863.23648
  21927443.360   115229573.65609  21927439.640    89789299.30947
  21811398.580   114619675.73708  21811394.900    89314017.74248
  22806596.680   119849570.17309  22806591.800    93389302.24447
  22260036.440   116977303.02909  22260036.120    91151150.93448
  24031432.580   126285994.33008  24031430.720    98404645.61346
  22386539.660   119458877.66008  22386541.240    92912478.85707
  21943030.440   117462781.95508  21943030.960    91359947.98807
  22901181.540   122376934.82507  22901186.420    95182063.93106
  20080565.960   107266784.50808  20080568.220    83429720.37208
  22681637.460   121374014.95608  22681638.900    94402010.56506
  20225300.680   107964037.33609  20225304.100    83972040.71608
  21831326.100   116782898.01008  21831325.640    90831146.06907
 15 02 25 00 42 30.0000000  0 13G16G18G21G22G27G31R02R03R15R16R17R18
                                R19
  21022292.080   110472893.38309  21022288.180    86082757.37848
  21920232.820   115191681.43709  21920228.980    89759772.91347
  21821755.820   114674103.43008  21821752.060    89356428.90648
  22789726.280   119760915.43909  22789721.360    93320220.66347
  22248745.900   116917970.91209  22248745.240    91104918.10147
  24049595.660   126381441.48908  24049593.960    98479019.79746
  22389441.840   119474365.05509  22389443.660    92924524.50707
  21927630.500   117380344.86808  21927630.700    91295830.27907
  22926055.500   122509853.17007  22926060.540    95285444.56306
  20090007.820   107317221.43208  20090009.980    83468949.05008
  22695483.700   121448107.42908  22695484.780    94459638.04207
  20229688.380   107987459.29409  20229691.740    83990257.74308
  21821193.920   116728697.30209  21821193.120    90788989.98407
 15 02 25 00 43  0.0000000  0 13G16G18G21G22G27G31R02R03R15R16R17R18
                                R19
  21012573.480   110421821.99509  21012569.600    86042961.50848
  21913102.620   115154211.42909  21913098.780    89730575.50447
  21832153.400   114728742.80608  21832149.580    89399005.02548
  22772888.740   119672433.67409  22772883.700    93251273.87247
  22237473.920   116858734.42309  22237472.820    91058759.79848
  24067758.380   126476886.32808  24067756.360    98553392.17645
  22392482.540   119490590.60708  22392484.680    92937144.47207
  21912317.120   117298370.66408  21912316.900    91232072.58607
  22950947.200   122642866.18908  22950952.480    95388898.83006
  20099592.020   107368418.29809  20099594.180    83508768.83308
  22709326.580   121522182.78808  22709327.680    94517252.13707
  20234106.620   108011044.09509  20234110.000    84008601.46408
  21811093.340   116674665.98408  21811092.760    90746965.62108
 15 02 25 00 43 30.0000000  0 14G16G18G21G22G27G31R02R03R09R15R16R17
                                R18R19
  21002933.540   110371163.76609  21002929.620    86003487.56548
  21906055.560   115117178.36609  21906051.680    89701718.58447
  21842593.460   114783605.55708  21842589.620    89441755.22148
  22756087.100   119584140.58309  22756081.920    93182474.09847
  22226222.440   116799606.99209  22226221.660    91012686.50848
  24085922.620   126572339.30208  24085920.480    98627770.87545
  22395664.020   119507568.05008  22395666.740    92950349.08607
  21897093.480   117216877.24908  21897093.280    91168688.82707
  21522517.580   114929042.07305                                
  22975858.400   122775982.61908  22975863.760    95492433.51706
  20109320.600   107420385.64809  20109322.600    83549187.85908
  22723169.000   121596254.88408  22723170.260    94574863.75006
  20238557.720   108034804.42809  20238561.460    84027081.72308
  21801026.760   116620817.10609  21801026.440    90705083.20207
 15 02 25 00 44  0.0000000  0 14G16G18G21G22G27G31R02R03R09R15R16R17
                                R18R19
  20993370.860   110320911.72209  20993366.960    85964330.10448
  21899090.240   115080575.00509  21899086.280    89673196.50547
  21853074.080   114838681.33209  21853070.080    89484671.37248
  22739320.180   119496029.74209  22739314.860    93113816.34347
  22214990.060   116740579.87509  22214989.200    90966691.34548
  24104086.100   126667788.45108  24104084.000    98702146.61046
  22398984.740   119525287.53909  22398987.800    92964130.93508
  21881958.660   117135859.26808  21881958.720    91105674.88607
  21510799.480   114866467.55805                                
  23000786.520   122909189.35008  23000792.020    95596038.41206
  20119191.220   107473111.58509  20119193.060    83590196.89208
  22737008.960   121670313.74008  22737008.900    94632465.13706
  20243039.920   108058729.97409  20243043.300    84045690.46508
  21790992.580   116567140.67709  21790992.180    90663334.92308
 15 02 25 00 44 30.0000000  0 14G16G18G21G22G27G31R02R03R09R15R16R17
                                R18R19
  20983886.080   110271069.19809  20983882.200    85925491.80248
  21892207.120   115044404.07109  21892203.220    89645011.36747
  21863595.100   114893969.67808  21863591.060    89527753.21748
  22722588.680   119408104.91109  22722583.260    93045303.51747
  22203776.940   116681654.62609  22203776.060    90920775.59248
  24122248.660   126763232.53308  24122246.840    98776518.32745
  22402444.980   119543750.18309  22402447.700    92978490.78007
  21866913.760   117055322.36108  21866913.840    91043035.09607
  21499212.200   114804592.35606  21499213.520    89292470.56902
  23025731.000   123042483.58107  23025736.560    95699711.35606
  20129203.500   107526594.51509  20129205.240    83631794.71808
  22750846.260   121744360.59608  22750845.720    94690057.06006
  20247553.240   108082821.23009  20247556.180    84064428.10208
  21780990.660   116513637.31308  21780989.940    90621721.16607
 15 02 25 00 45  0.0000000  0 14G16G18G21G22G27G31R02R03R09R15R16R17
                                R18R19
  20974479.820   110221639.00709  20974475.900    85886974.77848
  21885406.680   115008668.03709  21885402.880    89617165.12648
  21874156.220   114949468.60509  21874152.220    89570999.14648
  22705893.280   119320369.71609  22705887.780    92976938.48147
  22192583.320   116622832.10509  22192582.700    90874939.87448
  24140409.860   126858668.96908  24140408.100    98850884.14446
  22406044.540   119562956.36608  22406045.560    92993428.98306
  21851959.640   116975271.59008  21851959.580    90980773.41407
  21487756.580   114743419.99807  21487757.960    89244892.08603
  23050691.060   123175861.15008  23050696.700    95803449.10906
  20139356.940   107580832.35009  20139358.620    83673979.71308
  22764681.420   121818395.81108  22764681.000    94747640.01107
  20252097.380   108107077.70909  20252099.880    84083294.24808
  21771020.940   116460306.82508  21771020.340    90580241.89307
 15 02 25 00 45 30.0000000  0 14G16G18G21G22G27G31R02R03R09R15R16R17
                                R18R19
  20965152.460   110172622.92609  20965148.400    85848780.38348
  21878689.200   114973368.15109  21878685.520    89589658.72347
  21884757.180   115005176.90709  21884753.140    89614408.17647
  22689234.520   119232827.01309  22689228.960    92908723.42447
  22181409.420   116564112.61509  22181408.660    90829184.41848
  24158569.080   126954095.09308  24158567.300    98925241.86746
  22409782.860   119582905.79909  22409784.380    93008945.13308
  21837096.980   116895710.68208  21837096.820    90918892.70807
  21476433.020   114682952.91808  21476434.280    89197862.11904
  23075666.060   123309318.51408  23075671.760    95907248.90706
  20149651.140   107635822.02509  20149652.860    83716749.43408
  22778514.620   121892419.52608  22778514.540    94805213.92207
  20256672.280   108131498.48409  20256675.180    84102288.19008
  21761083.400   116407148.58009  21761083.020    90538896.63608
 15 02 25 00 46  0.0000000  0 14G16G18G21G22G27G31R02R03R09R15R16R17
                                R18R19
  20955904.600   110124024.66309  20955900.400    85810911.60448
  21872055.260   114938507.23109  21872051.720    89562494.37047
  21895397.980   115061094.17409  21895393.820    89657980.08248
  22672613.000   119145480.35209  22672607.440    92840661.11147
  22170255.220   116505497.75809  22170254.460    90783510.50148
  24176726.020   127049509.44808  24176724.180    98999590.44146
  22413660.900   119603599.37409  22413662.380    93025040.14206
  21822326.900   116816645.48008  21822326.780    90857397.57407
  21465242.360   114623195.30508  21465243.580    89151383.97204
  23100655.440   123442852.65307  23100661.160    96011108.40006
  20160085.740   107691562.11908  20160087.640    83760102.83208
  22792345.820   121966432.81208  22792346.100    94862779.75007
  20261277.960   108156084.00709  20261280.840    84121410.28108
  21751178.420   116354163.71308  21751178.100    90497686.18307
 15 02 25 00 46 30.0000000  0 14G16G18G21G22G27G31R02R03R09R15R16R17
                                R18R19
  20946735.080   110075838.58909  20946731.000    85773364.03448
  21865503.720   114904079.21309  21865500.320    89535667.37247
  21906076.820   115117211.23709  21906072.540    89701707.61847
  22656027.860   119058325.21309  22656022.300    92772748.05347
  22159119.820   116446980.27309  22159119.100    90737912.47048
  24194878.660   127144901.46808  24194877.040    99073921.58545
  22417676.940   119625028.79108  22417678.260    93041707.53308
  21807648.740   116738072.60608  21807648.920    90796285.37407
  21454183.680   114564141.98908  21454184.820    89105453.61705
  23125656.840   123576451.55207  23125662.660    96115018.27506
  20170658.780   107748042.04208  20170660.800    83804031.65008
  22806173.920   122040427.62708  22806173.640    94920331.24406
  20265913.140   108180825.65009  20265915.600    84140653.75008
  21741304.400   116301343.21609  21741304.040    90456603.55607
 15 02 25 00 47  0.0000000  0 14G16G18G21G22G27G31R02R03R09R15R16R17
                                R18R19
  20937646.060   110028075.45909  20937642.020    85736146.00148
  21859036.500   114870094.22609  21859033.160    89509185.57847
  21916794.920   115173534.89608  21916790.620    89745596.22948
  22639481.320   118971372.96009  22639475.720    92704993.09447
  22148004.480   116388569.03009  22148003.680    90692397.25448
  24213028.180   127240277.28808  24213026.900    99148240.11046
  22421831.820   119647202.49708  22421833.580    93058953.69707
  21793064.820   116660004.66408  21793065.180    90735565.88007
  21443258.980   114505804.17209  21443260.020    89060079.75705
  23150671.400   123710120.83607  23150677.180    96218982.87006
  20181371.380   107805267.45308  20181373.500    83848540.29508
  22820000.180   122114412.89408  22819998.620    94977875.32806
  20270578.760   108205731.22009  20270581.760    84160024.73408
  21731462.520   116248695.39309  21731461.780    90415655.29708
 15 02 25 00 47 30.0000000  0 14G16G18G21G22G27G31R02R03R09R15R16R17
                                R18R19
  20928637.140   109980733.24609  20928633.020    85699255.96548
  21852653.180   114836549.67709  21852649.740    89483046.98147
  21927551.180   115230058.95109  21927546.760    89789640.94148
  22622973.060   118884621.86309  22622967.420    92637394.87547
  22136908.760   116330260.18909  22136907.040    90646961.74948
  24231173.260   127335629.50408  24231172.500    99222540.20546
  22426125.700   119670115.60308  22426127.340    93076775.10307
  21778575.260   116582441.59508  21778575.660    90675239.06107
  21432467.940   114448180.32408  21432468.920    89015261.20705
  23175697.500   123843851.25207  23175703.240    96322994.97106
  20192222.220   107863231.23008  20192224.480    83893623.21408
  22833823.260   122188384.06808  22833822.680    95035408.43207
  20275274.300   108230795.72009  20275277.380    84179519.34708
  21721651.720   116196215.45108  21721651.460    90374837.59108
 15 02 25 00 48  0.0000000  0 14G16G18G21G22G27G31R02R03R09R15R16R17
                                R18R19
  20919708.900   109933815.28609  20919704.860    85662696.53648
  21846354.240   114803448.29009  21846350.620    89457253.69447
  21938345.520   115286783.65608  21938341.120    89833842.01448
  22606503.900   118798076.16609  22606498.260    92569956.70947
  22125832.880   116272055.40308  22125831.540    90601607.40148
  24249313.660   127430956.93608  24249313.160    99296821.00146
  22430558.060   119693769.10708  22430560.020    93095172.22107
  21764181.100   116505388.91508  21764181.480    90615309.20107
  21421811.380   114391274.31408  21421812.240    88971000.98505
  23200734.540   123977640.12507  23200740.260    96427052.54906
  20203210.880   107921931.44908  20203213.200    83939278.91908
  22847644.100   122262342.36008  22847643.660    95092931.51707
  20279999.480   108256019.39909  20280002.300    84199137.76008
  21711872.660   116143903.90809  21711872.420    90334150.81908
 15 02 25 00 48 30.0000000  0 14G16G18G21G22G27G31R02R03R09R15R16R17
                                R18R19
  20910863.200   109887331.17909  20910859.240    85626475.14148
  21840141.320   114770799.22209  21840137.780    89431812.87047
  21949179.080   115343714.71609  21949174.660    89878203.85848
  22590075.840   118711746.22509  22590070.160    92502686.64147
  22114777.820   116213962.77809  22114777.140    90556340.49048
  24267450.380   127526264.92608  24267449.960    99371086.61146
  22435130.840   119718170.42309  22435132.240    93114151.07807
  21749884.740   116428858.86908  21749884.880    90555785.87807
  21411291.200   114335096.62508  21411291.840    88927307.25105
  23225783.380   124111492.20807  23225789.240    96531159.25006
  20214338.420   107981373.04509  20214340.780    83985511.25708
  22861464.040   122336295.99808  22861463.980    95150450.94206
  20284755.420   108281409.48709  20284758.840    84218885.63108
  21702126.480   116091768.25408  21702126.120    90293600.88907
 15 02 25 00 49  0.0000000  0 14G16G18G21G22G27G31R02R03R09R15R16R17
                                R18R19
  20902096.880   109841263.55709  20902092.960    85590578.27448
  21834011.040   114738584.60409  21834007.600    89406710.58747
  21960047.760   115400830.74509  21960043.460    89922709.81947
  22573685.640   118625615.26409  22573680.040    92435571.63747
  22103741.040   116155963.18509  22103740.060    90511145.92248
  24285579.360   127621530.92608  24285578.700    99445319.51046
  22439840.320   119743298.68508  22439842.100    93133695.30907
  21735682.900   116352835.17708  21735683.000    90496656.36607
  21400904.060   114279629.80708  21400904.540    88884166.40605
  23250839.580   124245382.83107  23250845.460    96635295.90206
  20225600.520   108041533.06609  20225602.860    84032302.37808
  22875279.020   122410224.58708  22875279.520    95207950.97506
  20289538.720   108306945.21509  20289542.620    84238746.76408
  21692409.260   116039787.77609  21692408.940    90253171.62608
 15 02 25 00 49 30.0000000  0 14G16G18G21G22G27G31R02R03R09R15R16R17
                                R18R19
  20893414.100   109795635.02409  20893410.180    85555023.56648
  21827967.700   114706826.38109  21827964.300    89381963.92347
  21970955.180   115458150.09509  21970950.920    89967374.28147
  22557337.720   118539706.53209  22557332.220    92368629.79347
  22092725.580   116098077.35109  22092724.940    90466040.10648
  24303703.760   127716772.43408  24303702.720    99519533.28546
  22444689.240   119769174.55309  22444691.100    93153820.96606
  21721580.360   116277343.40908  21721580.320    90437940.55907
  21390654.240   114224897.14108  21390654.980    88841596.50505
  23275906.120   124379328.55007  23275912.160    96739475.36106
  20237000.440   108102428.99909  20237002.620    84079665.86508
  22889093.500   122484149.10408  22889094.020    95265447.76107
  20294353.380   108332646.40609  20294356.840    84258736.56208
  21682724.800   115987982.78508  21682724.740    90212878.85108
 15 02 25 00 50  0.0000000  0 14G16G18G21G22G27G31R02R03R09R15R16R17
                                R18R19
  20884811.980   109750430.61809  20884808.020    85519799.38848
  21822008.260   114675508.78409  21822004.660    89357560.59747
  21981898.140   115515655.55109  21981893.840    90012183.70347
  22541029.360   118454005.86409  22541024.040    92301850.08447
  22081728.740   116040288.86109  22081728.020    90421010.12848
  24321819.760   127811969.97708  24321818.400    99593712.78945
  22449675.280   119795779.58008  22449677.020    93174513.81807
  21707574.720   116202370.24708  21707574.540    90379628.10807
  21380539.200   114170883.91308  21380540.140    88799586.23805
  23300978.920   124513307.83507  23300985.160    96843680.91006
  20248534.300   108164040.72109  20248536.480    84127586.07308
  22902904.460   122558052.47908  22902905.200    95322928.14907
  20299195.900   108358495.39609  20299199.200    84278841.27408
  21673069.820   115936335.23509  21673069.860    90172708.55908
 15 02 25 00 50 30.0000000  0 14G16G18G21G22G27G31R02R03R09R15R16R17
                                R18R19
  20876292.960   109705662.39809  20876288.880    85484915.05648
  21816134.740   114644643.29409  21816130.900    89333509.57647
  21992878.000   115573354.86309  21992873.600    90057144.21648
  22524763.060   118368525.98009  22524757.880    92235242.41347
  22070752.500   115982608.11508  22070751.040    90376064.04148
  24339928.760   127907130.99408  24339927.440    99667863.82046
  22454799.480   119823123.94108  22454801.220    93195781.66108
  21693668.620   116127929.92308  21693668.680    90321730.11208
  21370561.320   114117602.85408  21370562.360    88758145.46505
  23326059.260   124647327.62807  23326065.700    96947917.90806
  20260203.400   108226375.20209  20260205.780    84176068.43208
  22916713.240   122631944.64008  22916713.980    95380399.74307
  20304067.940   108384501.27809  20304071.120    84299068.12508
  21663446.300   115884854.92708  21663446.060    90132668.32108
 15 02 25 00 51  0.0000000  0 14G16G18G21G22G27G31R02R03R09R15R16R17
                                R18R19
  20867858.380   109661337.77109  20867854.240    85450376.36448
  21810348.520   114614236.74409  21810344.640    89309816.18547
  22003895.480   115631251.49108  22003891.060    90102258.48648
  22508540.360   118283274.97209  22508535.160    92168813.08147
  22059797.640   115925040.73909  22059796.820    90331206.39048
  24358031.160   128002258.08808  24358029.980    99741988.36146
  22460063.160   119851211.81609  22460065.400    93217627.78608
  21679863.820   116054031.80108  21679863.800    90264253.80708
  21360722.180   114065061.53109  21360723.020    88717279.94305
  23351147.440   124781388.98607  23351154.000    97052187.22206
  20272008.260   108289434.53808  20272010.700    84225114.57808
  22930520.900   122705831.14508  22930521.260    95437867.02806
  20308970.260   108410668.95709  20308973.200    84319420.72208
  21653854.700   115833546.58808  21653854.320    90092761.88807
 15 02 25 00 51 30.0000000  0 14G16G18G21G22G27G31R02R03R09R15R16R17
                                R18R19
  20859505.420   109617442.67609  20859501.260    85416172.39548
  21804646.820   114584274.36109  21804643.120    89286468.87147
  22014946.960   115689327.26108  22014942.660    90147512.31248
  22492358.600   118198239.30709  22492353.320    92102551.54447
  22048861.760   115867571.05409  22048860.540    90286424.83648
  24376123.480   128097332.27108  24376122.380    99816071.68546
  22465463.140   119880026.22808  22465465.340    93240039.00207
  21666158.120   115980663.36108  21666158.200    90207189.49208
  21351018.900   114013245.99308  21351019.820    88676978.95805
  23376239.680   124915471.69107  23376246.240    97156473.06906
  20283945.140   108353199.19008  20283947.560    84274709.28208
  22944324.300   122779695.18508  22944324.380    95495316.79606
  20313899.500   108436980.97408  20313902.300    84339885.59208
  21644292.120   115782393.28908  21644291.800    90052976.02208
 15 02 25 00 52  0.0000000  0 14G16G18G21G22G27G31R02R03R09R15R16R17
                                R18R19
  20851237.820   109573996.43109  20851233.660    85382318.18648
  21799033.220   114554774.75609  21799029.680    89263482.17347
  22026035.480   115747598.26808  22026031.220    90192918.28248
  22476221.580   118113439.21209  22476216.320    92036473.57947
  22037947.740   115810216.81109  22037946.400    90241733.25148
  24394208.500   128192368.30808  24394207.600    99890125.26146
  22471001.840   119909583.91408  22471004.300    93263028.31908
  21652555.400   115907846.83408  21652555.400    90150554.44907
  21341455.120   113962176.26508  21341455.960    88637258.08005
  23401338.520   125049589.38807  23401345.180    97260786.14806
  20296016.840   108417683.50809  20296019.180    84324863.75408
  22958126.740   122853555.07107  22958126.720    95552763.30306
  20318858.760   108463454.35109  20318861.560    84360476.01208
  21634761.520   115731412.03008  21634761.600    90013323.87608
 15 02 25 00 52 30.0000000  0 14G16G18G21G22G27G31R02R03R09R15R16R17
                                R18R19
  20843053.380   109530987.02609  20843049.300    85348804.38548
  21793505.320   114525725.40109  21793501.740    89240846.32847
  22037158.260   115806049.18908  22037154.140    90238464.46048
  22460127.200   118028863.29209  22460122.000    91970570.29547
  22027053.180   115752964.48709  22027051.940    90197121.05948
  24412283.100   128287349.59808  24412282.340    99964136.14045
  22476677.260   119939869.73909  22476680.140    93286583.93008
  21639053.800   115835571.69608  21639053.780    90094340.48208
  21332028.740   113911840.26608  21332029.260    88598107.83005
  23426440.560   125183723.59807  23426447.280    97365112.00706
  20308220.080   108482870.03209  20308222.300    84375564.36508
  22971925.480   122927396.25608  22971925.840    95610195.29607
  20323845.560   108490074.19309  20323847.600    84381180.30708
  21625260.080   115680587.72008  21625260.820    89973793.90708
 15 02 25 00 53  0.0000000  0 14G16G18G21G22G27G31R02R03R09R15R16R17
                                R18R19
  20834954.760   109488428.49609  20834950.820    85315641.88048
  21788065.640   114497139.64509  21788061.940    89218571.72347
  22048317.240   115864690.23508  22048313.180    90284158.76848
  22444078.320   117944526.32809  22444073.240    91904853.20947
  22016180.020   115695826.35209  22016178.940    90152597.84148
  24430348.980   128382285.24508  24430348.480   100038111.43446
  22482491.680   119970895.11808  22482494.600    93310714.74607
  21625656.280   115763853.77908  21625656.260    90038559.89007
  21322742.340   113862252.49508  21322742.860    88559539.57405
  23451547.480   125317883.54807  23451554.240    97469457.86006
  20320556.360   108548767.36809  20320558.440    84426817.83408
  22985723.360   123001230.90508  22985723.960    95667622.20207
  20328861.860   108516851.77009  20328863.960    84402007.32608
  21615790.580   115629932.16009  21615791.540    89934395.15608
 15 02 25 00 53 30.0000000  0 14G16G18G21G22G27G31R02R03R09R15R16R17
                                R18R19
  20826940.340   109446312.41409  20826936.400    85282824.15048
  21782712.460   114469008.31309  21782708.640    89196651.22147
  22059510.080   115923509.31609  22059506.140    90329991.75447
  22428073.500   117860420.55809  22428068.460    91839316.26247
  22005326.840   115638792.59309  22005325.680    90108155.94048
  24448403.740   128477162.24308  24448403.520   100112041.01045
  22488442.260   120002648.35509  22488444.240    93335411.78807
  21612361.780   115692687.11108  21612361.940    89983208.07308
  21313594.520   113813404.50108  21313595.280    88521546.67705
  23476656.180   125452053.26408  23476663.120    97573811.27106
  20333023.060   108615361.70708  20333025.100    84478613.42908
  22999518.000   123075048.52408  22999518.960    95725035.90806
  20333905.540   108543776.00209  20333907.520    84422948.37908
  21606350.980   115579434.26109  21606351.460    89895119.00608
 15 02 25 00 54  0.0000000  0 14G16G18G21G22G27G31R02R03R09R15R16R17
                                R18R19
  20819011.920   109404648.53009  20819008.000    85250358.80848
  21777447.520   114441340.53609  21777443.700    89175091.92647
  22070737.940   115982512.66808  22070734.140    90375968.43747
  22412114.780   117776556.76609  22412109.680    91773967.86447
  21994494.840   115581871.30009  21994494.020    90063801.73348
  24466448.460   128571985.65908  24466448.260   100185928.81945
  22494530.520   120035136.52808  22494532.280    93360680.41007
  21599172.300   115622083.23908  21599172.300    89928293.95407
  21304587.340   113765306.49908  21304588.280    88484137.12005
  23501767.680   125586237.93408  23501774.880    97678176.27305
  20345621.040   108682657.56209  20345623.140    84530954.64508
  23013310.480   123148857.34306  23013311.840    95782442.69606
  20338978.160   108570853.96609  20338980.020    84444009.01308
  21596942.120   115529101.09108  21596941.420    89855970.96707
 15 02 25 00 54 30.0000000  0 14G16G18G21G22G27G31R02R03R09R15R16R17
                                R18R19
  20811167.840   109363428.23709  20811164.100    85218239.09148
  21772268.980   114414127.31309  21772265.240    89153886.83347
  22081998.620   116041688.06208  22081994.800    90422079.12348
  22396200.600   117692926.85709  22396195.420    91708801.71047
  21983682.700   115525052.72109  21983681.540    90019527.49348
  24484480.640   128666742.72408  24484480.540   100259764.89545
  22500753.880   120068348.23209  22500756.700    93386511.64008
  21586086.620   115552035.53508  21586086.780    89873812.42107
  21295719.060   113717949.96808  21295719.980    88447304.29205
  23526879.080   125720422.01108  23526886.380    97782540.83705
  20358347.620   108750640.80908  20358349.740    84583830.49608
  23027099.080   123222646.80108  23027100.280    95839834.38006
  20344077.700   108598074.42109  20344079.700    84465180.46508
  21587561.760   115478921.86208  21587560.260    89816942.70807
 15 02 25 00 55  0.0000000  0 15G16G18G21G22G27G31R02R03R04R09R15R16
                                R17R18R19
  20803410.220   109322661.67109  20803406.460    85186472.95448
  21767178.660   114387377.62009  21767174.900    89133042.94047
  22093293.220   116101041.52009  22093289.340    90468328.55547
  22380332.940   117609541.69609  22380327.740    91643826.29747
  21972891.580   115468345.01109  21972890.260    89975339.68148
  24502501.240   128761438.54008  24502501.220   100333553.23245
  22507114.740   120102290.06309  22507117.720    93412910.85106
  21573107.300   115482555.99408  21573107.300    89819772.78907
  23571018.500   126221724.30708  23571020.540                  
  21286991.540   113671345.08408  21286992.260    88411056.02405
  23551991.260   125854609.96207  23551998.520    97886908.41005
  20371203.700   108819316.10308  20371205.840    84637244.62208
  23040886.380   123296424.61008  23040887.160    95897217.12806
  20349205.420   108625444.72309  20349207.420    84486468.48108
  21578211.100   115428903.67908  21578209.860    89778039.67507
 15 02 25 00 55 30.0000000  0 15G16G18G21G22G27G31R02R03R04R09R15R16
                                R17R18R19
  20795739.120   109282349.47209  20795735.180    85155060.81448
  21762176.460   114361091.20409  21762172.700    89112560.02147
  22104621.320   116160570.86609  22104617.580    90514715.06547
  22364512.160   117526402.99409  22364506.960    91579042.91947
  21962121.560   115411747.79009  21962120.420    89931237.94548
  24520509.540   128856069.56008  24520509.420   100407291.02945
  22513612.140   120136960.52809  22513614.120    93439876.84406
  21560234.800   115413647.66208  21560234.660    89766177.44808
  23548037.900   126098665.14807  23548040.720    98076754.72605
  21278405.000   113625492.88908  21278405.780    88375393.21605
  23577103.300   125988797.27707  23577110.640    97991275.44706
  20384188.440   108888678.96909  20384190.620    84691193.50908
  23054671.620   123370190.41007  23054672.480    95954590.48506
  20354360.860   108652963.22709  20354362.520    84507871.78208
  21568890.280   115379044.88009  21568889.560    89739260.63808
 15 02 25 00 56  0.0000000  0 15G16G18G21G22G27G31R02R03R04R09R15R16
                                R17R18R19
  20788155.100   109242495.25609  20788151.120    85124005.60448
  21757263.020   114335271.36509  21757259.320    89092440.67447
  22115982.900   116220275.66309  22115979.040    90561238.25247
  22348739.020   117443514.60209  22348733.760    91514454.59747
  21951372.680   115355262.50409  21951372.060    89887223.47548
  24538505.180   128950634.26808  24538505.180   100480977.12645
  22520245.860   120172359.32909  22520247.820    93467409.20107
  21547469.680   115345315.41908  21547469.600    89713030.16108
  23525050.360   125975570.53108  23525053.540    97981014.94705
  21269959.900   113580396.59608  21269960.760    88340318.29005
  23602214.440   126122980.16807  23602221.980    98095639.06806
  20397301.460   108958726.87808  20397303.700    84745675.20208
  23068454.200   123443945.12807  23068455.820    96011955.17406
  20359544.160   108680630.40109  20359545.800    84529390.66008
  21559599.560   115329346.23108  21559599.120    89700606.13407
 15 02 25 00 56 30.0000000  0 15G16G18G21G22G27G31R02R03R04R09R15R16
                                R17R18R19
  20780655.960   109203086.99409  20780651.960    85093297.85048
  21752435.880   114309905.20909  21752432.300    89072674.85048
  22127374.820   116280140.52508  22127371.000    90607886.24848
  22333011.380   117360865.39109  22333006.120    91450052.64247
  21940642.720   115298876.09709  21940642.300    89843286.00748
  24556485.100   129045116.11908  24556485.180   100554598.67445
  22527013.420   120208471.19709  22527015.560    93495496.30108
  21534810.300   115277549.27508  21534810.260    89660323.17108
  23502054.760   125852430.84907  23502058.080    97885240.04105
  21261654.100   113536044.34408  21261654.900    88305822.14805
  23627321.540   126257142.31107  23627329.380    98199986.53106
  20410539.600   109029442.50208  20410541.880    84800676.23608
  23082232.420   123517674.85108  23082233.920    96069300.49106
  20364752.540   108708431.54909  20364754.080    84551013.79808
  21550336.100   115279793.22609  21550335.640    89662064.92207
 15 02 25 00 57  0.0000000  0 15G16G18G21G22G27G31R02R03R04R09R15R16
                                R17R18R19
  20773246.940   109164152.45709  20773243.020    85062959.26048
  21747700.360   114285019.89709  21747696.900    89053283.69848
  22138801.720   116340189.14009  22138797.860    90654677.31947
  22317334.720   117278484.04409  22317329.500    91385859.42247
  21929936.480   115242614.74409  21929935.860    89799445.99648
  24574453.600   129139538.48308  24574453.720   100628173.80145
  22533919.320   120245321.43408  22533921.660    93524157.53407
  21522262.320   115210378.88608  21522262.180    89608079.55308
  23479056.500   125729276.56406  23479059.720    97789453.74406
  21253493.120   113492464.37308  21253493.700    88271926.57605
  23652428.820   126391305.66307  23652436.920    98304334.96106
  20423907.020   109100848.70508  20423909.340    84856214.39508
  23096011.080   123591406.04507  23096011.940    96126647.01706
  20369990.440   108736392.30909  20369991.980    84572761.03908
  21541104.720   115230411.54108  21541104.280    89623656.90808
 15 02 25 00 57 30.0000000  0 14G16G18G21G22G27G31R02R03R04R09R16R17
                                R18R19
  20765925.220   109125676.88209  20765921.380    85032978.29548
  21743053.400   114260599.45009  21743049.880    89034254.79347
  22150260.340   116400404.06408  22150256.260    90701598.04547
  22301706.340   117196356.24509  22301701.140    91321863.75547
  21919250.960   115186462.19609  21919250.360    89755690.80748
  24592407.060   129233881.95908  24592407.360   100701687.44845
  22540959.760   120282891.81408  22540962.360    93553378.88307
  21509823.260   115143791.52208  21509823.260    89556289.41908
  23456052.840   125606094.56007  23456056.020    97693645.92406
  21245473.800   113449641.31808  21245474.260    88238619.75305
  20437399.780   109172924.53009  20437401.940    84912273.34208
  23109786.700   123665121.88708  23109788.240    96183981.45707
  20375254.840   108764495.17909  20375256.780    84594618.81008
  21531902.080   115181183.58809  21531901.660    89585368.52808
 15 02 25 00 58  0.0000000  0 14G16G18G21G22G27G31R02R03R04R09R16R17
                                R18R19
  20758692.140   109087666.88509  20758688.200    85003360.10748
  21738496.020   114236650.32509  21738492.560    89015593.16147
  22161751.220   116460788.59409  22161747.020    90748650.92548
  22286127.720   117114489.82409  22286122.480    91258071.75747
  21908587.220   115130424.02509  21908586.560    89712024.69948
  24610346.080   129328149.21108  24610346.600   100775141.68445
  22548135.880   120321185.89108  22548138.100    93583163.31107
  21497494.780   115077796.04908  21497494.780    89504959.62108
  23433045.680   125482894.10707  23433048.820    97597823.70406
  21237597.580   113407582.33408  21237598.000    88205907.18705
  20451018.220   109245671.55409  20451020.360    84968854.36308
  23123560.520   123738827.43307  23123562.420    96241307.92607
  20380546.720   108792744.46609  20380548.900    84616590.50708
  21522728.820   115132113.70408  21522728.200    89547203.07807
 15 02 25 00 58 30.0000000  0 14G16G18G21G22G27G31R02R03R04R09R16R17
                                R18R19
  20751547.360   109050120.89109  20751543.400    84974103.48748
  21734027.880   114213170.54009  21734024.460    88997297.22547
  22173273.380   116521337.52509  22173269.000    90795831.87447
  22270598.720   117032884.45209  22270593.440    91194483.19047
  21897944.860   115074497.36009  21897943.860    89668445.47348
  24628269.500   129422334.23608  24628270.200   100848531.81145
  22555446.820   120360199.05508  22555449.300    93613506.86608
  21485276.960   115012392.59808  21485277.000    89454090.27708
  23410035.260   125359676.01107  23410038.400    97501987.76506
  21229864.180   113366285.99508  21229864.660    88173787.82905
  20464761.000   109319082.46009  20464763.080    85025951.72808
  23137331.700   123812519.88908  23137333.500    96298624.07306
  20385865.420   108821136.37109  20385866.980    84638673.11008
  21513584.680   115083198.08709  21513583.480    89509157.58607
 15 02 25 00 59  0.0000000  0 14G16G18G21G22G27G31R02R03R04R09R16R17
                                R18R19
  20744490.880   109013038.61309  20744486.940    84945208.18048
  21729648.820   114190158.29609  21729645.300    88979365.62847
  22184826.080   116582046.85809  22184821.560    90843137.86648
  22255119.320   116951540.13709  22255113.980    91131098.03048
  21887323.320   115018680.32309  21887321.820    89624951.68248
  24646176.380   129516431.94508  24646177.160   100921853.88146
  22562891.700   120399927.63408  22562894.680    93644406.83007
  21473169.940   114947582.56108  21473169.820    89403682.50308
  23387021.940   125236441.91308  23387024.980    97406139.34506
  21222273.340   113325751.43708  21222274.160    88142260.93205
  20478626.920   109393151.33408  20478629.020    85083560.83208
  23151100.280   123886196.56308  23151101.220    96355928.14206
  20391210.240   108849667.63409  20391211.680    84660864.08208
  21504468.900   115034433.69609  21504467.600    89471229.74408
 15 02 25 00 59 30.0000000  0 14G16G18G21G22G27G31R02R03R04R09R16R17
                                R18R19
  20737524.560   108976430.40909  20737520.640    84916682.33248
  21725360.620   114167623.64209  21725357.060    88961806.15247
  22196410.500   116642923.41709  22196405.980    90890574.14247
  22239691.660   116870467.54309  22239686.240    91067924.61148
  21876724.200   114962981.72609  21876723.060    89581550.18348
  24664067.760   129610447.89208  24664068.560   100995112.22046
  22570471.880   120440378.90408  22570475.120    93675868.90206
  21461175.980   114883378.35308  21461175.900    89353745.90508
  23364008.080   125113204.39607  23364010.660    97310288.24306
  21214826.940   113285989.14208  21214828.080    88111334.72505
  20492616.900   109467882.96708  20492619.000    85141685.42308
  23164867.700   123959866.14608  23164867.880    96413226.72805
  20396582.660   108878346.24909  20396584.500    84683169.63008
  21495382.740   114985828.49508  21495381.820    89433425.68008
 15 02 25 01 00  0.0000000  0 14G16G18G21G22G27G31R02R03R04R09R16R17
                                R18R19
  20730647.200   108940289.74609  20730643.300    84888520.77048
  21721161.740   114145558.74909  21721158.240    88944612.75148
  22208024.840   116703957.49908  22208020.500    90938133.17948
  22224314.880   116789661.87209  22224309.340    91004959.16847
  21866146.320   114907393.88209  21866144.780    89538235.00448
  24681941.620   129704371.79608  24681942.600   101068298.82545
  22578186.080   120481542.83008  22578188.700    93707885.35207
  21449294.220   114819774.99808  21449294.220    89304276.63308
  23340992.800   124989959.43908  23340994.940    97214431.37906
  21207523.860   113246992.21608  21207524.540    88081003.74905
  20506728.600   109543264.99409  20506730.580    85200315.88008
  23178632.160   124033520.38708  23178631.760    96470513.35606
  20401980.820   108907163.33908  20401982.840    84705582.91608
  21486324.680   114937373.56209  21486323.820    89395738.54608
 15 02 25 01 00 30.0000000  0 13G16G18G21G22G27R02R03R04R09R16R17R18
                                R19
  20723856.580   108904604.81009  20723852.600    84860714.32848
  21717050.040   114123951.26809  21717046.480    88927775.76547
  22219666.200   116765133.55808  22219661.980    90985802.83748
  22208986.680   116709111.49509  22208981.120    90942192.66748
  21855586.740   114851903.56409  21855585.460    89494995.80548
  22586030.880   120523404.04808  22586033.380    93740444.05307
  21437522.920   114756762.19008  21437522.980    89255266.68408
  23317974.000   124866697.07507  23317976.200    97118560.96606
  21200362.020   113208748.52008  21200362.780    88051258.63006
  20520958.800   109619279.98409  20520960.840    85259438.64008
  23192390.420   124107145.56407  23192390.520    96527777.24406
  20407402.260   108936104.23209  20407404.220    84728092.49108
  21477292.040   114889054.32209  21477291.140    89358156.93208
 15 02 25 01 01  0.0000000  0 13G16G18G21G22G27R02R03R04R09R16R17R18
                                R19
  20717161.160   108869419.85209  20717156.980    84833297.46148
  21713033.740   114102844.84609  21713030.060    88911329.20148
  22231342.320   116826492.70009  22231338.280    91033615.15248
  22193715.620   116628861.85409  22193710.160    90879660.51247
  21845054.140   114796554.01409  21845053.000    89451866.28448
  22594014.160   120566004.44208  22594016.980    93773577.68307
  21425870.660   114694387.12908  21425870.680    89206752.77908
  23294960.800   124743464.93007  23294963.120    97022714.02106
  21193349.720   113171303.18708  21193350.500    88022134.45905
  20535314.720   109695967.32508  20535316.960    85319084.33208
  23206151.300   124180785.08608  23206152.120    96585052.38506
  20412854.960   108965211.85709  20412856.960    84750731.71608
  21468292.660   114840913.43208  21468291.560    89320714.04808
 15 02 25 01 01 30.0000000  0 13G16G18G21G22G27R02R03R04R09R16R17R18
                                R19
  20710557.100   108834714.81209  20710552.920    84806254.60048
  21709108.700   114082218.46409  21709105.000    88895256.69747
  22243048.960   116888011.43209  22243044.920    91081551.81447
  22178497.960   116548893.34109  22178492.640    90817347.41648
  21834543.960   114741323.57109  21834543.000    89408829.59548
  22602131.580   120609319.88109  22602134.420    93807267.46907
  21414334.060   114632631.02508  21414334.020    89158720.27808
  23271949.960   124620244.74408  23271952.360    96926876.37406
  21186482.780   113134635.08008  21186484.220    87993614.93005
  20549791.560   109773300.58308  20549793.940    85379232.39508
  23219911.220   124254417.05908  23219912.340    96642321.64507
  20418334.620   108994463.02009  20418336.460    84773482.64508
  21459322.240   114792927.88609  21459321.440    89283391.95708
 15 02 25 01 02  0.0000000  0 13G16G18G21G22G27R02R03R04R09R16R17R18
                                R19
  20704042.440   108800479.64609  20704038.280    84779577.81448
  21705272.940   114062061.44909  21705269.320    88879549.94848
  22254783.480   116949676.55409  22254779.340    91129602.52747
  22163332.160   116469196.89509  22163326.800    90755246.29347
  21824054.360   114686201.03909  21824053.240    89365876.96548
  22610380.560   120653336.87208  22610383.200    93841502.95006
  21402911.440   114571485.40308  21402911.200    89111162.57208
  23248939.920   124497028.84807  23248942.400    96831042.06506
  21179759.800   113098733.96208  21179760.820    87965691.76605
  20564386.460   109851264.25308  20564388.840    85439870.80308
  23233667.920   124328029.35208  23233668.920    96699575.62506
  20423839.000   109023845.45709  20423840.580    84796335.64108
  21450378.600   114745085.29609  21450377.940    89246181.05108
 15 02 25 01 02 30.0000000  0 13G16G18G21G22G27R02R03R04R09R16R17R18
                                R19
  20697618.260   108766719.85509  20697614.060    84753271.47848
  21701527.380   114042378.30909  21701523.720    88864212.45548
  22266546.200   117011489.89609  22266541.840    91177768.79747
  22148219.460   116389778.85509  22148213.980    90693362.11047
  21813586.500   114631190.86809  21813584.960    89323011.87848
  22618761.400   120698057.92708  22618763.820    93876285.99707
  21391604.340   114510957.50708  21391604.380    89064085.32608
  23225932.560   124373825.26307  23225934.760    96735217.29806
  21173181.440   113063605.32608  21173182.460    87938369.54505
  20579099.400   109929858.13508  20579101.720    85500999.36308
  23247421.580   124401626.10307  23247422.140    96756817.52806
  20429368.740   109053362.33009  20429370.500    84819293.21908
  21441462.240   114697389.04708  21441461.820    89209083.99208
 15 02 25 01 03  0.0000000  0 13G16G18G21G22G27R02R03R04R09R16R17R18
                                R19
  20691286.180   108733444.70009  20691282.040    84727342.79648
  21697873.660   114023177.85409  21697870.000    88849251.06248
  22278338.280   117073457.70309  22278333.760    91226055.41847
  22133161.740   116310649.78909  22133156.220    90631703.12847
  21803141.280   114576301.06908  21803139.920    89280240.61848
  22627275.180   120743489.13108  22627277.720    93911621.33408
  21380414.800   114451058.84908  21380414.940    89017497.50008
  23202929.700   124250645.91208  23202931.720    96639411.40906
  21166749.360   113029258.17208  21166750.200    87911655.06705
  20593931.120   110009086.11709  20593933.340    85562621.11708
  23261173.240   124475215.23007  23261173.640    96814053.31706
  20434924.980   109083020.93109  20434926.880    84842361.00208
  21432574.280   114649846.16608  21432574.100    89172106.20608
 15 02 25 01 03 30.0000000  0 13G16G18G21G22G27R02R03R04R09R16R17R18
                                R19
  20685047.860   108700662.10709  20685043.700    84701797.91848
  21694313.020   114004466.49109  21694309.400    88834670.79447
  22290160.580   117135584.42208  22290156.080    91274465.81147
  22118160.540   116231818.11409  22118155.120    90570275.86547
  21792720.040   114521538.11509  21792718.600    89237568.17148
  22635922.680   120789634.34209  22635925.520    93947512.05007
  21369344.520   114391798.63908  21369344.480    88971406.25308
  23179933.220   124127500.94308  23179935.040    96543632.25906
  21160465.340   112995700.02409  21160465.900    87885554.25905
  20608881.920   110088949.99809  20608884.180    85624737.44808
  23274924.700   124548802.86508  23274925.060    96871288.14406
  20440508.640   109112826.61009  20440510.420    84865543.16108
  21423715.860   114602462.06409  21423715.740    89135251.90808
 15 02 25 01 04  0.0000000  0 13G16G18G21G22G27R02R03R04R09R16R17R18
                                R19
  20678900.860   108668359.64109  20678896.780    84676627.16748
  21690843.040   113986231.62809  21690839.340    88820461.82847
  22302010.200   117197854.48208  22302005.740    91322987.89747
  22103213.720   116153272.73609  22103208.480    90509071.70347
  21782320.360   114466888.78109  21782319.620    89194984.35448
  22644701.160   120836478.28708  22644703.900    93983946.23507
  21358391.520   114333166.62208  21358391.340    88925803.57208
  23156941.440   124004380.81208  23156943.020    96447872.37006
  21154326.460   112962918.17308  21154327.140    87860057.27205
  20623948.380   110169432.20609  20623950.780    85687334.70608
  23288673.520   124622375.31608  23288674.400    96928511.16706
  20446116.920   109142764.97209  20446119.180    84888828.58708
  21414884.860   114555222.30209  21414884.820    89098509.84808
 15 02 25 01 04 30.0000000  0 13G16G18G21G22G27R02R03R04R09R16R17R18
                                R19
  20672844.860   108636535.24309  20672840.800    84651828.91948
  21687462.960   113968469.84809  21687459.220    88806621.47547
  22313886.040   117260262.59509  22313881.700    91371617.62047
  22088320.980   116075011.27409  22088315.880    90448088.76248
  21771942.040   114412349.61109  21771941.120    89152486.26948
  22653609.440   120884014.90708  22653612.080    94020919.16006
  21347555.760   114275161.84008  21347555.440    88880688.76308
  23133954.140   123881285.08407  23133955.340    96352131.49506
  21148332.400   112930909.96808  21148332.840    87835161.96004
  20639128.940   110250524.10208  20639131.400    85750406.15408
  23302418.860   124695928.41408  23302420.440    96985719.03507
  20451749.320   109172831.28409  20451751.920    84912213.47608
  21406080.140   114508122.07209  21406079.760    89061876.35708
 15 02 25 01 05  0.0000000  0 13G16G18G21G22G27R02R03R04R09R16R17R18
                                R19
  20666884.100   108605211.46109  20666880.080    84627420.75848
  21684177.060   113951203.13609  21684173.420    88793166.89947
  22325791.640   117322827.42608  22325787.540    91420369.42247
  22073486.980   115997058.07809  22073481.860    90387346.02647
  21761588.460   114357941.69909  21761587.660    89110090.51348
  22662651.000   120932263.24407  22662653.520    94058445.66305
  21336841.780   114217809.13608  21336841.620    88836081.13608
  23110976.180   123758239.54008  23110976.880    96256429.58906
  21142487.260   112899697.63109  21142487.980    87810885.75005
  20654426.840   110332243.06409  20654429.420    85813965.33608
  23316164.220   124769483.62106  23316166.140    97042928.59206
  20457409.520   109203046.10509  20457411.960    84935713.93908
  21397305.080   114461182.10008  21397304.780    89025367.50708
 15 02 25 01 05 30.0000000  0 13G16G18G21G22G27R02R03R04R09R16R17R18
                                R19
  20661016.440   108574376.65309  20661012.400    84603393.64548
  21680983.120   113934418.98909  21680979.520    88780088.36948
  22337724.380   117385535.03109  22337720.340    91469232.50047
  22058709.620   115919402.46409  22058704.460    90326835.17748
  21751257.420   114303652.71009  21751256.960    89067787.42648
  22671823.240   120981208.57307  22671825.680    94096514.25805
  21326247.600   114161097.93408  21326247.560    88791972.43108
  23088005.860   123635235.05708  23088006.520    96160759.66306
  21136788.980   112869269.21709  21136789.260    87787219.16204
  20669838.840   110414571.71208  20669841.480    85877998.72208
  23329907.400   124843027.91107  23329909.440    97100129.61506
  20463095.220   109233395.79609  20463097.460    84959319.18608
  21388557.420   114414388.09609  21388557.420    88988972.20108
 15 02 25 01 06  0.0000000  0 13G16G18G21G22G27R02R03R04R09R16R17R18
                                R19
  20655241.520   108544029.13009  20655237.460    84579746.22948
  21677880.660   113918115.35709  21677877.120    88767384.24948
  22349683.340   117448380.04508  22349679.300    91518202.63847
  22043988.680   115842043.53409  22043983.560    90266555.51348
  21740948.740   114249480.05509  21740948.160    89025574.95948
  22681125.260   121030845.55006  22681127.340    94135120.77504
  21315773.620   114105029.17908  21315773.340    88748363.41808
  23065043.360   123512272.86008  23065044.300    96065122.61106
  21131237.040   112839622.76508  21131237.900    87764160.85805
  20685363.560   110497502.51408  20685366.240    85942500.42008
  23343648.040   124916558.34707  23343649.320    97157319.92105
  20468805.440   109263876.45809  20468807.540    84983026.39508
  21379836.720   114367736.64209  21379836.520    88952687.71608
 15 02 25 01 06 30.0000000  0 13G16G18G21G22G27R02R03R04R09R16R17R18
                                R19
  20649560.900   108514177.10209  20649556.860    84556484.89449
  21674870.940   113902299.03509  21674867.320    88755059.86048
  22361669.540   117511367.92508  22361665.700    91567284.09147
  22029325.920   115764990.66209  22029320.900    90206514.34548
  21730663.520   114195430.61509  21730662.520    88983458.54948
  22690557.900   121081178.96405  22690559.820    94174269.00303
  21305421.340   114049612.22008  21305420.900    88705261.36208
  23042090.720   123389363.37508  23042091.620    95969526.53406
  21125833.040   112810765.95209  21125833.400    87741716.59305
  20701001.640   110581038.24709  20701004.280    86007472.65308
  23357387.680   124990081.39608  23357388.800    97214504.53706
  20474541.220   109294494.49709  20474543.380    85006840.36908
  21371144.020   114321233.74809  21371142.960    88916518.82108
 15 02 25 01 07  0.0000000  0 13G16G18G21G22G27R02R03R04R09R16R17R18
                                R19
  20643972.940   108484812.09609  20643968.900    84533603.08948
  21671952.140   113886960.61109  21671948.500    88743107.83647
  22373680.600   117574486.90209  22373677.100    91616467.69147
  22014719.840   115688235.84809  22014714.880    90146705.42647
  21720400.160   114141494.85909  21720398.580    88941430.67748
  22700118.720   121132196.68504  22700120.880    94213949.43603
  21295189.440   113994840.09108  21295188.960    88662660.82908
  23019146.760   123266500.73108  23019147.680    95873966.90406
  21120575.120   112782689.45508  21120575.860    87719879.36305
  20716750.280   110665164.21508  20716752.720    86072903.93408
  23371124.480   125063587.13608  23371125.340    97271675.55806
  20480300.540   109325238.72509  20480302.200    85030752.56108
  21362476.460   114274868.30908  21362475.760    88880456.82408
 15 02 25 01 07 30.0000000  0 13G16G18G21G22G27R02R03R04R09R16R17R18
                                R19
  20638480.720   108455950.40009  20638476.620    84511113.45348
  21669127.280   113872115.90609  21669123.680    88731540.54548
  22385719.140   117637749.90208  22385715.500    91665763.56547
  22000173.860   115611796.43809  22000168.820    90087142.26848
  21710161.180   114087688.22009  21710159.760    88899503.45948
  22709810.080   121183911.47104  22709812.400    94254172.07203
  21285081.300   113940730.98308  21285081.100    88620576.00708
  22996215.180   123143704.55708  22996216.340    95778458.98506
  21115466.500   112755409.67408  21115467.200    87698661.74205
  20732611.440   110749891.32408  20732613.780    86138802.79508
  23384860.780   125137091.04008  23384861.600    97328845.20707
  20486086.480   109356123.85509  20486088.500    85054774.36208
  21353836.960   114228654.96809  21353837.160    88844513.14608
 15 02 25 01 08  0.0000000  0 13G16G18G21G22G27R02R03R04R09R16R17R18
                                R19
  20633083.600   108427588.65309  20633079.640    84489013.38649
  21666395.580   113857760.41809  21666391.860    88720354.46548
  22397783.840   117701150.20709  22397780.120    91715166.34347
  21985687.440   115535669.41709  21985682.260    90027822.52348
  21699945.740   114034006.06809  21699944.380    88857673.21848
  22719630.660   121236316.09604  22719633.740    94294931.18103
  21275096.660   113887282.89908  21275097.040    88579005.29008
  22973295.760   123020973.35407  22973297.060    95683001.55606
  21110506.300   112728922.01809  21110507.380    87678060.24805
  20748583.340   110835210.15409  20748585.700    86205161.87908
  23398595.720   125210587.90007  23398596.580    97386009.38806
  20491897.880   109387144.28009  20491899.440    85078901.32808
  21345224.880   114182587.93709  21345225.640    88808683.26308
 15 02 25 01 08 30.0000000  0 12G16G18G21G22G27R03R04R09R16R17R18R19
  20627780.360   108399720.21509  20627776.460    84467297.70949
  21663755.540   113843886.18109  21663751.660    88709543.38247
  22409872.860   117764678.27809  22409869.260    91764668.73547
  21971259.620   115459850.36109  21971254.360    89968742.76848
  21689752.800   113980440.87609  21689751.440    88815934.09248
  21265234.640   113834491.04508  21265235.020    88537944.98208
  22950387.680   122898303.40607  22950389.280    95587591.79606
  21105692.980   112703219.44408  21105693.860    87658069.34805
  20764663.700   110921108.31409  20764665.960    86271971.52908
  23412327.600   125284069.51407  23412328.680    97443161.68806
  20497732.880   109418291.30309  20497734.500    85103126.80108
  21336638.860   114136658.43409  21336639.500    88772960.33508
 15 02 25 01 09  0.0000000  0 12G16G18G21G22G27R03R04R09R16R17R18R19
  20622575.580   108372368.89809  20622571.700    84445984.99148
  21661211.600   113830517.22409  21661207.580    88699126.01847
  22421990.320   117828354.76209  22421986.680    91814286.77847
  21956894.840   115384363.15909  21956889.620    89909921.59448
  21679586.120   113927015.55809  21679585.140    88774304.00848
  21255500.100   113782380.99308  21255500.020    88497414.96008
  22927496.240   122775721.98907  22927497.760    95492250.85506
  21101031.120   112678325.56108  21101032.240    87638707.46905
  20780855.980   111007604.42508  20780858.220    86339246.27408
  23426060.580   125357558.94908  23426061.300    97500320.11205
  20503595.440   109449587.14908  20503597.400    85127468.04508
  21328082.680   114090888.60009  21328082.820    88737361.55508
 15 02 25 01 09 30.0000000  0 12G16G18G21G22G27R03R04R09R16R17R18R19
  20617464.020   108345507.30409  20617460.160    84425053.90748
  21658758.320   113817624.83009  21658754.200    88689080.01748
  22434130.300   117892149.98909  22434126.420    91863997.34647
  21942588.200   115309181.60809  21942583.100    89851338.59448
  21669440.840   113873701.83609  21669439.860    88732760.82648
  21245887.940   113730926.81908  21245887.760    88457395.06208
  22904616.600   122653203.57908  22904618.140    95396958.91206
  21096515.400   112654211.94608  21096516.000    87619952.41005
  20797153.840   111094664.59608  20797156.120    86406959.72208
  23439789.860   125431027.22808  23439789.880    97557462.11906
  20509480.440   109481002.06609  20509481.960    85151901.83408
  21319550.960   114045248.43109  21319550.540    88701863.65408
 15 02 25 01 10  0.0000000  0 12G16G18G21G22G27R03R04R09R16R17R18R19
  20612450.520   108319161.22009  20612446.620    84404524.48748
  21656400.440   113805233.77109  21656396.280    88679424.64948
  22446296.980   117956085.96909  22446292.960    91913817.57647
  21928344.880   115234332.40109  21928339.800    89793014.55748
  21659321.160   113820524.40608  21659320.340    88691323.89248
  21236403.420   113680155.82308  21236403.320    88417906.54308
  22881754.200   122530777.27308  22881755.920    95301738.61606
  21092150.360   112630903.98608  21092151.440    87601824.04405
  20813561.140   111182309.27708  20813563.420    86475127.77808
  23453519.900   125504499.01707  23453520.180    97614606.82206
  20515392.020   109512559.99709  20515393.860    85176446.89008
  21311048.020   113999762.13109  21311046.920    88666485.40207
 15 02 25 01 10 30.0000000  0 12G16G18G21G22G27R03R04R09R16R17R18R19
  20607532.480   108293316.64809  20607528.560    84384385.83749
  21654135.000   113793329.12409  21654130.920    88670148.31547
  22458487.100   118020145.51609  22458482.900    91963734.10547
  21914162.380   115159802.58209  21914157.160    89734939.38448
  21649224.780   113767468.38809  21649224.240    88649981.58748
  21227044.140   113630055.34608  21227044.240    88378939.52008
  22858906.820   122408431.43208  22858908.580    95206580.91006
  21087933.720   112608386.67008  21087934.640    87584310.53905
  20830074.140   111270518.48408  20830076.380    86543734.90108
  23467247.340   125577958.99107  23467248.720    97671742.27006
  20521327.640   109544244.99909  20521329.500    85201090.74908
  21302570.400   113954413.12908  21302569.260    88631213.97908
 15 02 25 01 11  0.0000000  0 12G16G18G21G22G27R03R04R09R16R17R18R19
  20602710.920   108267979.06409  20602707.000    84364642.27148
  21651963.000   113781915.72609  21651958.960    88661254.76247
  22470701.420   118084331.73909  22470697.020    92013749.35347
  21900041.820   115085598.57209  21900036.500    89677118.09448
  21639152.460   113714538.73809  21639152.100    88608737.70848
  21217811.640   113580633.00808  21217811.700    88340499.92408
  22836076.240   122286175.33608  22836078.000    95111492.98406
  21083866.060   112586665.21308  21083867.180    87567416.07705
  20846692.880   111359292.19508  20846695.060    86612781.12608
  23480973.620   125651411.58907  23480975.080    97728871.92806
  20527287.500   109576061.05309  20527290.260    85225836.61408
  21294118.760   113909205.57108  21294118.460    88596052.57808
 15 02 25 01 11 30.0000000  0 12G16G18G21G22G27R03R04R09R16R17R18R19
  20597984.760   108243142.57609  20597980.860    84345289.16249
  21649883.180   113770986.86009  21649879.160    88652738.79048
  22482938.020   118148635.96808  22482933.960    92063856.54348
  21885982.340   115011715.96309  21885977.080    89619547.24448
  21629103.300   113661728.76109  21629102.920    88567587.08148
  21208704.880   113531883.95908  21208704.820    88302584.03008
  22813261.780   122164005.38108  22813263.320    95016472.04107
  21079946.220   112565732.89308  21079947.320    87551135.38605
  20863414.940   111448618.53508  20863417.160    86682257.13208
  23494697.460   125724849.70008  23494698.800    97785990.43806
  20533270.780   109608000.29309  20533274.080    85250678.20808
  21285692.180   113864131.42709  21285692.780    88560994.96108
 15 02 25 01 12  0.0000000  0 12G16G18G21G22G27R03R04R09R16R17R18R19
  20593356.340   108218819.91009  20593352.420    84326336.44348
  21647897.640   113760553.26809  21647893.700    88644608.72647
  22495198.820   118213067.24109  22495194.880    92114062.69047
  21871986.500   114938167.85609  21871981.340    89562237.06348
  21619079.200   113609049.75209  21619078.120    88526538.47448
  21199726.580   113483822.50208  21199726.340    88265202.88008
  22790466.340   122041937.13208  22790467.740    94921530.22506
  21076176.140   112545601.24208  21076177.420    87535477.43305
  20880241.700   111538504.13309  20880243.920    86752168.13608
  23508420.500   125798284.50708  23508421.640    97843106.42005
  20539279.320   109640073.22309  20539282.680    85275623.78508
  21277292.860   113819200.89209  21277293.780    88526048.97408
 15 02 25 01 12 30.0000000  0 12G16G18G21G22G27R03R04R09R16R17R18R19
  20588825.220   108195008.75809  20588821.260    84307782.28448
  21646005.940   113750612.84809  21646002.160    88636862.95147
  22507482.960   118277620.57709  22507478.800    92164364.00047
  21858054.140   114864952.91009  21858048.960    89505186.47648
  21609079.380   113556498.85609  21609077.720    88485589.74948
  21190876.620   113436447.68608  21190876.260    88228355.82808
  22767690.080   121919971.08208  22767691.000    94826667.85906
  21072555.560   112526267.40809  21072556.740    87520439.97105
  20897171.700   111628941.29608  20897174.080    86822508.11408
  23522142.520   125871712.76207  23522143.300    97900217.26205
  20545312.000   109672275.83509  20545315.180    85300670.25708
  21268919.840   113774409.97409  21268920.800    88491211.63608
 15 02 25 01 13  0.0000000  0 12G16G18G21G22G27R03R04R09R16R17R18R19
  20584391.700   108171710.58709  20584387.660    84289627.87248
  21644208.200   113741166.31509  21644204.520    88629502.03848
  22519790.080   118342294.83708  22519785.860    92214759.52347
  21844185.800   114792074.20409  21844180.620    89448397.89348
  21599104.060   113504077.37609  21599102.180    88444741.82648
  21182155.600   113389763.04608  21182155.240    88192045.57108
  22744933.900   121798112.64308  22744934.580    94731889.20007
  21069084.500   112507732.36909  21069085.620    87506023.86205
  20914204.160   111719925.97608  20914206.720    86893273.96708
  23535863.320   125945135.25407  23535864.140    97957323.59905
  20551368.740   109704608.48109  20551371.940    85325817.87008
  21260573.180   113729758.91509  21260573.500    88456483.01908
 15 02 25 01 13 30.0000000  0 12G16G18G21G22G27R03R04R09R16R17R18R19
  20580056.900   108148930.73909  20580052.760    84271877.33048
  21642505.240   113732217.79409  21642501.640    88622529.16748
  22532120.520   118407091.83408  22532116.180    92265250.71647
  21830382.660   114719537.79609  21830377.440    89391876.02948
  21589154.160   113451789.19009  21589151.820    88403997.79348
  21173564.600   113343774.77508  21173564.340    88156276.95508
  22722198.980   121676368.95808  22722199.860    94637199.81907
  21065763.940   112490000.25308  21065764.920    87492232.18205
  20931339.020   111811457.28608  20931341.620    86964464.96208
  23549583.500   126018555.63907  23549584.620    98014428.31205
  20557450.540   109737074.13209  20557453.840    85351068.93408
  21252253.120   113685250.46309  21252252.640    88421865.34208
 15 02 25 01 14  0.0000000  0 12G16G18G21G22G27R03R04R09R16R17R18R19
  20575821.720   108126674.59909  20575817.560    84254534.88248
  21640897.900   113723771.12809  21640894.380    88615947.38248
  22544474.800   118472014.41808  22544470.460    92315839.73447
  21816645.740   114647349.60309  21816640.500    89335625.50948
  21579230.060   113399638.78509  21579228.080    88363361.15548
  21165104.860   113298489.82008  21165104.900    88121055.33008
  22699487.160   121554748.71808  22699488.160    94542606.42006
  21062594.580   112473075.53008  21062595.220    87479068.51605
  20948576.060   111903534.78808  20948578.820    87036080.77808
  23563304.140   126091978.22207  23563305.360    98071534.74206
  20563558.020   109769676.35009  20563561.400    85376426.21308
  21243960.300   113640888.14109  21243959.400    88387361.29608
 15 02 25 01 14 30.0000000  0 12G16G18G21G22G27R03R04R09R16R17R18R19
  20571684.280   108104932.08509  20571680.020    84237592.66148
  21639384.000   113715815.67709  21639380.600    88609748.32348
  22556850.580   118537049.94609  22556846.340    92366516.74147
  21802973.300   114575500.80809  21802968.200    89279639.46048
  21569330.240   113347615.80509  21569328.660    88322823.78448
  21156774.980   113253899.60108  21156774.820    88086374.06908
  22676797.240   121433245.05808  22676798.060    94448103.68806
  21059574.280   112456947.24008  21059574.480    87466524.27805
  20965912.380   111996142.58608  20965915.260    87108109.04108
  23577023.300   126165392.02008  23577024.540    98128634.35906
  20569689.080   109802403.71009  20569692.400    85401880.83508
  21235692.460   113596659.98309  21235691.240    88352961.63208
 15 02 25 01 15  0.0000000  0 11G16G18G21G22G27R03R04R09R16R18R19
  20567643.120   108083695.65309  20567638.980    84221044.79848
  21637962.100   113708343.70009  21637958.700    88603926.00547
  22569245.900   118602187.84509  22569241.800    92417273.55347
  21789364.300   114503985.37209  21789359.320    89223913.17748
  21559453.320   113295712.10109  21559452.080    88282379.34148
  21148573.840   113209998.21408  21148573.520    88052228.55008
  22654128.160   121311853.25708  22654128.880    94353687.94107
  21056701.340   112441606.96408  21056701.720    87454592.95605
  20983345.600   112089267.48308  20983348.280    87180539.50008
  20575841.840   109835246.91209  20575845.180    85427425.50808
  21227447.580   113552556.74808  21227446.200    88318659.10508
 15 02 25 01 15 30.0000000  0 11G16G18G21G22G27R03R04R09R16R18R19
  20563703.180   108062991.10009  20563699.060    84204911.38648
  21636636.760   113701379.17809  21636633.400    88598499.11548
  22581665.160   118667451.12909  22581661.100    92468128.01347
  21775823.940   114432830.05609  21775818.920    89168467.48648
  21549603.780   113243952.59509  21549602.180    88242047.25448
  21140506.360   113166812.57308  21140506.240    88018639.73908
  22631485.400   121190602.68108  22631486.020    94259382.04307
  21053980.760   112427079.74708  21053981.440    87443293.98505
  21000879.460   112182929.63408  21000882.000    87253387.81608
  20582021.100   109868230.38809  20582024.040    85453079.32508
  21219230.500   113508602.58508  21219229.620    88284472.54408
 15 02 25 01 16  0.0000000  0 11G16G18G21G22G27R03R04R09R16R18R19
  20559862.480   108042808.34309  20559858.400    84189184.54849
  21635406.000   113694911.24909  21635402.620    88593459.19948
  22594105.740   118732827.37308  22594101.840    92519070.58547
  21762350.440   114362025.71009  21762345.140    89113295.27548
  21539779.660   113192326.92909  21539778.260    88201819.46348
  21132570.960   113124334.28008  21132571.020    87985601.09608
  22608867.480   121069486.38508  22608868.220    94165180.60207
  21051410.500   112413354.54208  21051411.240    87432618.84605
  21018510.920   112277113.30908  21018513.340    87326641.76508
  20588223.960   109901342.44209  20588226.620    85478833.15308
  21211038.900   113464785.87008  21211038.820    88250392.89008
 15 02 25 01 16 30.0000000  0 11G16G18G21G22G27R03R04R09R16R18R19
  20556121.820   108023151.30509  20556117.700    84173867.37748
  21634270.440   113688943.39709  21634267.040    88588808.94148
  22606568.020   118798317.35909  22606563.940    92570101.70947
  21748944.560   114291577.18009  21748939.060    89058400.32948
  21529981.460   113140838.06009  21529980.180    88161698.26648
  21124768.680   113082568.25508  21124768.800    87953116.42208
  22586275.860   120948510.99408  22586276.620    94071088.73107
  21048991.160   112400434.13009  21048991.580    87422569.56505
  21036239.600   112371816.39108  21036242.020    87400299.68708
  20594451.300   109934585.16709  20594454.020    85504688.59708
  21202873.420   113421108.21709  21202874.160    88216421.43408
 15 02 25 01 17  0.0000000  0 11G16G18G21G22G27R03R04R09R16R18R19
  20552481.420   108004020.96809  20552477.340    84158960.61148
  21633229.940   113683475.53709  21633226.520    88584548.28448
  22619051.620   118863919.41909  22619047.820    92621220.17347
  21735606.720   114221486.47909  21735601.160    89003784.21848
  21520209.340   113089486.46309  21520208.380    88121684.03948
  21117100.120   113041517.25308  21117100.160    87921187.88408
  22563711.440   120827680.86908  22563712.220    93977109.85207
  21046722.420   112388318.42208  21046722.940    87413146.25805
  21054064.580   112467034.09808  21054067.080    87474357.87208
  20600703.160   109967958.06309  20600705.700    85530645.29808
  21194734.240   113377569.15609  21194735.320    88182557.73008
 15 02 25 01 17 30.0000000  0 11G16G18G21G22G27R03R04R09R16R18R19
  20548939.840   107985409.99209  20548935.760    84144458.54848
  21632282.960   113678499.12109  21632279.520    88580670.55948
  22631554.720   118929623.43308  22631550.640    92672418.08747
  21722335.780   114151747.61809  21722330.340    88949442.27148
  21510462.080   113038264.23009  21510461.280    88081770.62948
  21109563.720   113001174.75308  21109563.740    87889810.41108
  22541173.540   120706991.50208  22541174.340    93883240.44007
  21044602.560   112376999.01608  21044603.320    87404342.26005
  21071983.400   112562753.18609  21071985.900    87548806.05608
  20606977.780   110001452.15709  20606980.360    85556696.24008
  21186619.840   113334159.48809  21186620.500    88148794.61908
 15 02 25 01 18  0.0000000  0 11G16G18G21G22G27R03R04R09R16R18R19
  20545498.520   107967326.00909  20545494.480    84130367.12749
  21631430.840   113674020.84809  21631427.340    88577181.02448
  22644078.200   118995434.35408  22644074.060    92723699.34347
  21709133.480   114082369.28609  21709128.240    88895381.26048
  21500740.840   112987178.37209  21500739.960    88041963.50848
  21102161.340   112961549.84608  21102161.380    87858991.03508
  22518664.180   120586454.07408  22518664.820    93789489.19507
  21042632.960   112366482.17208  21042633.940    87396162.47805
  21089996.380   112658975.52508  21089998.920    87623645.61108
  20613276.360   110035073.72108  20613279.260    85582846.33308
  21178530.520   113290885.04209  21178531.120    88115136.75508
 15 02 25 01 18 30.0000000  0 11G16G18G21G22G27R03R04R09R16R18R19
  20542157.320   107949767.71909  20542153.280    84116685.35548
  21630673.020   113670038.59609  21630669.480    88574077.96847
  22656621.300   119061348.28008  22656617.240    92775060.83947
  21695999.840   114013351.30009  21695994.660    88841601.02448
  21491045.360   112936227.33509  21491044.220    88002261.36048
  21094893.060   112922642.57308  21094893.100    87828729.82208
  22496183.600   120466070.48308  22496184.140    93695857.60207
  21040813.440   112356765.79908  21040814.500    87388605.30705
  21108102.240   112755694.37708  21108104.900    87698871.37708
  20619598.080   110068820.02609  20619600.520    85609093.45608
  21170465.780   113247743.07609  21170465.780    88081581.91108
 15 02 25 01 19  0.0000000  0 11G16G18G21G22G27R03R04R09R16R18R19
  20538917.960   107932744.73909  20538913.940    84103420.68648
  21630011.340   113666561.28409  21630007.800    88571368.37448
  22669185.260   119127372.28808  22669181.180    92826508.11247
  21682936.760   113944704.10509  21682931.520    88788109.72148
  21481377.180   112885420.31409  21481376.040    87962671.51148
  21087760.940   112884464.28208  21087760.980    87799035.62308
  22473734.200   120345853.82508  22473734.640    93602355.84907
  21039145.420   112347858.82808  21039146.400    87381677.64405
  21126301.840   112852913.75808  21126304.500    87774486.46208
  20625944.620   110102699.56809  20625947.300    85635444.18708
  21162427.200   113204742.14609  21162426.640    88048136.73908
 15 02 25 01 19 30.0000000  0 11G16G18G21G22G27R03R04R09R16R18R19
  20535778.600   107916247.28009  20535774.600    84090565.52648
  21629443.660   113663577.78409  21629440.020    88569043.60348
  22681767.860   119193493.78009  22681763.600    92878031.34647
  21669942.620   113876419.55909  21669937.220    88734901.00648
  21471734.480   112834746.93009  21471732.860    87923185.74848
  21080763.380   112847005.72808  21080763.560    87769901.21308
  22451314.580   120225797.03308  22451314.820    93508978.44207
  21037626.880   112339749.73609  21037627.700    87375370.58905
  21144592.240   112950617.70108  21144594.940    87850478.37608
  20632314.120   110136700.67809  20632316.800    85661889.52708
  21154412.440   113161870.04509  21154411.580    88014791.81707
 15 02 25 01 20  0.0000000  0 11G16G18G21G22G27R03R04R09R16R18R19
  20532742.620   107900292.96609  20532738.560    84078133.59948
  21628973.160   113661105.29309  21628969.380    88567116.99648
  22694371.940   119259728.70709  22694367.840    92929642.96947
  21657021.000   113808516.34209  21657015.540    88681989.43048
  21462120.100   112784224.34109  21462118.780    87883817.49948
  21073904.040   112810286.42208  21073904.320    87741341.76308
  22428928.720   120105922.03708  22428928.840    93415742.42607
  21036260.860   112332455.27108  21036261.560    87369697.09705
  21162975.860   113048818.70108  21162978.620    87926856.91208
  20638709.640   110170840.10109  20638712.640    85688442.39808
  21146424.840   113119143.34708  21146423.880    87981559.94908
 15 02 25 01 20 30.0000000  0 11G16G18G21G22G27R03R04R09R16R18R19
  20529807.640   107884869.22109  20529803.500    84066115.08048
  21628597.120   113659129.45709  21628593.340    88565577.40048
  22706994.540   119326060.86208  22706990.540    92981330.42547
  21644169.720   113740982.41009  21644164.240    88629365.60148
  21452531.840   112733839.26609  21452530.800    87844556.40248
  21067180.520   112774294.20008  21067180.640    87713347.82508
  22406574.800   119986218.32208  22406574.840    93322639.62607
  21035044.860   112325961.21008  21035045.460    87364646.15705
  21181449.000   113147497.75009  21181451.720    88003607.25708
  20645128.580   110205103.42709  20645131.100    85715091.60108
  21138461.940   113076547.29509  21138461.060    87948429.65908
 15 02 25 01 21  0.0000000  0 11G16G18G21G22G27R03R04R09R16R18R19
  20526973.720   107869977.05009  20526969.560    84054510.79748
  21628315.740   113657650.84509  21628312.100    88564425.24748
  22719635.320   119392489.22709  22719631.320    93033092.72147
  21631389.260   113673820.21609  21631383.680    88577031.44048
  21442970.060   112683592.78709  21442969.400    87805403.30148
  21060593.320   112739031.89908  21060593.320    87685921.61408
  22384253.800   119866691.10408  22384253.780    93229674.07207
  21033978.580   112320267.58809  21033979.300    87360217.81105
  21200010.820   113246650.51009  21200013.320    88080726.04708
  20651570.540   110239490.52909  20651573.280    85741837.15408
  21130523.660   113034081.85409  21130523.140    87915400.99408
 15 02 25 01 21 30.0000000  0 11G16G18G21G22G27R03R04R09R16R18R19
  20524240.960   107855616.62809  20524236.860    84043320.86648
  21628128.840   113656668.76909  21628125.340    88563660.00148
  22732293.940   119459011.24108  22732289.940    93084928.04347
  21618679.800   113607031.29309  21618674.260    88524988.15248
  21433434.760   112633484.65209  21433434.460    87766358.02049
  21054142.520   112704500.68208  21054142.520    87659064.03808
  22361966.220   119747343.79308  22361966.440    93136848.48107
  21033061.960   112315373.29108  21033062.500    87356411.09705
  21218660.200   113346271.29808  21218662.440    88158208.86608
  20658035.420   110274000.23109  20658037.580    85768678.04008
  21122609.400   112991745.65708  21122609.260    87882472.86708
 15 02 25 01 22  0.0000000  0 11G16G18G21G22G27R03R04R09R16R18R19
  20521609.900   107841790.43009  20521605.920    84032547.18449
  21628036.800   113656185.07909  21628033.200    88563283.12347
  22744970.680   119525627.54208  22744966.420    93136836.89847
  21606042.000   113540619.37709  21606036.560    88473238.61748
  21423926.400   112583517.12409  21423926.040    87727422.31848
  21047829.160   112670704.45608  21047829.040    87632778.09308
  22339713.320   119628182.20308  22339713.740    93044167.29807
  21032295.160   112311279.57808  21032296.140    87353227.12205
  21237396.500   113446357.02308  21237398.460    88236053.28908
  20664523.520   110308634.08309  20664526.340    85795615.51108
  21114719.180   112949539.50408  21114719.480    87849645.89308
 15 02 25 01 22 30.0000000  0 11G16G18G21G22G27R03R04R09R16R18R19
  20519081.860   107828505.62609  20519077.960    84022195.40448
  21628040.560   113656205.26109  21628036.980    88563298.85347
  22757666.180   119592342.36108  22757661.680    93188822.42047
  21593477.340   113474592.17109  21593472.020    88421788.86348
  21414446.000   112533696.57609  21414445.160    87688601.11848
  21041654.640   112637651.11608  21041654.360    87607069.96108
  22317497.260   119509216.98108  22317497.720    92951638.86807
  21031679.640   112307992.07908  21031680.580    87350670.13305
  21256219.960   113546908.88808  21256222.020    88314260.25808
  20671035.940   110343397.60409  20671038.400    85822653.76208
  21106854.440   112907468.97208  21106854.580    87816924.38108
 15 02 25 01 23  0.0000000  0 11G16G18G21G22G27R03R04R09R16R18R19
  20516656.520   107815760.34709  20516652.640    84012263.99549
  21628139.740   113656726.46409  21628136.080    88563705.00148
  22770379.500   119659151.35908  22770375.060    93240881.37547
  21580985.760   113408949.07109  21580980.460    88370638.41248
  21404993.320   112484021.17509  21404991.880    87649893.00548
  21035618.600   112605339.96208  21035618.380    87581939.08608
  22295318.200   119390449.47508  22295318.620    92859264.23107
  21031214.440   112305507.58908  21031215.520    87348737.75905
  21275129.280   113647919.46608  21275131.480    88392824.02008
  20677572.100   110378287.91009  20677574.340    85849790.66808
  21099014.540   112865531.05609  21099014.320    87784306.04508
 15 02 25 01 23 30.0000000  0 11G16G18G21G22G27R03R04R09R16R18R19
  20514332.980   107803550.22509  20514329.140    84002749.62848
  21628333.440   113657744.04909  21628329.700    88564497.94148
  22783109.620   119726048.15208  22783105.100    93293008.77547
  21568566.900   113343687.58509  21568561.620    88319785.31348
  21395567.280   112434486.44109  21395565.900    87611294.51549
  21029720.600   112573768.13808  21029720.540    87557383.24608
  22273175.940   119271878.84408  22273176.340    92767042.70007
  21030898.480   112303820.53008  21030899.560    87347425.62405
  21294122.720   113749378.96508  21294124.840    88471736.93908
  20684130.780   110413299.57909  20684133.260    85877021.94408
  21091198.680   112823719.94209  21091197.840    87751786.24008
 15 02 25 01 24  0.0000000  0 11G16G18G21G22G27R03R04R09R16R18R19
  20512114.000   107791889.30409  20512110.040    83993663.18049
  21628624.060   113659270.71509  21628620.200    88565687.55548
  22795858.420   119793044.20008  22795854.040    93345213.44147
  21556223.500   113278822.63809  21556218.320    88269241.22148
  21386170.520   112385106.02309  21386169.020    87572816.27848
  21023963.600   112542950.66708  21023963.600    87533414.10208
  22251073.820   119153522.89908  22251074.180    92674988.13607
  21030734.260   112302943.71409  21030735.160    87346743.66005
  21313201.620   113851295.57708  21313203.880    88551005.39008
  20690714.720   110448445.53309  20690717.580    85904357.70208
  21083408.820   112782048.46208  21083407.940    87719375.11208
 15 02 25 01 24 30.0000000  0 11G16G18G21G22G27R03R04R09R16R18R19
  20509998.440   107780771.81109  20509994.480    83985000.19549
  21629010.180   113661300.05809  21629006.400    88567268.84948
  22808624.680   119860131.54609  22808620.420    93397489.31346
  21543954.600   113214349.90009  21543949.580    88219002.74348
  21376801.840   112335874.19509  21376800.100    87534453.82948
  21018346.640   112512882.98008  21018346.600    87510028.11508
  22229011.400   119035379.47008  22229011.600    92583098.86507
  21030720.600   112302870.21808  21030721.300    87346686.44005
  21332363.980   113953658.11408  21332366.380    88630620.66308
  20697322.720   110483719.01309  20697325.160    85931792.60908
  21075643.580   112740509.63209  21075643.000    87687067.13708
 15 02 25 01 25  0.0000000  0 11G16G18G21G22G27R03R04R09R16R18R19
  20507985.900   107770195.54509  20507981.900    83976758.95948
  21629491.200   113663828.50209  21629487.420    88569239.08248
  22821407.200   119927305.32408  22821403.160    93449832.50747
  21531760.060   113150267.82009  21531755.040    88169068.67948
  21367461.000   112286788.36709  21367459.680    87496205.14448
  21012869.480   112483563.32208  21012869.280    87487223.96908
  22206988.900   118917449.80908  22206988.920    92491375.86107
  21030856.340   112303595.62208  21030857.060    87347250.65205
  21351608.380   114056458.52208  21351610.840    88710576.53208
  20703954.000   110519116.50509  20703956.300    85959323.99108
  21067902.280   112699099.44809  21067901.880    87654859.26808
 15 02 25 01 25 30.0000000  0 12G16G18G19G21G22G27R03R04R09R16R18R19
  20506075.620   107760156.90609  20506071.580    83968936.63449
  21630066.380   113666851.55909  21630062.600    88571594.71848
  23175719.680   121789229.81104  23175716.160    94900683.81144
  22834205.340   119994560.09908  22834201.520    93502238.82247
  21519639.480   113086574.12809  21519634.420    88119437.23548
  21358147.300   112237844.70009  21358146.160    87458067.23048
  21007531.680   112454989.42008  21007531.360    87464999.84008
  22185006.240   118799733.55608  22185006.260    92399818.84207
  21031140.880   112305115.17008  21031141.420    87348432.50605
  21370933.040   114159687.48608  21370935.500    88790865.71208
  20710607.480   110554633.19609  20710610.160    85986948.07808
  21060184.260   112657813.08809  21060184.040    87622747.62108
 15 02 25 01 26  0.0000000  0 12G16G18G19G21G22G27R03R04R09R16R18R19
  20504269.520   107750665.62609  20504265.440    83961540.83448
  21630737.400   113670377.82409  21630733.760    88574342.47248
  23161924.180   121716735.14904  23161921.900    94844176.45242
  22847020.340   120061902.97109  22847016.240    93554713.73946
  21507594.980   113023279.77209  21507589.880    88070116.96848
  21348862.460   112189052.70509  21348861.380    87420047.50448
  21002335.120   112427171.69608  21002334.820    87443363.84708
  22163065.820   118682244.12208  22163066.080    92308438.23607
  21031575.780   112307436.99108  21031576.420    87350238.35905
  21390338.760   114263348.96408  21390341.180    88871491.27908
  20717284.960   110590277.75509  20717287.460    86014671.61308
  21052491.020   112616658.89309  21052490.340    87590738.83608
 15 02 25 01 26 30.0000000  0 12G16G18G19G21G22G27R03R04R09R16R18R19
  20502569.800   107741733.21709  20502565.640    83954580.49848
  21631506.260   113674418.22109  21631502.720    88577490.83948
  23148145.740   121644329.74404  23148140.140    94787768.57843
  22859853.860   120129343.44809  22859850.020    93607264.74147
  21495628.980   112960397.57909  21495623.840    88021117.88348
  21339608.780   112140424.17009  21339608.060    87382155.17049
  20997282.400   112400123.61108  20997281.940    87422326.44808
  22141170.600   118564997.30808  22141171.100    92217246.34707
  21032162.940   112310571.51208  21032163.580    87352676.32805
  21409826.700   114367449.52108  21409829.160    88952458.33908
  20723988.560   110626061.37509  20723991.140    86042503.34508
  21044824.480   112575647.75309  21044823.720    87558841.28108
 15 02 25 01 27  0.0000000  0 12G16G18G19G21G22G27R03R04R09R16R18R19
  20500979.980   107733378.58509  20500975.780    83948070.40248
  21632376.460   113678991.26109  21632373.000    88581054.23947
  23134387.800   121572032.07204  23134382.040    94731438.85043
  22872709.400   120196898.56809  22872705.480    93659905.10947
  21483745.380   112897948.34009  21483740.140    87972456.13848
  21330389.820   112091978.35009  21330388.800    87344405.16848
  20992377.080   112373865.55008  20992376.800    87401903.50708
  22119325.100   118448016.50208  22119325.760    92126261.33007
  21032905.660   112314536.76008  21032905.920    87355760.40305
  21429399.320   114472002.91408  21429401.700    89033777.59908
  20730721.620   110662002.63209  20730724.000    86070457.62508
  21037187.820   112534798.01208  21037187.320    87527069.29808
 15 02 25 01 27 30.0000000  0 11G16G18G21G22G27R03R04R09R16R18R19
  20499476.860   107725479.63409  20499472.800    83941915.36348
  21633324.440   113683973.09509  21633320.960    88584936.19347
  22885562.880   120264443.50209  22885558.780    93712537.51747
  21471920.920   112835810.30709  21471915.620    87924036.91048
  21321182.180   112043592.28808  21321180.940    87306701.73948
  20987596.200   112348273.30208  20987596.020    87381998.43508
  22097506.580   118331179.96308  22097507.460    92035388.51007
  21033780.080   112319206.40509  21033780.580    87359392.37005
  21449032.420   114576879.19908  21449034.760    89115348.02008
  20737460.560   110697975.87709  20737463.240    86098436.82408
  21029557.880   112493983.59609  21029557.600    87495324.75608
 15 02 25 01 28  0.0000000  0 12G16G18G19G21G22G27R03R04R09R16R18R19
  20498091.400   107718199.07109  20498087.380    83936242.20348
  21634380.960   113689525.26609  21634377.460    88589262.58148
  23106893.700   121427545.98805  23106889.680    94618850.92542
  22898444.820   120332139.23708  22898440.880    93765287.37447
  21460186.860   112774147.52909  21460181.480    87875988.01348
  21312017.060   111995428.82909  21312016.080    87269171.79348
  20982970.800   112323513.50508  20982970.480    87362740.83908
  22075746.660   118214657.22808  22075747.680    91944759.79707
  21034817.100   112324744.20208  21034817.780    87363699.50405
  21468755.620   114682237.60308  21468758.060    89197293.42208
  20744236.260   110734145.33609  20744239.080    86126568.60608
  21021965.440   112453369.02009  21021965.340    87463735.65208
 15 02 25 01 28 30.0000000  0 12G16G18G19G21G22G27R03R04R09R16R18R19
  20496806.400   107711446.33209  20496802.340    83930980.30449
  21635528.640   113695556.24909  21635525.140    88593962.05747
  23093171.420   121355435.00205  23093166.900    94562660.60843
  22911337.960   120399892.25408  22911333.920    93818081.96447
  21448526.260   112712870.64409  21448520.720    87828239.80548
  21302877.160   111947397.29809  21302875.760    87231744.61049
  20978483.780   112299494.99008  20978483.340    87344059.78208
  22054028.880   118098359.63808  22054029.860    91854306.16607
  21035999.120   112331056.40309  21035999.720    87368608.97905
  21488550.840   114787980.95608  21488553.680    89279538.23608
  20751031.500   110770418.26009  20751034.000    86154780.87708
  21014393.080   112412860.79909  21014392.840    87432229.24308
 15 02 25 01 29  0.0000000  0 12G16G18G19G21G22G27R03R04R09R16R18R19
  20495624.720   107705236.59909  20495620.680    83926141.56148
  21636770.340   113702081.03309  21636766.660    88599046.31048
  23079462.880   121283395.46806  23079458.300    94506525.91444
  22924244.600   120467716.46408  22924240.200    93870932.00647
  21436942.400   112651996.69209  21436936.700    87780805.57548
  21293765.300   111899513.55609  21293763.940    87194432.61248
  20974138.400   112276234.56408  20974138.120    87325968.31408
  22032356.940   117982307.05208  22032357.780    91764043.08307
  21037328.880   112338157.56508  21037329.840    87374132.15105
  21508420.100   114894119.57508  21508422.960    89362090.46607
  20757848.980   110806809.84409  20757851.640    86183085.44408
  21006843.260   112372473.91709  21006842.180    87400817.24208
 15 02 25 01 29 30.0000000  0 12G16G18G19G21G22G27R03R04R09R16R18R19
  20494549.580   107699586.47409  20494545.560    83921738.86249
  21638108.840   113709114.99709  21638105.280    88604527.34048
  23065770.880   121211442.82807  23065766.260    94450458.92945
  22937167.400   120535626.63508  22937163.140    93923848.99847
  21425438.460   112591542.97409  21425432.820    87733698.80048
  21284684.540   111851793.91109  21284683.140    87157248.48349
  20969938.100   112253749.65708  20969937.880    87308480.09708
  22010734.520   117866519.80608  22010735.160    91673986.37307
  21038809.080   112346062.45808  21038810.180    87380280.35505
  21528365.480   115000664.45208  21528368.200    89444958.68407
  20764691.540   110843335.70709  20764694.600    86211494.46708
  20999318.680   112332223.90208  20999317.220    87369511.67807
 15 02 25 01 30  0.0000000  0 12G16G18G19G21G22G27R03R04R09R16R18R19
  20493578.760   107694484.60709  20493574.780    83917763.37949
  21639541.900   113716645.80709  21639538.400    88610395.52048
  23052093.140   121139565.22008  23052088.500    94394450.43645
  22950104.200   120603609.16409  22950100.040    93976822.40347
  21414012.560   112531499.78709  21414007.180    87686911.91648
  21275632.760   111804227.05109  21275631.540    87120183.43449
  20965880.580   112232029.31908  20965880.480    87291586.52808
  21989160.060   117750989.93508  21989160.720    91584129.88607
  21040437.080   112354757.62808  21040438.320    87387043.29605
  21548383.820   115107598.45508  21548386.520    89528129.54307
  20771557.120   110879983.50009  20771559.800    86239998.28108
  20991817.240   112292098.00009  20991815.820    87338302.67808
 15 02 25 01 30 30.0000000  0 12G16G18G19G21G22G27R03R04R09R16R18R19
  20492713.200   107689935.88009  20492709.180    83914218.91349
  21641070.260   113724677.20209  21641066.740    88616653.74348
  23038430.620   121067767.46508  23038425.920    94338504.13946
  22963055.120   120671666.72309  22963050.640    94029854.23746
  21402665.900   112471872.99109  21402660.680    87640449.49448
  21266611.080   111756818.08209  21266610.120    87083241.36349
  20961967.100   112211079.68608  20961967.000    87275292.35008
  21967635.360   117635726.42008  21967636.120    91494480.52507
  21042213.960   112364246.50308  21042215.020    87394423.53705
  21568474.920   115214921.03808  21568477.480    89611602.63008
  20778446.240   110916757.38309  20778448.220    86268600.16708
  20984340.160   112252100.36509  20984339.200    87307193.41008
 15 02 25 01 31  0.0000000  0 12G16G18G19G21G22G27R03R04R09R16R18R19
  20491953.680   107685944.36509  20491949.620    83911108.63149
  21642694.580   113733212.46409  21642690.920    88623304.60948
  23024783.900   120996053.37808  23024779.140    94282623.04546
  22976020.640   120739801.54308  22976016.100    94082946.30646
  21391399.560   112412668.39309  21391394.360    87594316.05548
  21257620.240   111709571.24309  21257619.260    87046425.65748
  20958198.460   112190905.32908  20958198.160    87259601.20808
  21946161.940   117520737.41508  21946162.700    91405044.69707
  21044139.920   112374531.59108  21044141.260    87402423.04505
  21588638.520   115322631.13208  21588641.040    89695377.11807
  20785359.600   110953661.00309  20785361.560    86297302.98908
  20976887.680   112212234.00909  20976887.420    87276186.26208
 15 02 25 01 31 30.0000000  0 12G16G18G19G21G22G27R03R04R09R16R18R19
  20491299.440   107682505.89309  20491295.340    83908429.30248
  21644413.800   113742246.39809  21644409.960    88630344.03648
  23011152.140   120924418.64308  23011147.320    94226803.78646
  22988999.740   120808007.44208  22988995.400    94136093.75147
  21380213.000   112353882.91209  21380207.800    87548509.20948
  21248659.500   111662482.56209  21248658.600    87009733.19549
  20954574.100   112171503.28408  20954573.740    87244510.73708
  21924739.600   117406022.13508  21924740.400    91315821.74707
  21046213.880   112385606.75508  21046215.180    87411037.06205
  21608872.860   115430718.99208  21608875.440    89779445.43107
  20792296.220   110990689.30909  20792298.400    86326102.78908
  20969458.660   112172493.62809  20969458.660    87245277.13008
 15 02 25 01 32  0.0000000  0 13G04G16G18G19G21G22G27R03R04R09R16R18
                                R19
  24583505.740   129187191.38708  24583503.420   100665336.94644
  20490750.800   107679622.44709  20490746.680    83906182.45549
  21646228.120   113751780.45709  21646224.140    88637773.17947
  22997535.840   120852865.18608  22997530.860    94171047.87746
  23001992.460   120876284.62209  23001988.160    94189296.75846
  21369106.900   112295519.97809  21369101.720    87503031.61348
  21239729.520   111615554.55109  21239728.540    86973165.91649
  20951094.460   112152876.22308  20951094.080    87230023.04208
  21903369.600   117291587.33608  21903370.220    91226816.95207
  21048436.000   112397472.51408  21048437.420    87420265.96505
  21629177.180   115539181.29408  21629179.860    89863804.98307
  20799256.580   111027843.93209  20799258.100    86355000.82308
  20962053.440   112132880.83909  20962053.300    87214467.20008
 15 02 25 01 32 30.0000000  0 13G04G16G18G19G21G22G27R03R04R09R16R18
                                R19
  24565116.380   129090556.11908  24565114.840   100590036.91145
  20490311.340   107677312.74109  20490307.200    83904382.68449
  21648140.800   113761831.91809  21648136.860    88645605.50548
  22983938.600   120781411.09708  22983933.260    94115369.36046
  23015001.920   120944650.18809  23014997.820    94242568.58246
  21358085.000   112237599.46109  21358079.780    87457898.75248
  21230833.580   111568805.92909  21230832.220    86936738.39849
  20947763.280   112135043.97608  20947762.920    87216153.52108
  21882056.180   117177454.96708  21882056.560    91138047.36407
  21050809.400   112410145.88909  21050810.580    87430123.04305
  21649554.080   115648031.62208  21649557.140    89948466.29508
  20806243.760   111065143.07309  20806245.580    86384011.25808
  20954675.600   112093413.71409  20954674.760    87183770.49908
 15 02 25 01 33  0.0000000  0 13G04G16G18G19G21G22G27R03R04R09R16R18
                                R19
  24546750.820   128994045.49008  24546749.840   100514834.03544
  20489973.580   107675537.67109  20489969.340    83902999.51149
  21650144.220   113772360.78609  21650140.520    88653809.81847
  22970352.880   120710017.13108  22970347.480    94059737.69046
  23028020.340   121013062.44608  23028016.260    94295876.84346
  21347140.060   112180083.48709  21347134.760    87413081.13148
  21221964.240   111522197.61709  21221962.900    86900420.27948
  20944573.200   112117967.11308  20944572.700    87202871.52208
  21860792.540   117063589.51508  21860792.960    91049485.40007
  21053326.380   112423585.26608  21053327.220    87440575.87705
  21669995.180   115757224.54108  21669998.460    90033394.10908
  20813250.500   111102546.16809  20813252.820    86413102.57808
  20947317.200   112054050.97708  20947316.000    87153155.04708
 15 02 25 01 33 30.0000000  0 13G04G16G18G19G21G22G27R03R04R09R16R18
                                R19
  24528414.180   128897686.71108  24528413.440   100439749.46444
  20489742.640   107674324.21009  20489738.400    83902053.95549
  21652243.460   113783393.14509  21652239.880    88662406.48948
  22956783.560   120638709.91808  22956778.380    94004173.64047
  23041052.600   121081547.03309  23041048.260    94349241.46046
  21336277.520   112123000.22009  21336272.100    87368600.67948
  21213126.920   111475757.03109  21213125.480    86864232.80249
  20941529.380   112101674.07208  20941528.920    87190199.18608
  21839584.620   116950022.19208  21839585.100    90961155.30807
  21055991.300   112437816.06308  21055992.340    87451644.28205
  21690504.660   115866782.09108  21690508.020    90118605.49908
  20820281.920   111140080.18609  20820284.060    86442295.64408
  20939982.820   112014819.49809  20939982.560    87122641.74208
 15 02 25 01 34  0.0000000  0 13G04G16G18G19G21G22G27R03R04R09R16R18
                                R19
  24510105.360   128801473.00008  24510104.620   100364777.93845
  20489617.200   107673664.80609  20489612.940    83901540.12149
  21654436.900   113794920.71409  21654433.420    88671389.00348
  22943229.320   120567482.18508  22943224.500    93948671.53547
  23054096.680   121150094.32008  23054092.640    94402654.89646
  21325496.240   112066343.92509  21325490.700    87324452.92148
  21204320.100   111429477.04609  21204318.960    86828170.49449
  20938630.640   112086157.58508  20938630.280    87178130.82708
  21818431.720   116836749.49608  21818432.240    90873054.37507
  21058802.800   112452829.06708  21058803.740    87463321.04105
  21711079.960   115976691.38008  21711083.180    90204090.45607
  20827336.160   111177737.03909  20827338.280    86471584.33008
  20932671.900   111975710.91509  20932671.780    87092223.92108
 15 02 25 01 34 30.0000000  0 13G04G16G18G19G21G22G27R03R04R09R16R18
                                R19
  24491824.860   128705408.87108  24491824.480   100289922.99944
  20489598.020   107673563.96909  20489593.760    83901461.54948
  21656725.380   113806947.14409  21656721.920    88680760.24747
  22929690.980   120496338.25308  22929686.420    93893234.72247
  23067153.420   121218707.41808  23067149.360    94456119.66646
  21314797.220   112010120.25009  21314791.660    87280642.27648
  21195544.800   111383362.51209  21195543.900    86792237.08448
  20935878.000   112071423.10608  20935877.860    87166670.69308
  21797335.380   116723780.14508  21797335.960    90785189.34307
  21061761.380   112468626.87308  21061762.160    87475608.23405
  21731721.040   116086951.62808  21731723.920    90289848.39907
  20834414.320   111215520.82109  20834416.740    86500971.74508
  20925384.980   111936729.26609  20925384.300    87061904.82808
 15 02 25 01 35  0.0000000  0 13G04G16G18G19G21G22G27R03R04R09R16R18
                                R19
  24473572.840   128609495.61908  24473572.320   100215185.55244
  20489685.260   107674022.58909  20489680.960    83901818.91348
  21659108.720   113819471.86209  21659105.120    88690519.78147
  22916168.780   120425278.92008  22916164.320    93837863.83547
  23080222.320   121287384.78608  23080217.900    94509634.49246
  21304180.840   111954331.18609  21304175.400    87237170.29448
  21186801.100   111337414.43709  21186800.280    86756433.41849
  20933271.680   112057471.97008  20933271.700    87155819.82608
  21776296.500   116611118.64808  21776296.960    90697563.78607
  21064866.540   112485208.07808  21064867.360    87488504.74705
  21752426.880   116197558.28408  21752429.800    90375875.78007
  20841516.240   111253431.73109  20841518.880    86530457.97908
  20918121.580   111897873.96009  20918120.780    87031684.04708
 15 02 25 01 35 30.0000000  0 13G04G16G18G19G21G22G27R03R04R09R16R18
                                R19
  24455349.700   128513733.19908  24455349.180   100140565.60645
  20489878.880   107675040.05609  20489874.560    83902611.73848
  21661586.740   113832493.87409  21661583.220    88700666.80847
  22902662.580   120354303.58409  22902657.980    93782558.39047
  23093303.200   121356125.16909  23093298.780    94563198.38846
  21293647.360   111898977.92109  21293641.980    87194037.90248
  21178089.040   111291633.03809  21178088.200    86720759.58948
  20930811.900   112044304.55108  20930811.660    87145578.52308
  21755315.840   116498768.77908  21755316.180    90610180.59807
  21068118.080   112502570.60008  21068118.900    87502008.90805
  21773196.400   116308505.62608  21773199.440    90462168.12107
  20848641.760   111291468.90509  20848644.780    86560042.47508
  20910881.480   111859144.55009  20910881.140    87001561.19308
 15 02 25 01 36  0.0000000  0 13G04G16G18G19G21G22G27R03R04R09R16R18
                                R19
  24437154.980   128418120.07508  24437154.760   100066062.08245
  20490178.400   107676614.21309  20490174.080    83903838.34349
  21664158.900   113846010.21909  21664155.300    88711199.03348
  22889171.960   120283410.07309  22889167.180    93727316.70247
  23106395.460   121424924.64009  23106391.220    94616808.33546
  21283196.660   111844059.35609  21283191.280    87151244.22548
  21169408.460   111246016.78109  21169407.560    86685214.45848
  20928498.240   112031919.03708  20928497.920    87135945.35408
  21734393.900   116386732.49408  21734394.060    90523041.29107
  21071515.280   112520710.67808  21071516.320    87516117.84105
  21794028.420   116419786.46008  21794031.540    90548719.84207
  20855790.520   111329630.14209  20855793.400    86589723.41408
  20903664.560   111820538.03109  20903664.000    86971533.86708
 15 02 25 01 36 30.0000000  0 13G04G16G18G19G21G22G27R03R04R09R16R18
                                R19
  24418990.100   128322664.01108  24418989.680    99991680.84445
  20490585.400   107678753.30109  20490581.160    83905505.16649
  21666826.300   113860027.15909  21666822.640    88722121.34948
  22875698.400   120212606.09009  22875693.520    93672144.79248
  23119499.920   121493788.91608  23119495.320    94670468.84246
  21272830.600   111789585.06709  21272825.140    87108796.73848
  21160761.080   111200573.49909  21160760.000    86649804.10249
  20926332.140   112020324.37408  20926331.840    87126927.29508
  21713532.760   116275021.47408  21713532.700    90436154.99407
  21075059.100   112539633.73508  21075059.400    87530835.74905
  21814923.380   116531403.03308  21814926.460    90635532.68007
  20862963.940   111367922.59009  20862966.740    86619506.44208
  20896471.600   111782061.47309  20896470.940    86941607.69108
 15 02 25 01 37  0.0000000  0 13G04G16G18G19G21G22G27R03R04R09R16R18
                                R19
  24400853.900   128227358.80607  24400853.660    99917417.21345
  20491098.600   107681450.40309  20491094.400    83907606.80849
  21669587.480   113874537.57609  21669583.920    88733428.14848
  22862240.700   120141885.28909  22862235.800    93617037.69448
  23132615.160   121562709.82008  23132610.820    94724173.39046
  21262548.000   111735549.42609  21262542.520    87066691.06448
  21152145.420   111155297.24609  21152144.220    86614523.91349
  20924312.760   112009513.86408  20924312.600    87118519.16508
  21692731.920   116163633.47408  21692731.800    90349519.92207
  21078747.700   112559331.00309  21078748.820    87546155.86105
  21835879.040   116643343.71508  21835882.200    90722597.63707
  20870160.740   111406339.30409  20870163.420    86649386.07908
  20889301.600   111743707.64209  20889301.240    86911776.94808
 15 02 25 01 37 30.0000000  0 13G04G16G18G19G21G22G27R03R04R09R16R18
                                R19
  24382747.720   128132211.10008  24382747.280    99843276.25444
  20491719.160   107684711.56809  20491714.900    83910147.96149
  21672443.660   113889546.79309  21672440.120    88745123.64647
  22848800.080   120071253.85509  22848795.100    93562000.22848
  23145741.980   121631691.83008  23145737.720    94777925.62646
  21252350.280   111681960.25409  21252344.860    87024933.27848
  21143562.720   111110194.73809  21143561.500    86579379.09948
  20922441.140   111999494.29609  20922440.860    87110726.15708
  21671993.340   116052578.51608  21671993.260    90263143.87708
  21082582.220   112579807.09309  21082583.060    87562081.67605
  21856895.460   116755609.22608  21856898.440    90809915.21007
  20877381.900   111444886.03709  20877384.420    86679366.87308
  20882155.800   111705482.13909  20882155.360    86882046.03308
 15 02 25 01 38  0.0000000  0 13G04G16G18G19G21G22G27R03R04R09R16R18
                                R19
  24364670.000   128037212.36107  24364669.700    99769251.40445
  20492445.260   107688527.51209  20492441.000    83913121.42048
  21675392.780   113905044.38109  21675389.160    88757199.69748
  22835374.720   120000702.84909  22835369.720    93507025.44948
  23158878.380   121700724.41208  23158873.780    94831717.24847
  21242235.980   111628809.75009  21242230.640    86983517.31348
  21135011.320   111065257.24809  21135010.240    86544362.93949
  20920715.600   111990257.15308  20920715.140    87103541.72008
  21651315.960   115941851.75308  21651315.780    90177023.09307
  21086560.320   112601050.40909  21086561.300    87578604.25305
  21877970.000   116868185.16108  21877972.800    90897474.26807
  20884625.580   111483553.44208  20884628.140    86709441.49908
  20875031.880   111667375.28708  20875031.640    86852407.37208
 15 02 25 01 38 30.0000000  0 13G04G16G18G19G21G22G27R03R04R09R16R18
                                R19
  24346623.340   127942377.20008  24346623.300    99695354.09345
  20493279.600   107692912.51909  20493275.400    83916538.30849
  21678437.460   113921043.92509  21678433.740    88769666.89148
  22821967.300   119930246.56809  22821962.420    93452124.48148
  23172026.760   121769820.18008  23172022.700    94885558.06346
  21232208.200   111576113.53209  21232202.860    86942455.33748
  21126494.320   111020499.84809  21126493.380    86509486.98849
  20919139.020   111981817.23508  20919138.640    87096977.36508
  21630703.280   115831471.63508  21630702.940    90091171.93107
  21090684.500   112623073.37508  21090684.820    87595733.22805
  21899104.360   116981080.95808  21899107.100    90985282.06307
  20891894.580   111522355.68909  20891897.340    86739621.01808
  20867933.000   111629400.78809  20867932.640    86822871.66208
 15 02 25 01 39  0.0000000  0 13G04G16G18G19G21G22G27R03R04R09R16R18
                                R19
  24328605.980   127847695.56608  24328605.720    99621576.24545
  20494220.320   107697856.62109  20494216.220    83920390.85848
  21681575.440   113937533.94209  21681571.600    88782516.24747
  22808575.940   119859874.42509  22808571.100    93397289.05548
  23185184.780   121838967.40808  23185180.720    94939438.98946
  21222265.180   111523862.12009  21222259.700    86901739.97048
  21118009.700   110975912.49109  21118008.500    86474743.58649
  20917709.320   111974164.46708  20917709.120    87091025.20108
  21610154.160   115721431.77908  21610153.660    90005585.40607
  21094952.320   112645863.42108  21094953.140    87613458.83406
  21920295.620   117094280.75608  21920297.900    91073326.31907
  20899186.760   111561281.86009  20899189.320    86769896.95608
  20860856.880   111591547.49109  20860856.700    86793430.21308
 15 02 25 01 39 30.0000000  0 13G04G16G18G19G21G22G27R03R04R09R16R18
                                R19
  24310618.940   127753174.09908  24310618.840    99547923.29845
  20495268.500   107703365.39109  20495264.560    83924683.39549
  21684807.660   113954519.36309  21684803.760    88795751.64147
  22795201.820   119789592.65109  22795196.900    93342524.06948
  23198353.520   121908170.07408  23198349.500    94993363.14946
  21212408.360   111472063.37709  21212402.640    86861377.33048
  21109558.580   110931501.73109  21109557.180    86440137.81648
  20916428.000   111967305.48208  20916427.860    87085690.46408
  21589670.380   115611742.21408  21589669.900    89920271.35208
  21099364.560   112669424.39208  21099365.400    87631784.02805
  21941543.940   117207785.37608  21941546.040    91161607.66207
  20906503.160   111600337.76209  20906505.640    86800273.73908
  20853804.600   111553821.14909  20853804.240    86764087.52408
 15 02 25 01 40  0.0000000  0 13G04G16G18G19G21G22G27R03R04R09R16R18
                                R19
  24292662.340   127658812.95908  24292662.400    99474395.25944
  20496424.220   107709438.82209  20496420.300    83929415.92948
  21688134.040   113971999.46609  21688130.020    88809372.52747
  22781844.880   119719401.52808  22781839.900    93287829.70647
  23211532.680   121977427.01408  23211528.900    95047329.55946
  21202637.840   111420718.69309  21202632.040    86821368.49748
  21101141.200   110887268.22709  21101139.800    86405670.14249
  20915294.940   111961240.24608  20915294.680    87080973.06308
  21569252.640   115502407.20108  21569252.500    89835233.04007
  21103920.780   112693754.16308  21103921.860    87650707.16605
  21962848.400   117321589.72908  21962850.720    91250122.10907
  20913843.980   111639523.22709  20913846.580    86830751.31308
  20846776.000   111516221.34009  20846775.040    86734843.20808
 15 02 25 01 40 30.0000000  0 13G04G16G18G19G21G22G27R03R04R09R16R18
                                R19
  24274735.460   127564605.72008  24274735.100    99400987.07845
  20497686.000   107716069.48709  20497682.080    83934582.67648
  21691553.040   113989966.29309  21691549.040    88823372.64647
  22768503.620   119649293.79808  22768498.740    93233200.32947
  23224720.580   122046729.82508  23224717.260    95101331.68846
  21192952.560   111369822.05409  21192946.760    86781708.78648
  21092756.360   110843205.60309  21092755.240    86371335.65149
  20914308.860   111955962.36008  20914308.640    87076868.05508
  21548900.640   115393424.00908  21548900.580    89750468.35307
  21108619.080   112718843.41008  21108620.080    87670221.01705
  21984206.700   117435681.60608  21984209.280    91338860.17407
  20921207.620   111678831.02709  20921210.220    86861324.00608
  20839769.100   111478740.50908  20839768.440    86705691.43708
 15 02 25 01 41  0.0000000  0 13G04G16G18G19G21G22G27R03R04R09R16R18
                                R19
  24256838.980   127470558.07908  24256838.160    99327703.26645
  20499054.900   107723262.90209  20499051.000    83940187.93349
  21695065.560   114008424.15509  21695061.560    88837755.41148
  22755179.360   119579275.61108  22755174.580    93178640.72947
  23237918.340   122116082.31808  23237914.560    95155372.63446
  21183353.820   111319380.58209  21183348.060    86742403.74948
  21084405.000   110799319.86709  21084403.980    86337138.99749
  20913470.960   111951477.32608  20913470.980    87073379.72208
  21528616.140   115284802.08308  21528616.020    89665984.66707
  21113460.300   112744695.46308  21113461.000    87690328.12805
  22005618.800   117550061.21408  22005621.600    91427822.03807
  20928595.220   111718266.38009  20928598.000    86891995.94308
  20832785.380   111441383.39109  20832785.160    86676635.91408
 15 02 25 01 41 30.0000000  0 13G04G16G18G19G21G22G27R03R04R09R16R18
                                R19
  24238973.320   127376672.84808  24238972.520    99254546.02445
  20500531.160   107731020.70909  20500527.240    83946232.97349
  21698671.720   114027374.04209  21698667.660    88852521.56847
  22741872.740   119509349.13708  22741867.880    93124152.59847
  23251125.620   122185484.88508  23251121.720    95209452.56546
  21173842.200   111269397.07309  21173836.580    86703455.58948
  21076087.900   110755613.71809  21076086.840    86303082.23848
  20912781.600   111947787.52708  20912781.760    87070509.89308
  21508400.260   115176547.38708  21508400.320    89581786.60908
  21118444.340   112771309.89708  21118444.940    87711028.23105
  22027084.240   117664725.39208  22027087.160    91517005.24807
  20936007.080   111757830.96509  20936010.000    86922768.39808
  20825825.320   111404151.65109  20825825.100    86647677.90808
 15 02 25 01 42  0.0000000  0 13G04G16G18G19G21G22G27R03R04R09R16R18
                                R19
  24221140.800   127282961.74408  24221139.840    99181524.51945
  20502117.140   107739354.97709  20502113.260    83952727.20048
  21702373.380   114046826.45709  21702369.320    88867679.29047
  22728585.980   119439525.78509  22728580.880    93069744.79647
  23264344.020   122254947.84108  23264340.440    95263579.47846
  21164420.280   111219884.58809  21164414.640    86664874.44448
  21067807.240   110712099.12709  21067806.380    86269174.77049
  20912243.080   111944904.68808  20912243.080    87068267.68908
  21488256.120   115068676.21708  21488256.260    89497886.84408
  21123572.880   112798696.05508  21123573.880    87732328.56505
  22048604.200   117779680.77308  22048607.320    91606414.94707
  20943445.200   111797536.45609  20943448.440    86953650.44508
  20818891.100   111367056.70709  20818890.500    86618826.30408
 15 02 25 01 42 30.0000000  0 13G04G16G18G19G21G22G27R03R04R09R16R18
                                R19
  24203337.460   127189404.09108  24203336.360    99108622.51545
  20503808.660   107748243.79109  20503804.800    83959653.54848
  21706166.440   114066759.11909  21706162.360    88883211.25147
  22715314.860   119369784.50209  22715309.620    93015400.96547
  23277569.500   122324448.25208  23277565.320    95317735.63146
  21155084.220   111170823.24109  21155078.500    86626644.84448
  21059559.080   110668755.61009  21059558.500    86235400.63649
  20911851.280   111942807.89208  20911851.240    87066636.87308
  21468180.320   114961170.78108  21468180.300    89414271.53108
  21128841.560   112826830.01809  21128842.240    87754210.54505
  22070173.620   117894900.45208  22070176.800    91696030.22007
  20950905.740   111837361.04209  20950908.540    86984625.14608
  20811978.300   111330076.48909  20811977.540    86590063.94108
 15 02 25 01 43  0.0000000  0 13G04G16G18G19G21G22G27R03R04R09R16R18
                                R19
  24185565.860   127096013.90508  24185564.600    99035851.04144
  20505608.260   107757700.55809  20505604.360    83967022.44948
  21710053.260   114087184.43809  21710049.160    88899127.10147
  22702061.960   119300139.41409  22702056.760    92961132.07047
  23290804.220   122393998.48408  23290800.340    95371930.57546
  21145836.780   111122227.81809  21145831.060    86588778.29548
  21051346.520   110625597.69609  21051345.840    86201771.07449
  20911609.020   111941510.87408  20911608.860    87065628.10608
  21448176.200   114854049.42008  21448176.040    89330954.95708
  21134252.420   112855723.57008  21134253.480    87776683.29705
  22091794.160   118010393.41608  22091797.460    91785858.04307
  20958391.120   111877318.80008  20958393.700    87015703.33608
  20805089.240   111293224.42009  20805088.480    86561401.25608
 15 02 25 01 43 30.0000000  0 13G04G16G18G19G21G22G27R03R04R09R16R18
                                R19
  24167825.500   127002787.95708  24167823.760    98963207.53444
  20507515.300   107767721.83509  20507511.360    83974831.22048
  21714032.860   114108097.89009  21714028.880    88915423.30548
  22688826.580   119230587.13909  22688821.500    92906935.50047
  23304047.600   122463593.48109  23304043.620    95426160.45746
  21136677.640   111074096.45409  21136671.900    86551273.35248
  21043168.660   110582622.21309  21043167.760    86168283.70348
  20911515.600   111941009.81708  20911515.240    87065238.38908
  21428243.720   114747312.41208  21428243.600    89247937.31108
  21139804.260   112885370.26208  21139805.420    87799741.79805
  22113464.180   118126150.79208  22113467.540    91875891.48507
  20965900.640   111917405.41809  20965903.400    87046881.87308
  20798223.220   111256496.58608  20798222.400    86532835.14708
 15 02 25 01 44  0.0000000  0 13G04G16G18G19G21G22G27R03R04R09R16R18
                                R19
  24150116.520   126909727.43008  24150114.760    98890692.94045
  20509529.780   107778308.00609  20509525.860    83983080.18749
  21718105.220   114129498.73009  21718101.300    88932099.27847
  22675608.920   119161128.19509  22675603.960    92852811.65847
  23317299.380   122533232.30708  23317295.380    95480424.47946
  21127607.140   111026430.62309  21127601.420    86514131.15948
  21035025.820   110539830.55309  21035024.800    86134939.54349
  20911570.880   111941305.48108  20911570.380    87065468.37108
  21408383.880   114640964.61708  21408383.960    89165222.39308
  21145496.820   112915768.45008  21145497.920    87823384.83905
  22135182.920   118242168.14108  22135186.100    91966127.18507
  20973434.420   111957621.72309  20973437.640    87078161.20008
  20791380.360   111219892.99309  20791379.660    86504365.70208
 15 02 25 01 44 30.0000000  0 13G04G16G18G19G21G22G27R03R04R09R16R18
                                R19
  24132439.140   126816832.41008  24132437.380    98818307.26745
  20511651.620   107789458.30309  20511647.720    83991768.71848
  21722270.160   114151385.94209  21722266.320    88949154.24747
  22662409.080   119091762.74609  22662404.040    92798760.67747
  23330559.300   122602913.47309  23330555.280    95534721.50046
  21118625.480   110979231.34809  21118619.840    86477352.51348
  21026917.940   110497223.02509  21026916.720    86101738.89249
  20911774.820   111942397.58708  20911774.560    87066317.79208
  21388597.380   114535009.83908  21388597.700    89082813.15008
  21151329.700   112946915.38909  21151330.620    87847610.21705
  22156949.380   118358440.04408  22156952.520    92056560.83107
  20980992.440   111997967.16309  20980996.060    87109540.95208
  20784560.840   111183413.09809  20784560.020    86475992.45508
 15 02 25 01 45  0.0000000  0 13G04G16G18G19G21G22G27R03R04R09R16R18
                                R19
  24114793.480   126724105.55708  24114792.340    98746052.68145
  20513881.100   107801174.46509  20513877.220    84000898.18049
  21726527.940   114173760.86709  21726524.060    88966589.25747
  22649227.520   119022493.46509  22649222.260    92744784.63047
  23343827.600   122672637.83808  23343823.480    95589052.16846
  21109733.220   110932502.08809  21109727.660    86440940.12348
  21018845.620   110454802.78109  21018844.400    86068684.15449
  20912128.160   111944288.62908  20912127.640    87067788.61508
  21368885.600   114429454.74108  21368885.840    89000714.76608
  21157302.840   112978810.71008  21157303.440    87872417.67305
  22178762.940   118474963.73108  22178766.000    92147190.29607
  20988575.180   112038444.07209  20988578.460    87141023.00408
  20777764.900   111147058.92009  20777763.860    86447716.97008
 15 02 25 01 45 30.0000000  0 13G04G16G18G19G21G22G27R03R04R09R16R18
                                R19
  24097179.760   126631545.42208  24097178.760    98673927.98444
  20516217.880   107813454.74809  20516214.140    84010467.23148
  21730877.880   114196620.00509  21730873.920    88984401.58547
  22636063.820   118953318.56909  22636058.560    92690882.12647
  23357103.480   122742402.36708  23357099.000    95643414.12246
  21100930.280   110886242.27109  21100924.700    86404893.52048
  21010808.660   110412568.61609  21010807.520    86035774.41548
  20912630.340   111946976.64508  20912629.820    87069879.29608
  21349249.080   114324301.50608  21349249.160    88918928.93908
  21163415.180   113011449.99208  21163415.740    87897803.80605
  22200622.320   118591732.12608  22200625.040    92238010.12007
  20996182.200   112079050.34309  20996184.980    87172605.65008
  20770991.800   111110828.35509  20770990.880    86419537.63908
 15 02 25 01 46  0.0000000  0 13G04G16G18G19G21G22G27R03R04R09R16R18
                                R19
  24079598.780   126539157.39008  24079597.560    98601937.37344
  20518663.040   107826304.05009  20518659.340    84020479.66748
  21735320.660   114219967.16909  21735316.720    89002594.18647
  22622919.060   118884243.13509  22622913.980    92637057.14547
  23370387.360   122812210.16408  23370383.420    95697809.75546
  21092217.780   110840457.71409  21092212.040    86369217.25648
  21002808.360   110370526.03809  21002807.020    86003013.96749
  20913282.160   111950466.19408  20913281.840    87072593.39208
  21329689.260   114219559.19409  21329689.160    88837462.72608
  21169667.280   113044835.87609  21169667.700    87923770.56705
  22222527.480   118708744.97108  22222530.040    92329020.07107
  21003814.420   112119790.96609  21003817.160    87204292.78408
  20764242.420   111074725.74209  20764242.140    86391457.85508
 15 02 25 01 46 30.0000000  0 13G04G16G18G19G21G22G27R03R04R09R16R18
                                R19
  24062049.960   126446938.54808  24062048.360    98530078.61244
  20521215.700   107839718.11209  20521211.940    84030932.16648
  21739855.440   114243798.23209  21739851.660    89021163.85047
  22609792.800   118815264.45409  22609787.880    92583307.53047
  23383678.660   122882056.74508  23383674.600    95752235.66046
  21083595.340   110795146.34109  21083589.480    86333909.71248
  20994844.000   110328672.46609  20994842.620    85970400.79648
  20914083.120   111954753.61808  20914082.880    87075928.07708
  21310206.320   114115228.58708  21310206.040    88756316.72708
  21176057.860   113078961.76109  21176058.420    87950312.96605
  22244476.720   118825993.93608  22244479.460    92420213.64207
  21011471.140   112160662.48609  21011473.860    87236081.72308
  20757516.560   111038747.62409  20757516.660    86363474.86608
 15 02 25 01 47  0.0000000  0 13G04G16G18G19G21G22G27R03R04R09R16R18
                                R19
  24044533.480   126354888.85108  24044531.720    98458351.68944
  20523875.600   107853696.04609  20523871.880    84041824.06348
  21744481.980   114268111.14009  21744478.200    89040108.98347
  22596685.040   118746381.89609  22596680.000    92529632.83247
  23396976.920   122951939.88608  23396972.660    95806690.06846
  21075063.120   110750308.97809  21075057.280    86298971.51948
  20986915.520   110287007.99609  20986913.960    85937934.98349
  20915033.000   111959838.49708  20915032.840    87079883.00708
  21290800.900   114011313.11209  21290800.560    88675493.60908
  21182586.540   113113824.67608  21182587.060    87977428.54205
  22266469.140   118943473.30108  22266472.120    92511586.42507
  21019152.300   112201664.15409  21019154.680    87267971.90308
  20750813.800   111002892.91009  20750814.060    86335587.87208
 15 02 25 01 47 30.0000000  0 13G04G16G18G19G21G22G27R03R04R09R16R18
                                R19
  24027050.140   126263012.94008  24027048.040    98386760.09944
  20526643.680   107868242.37609  20526640.000    84053158.85748
  21749200.800   114292909.04009  21749197.120    89059432.01648
  22583596.520   118677600.42909  22583591.400    92476036.90248
  23410282.500   123021862.93308  23410278.300    95861175.53946
  21066622.160   110705951.08709  21066616.360    86264406.93748
  20979024.020   110245537.94909  20979022.460    85905620.65949
  20916132.700   111965724.78508  20916132.400    87084461.23308
  21271474.520   113907821.51908  21271474.400    88595000.18508
  21189253.460   113149426.52208  21189254.480    88005118.81005
  22288504.640   119061182.60008  22288507.580    92603138.03507
  21026858.600   112242800.36009  21026860.980    87299966.71508
  20744135.180   110967166.02909  20744135.160    86307800.29408
 15 02 25 01 48  0.0000000  0 13G04G16G18G19G21G22G27R03R04R09R16R18
                                R19
  24009599.100   126171307.92308  24009597.460    98315301.75945
  20529519.160   107883353.06709  20529515.500    84064933.41849
  21754011.200   114318187.60009  21754007.520    89079129.59347
  22570526.500   118608916.67409  22570521.420    92422517.11348
  23423594.960   123091820.88408  23423591.520    95915688.16746
  21058272.000   110662070.36609  21058266.120    86230214.18248
  20971168.960   110204259.58509  20971167.760    85873455.75348
  20917381.380   111972409.21409  20917380.960    87089660.19608
  21252227.340   113804754.46708  21252227.420    88514836.93708
  21196057.700   113185760.94708  21196059.080    88033378.93105
  22310581.620   119179113.18808  22310584.640    92694861.77307
  21034589.380   112284067.72109  21034591.980    87332063.55808
  20737479.560   110931563.04609  20737479.360    86280109.11408
 15 02 25 01 48 30.0000000  0 13G04G16G18G19G21G22G27R03R04R09R16R18
                                R19
  23992180.760   126079775.42608  23992179.840    98243977.85645
  20532502.260   107899029.08009  20532498.560    84077148.48249
  21758913.120   114343946.98709  21758909.340    89099201.87247
  22557475.400   118540332.53309  22557470.340    92369074.91447
  23436914.580   123161814.34408  23436910.560    95970228.53946
  21050013.080   110618669.06509  21050007.020    86196394.99048
  20963350.720   110163175.00309  20963349.560    85841441.77149
  20918779.200   111979892.11308  20918778.520    87095480.24908
  21233060.580   113702117.32708  21233060.600    88435008.08408
  21202999.000   113222826.49008  21203000.200    88062207.63505
  22332699.260   119297261.44008  22332702.160    92786754.83707
  21042344.880   112325467.57709  21042347.840    87364263.44008
  20730847.380   110896085.06109  20730846.920    86252515.12408
 15 02 25 01 49  0.0000000  0 13G04G16G18G19G21G22G27R03R04R09R16R18
                                R19
  23974795.460   125988414.64608  23974794.360    98172787.66445
  20535592.540   107915268.27209  20535588.700    84089802.39248
  21763905.940   114370184.37809  21763902.140    89119646.59047
  22544443.100   118471847.08209  22544437.800    92315709.62947
  23450240.320   123231840.31608  23450235.960    96024794.26346
  21041845.320   110575747.39109  21041839.200    86162949.54848
  20955569.340   110122283.65409  20955568.100    85809578.39849
  20920325.860   111988172.48208  20920325.480    87101920.54508
  21213974.640   113599913.03008  21213974.760    88355515.87808
  21210076.580   113260619.11008  21210077.540    88091601.89005
  22354856.380   119415620.78508  22354858.980    92878812.06107
  21050124.860   112366998.46909  21050127.760    87396565.23208
  20724238.400   110860730.73109  20724237.800    86225017.35308
 15 02 25 01 49 30.0000000  0 13G04G16G18G19G21G22G27R03R04R09R16R18
                                R19
  23957443.780   125897230.74208  23957442.460    98101735.35845
  20538790.800   107932075.10209  20538786.900    84102898.61548
  21768990.400   114396903.25409  21768986.580    89140466.49547
  22531430.440   118403465.03509  22531425.000    92262424.91747
  23463572.760   123301902.30408  23463569.140    96079387.94047
  21033769.780   110533310.80709  21033763.800    86129882.09048
  20947825.840   110081591.03209  20947824.540    85777869.84149
  20922022.420   111997254.21508  20922022.240    87108984.13108
  21194971.040   113498150.26308  21194971.280    88276367.08008
  21217290.460   113299140.64508  21217291.600    88121563.09105
  22377052.860   119534191.09408  22377055.640    92971033.30707
  21057930.340   112408665.25909  21057933.300    87428972.70908
  20717653.380   110825504.19609  20717652.580    86197618.91608
 15 02 25 01 50  0.0000000  0 13G04G16G18G19G21G22G27R03R04R09R16R18
                                R19
  23940125.240   125806221.43908  23940123.640    98030819.09645
  20542096.600   107949447.20109  20542092.740    84116435.29948
  21774165.820   114424100.10709  21774162.080    89161658.83147
  22518437.000   118335184.49609  22518431.620    92209219.33148
  23476911.380   123371996.36108  23476908.200    96134006.65746
  21025786.260   110491358.04009  21025780.460    86097191.63148
  20940119.780   110041095.41109  20940118.580    85746314.81849
  20923868.140   112007134.40508  20923868.120    87116668.72208
  21176050.400   113396830.87608  21176050.560    88197563.12408
  21224639.720   113338385.51608  21224640.660    88152086.84405
  22399287.420   119652964.65708  22399290.140    93063412.67207
  21065760.620   112450465.24809  21065764.180    87461483.77008
  20711091.540   110790403.08708  20711090.760    86170318.03308
 15 02 25 01 50 30.0000000  0 13G04G16G18G19G21G22G27R03R04R09R16R18
                                R19
  23922839.900   125715386.41108  23922837.860    97960038.60045
  20545509.640   107967382.80609  20545505.800    84130411.09549
  21779431.820   114451772.74309  21779428.120    89183221.93248
  22505462.780   118267004.86708  22505457.520    92156092.37248
  23490255.720   123442120.59208  23490252.260    96188648.93546
  21017894.900   110449889.24409  21017889.140    86064878.30248
  20932451.080   110000796.77209  20932450.000    85714913.32449
  20925862.860   112017811.83208  20925862.600    87124973.39908
  21157213.280   113295958.11509  21157213.240    88119106.55808
  21232123.820   113378350.33408  21232124.900    88183170.60305
  22421558.940   119771935.70908  22421561.980    93155945.61907
  21073615.880   112492397.76009  21073619.320    87494097.96208
  20704552.720   110755426.24309  20704552.440    86143113.86408
 15 02 25 01 51  0.0000000  0 13G04G16G18G19G21G22G27R03R04R09R16R18
                                R19
  23905589.240   125624734.90608  23905587.720    97889401.18345
  20549031.480   107985889.84209  20549027.560    84144832.15649
  21784789.660   114479928.38509  21784785.940    89205161.41048
  22492509.380   118198935.32109  22492504.360    92103051.21248
  23503607.000   123512282.49108  23503603.280    96243320.52546
  21010097.560   110408914.19309  21010091.800    86032949.70548
  20924821.780   109960704.67409  20924820.600    85683672.69249
  20928007.940   112029294.81908  20928007.720    87133904.61208
  21138461.900   113195544.69209  21138461.640    88041007.26908
  21239743.740   113419040.69009  21239744.700    88214818.65805
  22443868.220   119891107.95608  22443871.320    93248635.11107
  21081497.960   112534471.75009  21081501.060    87526822.17408
  20698038.820   110720582.22309  20698038.280    86116012.91608
 15 02 25 01 51 30.0000000  0 13G04G16G18G19G21G22G27R03R04R09R16R18
                                R19
  23888371.800   125534256.91308  23888370.360    97818898.87045
  20552660.060   108004957.84409  20552656.140    84159690.33749
  21790237.180   114508555.41409  21790233.360    89227468.18047
  22479575.140   118130966.02409  22479570.340    92050088.12448
  23516963.080   123582470.30307  23516959.740    96298012.30146
  21002392.380   110368423.71909  21002386.740    86001398.69048
  20917230.000   109920809.68309  20917228.820    85652585.68349
  20930301.460   112041572.23208  20930301.100    87143453.70308
  21119795.120   113095584.47008  21119794.760    87963260.45608
  21247497.040   113460443.47708  21247498.360    88247020.84705
  22466212.320   120010466.40808  22466215.640    93341469.39007
  21089404.680   112576676.64709  21089407.460    87559648.18108
  20691547.900   110685860.51709  20691546.540    86089007.17208
 15 02 25 01 52  0.0000000  0 13G04G16G18G19G21G22G27R03R04R09R16R18
                                R19
  23871188.500   125443958.05408  23871187.080    97748536.21745
  20556396.400   108024591.85409  20556392.460    84174989.56049
  21795775.160   114537658.02308  21795771.460    89250145.57748
  22466661.240   118063102.65709  22466656.500    91997207.56948
  23530324.940   123652688.23208  23530321.160    96352727.57246
  20994780.580   110328423.95309  20994775.080    85970230.04348
  20909676.880   109881117.75609  20909675.660    85621656.94049
  20932744.340   112054648.87408  20932743.780    87153624.46108
  21101214.540   112996086.77908  21101214.280    87885873.39208
  21255384.220   113502560.79709  21255385.220    88279778.71905
  22488591.260   120130010.85708  22488594.840    93434448.32307
  21097336.860   112619017.89509  21097339.440    87592580.24208
  20685081.020   110651266.17909  20685079.640    86062100.47708
 15 02 25 01 52 30.0000000  0 13G04G16G18G19G21G22G27R03R04R09R16R18
                                R19
  23854039.240   125353837.75108  23854037.380    97678312.59245
  20560239.980   108044789.96709  20560235.980    84190728.34549
  21801403.200   114567233.90409  21801399.580    89273191.68548
  22453767.320   117995344.56809  22453762.540    91944409.05948
  23543692.080   123722934.04108  23543688.380    96407464.55646
  20987262.200   110288914.80909  20987256.760    85939443.71648
  20902162.440   109841628.80509  20902161.020    85590886.33149
  20935336.020   112068523.07908  20935335.660    87164415.49708
  21082720.840   112897054.59108  21082720.660    87808848.37608
  21263404.460   113545388.74408  21263405.900    88313089.32805
  22511003.940   120249735.48608  22511007.700    93527567.41607
  21105294.360   112661494.49209  21105296.420    87625617.56008
  20678637.880   110616798.12009  20678636.400    86035292.00708
 15 02 25 01 53  0.0000000  0 13G04G16G18G19G21G22G27R03R04R09R16R18
                                R19
  23836924.540   125263901.41308  23836923.160    97608232.46845
  20564191.700   108065556.43509  20564187.640    84206909.99448
  21807122.000   114597286.61109  21807118.440    89296609.37947
  22440894.420   117927697.16409  22440889.460    91891696.81248
  23557065.300   123793211.45408  23557062.220    96462226.14046
  20979838.520   110249902.61909  20979832.940    85909044.60948
  20894687.760   109802348.80509  20894686.220    85560278.52049
  20938077.580   112083199.24408  20938077.360    87175830.30308
  21064315.880   112798497.57609  21064315.780    87732192.93008
  21271558.180   113588929.21008  21271559.240    88346954.06805
  22533450.540   120369640.74008  22533454.340    93620826.96907
  21113278.080   112704111.81109  21113279.580    87658764.40508
  20672219.020   110582461.34909  20672217.800    86008585.62008
 15 02 25 01 53 30.0000000  0 13G04G16G18G19G21G22G27R03R04R09R16R18
                                R19
  23819843.300   125174138.21308  23819841.440    97538287.08944
  20568249.320   108086879.51609  20568245.300    84223525.38048
  21812929.080   114627802.98609  21812925.540    89320388.38047
  22428040.500   117860149.46609  22428035.260    91839062.25548
  23570442.100   123863507.97408  23570438.300    96517002.67446
  20972507.320   110211376.60609  20972501.660    85879024.34948
  20887250.760   109763266.87809  20887249.280    85529825.07449
  20940966.840   112098665.39808  20940966.600    87187859.54608
  21045998.240   112700407.51709  21045998.140    87655900.69408
  21279842.640   113633167.32608  21279843.760    88381361.47505
  22555927.780   120489709.45408  22555931.180    93714213.68207
  21121285.760   112746858.02609  21121287.620    87692011.46308
  20665822.360   110548244.17609  20665821.520    85981972.25908
 15 02 25 01 54  0.0000000  0 13G04G16G18G19G21G22G27R03R04R09R16R18
                                R19
  23802797.140   125084559.89108  23802795.660    97468485.88046
  20572414.820   108108769.77409  20572410.900    84240582.72648
  21818826.500   114658793.79309  21818822.860    89344537.07548
  22415207.800   117792713.38809  22415202.540    91786514.68247
  23583824.200   123933833.77508  23583821.560    96571801.89946
  20965270.960   110173349.55109  20965265.420    85849392.88048
  20879853.860   109724395.67209  20879852.480    85499535.81949
  20944005.560   112114931.83408  20944005.200    87200511.21908
  21027770.900   112602800.72309  21027770.720    87579984.31908
  21288259.360   113678112.03508  21288260.060    88416318.46405
  22578436.860   120609948.67008  22578440.320    93807733.00607
  21129319.860   112789745.14709  21129322.140    87725368.08008
  20659450.380   110514158.12009  20659449.300    85955460.87808
 15 02 25 01 54 30.0000000  0 13G04G16G18G19G21G22G27R03R04R09R16R18
                                R19
  23785785.120   124995160.71208  23785783.380    97398824.21244
  20576687.040   108131220.72309  20576683.140    84258076.95948
  21824812.640   114690251.09709  21824808.860    89369049.23647
  22402395.380   117725383.29109  22402390.140    91734049.65348
  23597211.080   124004181.39508  23597207.860    96626618.25745
  20958128.400   110135815.69909  20958123.040    85820145.73948
  20872496.040   109685729.77009  20872494.620    85469406.54049
  20947192.520   112131991.88408  20947192.220    87213780.17908
  21009633.440   112505674.44409  21009632.940    87504441.66608
  21296806.600   113723753.74508  21296807.340    88451817.52405
  22600975.820   120730347.38607  22600979.380    93901376.32907
  21137379.180   112832766.78809  21137381.320    87758829.32408
  20653101.500   110480196.78108  20653100.400    85929046.51608
 15 02 25 01 55  0.0000000  0 13G04G16G18G19G21G22G27R03R04R09R16R18
                                R19
  23768808.080   124905946.67408  23768806.620    97329306.81245
  20581066.900   108154237.12609  20581063.000    84276011.81148
  21830888.440   114722179.52109  21830884.640    89393928.52147
  22389604.260   117658165.31509  22389599.180    91681672.01948
  23610602.980   124074555.37408  23610599.640    96681455.09546
  20951081.100   110098782.08709  20951075.780    85791288.38748
  20865178.500   109647275.65409  20865177.060    85439442.30849
  20950528.500   112149850.02308  20950528.360    87227669.82508
  20991587.460   112409038.98108  20991587.020    87429280.79008
  21305484.680   113770094.71808  21305485.900    88487860.50305
  22623544.700   120850905.93108  22623548.240    93995144.01207
  21145464.960   112875928.89409  21145467.440    87792399.88508
  20646776.900   110446365.62309  20646775.960    85902733.41408
 15 02 25 01 55 30.0000000  0 13G04G16G18G19G21G22G27R03R04R09R16R18
                                R19
  23751865.660   124816915.14608  23751864.300    97259931.63244
  20585553.760   108177815.78709  20585549.840    84294384.79248
  21837052.980   114754574.60009  21837049.320    89419171.44447
  22376833.860   117591056.93609  22376829.240    91629379.82148
  23623999.140   124144951.82408  23623995.360    96736309.45146
  20944128.600   110062246.50609  20944123.180    85762819.11948
  20857900.860   109609031.36109  20857899.420    85409641.57149
  20954013.120   112168502.79808  20954012.840    87242177.54408
  20973633.080   112312895.06608  20973632.840    87354502.20208
  21314292.660   113817129.06608  21314294.120    88524442.78305
  22646141.980   120971616.63807  22646145.640    94089030.03807
  21153576.580   112919228.78409  21153579.120    87826077.54608
  20640476.480   110412662.01809  20640475.720    85876519.52508
 15 02 25 01 56  0.0000000  0 13G04G16G18G19G21G22G27R03R04R09R16R18
                                R19
  23734958.100   124728065.18708  23734956.440    97190697.94745
  20590147.140   108201954.37509  20590143.240    84313194.07149
  21843305.800   114787433.61909  21843302.280    89444775.87648
  22364084.080   117524057.33509  22364079.600    91577172.37148
  23637399.140   124215367.91008  23637395.580    96791179.11446
  20937270.820   110026208.51309  20937265.320    85734737.57948
  20850663.160   109570996.39909  20850661.480    85380003.94349
  20957645.680   112187947.59808  20957645.400    87257301.29808
  20955771.000   112217245.40608  20955770.940    87280108.04808
  21323229.880   113864852.15009  21323231.480    88561560.71405
  22668766.520   121092473.10507  22668770.500    94183029.40407
  21161713.540   112962664.92309  21161715.980    87859861.21008
  20634199.800   110379084.38309  20634198.460    85850403.56208
 15 02 25 01 56 30.0000000  0 13G04G16G18G19G21G22G27R03R04R09R16R18
                                R19
  23718086.300   124639403.11408  23718084.720    97121610.67345
  20594848.040   108226657.98909  20594844.240    84332443.64048
  21849647.680   114820760.32409  21849644.060    89470744.75348
  22351356.340   117457172.66509  22351351.300    91525054.41147
  23650803.640   124285808.69908  23650799.300    96846068.07945
  20930509.080   109990674.91909  20930503.540    85707049.07348
  20843466.400   109533177.55409  20843464.780    85350534.70849
  20961427.060   112208189.66608  20961426.680    87273045.11508
  20938003.300   112122100.01809  20938003.160    87206106.10508
  21332296.500   113913266.65308  21332298.020    88599216.39305
  22691418.640   121213476.51208  22691422.740    94277143.06207
  21169877.320   113006243.55109  21169879.480    87893755.66908
  20627947.580   110345638.73009  20627946.240    85824390.26808
 15 02 25 01 57  0.0000000  0 13G04G16G18G19G21G22G27R03R04R09R16R18
                                R19
  23701249.120   124550922.57108  23701247.320    97052664.78145
  20599655.120   108251919.33909  20599651.320    84352127.79748
  21856077.020   114854546.99909  21856073.400    89497072.03547
  22338649.560   117390396.77209  22338644.120    91473021.24648
  23664211.240   124356266.36208  23664206.840    96900970.13645
  20923842.200   109955639.84809  20923836.660    85679749.02948
  20836309.700   109495568.92809  20836307.980    85321229.30049
  20965355.900   112229221.21208  20965355.500    87289403.01808
  20920329.440   112027456.25609  20920329.080    87132494.30708
  21341490.660   113962362.28209  21341491.940    88637401.84505
  22714096.240   121334615.29408  22714100.360    94371362.02707
  21178066.580   113049957.91809  21178069.120    87927755.71508
  20621718.400   110312317.91409  20621717.960    85798474.11508
 15 02 25 01 57 30.0000000  0 13G04G16G18G19G21G22G27R03R04R09R16R18
                                R19
  23684447.620   124462630.26108  23684446.380    96983865.72145
  20604569.360   108277743.91009  20604565.580    84372250.83548
  21862595.040   114888799.28309  21862591.480    89523762.12948
  22325964.760   117323736.70809  22325959.320    91421078.38347
  23677623.080   124426746.11208  23677619.320    96955889.37146
  20917271.500   109921110.51809  20917266.000    85652843.07048
  20829194.380   109458178.10809  20829192.820    85292093.56749
  20969433.120   112251047.75708  20969432.880    87306379.24008
  20902751.120   111933324.59409  20902750.580    87059280.80908
  21350812.960   114012142.32608  21350813.480    88676119.68805
  22736799.480   121455890.96008  22736803.600    94465687.41407
  21186282.340   113093814.79509  21186284.960    87961866.58108
  20615513.920   110279128.70209  20615513.920    85772660.28608
 15 02 25 01 58  0.0000000  0 13G04G16G18G19G21G22G27R03R04R09R16R18
                                R19
  23667681.900   124374525.20908  23667680.380    96915212.41746
  20609590.280   108304129.28809  20609586.540    84392810.86248
  21869201.040   114923513.51409  21869197.400    89550812.17548
  22313301.720   117257191.74409  22313296.200    91369225.18848
  23691038.720   124497245.24808  23691034.840    97010823.75645
  20910796.820   109887086.02909  20910791.340    85626330.48748
  20822120.340   109421004.19709  20822118.960    85263126.91849
  20973658.320   112273666.40808  20973658.160    87323971.49508
  20885268.740   111839707.30709  20885268.160    86986467.37808
  21360262.400   114062601.88608  21360263.660    88715365.98105
  22759527.220   121577297.18908  22759531.220    94560114.36607
  21194524.520   113137812.72609  21194527.000    87996087.16208
  20609333.600   110246069.66909  20609333.640    85746947.72708
 15 02 25 01 58 30.0000000  0 13G04G16G18G19G21G22G27R03R04R09R16R18
                                R19
  23650952.420   124286611.66008  23650951.040    96846708.46045
  20614718.560   108331078.95709  20614714.880    84413810.59348
  21875895.420   114958692.46609  21875891.600    89578224.33948
  22300661.320   117190765.99609  22300655.600    91317464.82648
  23704458.240   124567766.91508  23704455.420    97065775.62946
  20904419.280   109853571.79309  20904413.760    85600215.50848
  20815088.540   109384052.42809  20815087.300    85234333.34449
  20978032.160   112297080.08508  20978031.960    87342182.13008
  20867883.800   111746612.78408  20867883.460    86914060.55208
  21369839.200   114113741.67208  21369839.560    88755141.30105
  22782279.140   121698832.89708  22782283.120    94654642.04807
  21202794.060   113181956.02209  21202796.820    88030420.84608
  20603178.840   110213144.85009  20603178.340    85721339.49708
 15 02 25 01 59  0.0000000  0 13G04G16G18G19G21G22G27R03R04R09R16R18
                                R19
  23634257.660   124198880.94308  23634256.080    96778346.85245
  20619952.340   108358582.93509  20619948.760    84435242.25648
  21882676.180   114994325.64009  21882672.340    89605990.46947
  22288041.860   117124450.95609  22288036.400    91265790.81048
  23717880.400   124638300.64208  23717877.700    97120736.98946
  20898137.200   109820558.91109  20898131.540    85574491.19748
  20808097.520   109347314.40109  20808096.340    85205706.30649
  20982552.600   112321278.51208  20982552.280    87361003.14408
  20850595.340   111654035.42709  20850595.240    86842055.96808
  21379540.960   114165548.66208  21379541.580    88795435.66505
  22805052.680   121820484.22407  22805056.360    94749259.63306
  21211089.160   113226235.68309  21211091.900    88064860.54008
  20597047.360   110180344.77409  20597046.840    85695828.35708
 15 02 25 01 59 30.0000000  0 13G04G16G18G19G21G22G27R03R04R09R16R18
                                R19
  23617598.940   124111338.54408  23617597.600    96710132.00046
  20625292.520   108386645.62409  20625288.900    84457109.27848
  21889543.900   115030416.04909  21889540.120    89634112.85347
  22275444.540   117058252.41809  22275439.200    91214207.53948
  23731305.660   124708850.76208  23731302.480    97175711.09645
  20891951.660   109788053.45809  20891945.940    85549162.27148
  20801148.340   109310796.26109  20801147.180    85177250.62549
  20987220.400   112346265.81708  20987220.080    87380437.71608
  20833405.280   111561984.13809  20833405.240    86770460.52908
  21389368.120   114218025.03908  21389368.260    88836250.60805
  22827847.920   121942251.62407  22827851.520    94843967.49206
  21219410.900   113270656.97309  21219413.080    88099410.43008
  20590940.060   110147675.00309  20590939.740    85670418.57008
 15 02 25 02 00  0.0000000  0 13G04G16G18G19G21G22G27R03R04R09R16R18
                                R19
  23600976.420   124023986.16308  23600975.080    96642065.26046
  20630739.060   108415267.32909  20630735.420    84479411.89148
  21896498.760   115066963.87509  21896494.960    89662591.66647
  22262869.740   116992172.29409  22262864.700    91162716.55248
  23744734.140   124779417.03908  23744731.080    97230697.78346
  20885863.080   109756057.53909  20885857.360    85524230.40048
  20794241.460   109274500.28509  20794240.140    85148968.05349
  20992035.580   112372041.83408  20992035.560    87400485.72908
  20816314.740   111470464.72409  20816314.680    86699278.78508
  21399320.200   114271168.57208  21399320.940    88877584.39405
  22850664.220   122064131.24708  22850667.580    94938762.62707
  21227759.400   113315221.54409  21227761.200    88134071.72808
  20584857.560   110115136.67309  20584856.460    85645110.92408
 15 02 25 02 00 30.0000000  0 13G04G16G18G19G21G22G27R03R04R09R16R18
                                R19
  23584390.640   123936827.54008  23584389.560    96574149.54246
  20636292.400   108444450.65909  20636288.880    84502152.14048
  21903540.960   115103970.83809  21903537.020    89691428.27747
  22250318.240   116926214.49909  22250313.620    91111320.90548
  23758166.160   124850002.32108  23758163.240    97285699.26245
  20879872.280   109724575.29209  20879866.460    85499698.78948
  20787377.720   109238430.96709  20787376.320    85120862.05649
  20996998.580   112398608.88008  20996998.600    87421148.96908
  20799324.880   111379484.53509  20799324.800    86628516.43708
  21409397.040   114324979.10708  21409397.960    88919437.01605
  22873501.240   122186122.06208  22873504.680    95033644.22507
  21236135.460   113359932.90509  21236137.520    88168847.24108
  20578800.080   110082733.46509  20578799.320    85619908.49108
 15 02 25 02 01  0.0000000  0 13G04G16G18G19G21G22G27R03R04R09R16R18
                                R19
  23567840.480   123849856.22708  23567839.200    96506379.71146
  20641951.180   108474187.47309  20641947.600    84525323.67348
  21910668.940   115141428.77109  21910664.980    89720616.25647
  22237788.900   116860372.67009  22237784.320    91060015.59148
  23771600.120   124920598.62508  23771596.640    97340709.35145
  20873977.880   109693600.13209  20873972.080    85475562.31748
  20780555.940   109202582.15109  20780554.520    85092927.92549
  21002107.680   112425958.34608  21002107.700    87442420.82808
  20782435.060   111289040.20408  20782434.840    86558170.85008
  21419596.960   114379446.21208  21419597.680    88961800.30605
  22896356.920   122308212.31108  22896360.500    95128603.14107
  21244537.820   113404784.31009  21244540.320    88203731.64008
  20572766.600   110050458.46609  20572766.360    85594805.72408
 15 02 25 02 01 30.0000000  0 13G04G16G18G19G21G22G27R03R04R09R16R18
                                R19
  23551326.340   123763072.35108  23551324.860    96438755.94845
  20647715.260   108504477.00809  20647711.480    84548925.90548
  21917882.520   115179335.82709  21917878.460    89750154.25347
  22225282.000   116794647.50509  22225277.200    91008801.16148
  23785035.920   124991204.33008  23785031.960    97395726.83146
  20868180.100   109663133.12009  20868174.440    85451821.80348
  20773776.280   109166954.69209  20773774.780    85065166.26749
  21007362.800   112454089.27608  21007362.720    87464300.44008
  20765646.060   111199135.33809  20765645.680    86488244.85408
  21429919.200   114434565.78708  21429919.600    89004671.07305
  22919230.240   122430396.78108  22919233.860    95223635.36207
  21252966.200   113449775.81709  21252968.400    88238724.97708
  20566757.400   110018311.54909  20566757.260    85569802.53308
 15 02 25 02 02  0.0000000  0 13G04G16G18G19G21G22G27R03R04R09R16R18
                                R19
  23534849.760   123676487.63008  23534848.180    96371287.37446
  20653586.600   108535330.06509  20653582.620    84572967.23948
  21925183.320   115217701.64009  21925179.200    89780049.67147
  22212799.420   116729050.74709  22212794.460    90957686.80448
  23798475.580   125061830.44108  23798472.580    97450760.01246
  20862481.420   109633186.52309  20862475.740    85428486.78848
  20767041.080   109131561.10009  20767039.640    85037586.84149
  21012765.800   112483011.58008  21012765.560    87486795.57208
  20748960.620   111109785.76009  20748960.420    86418750.76908
  21440365.120   114490346.24808  21440365.680    89048055.88305
  22942122.500   122552682.20907  22942125.960    95318746.11907
  21261422.900   113494919.24709  21261425.380    88273836.56608
  20560774.040   109986304.68509  20560773.640    85544908.33508
 15 02 25 02 02 30.0000000  0 13G04G16G18G19G21G22G27R03R04R09R16R18
                                R19
  23518409.300   123590092.34308  23518407.640    96303966.44245
  20659562.960   108566735.19009  20659558.820    84597438.76548
  21932569.280   115256515.13809  21932565.200    89810293.97847
  22200339.380   116663572.99009  22200334.340    90906665.19748
  23811917.000   125132465.54808  23811913.300    97505800.40745
  20856879.940   109603750.36009  20856874.220    85405549.54348
  20760348.720   109096392.24109  20760347.340    85010182.53649
  21018314.460   112512713.52908  21018314.120    87509897.08508
  20732377.620   111020984.99808  20732377.620    86349683.53708
  21450932.140   114546773.61008  21450933.380    89091943.77905
  22965030.800   122675053.88007  22965034.260    95413923.90107
  21269906.160   113540204.62809  21269908.840    88309058.46308
  20554814.860   109954427.31508  20554814.200    85520114.81808
 15 02 25 02 03  0.0000000  0 13G04G16G18G19G21G22G27R03R04R09R16R18
                                R19
  23502004.340   123503883.01108  23502002.260    96236790.36446
  20665643.420   108598687.75209  20665639.180    84622336.84948
  21940039.320   115295770.78309  21940035.460    89840882.78247
  22187901.220   116598211.02409  22187896.680    90855733.85348
  23825359.800   125203105.04108  23825355.300    97560844.20646
  20851375.100   109574822.11009  20851369.360    85383008.04548
  20753698.580   109061445.43209  20753697.200    84982951.25749
  21024007.760   112543189.92608  21024007.400    87533600.97908
  20715897.180   110932733.43709  20715897.300    86281043.45508
  21461618.900   114603840.52008  21461620.200    89136329.12905
  22987953.680   122797503.37908  22987957.180    95509162.23006
  21278415.480   113585628.37009  21278418.180    88344388.08008
  20548878.940   109922676.26909  20548878.280    85495419.56308
 15 02 25 02 03 30.0000000  0 13G04G16G18G19G21G22G27R03R04R09R16R18
                                R19
  23485637.220   123417873.86608  23485635.320    96169770.28446
  20671830.460   108631200.58909  20671826.160    84647671.52148
  21947595.780   115335480.25909  21947591.820    89871825.21247
  22175488.200   116532979.54909  22175483.440    90804904.08548
  23838805.600   125273761.56808  23838801.400    97615901.12646
  20845969.600   109546415.89509  20845963.860    85360873.33848
  20747093.440   109026735.35309  20747092.060    84955904.43849
  21029848.120   112574453.32408  21029847.580    87557916.93908
  20699522.640   110845048.37209  20699522.720    86212843.97208
  21472427.240   114661557.00508  21472428.480    89181219.71205
  23010892.880   122920039.64308  23010896.140    95604468.04606
  21286953.560   113631204.88509  21286956.140    88379836.43208
  20542969.180   109891065.36008  20542969.080    85470833.31708
 15 02 25 02 04  0.0000000  0 13G04G16G18G19G21G22G27R03R04R09R16R18
                                R19
  23469307.480   123332060.20908  23469305.720    96102902.52846
  20678122.900   108664267.48709  20678118.560    84673437.92148
  21955237.440   115375637.43509  21955233.320    89903116.52947
  22163098.880   116467873.87909  22163094.320    90754172.45348
  23852253.200   125344429.18508  23852248.500    97670966.78145
  20840662.560   109518527.26409  20840656.860    85339141.94648
  20740532.580   108992257.94309  20740531.260    84929038.94249
  21035834.060   112606496.63409  21035833.600    87582839.48008
  20683253.720   110757928.67709  20683253.640    86145084.23008
  21483355.860   114719914.61208  21483356.640    89226608.88505
  23033846.600   123042652.96808  23033849.640    95699833.78906
  21295519.260   113676928.98909  21295521.980    88415399.61408
  20537084.860   109859589.75609  20537084.940    85446352.29408
 15 02 25 02 04 30.0000000  0 13G04G16G18G19G21G22G27R03R04R09R16R18
                                R19
  23453014.500   123246440.91008  23453012.580    96036186.20546
  20684520.220   108697885.76209  20684515.960    84699633.97748
  21962963.660   115416239.01609  21962959.460    89934754.13947
  22150733.420   116402893.40009  22150728.860    90703538.33248
  23865702.620   125415105.73708  23865697.900    97726039.45145
  20835453.800   109491155.09009  20835448.100    85317812.98748
  20734015.840   108958012.92309  20734014.700    84902354.49749
  21041965.260   112639317.35308  21041964.720    87608366.73208
  20667090.800   110671376.85709  20667090.620    86077766.15008
  21494403.460   114778907.89708  21494404.200    89272492.56705
  23056813.720   123165337.13608  23056816.440    95795254.61106
  21304112.280   113722799.94309  21304115.660    88451077.00608
  20531226.020   109828248.29509  20531225.900    85421975.59708
 15 02 25 02 05  0.0000000  0 13G04G16G18G19G21G22G27R03R04R09R16R18
                                R19
  23436759.340   123161020.21609  23436757.640    95969624.67046
  20691023.040   108732058.71109  20691018.900    84726262.23548
  21970774.900   115457287.24409  21970770.560    89966739.77747
  22138392.700   116338042.39509  22138387.800    90653005.09848
  23879153.480   125485793.88308  23879150.140    97781121.01546
  20830344.140   109464304.06609  20830338.440    85296890.11148
  20727544.280   108924005.08509  20727543.340    84875854.91849
  21048242.040   112672917.49808  21048241.560    87634500.16808
  20651035.300   110585400.57309  20651035.160    86010895.73408
  21505570.260   114838537.26009  21505571.320    89318870.92305
  23079793.980   123288091.35108  23079796.200    95890729.93806
  21312733.680   113768821.62609  21312736.640    88486871.64408
  20525393.000   109797044.88908  20525393.000    85397706.31508
 15 02 25 02 05 30.0000000  0 13G04G16G18G19G21G22G27R03R04R09R16R18
                                R19
  23420540.820   123075791.54208  23420538.540    95903212.73745
  20697629.960   108766778.43309  20697625.880    84753316.55848
  21978669.460   115498774.02509  21978665.300    89999067.12547
  22126075.680   116273314.88309  22126070.240    90602568.06347
  23892605.600   125556485.66108  23892603.140    97836205.48446
  20825332.460   109437968.04309  20825326.740    85276368.55348
  20721116.800   108890228.73309  20721115.820    84849535.67849
  21054662.800   112707288.57308  21054662.440    87661233.24708
  20635086.720   110499996.87409  20635086.500    85944470.65308
  21516854.200   114898792.08509  21516855.200    89365735.78105
  23102785.100   123410904.33408  23102787.220    95986250.95606
  21321382.140   113814987.63109  21321385.160    88522778.51408
  20519584.620   109765973.06609  20519583.700    85373539.33308
 15 02 25 02 06  0.0000000  0 13G04G16G18G19G21G22G27R03R04R09R16R18
                                R19
  23404360.280   122990761.51309  23404358.240    95836955.59046
  20704341.920   108802049.77409  20704337.900    84780800.70548
  21986648.300   115540703.71709  21986644.240    90031739.63847
  22113783.400   116208717.83009  22113777.680    90552232.70548
  23906059.160   125627186.34308  23906056.580    97891296.94645
  20820420.080   109412153.64009  20820414.380    85256253.45148
  20714734.740   108856690.94709  20714733.680    84823402.31849
  21061228.280   112742434.78408  21061227.900    87688569.19808
  20619246.820   110415175.46708  20619246.600    85878498.46608
  21528255.600   114959674.57509  21528256.580    89413088.78905
  23125787.300   123533777.23407  23125789.600    96081818.54006
  21330059.020   113861304.08509  21330061.560    88558802.42108
  20513802.120   109735039.37609  20513801.000    85349479.77108
 15 02 25 02 06 30.0000000  0 13G04G16G18G19G21G22G27R03R04R09R16R18
                                R19
  23388216.840   122905927.33908  23388214.860    95770851.10645
  20711158.000   108837868.30309  20711153.980    84808711.24348
  21994710.420   115583071.45009  21994706.620    90064753.43347
  22101515.500   116144249.11209  22101509.940    90501997.40048
  23919514.040   125697892.12208  23919511.280    97946392.31545
  20815606.460   109386858.32709  20815600.880    85236542.81748
  20708397.700   108823389.67409  20708396.660    84797453.29149
  21067937.920   112778351.75308  21067937.460    87716504.58608
  20603515.780   110330937.14408  20603515.800    85812979.78608
  21539773.240   115021177.83608  21539774.480    89460924.61805
  23148799.200   123656702.17708  23148801.960    96177426.59807
  21338763.600   113907768.53109  21338765.360    88594941.38208
  20508044.480   109704240.50509  20508043.580    85325525.12908
 15 02 25 02 07  0.0000000  0 13G04G16G18G19G21G22G27R03R04R09R16R18
                                R19
  23372110.700   122821289.27508  23372108.820    95704899.41146
  20718077.920   108874232.96209  20718073.940    84837047.32748
  22002855.600   115625875.30309  22002852.120    90098107.10247
  22089272.220   116079908.82809  22089266.400    90451862.05548
  23932969.840   125768602.25908  23932967.220    98001491.09846
  20810891.640   109362082.51709  20810886.180    85217236.99348
  20702105.960   108790326.05309  20702105.000    84771689.44049
  21074791.080   112815037.56508  21074790.640    87745038.03608
  20587894.480   110247285.49509  20587894.600    85747917.40508
  21551406.440   115083298.03209  21551407.780    89509240.32505
  23171819.920   123779674.84607  23171823.240    96273071.74606
  21347495.720   113954381.24509  21347497.680    88631195.73208
  20502312.240   109673577.23608  20502311.580    85301675.92308
 15 02 25 02 07 30.0000000  0 13G04G16G18G19G21G22G27R03R04R09R16R18
                                R19
  23356041.580   122736846.01608  23356039.600    95639099.49746
  20725101.160   108911141.00009  20725097.320    84865806.82248
  22011083.240   115669111.94309  22011079.720    90131797.98447
  22077052.880   116015696.26209  22077047.840    90401826.36748
  23946426.380   125839313.91608  23946423.460    98056591.06245
  20806275.560   109337825.09209  20806270.180    85198335.12648
  20695859.360   108757499.45909  20695858.340    84746110.27249
  21081787.280   112852488.68908  21081786.740    87774166.70408
  20572383.180   110164222.69009  20572383.180    85683313.03608
  21563154.080   115146029.67308  21563155.300    89558031.57705
  23194848.420   123902688.83907  23194851.900    96368749.07206
  21356255.180   114001140.67008  21356257.800    88667564.14708
  20496605.180   109643047.88309  20496604.600    85277930.89708
 15 02 25 02 08  0.0000000  0 13G04G16G18G19G21G22G27R03R04R09R16R18
                                R19
  23340012.180   122652611.36808  23340010.480    95573462.17546
  20732230.240   108948605.36709  20732226.520    84894999.82548
  22019395.600   115712793.66108  22019392.080    90165835.68647
  22064860.620   115951625.70309  22064855.660    90351901.24448
  23959884.900   125910039.77508  23959881.300    98111702.13846
  20801760.940   109314100.12309  20801755.460    85179848.13548
  20689660.600   108724924.53809  20689659.440    84720727.22749
  21088928.500   112890717.06808  21088928.380    87803899.88208
  20556985.040   110081766.31209  20556984.940    85619180.29508
  21575018.040   115209382.72308  21575019.000    89607306.15605
  23217886.480   124025753.29907  23217889.960    96464465.63706
  21365044.700   114048061.11209  21365047.920    88704057.81008
  20490925.960   109612666.41409  20490924.840    85254300.80608
 15 02 25 02 08 30.0000000  0 14G04G16G18G19G21G22G27R03R04R05R09R16
                                R18R19
  23324020.280   122568573.86809  23324018.700    95507978.44846
  20739462.700   108986612.55509  20739458.980    84924615.80848
  22027790.180   115756906.63109  22027786.560    90200209.42747
  22052693.400   115887686.03409  22052688.280    90302078.11048
  23973343.480   125980767.11107  23973340.320    98166814.29045
  20797345.360   109290895.71009  20797339.800    85161766.79248
  20683507.580   108692590.40709  20683506.400    84695531.80449
  21096212.440   112929708.53508  21096212.380    87834226.58408
  20541698.440   109999907.81208  20541698.340    85555512.60208
  23603436.180   126173890.71206  23603440.260    98135267.41506
  21586995.280   115273341.02408  21586996.560    89657051.48305
  23240930.900   124148851.51207  23240934.320    96560208.43006
  21373862.300   114095130.65009  21373865.240    88740667.42508
  20485272.080   109582421.23009  20485271.300    85230776.80108
 15 02 25 02 09  0.0000000  0 14G04G16G18G19G21G22G27R03R04R05R09R16
                                R18R19
  23308066.260   122484735.74408  23308064.700    95442650.04846
  20746798.640   109025163.23009  20746794.940    84954655.28748
  22036266.780   115801450.84409  22036263.160    90234919.19747
  22040551.160   115823879.66109  22040545.820    90252358.87148
  23986802.700   126051497.00308  23986799.800    98221928.46745
  20793029.400   109268214.89009  20793023.820    85144093.43048
  20677400.920   108660499.95209  20677399.820    84670526.27349
  21103638.900   112969463.06608  21103638.840    87865146.73208
  20526524.520   109918652.67909  20526524.520    85492314.18008
  23578421.440   126040174.36007  23578426.240    98031266.57306
  21599085.560   115337902.70908  21599086.660    89707266.08304
  23263981.100   124271980.87207  23263984.660    96655975.42206
  21382708.380   114142351.52109  21382711.280    88777394.73208
  20479644.100   109552314.25709  20479643.300    85207360.26008
 15 02 25 02 09 30.0000000  0 14G04G16G18G19G21G22G27R03R04R05R09R16
                                R18R19
  23292150.000   122401095.61209  23292147.980    95377475.94945
  20754237.480   109064254.38809  20754233.780    84985115.91748
  22044824.680   115846423.19308  22044821.140    90269962.57247
  22028434.300   115760205.88909  22028429.620    90202742.99048
  24000262.280   126122226.66708  24000259.580    98277042.49945
  20788812.780   109246056.03709  20788807.140    85126826.79648
  20671340.560   108628652.65809  20671339.420    84645710.17649
  21111207.340   113009977.38708  21111207.220    87896657.87208
  20511463.640   109838002.68709  20511463.600    85429586.43008
  23553404.220   125906443.85007  23553408.800    97927254.62806
  21611287.720   115403062.00809  21611288.440    89757945.52204
  23287035.920   124395135.12307  23287039.760    96751761.73706
  21391582.700   114189722.40909  21391585.360    88814238.72508
  20474041.580   109522344.50209  20474040.880    85184050.48808
 15 02 25 02 10  0.0000000  0 14G04G16G18G19G21G22G27R03R04R05R09R16
                                R18R19
  23276272.300   122317658.00608  23276270.000    95312459.65645
  20761779.780   109103889.04809  20761776.000    85016000.04948
  22053464.460   115891826.14008  22053460.900    90305341.49647
  22016343.560   115696669.81209  22016338.700    90153234.33848
  24013722.220   126192959.51808  24013719.840    98332158.97045
  20784696.360   109224423.86509  20784690.620    85109970.56848
  20665327.460   108597053.82009  20665326.340    84621087.73349
  21118918.120   113051253.74808  21118917.920    87928761.69208
  20496517.360   109757966.25909  20496517.260    85367335.88708
  23528385.840   125772707.65507  23528390.200    97823238.17406
  21623601.800   115468819.41908  21623603.080    89809090.15405
  23310095.160   124518313.85606  23310099.580    96847567.07506
  21400485.940   114237248.01709  21400488.220    88851203.12008
  20468464.740   109492516.38709  20468464.840    85160850.88008
 15 02 25 02 10 30.0000000  0 14G04G16G18G19G21G22G27R03R04R05R09R16
                                R18R19
  23260433.180   122234422.87608  23260430.960    95247601.16446
  20769425.300   109144065.73609  20769421.300    85047306.55348
  22062185.900   115937657.48508  22062182.440    90341054.22847
  22004279.160   115633271.73909  22004274.640    90103833.30448
  24027182.660   126263694.55508  24027180.540    98387277.08245
  20780680.100   109203318.36809  20780674.260    85093524.73348
  20659362.000   108565704.39909  20659360.780    84596659.58649
  21126770.780   113093289.61408  21126770.640    87961456.27908
  20481686.260   109678546.40009  20481686.240    85305564.90208
  23503366.960   125638968.91107  23503371.300    97719219.74706
  21636027.160   115535170.49508  21636028.060    89860696.51704
  23333158.200   124641512.44907  23333162.980    96943387.86706
  21409418.200   114284928.51009  21409420.420    88888287.87708
  20462915.080   109462830.19409  20462914.780    85137761.57508
 15 02 25 02 11  0.0000000  0 14G04G16G18G19G21G22G27R03R04R05R09R16
                                R18R19
  23244630.980   122151381.34208  23244628.740    95182893.48446
  20777171.880   109184773.62109  20777167.700    85079026.97948
  22070986.820   115983906.25909  22070983.240    90377092.22747
  21992239.640   115570003.16208  21992234.920    90054533.07948
  24040642.220   126334421.95708  24040638.480    98442389.42945
  20776762.380   109182730.48209  20776756.480    85077482.22848
  20653442.300   108534595.89009  20653441.000    84572419.21649
  21134763.220   113136073.42308  21134762.660    87994732.56908
  20466969.220   109599737.27309  20466969.300    85244268.94008
  23478346.420   125505221.74707  23478351.000    97615194.74706
  21648561.200   115602101.83408  21648562.360    89912754.16705
  23356222.480   124764716.55508  23356227.260    97039212.95606
  21418377.520   114332754.46209  21418380.240    88925485.84408
  20457390.160   109433276.53109  20457389.680    85114775.40708
 15 02 25 02 11 30.0000000  0 14G04G16G18G19G21G22G27R03R04R05R09R16
                                R18R19
  23228868.320   122068547.59008  23228866.360    95118347.71946
  20785022.020   109226026.02509  20785017.800    85111171.69148
  22079869.600   116030585.08909  22079865.880    90413465.32547
  21980227.420   115506879.13509  21980222.680    90005345.57848
  24054102.540   126405154.85807  24054098.160    98497505.88344
  20772945.980   109162674.88609  20772940.080    85061854.49948
  20647571.440   108503743.85509  20647569.960    84548378.63649
  21142897.760   113179617.70708  21142897.260    88028600.38008
  20452369.760   109521557.17509  20452369.640    85183462.20108
  23453327.620   125371484.33307  23453332.240    97511177.28806
  21661205.960   115669623.77308  21661207.340    89965271.21404
  23379289.820   124887936.39307  23379294.580    97135050.25106
  21427367.020   114380740.91209  21427369.820    88962808.63808
  20451893.160   109403870.30309  20451892.700    85091903.89508
 15 02 25 02 12  0.0000000  0 14G04G16G18G19G21G22G27R03R04R05R09R16
                                R18R19
  23213144.460   121985918.79108  23213142.780    95053961.66546
  20792974.780   109267817.77209  20792970.540    85143736.68748
  22088833.220   116077688.52609  22088829.440    90450169.30247
  21968241.980   115443896.97009  21968237.280    89956268.56048
  24067563.020   126475888.68608  24067558.500    98552623.14045
  20769230.200   109143148.44309  20769224.320    85046639.11048
  20641748.760   108473145.75909  20641747.280    84524535.99149
  21151173.240   113223916.71308  21151172.520    88063055.15508
  20437887.780   109444005.52609  20437887.300    85123144.25708
  23428310.660   125237756.78506  23428315.460    97407167.50306
  21673959.920   115737728.83408  21673960.940    90018241.78804
  23402358.680   125011164.03507  23402363.120    97230893.60006
  21436386.240   114428884.73809  21436388.680    89000253.78508
  20446423.260   109374608.55609  20446422.840    85069144.79308
 15 02 25 02 12 30.0000000  0 14G04G16G18G19G21G22G27R03R04R05R09R16
                                R18R19
  23197459.480   121903493.63108  23197457.720    94989734.27346
  20801029.720   109310146.54109  20801025.460    85176720.13548
  22097877.080   116125213.28209  22097873.220    90487201.56847
  21956283.860   115381056.15709  21956279.300    89907301.70048
  24081023.200   126546622.70107  24081019.940    98607740.51146
  20765614.900   109124150.51209  20765609.140    85031835.53848
  20635974.340   108442801.54709  20635973.060    84500891.16749
  21159588.940   113268967.06108  21159588.120    88098094.34108
  20423523.480   109367084.95009  20423522.880    85063317.17808
  23403295.960   125104041.56906  23403300.920    97303167.23106
  21686822.020   115806411.64508  21686822.860    90071661.72304
  23425427.700   125134393.41307  23425432.240    97326738.24206
  21445434.680   114477184.81809  21445437.040    89037820.49708
  20440980.100   109345490.35209  20440979.040    85046497.22008
 15 02 25 02 13  0.0000000  0 14G04G16G18G19G21G22G27R03R04R05R09R16
                                R18R19
  23181813.320   121821271.83808  23181811.340    94925665.32746
  20809186.320   109353010.00309  20809182.220    85210120.21048
  22107000.640   116173157.32309  22106996.640    90524560.55447
  21944352.880   115318356.79509  21944347.840    89858445.05548
  24094482.880   126617353.63908  24094480.020    98662855.52044
  20762100.060   109105680.07209  20762094.360    85017442.97448
  20630248.360   108412711.56609  20630247.260    84477444.40649
  21168144.540   113314765.63208  21168143.920    88133715.44008
  20409277.380   109290798.29609  20409276.980    85003983.12308
  23378284.020   124970341.33907  23378289.160    97199178.61006
  21699791.460   115875667.34608  21699792.480    90125527.28104
  23448496.120   125257619.42907  23448500.640    97422580.25906
  21454512.180   114525640.94809  21454514.600    89075508.55208
  20435563.440   109316515.26609  20435562.800    85023961.08808
 15 02 25 02 13 30.0000000  0 14G04G16G18G19G21G22G27R03R04R05R09R16
                                R18R19
  23166206.540   121739257.38508  23166204.680    94861758.01646
  20817444.880   109396409.86909  20817441.020    85243938.28848
  22116204.160   116221521.96509  22116200.340    90562247.28047
  21932449.580   115255803.25409  21932444.360    89809702.03148
  24107942.300   126688084.90007  24107939.260    98717970.75345
  20758686.440   109087741.06209  20758680.660    85003464.53748
  20624571.660   108382880.39309  20624570.660    84454199.36349
  21176840.160   113361313.93808  21176839.420    88169919.67308
  20395150.860   109215152.22308  20395150.700    84945147.30908
  23353276.420   124836663.70006  23353281.460    97095207.54706
  21712868.040   115945495.51708  21712869.520    90179838.00305
  23471563.740   125380841.15207  23471568.180    97518418.93806
  21463619.540   114574257.06209  21463622.080    89113321.10608
  20430174.480   109287687.47708  20430174.000    85001539.46808
 15 02 25 02 14  0.0000000  0 14G04G16G18G19G21G22G27R03R04R05R09R16
                                R18R19
  23150637.720   121657442.95908  23150635.860    94798006.52646
  20825803.900   109440337.64109  20825800.140    85278167.70848
  22125485.980   116270298.20609  22125481.960    90600254.74947
  21920572.640   115193388.93209  21920567.320    89761067.50948
  24121400.700   126758808.31908  24121397.340    98773079.92145
  20755372.580   109070326.23209  20755366.680    84989894.54848
  20618943.020   108353301.71409  20618942.000    84431151.00949
  21185673.900   113408602.04108  21185673.340    88206699.28008
  20381143.140   109140142.58709  20381143.140    84886806.49808
  23328272.280   124703004.57307  23328277.420    96991250.89106
  21726049.700   116015884.16508  21726051.240    90234584.72805
  23494628.200   125504046.40107  23494632.980    97614244.72406
  21472755.440   114623025.77609  21472758.080    89151252.28508
  20424811.560   109258999.74209  20424810.980    84979226.78908
 15 02 25 02 14 30.0000000  0 14G04G16G18G19G21G22G27R03R04R05R09R16
                                R18R19
  23135108.800   121575837.87908  23135106.680    94734418.12346
  20834265.000   109484801.53109  20834261.240    85312814.88748
  22134847.480   116319492.93709  22134843.260    90638588.31547
  21908724.060   115131123.51509  21908718.920    89712549.05748
  24134858.780   126829532.54307  24134855.420    98828189.65546
  20752160.200   109053444.98209  20752154.320    84976740.33848
  20613364.420   108323985.65309  20613363.280    84408307.35149
  21194647.180   113456636.88808  21194646.800    88244059.76708
  20367256.720   109065782.30109  20367256.720    84828970.74608
  23303274.080   124569377.03507  23303279.260    96887318.75206
  21739337.300   116086838.59609  21739338.820    90289771.46005
  23517690.700   125627240.28307  23517695.620    97710061.70206
  21481921.880   114671956.95709  21481924.660    89189309.86508
  20419476.400   109230461.53609  20419475.960    84957030.43008
 15 02 25 02 15  0.0000000  0 14G04G16G18G19G21G22G27R03R04R05R09R16
                                R18R19
  23119619.180   121494440.17008  23119617.260    94670991.38646
  20842827.380   109529797.50709  20842823.700    85347876.67648
  22144287.800   116369102.69209  22144283.720    90677245.27447
  21896903.560   115069005.72909  21896898.100    89664145.56748
  24148316.440   126900253.12408  24148312.920    98883296.51544
  20749048.960   109037095.31409  20749043.160    84964000.34648
  20607835.560   108294931.15809  20607834.340    84385667.50349
  21203759.100   113505413.70408  21203758.700    88281997.26708
  20353491.880   108992072.33309  20353491.800    84771640.78008
  23278282.120   124435782.17407  23278287.200    96783412.03807
  21752729.660   116158352.14608  21752730.660    90345393.08504
  23540749.840   125750415.73807  23540755.040    97805864.27506
  21491118.500   114721048.58609  21491121.460    89227492.24008
  20414169.100   109202071.25209  20414168.160    84934949.07308
 15 02 25 02 15 30.0000000  0 14G04G16G18G19G21G22G27R03R04R05R09R16
                                R18R19
  23104167.740   121413243.61808  23104166.100    94607721.38546
  20851489.560   109575317.45509  20851485.900    85383346.74348
  22153805.460   116419118.79009  22153801.640    90716218.85447
  21885110.020   115007030.14009  21885104.340    89615852.92948
  24161772.800   126970964.54508  24161768.700    98938396.38545
  20746037.640   109021270.85709  20746031.840    84951669.61548
  20602355.540   108266133.08009  20602354.180    84363227.42049
  21213007.960   113554924.06808  21213007.760    88320505.32208
  20339847.940   108919009.56609  20339847.740    84714814.20208
  23253295.840   124302217.58807  23253300.860    96679528.82906
  21766224.580   116230414.34608  21766225.380    90401441.42904
  23563803.640   125873562.17907  23563808.620    97901644.25406
  21500344.040   114770294.66809  21500346.680    89265794.73708
  20408888.620   109173822.85109  20408887.200    84912978.09508
 15 02 25 02 16  0.0000000  0 14G04G16G18G19G21G22G27R03R04R05R09R16
                                R18R19
  23088756.440   121332257.54708  23088755.020    94544615.38246
  20860252.920   109621368.91009  20860249.200    85419231.00848
  22163401.920   116469548.19709  22163398.000    90755514.50647
  21873345.520   114945206.66309  21873340.160    89567678.81448
  24175228.700   127041674.36008  24175225.020    98993494.86245
  20743127.960   109005980.79809  20743122.260    84939755.28848
  20596926.220   108237601.30909  20596924.760    84340994.86149
  21222395.100   113605174.28708  21222395.060    88359588.81508
  20326327.180   108846606.51509  20326327.100    84658500.72608
  23228317.660   124168696.02407  23228322.720    96575679.06806
  21779823.120   116303030.02109  21779823.800    90457920.27905
  23586852.820   125996684.19807  23586858.060    97997405.20306
  21509600.300   114819704.58009  21509602.560    89304224.65008
  20403636.160   109145725.93809  20403634.900    84891124.94608
 15 02 25 02 16 30.0000000  0 13G04G16G18G19G21G22G27R03R04R05R09R18
                                R19
  23073385.320   121251481.64308  23073383.560    94481673.10246
  20869116.940   109667949.59409  20869113.240    85455527.63548
  22173076.520   116520388.46809  22173072.620    90795130.27847
  21861609.880   114883535.24109  21861603.840    89519623.10048
  24188683.900   127112382.19208  24188679.660    99048591.81944
  20740319.900   108991224.48209  20740314.160    84928256.86448
  20591547.560   108209336.42009  20591546.280    84318970.29749
  21231919.880   113656161.02708  21231919.760    88399245.17508
  20312930.280   108774865.73909  20312930.060    84602702.35908
  23203348.160   124035220.44407  23203353.000    96471865.01706
  21793524.500   116376194.19808  21793525.460    90514825.72105
  21518887.060   114869278.07409  21518889.520    89342781.80408
  20398412.180   109117780.44809  20398410.880    84869389.58408
 15 02 25 02 17  0.0000000  0 13G04G16G18G19G21G22G27R03R04R05R09R18
                                R19
  23058052.140   121170905.29609  23058050.240    94418886.39446
  20878079.320   109715047.42609  20878075.760    85492227.22648
  22182826.860   116571626.96109  22182822.960    90835056.39247
  21849901.080   114822006.11109  21849895.320    89471678.37348
  24202136.540   127183074.27208  24202131.160    99103676.65945
  20737611.420   108976991.47609  20737605.680    84917166.21648
  20586217.800   108181328.64209  20586216.560    84297146.06249
  21241579.780   113707871.26308  21241579.740    88439464.25108
  20299655.740   108703779.84909  20299655.160    84547413.34708
  23178385.780   123901783.59707  23178390.520    96368081.09306
  21807325.900   116449891.75308  21807326.760    90572146.01505
  21528202.520   114919004.63209  21528205.020    89381457.94308
  20393214.360   109089975.72309  20393213.260    84847763.69908
 15 02 25 02 17 30.0000000  0 13G04G16G18G19G21G22G27R03R04R05R09R18
                                R19
  23042759.580   121090541.21809  23042758.060    94356265.05946
  20887142.140   109762673.02709  20887138.620    85529338.06348
  22192655.060   116623274.49309  22192651.120    90875301.23247
  21838221.860   114760632.90709  21838216.720    89423855.11548
  24215588.360   127253764.08408  24215583.660    99158759.53745
  20735004.820   108963294.25209  20734999.200    84906493.07148
  20580939.640   108153591.81609  20580938.380    84275532.96449
  21251376.760   113760315.12809  21251376.420    88480253.92608
  20286506.280   108633364.33609  20286505.540    84492645.73908
  23153433.840   123768402.40907  23153438.420    96264340.44606
  21821228.720   116524131.24908  21821229.720    90629887.81405
  21537549.200   114968897.30809  21537551.480    89420263.34908
  20388045.780   109062325.48909  20388044.320    84826257.91808
 15 02 25 02 18  0.0000000  0 13G04G16G18G19G21G22G27R03R04R05R09R18
                                R19
  23027506.900   121010387.50208  23027505.280    94293807.63046
  20896304.800   109810822.96209  20896301.240    85566857.48148
  22202560.200   116675326.87009  22202556.220    90915861.49347
  21826572.180   114699414.04009  21826566.840    89376152.10248
  24229038.920   127324448.40008  24229035.240    99213838.14345
  20732499.860   108950131.09509  20732494.360    84896236.06648
  20575712.840   108126124.77009  20575711.580    84254130.05949
  21261309.860   113813487.72308  21261309.360    88521610.42008
  20273482.140   108563620.30109  20273481.420    84438400.40408
  23128492.540   123635078.02407  23128497.040    96160643.96606
  21835231.480   116598905.97008  21835232.820    90688045.90705
  21546926.640   115018954.48209  21546928.800    89459196.70708
  20382905.380   109034827.43009  20382904.100    84804870.58808
 15 02 25 02 18 30.0000000  0 13G04G16G18G19G21G22G27R03R04R05R09R18
                                R19
  23012295.240   120930450.32809  23012293.400    94231518.90045
  20905568.120   109859501.51709  20905564.500    85604788.82748
  22212543.060   116727788.14409  22212539.200    90956740.43747
  21814953.080   114638356.48409  21814947.840    89328574.81148
  24242489.220   127395132.48107  24242486.560    99268916.57244
  20730097.700   108937507.57809  20730092.160    84886399.56548
  20570538.840   108098934.68909  20570537.420    84232942.95549
  21271379.800   113867392.76908  21271379.480    88563536.54208
  20260585.140   108494557.45409  20260584.600    84384684.86708
  23103563.800   123501820.39507  23103568.020    96056999.37006
  21849334.900   116674217.85708  21849335.940    90746621.79704
  21556336.040   115069182.52809  21556338.500    89498262.88408
  20377794.540   109007488.59909  20377793.580    84783607.05508
 15 02 25 02 19  0.0000000  0 13G04G16G18G19G21G22G27R03R04R05R09R18
                                R19
  22997121.640   120850712.40608  22997119.720    94169385.50246
  20914928.380   109908689.57409  20914924.700    85643117.16648
  22222600.100   116780639.01009  22222596.380    90997922.91647
  21803361.640   114577443.70309  21803356.200    89281110.28748
  24255936.320   127465798.03907  24255932.540    99323980.72145
  20727794.900   108925406.09609  20727789.360    84876969.85048
  20565414.260   108072005.15409  20565412.880    84211958.90349
  21281582.580   113922009.76608  21281582.380    88606016.44108
  20247812.540   108426160.86609  20247812.200    84331487.53508
  23078644.860   123368615.52607  23078648.920    95953395.81607
  21863534.800   116750044.85908  21863535.760    90805598.32305
  21565774.040   115119563.92008  21565776.940    89537448.40708
  20372710.100   108980291.56809  20372709.580    84762453.83608
 15 02 25 02 19 30.0000000  0 13G04G16G18G19G21G22G27R03R04R05R09R18
                                R19
  22981988.140   120771185.66809  22981986.000    94107416.62846
  20924387.500   109958397.47509  20924383.780    85681850.58148
  22232733.200   116833888.72609  22232729.700    91039416.16447
  21791800.240   114516687.91709  21791794.960    89233768.14148
  24269382.260   127536456.09208  24269378.960    99379038.87746
  20725593.640   108913838.31709  20725588.060    84867956.00548
  20560341.700   108045348.85309  20560340.480    84191187.77349
  21291920.280   113977347.86608  21291920.040    88649057.17108
  20235167.040   108358445.30409  20235166.660    84278819.90308
  23053738.720   123235478.80007  23053742.760    95849845.24107
  21877832.380   116826394.16908  21877833.600    90864981.10904
  21575242.920   115170110.89108  21575246.000    89576762.67208
  20367654.480   108953248.67209  20367653.940    84741420.46008
 15 02 25 02 20  0.0000000  0 13G04G16G18G19G21G22G27R03R04R05R09R18
                                R19
  22966894.660   120691868.55909  22966892.580    94045611.11546
  20933944.800   110008621.40209  20933941.120    85720986.09248
  22242941.680   116887534.04409  22242938.000    91081217.73547
  21780268.540   114456088.46209  21780263.680    89186547.79048
  24282826.300   127607104.17208  24282822.940    99434089.33045
  20723493.560   108902802.48009  20723487.920    84859356.65249
  20555321.060   108018965.38209  20555319.840    84170629.23349
  21302391.840   114033402.52408  21302391.420    88692655.25708
  20222649.040   108291412.69809  20222648.580    84226683.44208
  23028845.800   123102412.68907  23028849.780    95746349.57907
  21892226.700   116903259.90008  21892227.920    90924765.50405
  21584742.780   115220822.45909  21584745.780    89616205.00908
  20362627.620   108926358.92009  20362627.360    84720506.22308
 15 02 25 02 20 30.0000000  0 14G04G16G18G19G21G22G27G32R03R04R05R09
                                R18R19
  22951842.320   120612766.99309  22951839.980    93983973.55646
  20943601.080   110059365.41909  20943597.420    85760526.88148
  22253226.000   116941578.51309  22253222.160    91123330.28447
  21768767.760   114395652.01409  21768762.980    89139454.47848
  24296269.180   127677747.26708  24296266.440    99489135.75045
  20721495.760   108892304.11809  20721490.120    84851176.11148
  20550353.720   107992861.59509  20550352.440    84150288.60149
  24497647.940   128736012.54408  24497648.940   100313785.26144
  21312997.960   114090177.13608  21312997.320    88736813.26107
  20210260.260   108225071.50709  20210259.820    84175084.76108
  23003967.880   122969426.81507  23003971.820    95642916.32507
  21906718.200   116980643.38408  21906719.780    90984952.67505
  21594274.860   115271704.75109  21594277.880    89655780.07108
  20357630.680   108899628.52409  20357630.360    84699715.93408
 15 02 25 02 21  0.0000000  0 14G04G16G18G19G21G22G27G32R03R04R05R09
                                R18R19
  22936827.820   120533865.05308  22936825.420    93922491.49846
  20953353.000   110110611.63709  20953349.220    85800458.99148
  22263583.040   116996004.27909  22263578.900    91165740.02347
  21757295.320   114335363.44709  21757290.400    89092476.39948
  24309708.280   127748368.38508  24309705.000    99544165.27145
  20719597.300   108882327.44809  20719591.700    84843402.08448
  20545436.680   107967022.34709  20545435.420    84130154.12249
  24474995.020   128616971.54808  24474996.040   100221026.73744
  21323734.880   114147652.08008  21323734.320    88781516.01308
  20197998.240   108159408.41909  20197997.780    84124013.47608
  22979102.580   122836508.24706  22979106.420    95539535.40807
  21921302.740   117058523.80008  21921304.300    91045526.31505
  21603836.020   115322741.61309  21603838.680    89695475.42708
  20352660.600   108873041.82709  20352660.280    84679037.35808
 15 02 25 02 21 30.0000000  0 14G04G16G18G19G21G22G27G32R03R04R05R09
                                R18R19
  22921856.000   120455188.37008  22921853.900    93861185.01046
  20963204.980   110162383.69209  20963201.080    85840800.84148
  22274016.820   117050834.61009  22274012.980    91208464.93147
  21745856.280   114275249.09609  21745850.960    89045634.02848
  24323147.900   127818992.79307  24323144.300    99599197.19944
  20717802.960   108872897.79409  20717797.340    84836054.29748
  20540575.080   107941474.26409  20540573.820    84110246.51949
  24452350.460   128497975.30808  24452351.760   100128303.01044
  21334606.820   114205850.84908  21334606.240    88826781.71808
  20185868.160   108094452.35409  20185867.640    84073492.11108
  22954255.460   122703686.65007  22954259.180    95436229.86107
  21935984.380   117136922.82608  21935986.080    91106503.26504
  21613430.820   115373959.23709  21613433.380    89735311.35508
  20347722.380   108846625.29209  20347722.060    84658491.19208
 15 02 25 02 22  0.0000000  0 14G04G16G18G19G21G22G27G32R03R04R05R09
                                R18R19
  22906925.140   120376726.73808  22906922.680    93800046.07246
  20973154.720   110214669.77409  20973150.840    85881543.22448
  22284525.220   117106056.97708  22284521.360    91251495.35747
  21734448.380   114215299.30009  21734442.740    88998919.90548
  24336584.820   127889609.25606  24336581.660    99654222.93945
  20716110.640   108864004.50909  20716105.040    84829124.47448
  20535767.020   107916207.90709  20535765.820    84090558.47649
  24429712.760   128379015.64908  24429714.180   100035607.75344
  21345611.540   114264759.65608  21345611.100    88872599.66608
  20173868.480   108030195.41809  20173867.920    84023514.51308
  22929425.240   122570955.34007  22929428.920    95332994.58707
  21950760.360   117215825.13708  21950761.900    91167871.72904
  21623057.640   115425347.53309  21623060.280    89775280.00508
  20342813.900   108820368.84409  20342813.980    84638069.53408
 15 02 25 02 22 30.0000000  0 15G04G11G16G18G19G21G22G27G32R03R04R05
                                R09R18R19
  22892033.440   120298471.39408  22892031.380    93739067.93046
  24569777.400   129115051.74706  24569775.140   100609117.00041
  20983200.240   110267459.51909  20983196.420    85922678.08048
  22295106.320   117161660.88009  22295102.380    91294823.02347
  21723070.400   114155506.48909  21723064.880    88952328.10948
  24350018.980   127960208.19508  24350015.880    99709235.16744
  20714518.660   108855638.75509  20714513.080    84822605.70948
  20531011.160   107891215.97709  20531010.000    84071084.22549
  24407080.920   128260086.56308  24407082.400    99942936.25545
  21356746.740   114324367.13808  21356745.740    88918961.07208
  20161998.220   107966632.19009  20161997.960    83974076.45308
  22904610.940   122438309.49807  22904614.580    95229825.74207
  21965628.120   117295217.62608  21965629.300    91229621.40705
  21632714.920   115476898.04309  21632717.400    89815374.79908
  20337933.940   108794264.22009  20337933.620    84617765.89008
 15 02 25 02 23  0.0000000  0 15G04G11G16G18G19G21G22G27G32R03R04R05
                                R09R18R19
  22877182.900   120220431.98909  22877180.900    93678258.02546
  24552892.120   129026318.93106  24552889.680   100539974.61144
  20993342.880   110320759.66209  20993339.060    85964210.65548
  22305761.380   117217653.63009  22305757.560    91338453.76847
  21711723.760   114095880.55309  21711718.500    88905866.37948
  24363451.900   128030798.28808  24363449.560    99764240.38146
  20713028.800   108847809.53809  20713023.120    84816505.02948
  20526309.540   107866508.63709  20526308.340    84051831.73049
  24384457.100   128141199.66208  24384458.660    99850297.65245
  21368013.600   114384679.81108  21368012.660    88965870.89808
  20150259.920   107903774.70809  20150259.840    83925187.32708
  22879814.960   122305761.91007  22879818.600    95126733.32307
  21980588.620   117375105.15308  21980589.260    91291756.12804
  21642404.220   115528620.63509  21642406.980    89855603.45108
  20333084.200   108768321.51209  20333083.820    84597588.25208
 15 02 25 02 23 30.0000000  0 15G04G11G16G18G19G21G22G27G32R03R04R05
                                R09R18R19
  22862371.900   120142598.92009  22862370.000    93617608.92846
  24536018.240   128937646.73906  24536014.900   100470879.41743
  21003580.520   110374559.01309  21003576.680    86006132.21748
  22316488.000   117274022.94509  22316484.200    91382377.88147
  21700407.100   114036412.85509  21700401.980    88859527.94248
  24376881.260   128101369.05308  24376879.300    99819230.50945
  20711639.100   108840506.81509  20711633.440    84810814.59748
  20521660.500   107842077.34909  20521659.240    84032794.38349
  24361839.940   128022347.50208  24361841.240    99757686.05245
  21379410.000   114445684.67708  21379408.920    89013319.14708
  20138652.220   107841615.78409  20138652.100    83876841.50408
  22855036.320   122173306.83307  22855039.840    95023712.85707
  21995639.040   117455473.19108  21995639.860    91354264.56604
  21652123.840   115580505.59809  21652126.720    89895958.42108
  20328263.040   108742531.33809  20328262.340    84577529.22908
 15 02 25 02 24  0.0000000  0 15G04G11G16G18G19G21G22G27G32R03R04R05
                                R09R18R19
  22847601.900   120064981.42308  22847600.420    93557127.77847
  24519157.800   128849044.61107  24519154.520   100401838.87344
  21013914.640   110428865.37909  21013910.840    86048448.85248
  22327287.780   117330776.31408  22327284.100    91426601.29947
  21689122.800   113977113.73709  21689117.460    88813320.81248
  24390308.840   128171928.83908  24390306.260    99874212.16744
  20710351.280   108833739.37209  20710345.660    84805541.27249
  20517065.960   107817932.39009  20517064.580    84013980.13349
  24339231.660   127903541.86508  24339232.760    99665110.67145
  21390936.720   114507388.02608  21390935.540    89061310.64308
  20127177.280   107780167.94509  20127177.100    83829048.75708
  22830277.520   122040957.53407  22830280.880    94920774.63206
  22010780.260   117536326.86408  22010781.320    91417150.70004
  21661875.940   115632562.99209  21661878.320    89936447.51308
  20323472.320   108716903.70009  20323471.600    84557596.63608
 15 02 25 02 24 30.0000000  0 15G04G11G16G18G19G21G22G27G32R03R04R05
                                R09R18R19
  22832872.260   119987576.72709  22832870.860    93496812.43846
  24502310.300   128760510.06707  24502307.340   100332850.91544
  21024344.300   110483673.60509  21024340.500    86091156.55048
  22338159.740   117387908.82509  22338156.060    91471120.11547
  21677870.280   113917981.10109  21677864.700    88767243.41748
  24403733.860   128242474.55108  24403730.080    99929182.91145
  20709164.800   108827504.41209  20709159.220    84800682.86548
  20512525.460   107794072.04809  20512524.140    83995387.65749
  24316632.120   127784782.28908  24316632.800    99572571.16944
  21402592.700   114569784.05208  21402591.780    89109840.86508
  20115835.060   107719430.96609  20115834.860    83781808.88208
  22805538.700   121908714.72907  22805541.880    94817919.25407
  22026011.060   117617658.61708  22026012.000    91480408.74504
  21671659.900   115684790.13009  21671661.980    89977068.58308
  20318711.740   108691436.59809  20318710.680    84537788.84308
 15 02 25 02 25  0.0000000  0 15G04G11G16G18G19G21G22G27G32R03R04R05
                                R09R18R19
  22818184.420   119910392.15608  22818182.780    93436668.59046
  24485476.860   128672049.87707  24485474.100   100263920.93843
  21034870.340   110538988.43909  21034866.640    86134259.01048
  22349104.780   117445425.38609  22349101.060    91515938.23947
  21666650.700   113859022.53009  21666645.480    88721301.66948
  24417156.740   128313011.99107  24417153.520    99984147.02345
  20708081.000   108821808.64409  20708075.320    84796244.60748
  20508040.540   107770504.11009  20508039.300    83977023.05749
  24294043.060   127666078.02708  24294043.380    99480074.74745
  21414378.900   114632876.79308  21414378.080    89158912.99108
  20104627.400   107659414.30609  20104627.040    83735129.28308
  22780821.800   121776589.11307  22780825.040    94715155.00707
  22041331.860   117699470.76508  22041332.820    91544040.34504
  21681477.120   115737194.19409  21681479.380    90017827.27208
  20313982.200   108666137.28809  20313981.420    84518111.63108
 15 02 25 02 25 30.0000000  0 15G04G11G16G18G19G21G22G27G32R03R04R05
                                R09R18R19
  22803536.960   119833419.25008  22803535.100    93376689.73946
  24468656.060   128583655.88107  24468653.320   100195042.53944
  21045490.820   110594799.86409  21045487.300    86177748.41648
  22360120.900   117503315.46309  22360117.380    91561047.38247
  21655462.840   113800231.00109  21655458.260    88675490.13548
  24430576.380   128383532.45108  24430572.780   100039098.06045
  20707098.100   108816643.27809  20707092.300    84792219.66948
  20503609.940   107747221.74709  20503608.780    83958880.93749
  24271463.440   127547423.21708  24271463.520    99387616.82945
  21426293.160   114696654.60208  21426292.440    89208517.92207
  20093553.320   107600112.64109  20093552.920    83689005.77208
  22756126.020   121644576.38707  22756129.300    94612478.57307
  22056740.200   117781750.46708  22056741.400    91608035.65005
  21691325.940   115789767.49009  21691328.340    90058717.59708
  20309282.520   108640998.11609  20309282.220    84498558.93908
 15 02 25 02 26  0.0000000  0 15G04G11G16G18G19G21G22G27G32R03R04R05
                                R09R18R19
  22788930.020   119756660.12108  22788928.400    93316877.49046
  24451848.200   128495330.10407  24451845.500   100126217.28944
  21056205.800   110651107.83209  21056202.440    86221624.73848
  22371208.120   117561579.12408  22371204.460    91606447.61247
  21644307.520   113741609.42809  21644302.960    88629810.98748
  24443993.320   128454037.68008  24443989.840   100094037.19145
  20706216.500   108812009.99809  20706210.540    84788609.31448
  20499234.160   107724227.76109  20499233.220    83940963.54349
  24248894.100   127428822.36108  24248893.940    99295200.91945
  21438335.100   114761116.45608  21438334.740    89258654.90307
  20082613.580   107541530.52009  20082613.260    83643441.92708
  22731452.420   121512682.12207  22731455.760    94509894.27307
  22072235.600   117864495.19108  22072237.240    91672392.62905
  21701206.960   115842512.21109  21701209.400    90099741.27308
  20304613.400   108616021.95108  20304613.180    84479133.04808
 15 02 25 02 26 30.0000000  0 15G04G11G16G18G19G21G22G27G32R03R04R05
                                R09R18R19
  22774364.680   119680119.37108  22774363.200    93257235.33347
  24435054.140   128407077.10207  24435051.580   100057448.73844
  21067015.960   110707915.24909  21067012.520    86265890.23748
  22382366.800   117620218.25709  22382363.120    91652140.41347
  21633185.620   113683163.13609  21633181.040    88584268.43348
  24457407.940   128524531.05408  24457404.160   100148967.01945
  20705436.900   108807912.88309  20705430.860    84785416.76148
  20494914.440   107701527.74709  20494913.540    83923275.21749
  24226336.420   127310282.23208  24226336.140    99202832.30745
  21450505.060   114826263.82308  21450504.720    89309325.12308
  20071809.620   107483674.84109  20071809.020    83598443.05908
  22706802.580   121380914.94807  22706806.000    94407408.80207
  22087818.120   117947704.66908  22087819.860    91737111.08004
  21711120.960   115895433.23108  21711123.120    90140901.98808
  20299975.520   108591213.68309  20299975.180    84459837.73708
 15 02 25 02 27  0.0000000  0 15G04G11G16G18G19G21G22G27G32R03R04R05
                                R09R18R19
  22759839.980   119603792.82408  22759839.060    93197760.17946
  24418273.240   128318893.06407  24418270.720    99988733.94045
  21077919.980   110765215.60109  21077916.360    86310539.85648
  22393595.840   117679226.89809  22393592.060    91698121.18847
  21622096.280   113624889.12009  21622091.460    88538860.08848
  24470819.180   128595007.88007  24470815.520   100203884.04745
  20704758.460   108804347.60409  20704752.500    84782638.63048
  20490650.140   107679118.70509  20490649.260    83905813.61149
  24203790.020   127191801.28308  24203789.740    99110509.79845
  21462801.680   114892089.34708  21462801.380    89360522.69307
  20061140.940   107426544.34309  20061140.260    83554008.23808
  22682176.480   121249274.33807  22682179.920    94305021.75807
  22103486.080   118031370.25508  22103487.800    91802184.30004
  21721067.120   115948526.76509  21721069.380    90182196.95808
  20295368.560   108566570.07209  20295368.140    84440670.47808
 15 02 25 02 27 30.0000000  0 15G04G11G16G18G19G21G22G27G32R03R04R05
                                R09R18R19
  22745357.840   119527689.27408  22745356.780    93138458.70846
  24401506.940   128230786.36408  24401504.520    99920079.45544
  21088919.080   110823015.59909  21088915.180    86355578.81448
  22404896.460   117738611.53909  22404892.520    91744394.92947
  21611041.580   113566796.51109  21611036.800    88493593.15548
  24484228.160   128665475.71407  24484224.800   100258793.97844
  20704182.720   108801322.17009  20704176.840    84780281.16148
  20486443.080   107657010.28209  20486442.180    83888586.30149
  24181256.900   127073390.33308  24181256.580    99018241.82945
  21475226.240   114958598.45508  21475225.780    89412252.05908
  20050609.620   107370150.20009  20050609.120    83510146.15608
  22657576.380   121117772.97007  22657579.820    94202743.06407
  22119240.120   118115496.04308  22119242.020    91867615.43305
  21731047.080   116001801.91609  21731049.500    90223633.20607
  20290794.400   108542100.42709  20290794.040    84421638.52508
 15 02 25 02 28  0.0000000  0 15G04G11G16G18G19G21G22G27G32R03R04R05
                                R09R18R19
  22730915.660   119451796.30408  22730914.480    93079321.37546
  24384753.080   128142744.83708  24384750.660    99851475.72545
  21100010.400   110881300.60109  21100006.380    86400995.70648
  22416265.820   117798357.41709  22416261.720    91790950.17247
  21600019.220   113508873.89109  21600014.560    88448458.69348
  24497633.440   128735921.50108  24497630.740   100313686.79245
  20703707.160   108798823.72109  20703701.360    84778334.32449
  20482291.040   107635191.11709  20482290.100    83871584.34249
  24158735.040   126955039.45908  24158734.960    98926020.69245
  21487775.460   115025775.45208  21487775.040    89464500.81807
  20040213.940   107314482.19409  20040213.540    83466848.83208
  22633000.760   120986401.86007  22633003.980    94100565.63407
  22135077.120   118200064.54208  22135078.760    91933390.88404
  21741058.880   116055246.49409  21741061.640    90265201.16308
  20286250.480   108517792.50809  20286249.740    84402732.32808
 15 02 25 02 28 30.0000000  0 15G04G11G16G18G19G21G22G27G32R03R04R05
                                R09R18R19
  22716514.540   119376118.69608  22716513.720    93020351.86046
  24368012.600   128054773.09408  24368010.000    99782926.34445
  21111194.460   110940073.35109  21111190.500    86446792.63248
  22427704.400   117858467.13509  22427700.140    91837788.93046
  21589030.380   113451127.10509  21589025.600    88403461.20648
  24511035.780   128806349.62007  24511032.360   100368565.89445
  20703332.620   108796856.39609  20703327.020    84776801.34349
  20478195.140   107613666.95109  20478194.120    83854812.25149
  24136225.980   126836755.76808  24136226.020    98833851.83845
  21500449.840   115093621.78508  21500449.600    89517270.17308
  20029955.200   107259547.71709  20029954.840    83424122.02408
  22608451.220   120855169.91408  22608454.100    93998496.44607
  22150997.100   118285075.94408  22150998.620    91999510.84904
  21751103.580   116108865.46009  21751106.160    90306904.80308
  20281737.840   108493652.14909  20281737.200    84383956.52908
 15 02 25 02 29  0.0000000  0 15G04G11G16G18G19G21G22G27G32R03R04R05
                                R09R18R19
  22702155.960   119300664.30808  22702154.760    92961556.24646
  24351286.960   127966878.95308  24351284.220    99714437.47845
  21122472.520   110999339.86209  21122468.700    86492974.31848
  22439213.180   117918946.42609  22439209.000    91884915.63847
  21578076.700   113393564.88709  21578072.080    88358607.52948
  24524435.660   128876767.20608  24524432.720   100423436.56645
  20703060.640   108795427.38609  20703055.080    84775687.83348
  20474157.020   107592446.64809  20474155.940    83838276.98449
  24113731.700   126718549.43908  24113731.900    98741743.29345
  21513250.060   115162142.20409  21513249.520    89570563.78708
  20019835.340   107205357.04109  20019835.000    83381973.72808
  22583929.800   120724088.58207  22583932.380    93896544.36207
  22167000.780   118370533.70608  22167001.200    92065978.04704
  21761182.460   116162667.15509  21761185.400    90348750.53308
  20277257.920   108469687.73909  20277257.300    84365317.55608
 15 02 25 02 29 30.0000000  0 15G04G11G16G18G19G21G22G27G32R03R04R05
                                R09R18R19
  22687837.800   119225422.32208  22687836.740    92902926.17546
  24334574.040   127879051.94508  24334571.180    99646000.85445
  21133842.060   111059086.83009  21133838.200    86539530.37348
  22450789.680   117979782.19809  22450785.740    91932320.09147
  21567156.520   113336177.49009  21567151.480    88313890.05048
  24537831.600   128947162.80508  24537828.280   100478290.33445
  20702889.060   108794525.74309  20702883.480    84774985.26948
  20470174.920   107571520.57409  20470173.800    83821970.91449
  24091250.720   126600412.22708  24091250.760    98649688.52945
  21526173.340   115231322.12308  21526172.980    89624370.37107
  20009852.900   107151901.80109  20009852.480    83340397.44708
  22559435.080   120593150.76007  22559437.580    93794703.92507
  22183085.140   118456422.04508  22183085.540    92132780.02204
  21771293.760   116216640.85309  21771296.560    90390730.02407
  20272809.020   108445889.02009  20272808.660    84346807.40608
 15 02 25 02 30  0.0000000  0 15G04G11G16G18G19G21G22G27G32R03R04R05
                                R09R18R19
  22673561.400   119150398.61809  22673560.440    92844466.15146
  24317874.840   127791297.52908  24317872.080    99577620.84845
  21145303.640   111119317.82109  21145299.700    86586463.61348
  22462434.860   118040977.98809  22462431.060    91980005.14647
  21556270.600   113278971.02109  21556265.740    88269313.62848
  24551224.280   129017541.80508  24551220.620   100533131.05845
  20702818.740   108794156.41909  20702813.240    84774697.48249
  20466250.040   107550895.32909  20466249.000    83805899.33249
  24068784.580   126482352.11708  24068784.380    98557693.86945
  21539220.500   115301164.03508  21539219.820    89678691.96908
  20000009.280   107099189.73309  20000008.980    83299399.17208
  22534969.000   120462366.28407  22534971.640    93692982.77207
  22199250.220   118542742.03708  22199250.660    92199917.77504
  21781438.340   116270792.69409  21781440.820    90432848.13707
  20268392.360   108422262.47909  20268391.860    84328431.23008
 15 02 25 02 30 30.0000000  0 15G04G11G16G18G19G21G22G27G32R03R04R05
                                R09R18R19
  22659326.340   119075591.90908  22659325.260    92786175.26847
  24301189.360   127703614.96608  24301186.700    99509296.82145
  21156856.720   111180029.90809  21156852.740    86633771.71648
  22474147.960   118102530.59709  22474144.160    92027968.24647
  21545419.160   113221945.89909  21545414.300    88224878.47448
  24564613.380   129087901.53807  24564609.360   100587956.80844
  20702849.520   108794317.92509  20702844.000    84774823.33648
  20462382.440   107530570.92009  20462381.360    83790062.12349
  24046333.340   126364370.48308  24046332.860    98465760.31345
  21552390.380   115371663.65808  21552390.080    89733524.91808
  19990304.760   107047222.42909  19990304.460    83258980.17608
  22510532.000   120331737.73007  22510534.940    93591382.88107
  22215494.840   118629487.78908  22215495.520    92267386.65704
  21791616.220   116325121.99009  21791618.420    90475104.21208
  20264007.860   108398807.58808  20264007.020    84310188.52008
 15 02 25 02 31  0.0000000  0 15G04G11G16G18G19G21G22G27G32R03R04R05
                                R09R18R19
  22645133.260   119001005.40909  22645131.480    92728055.91546
  24284518.200   127616007.28708  24284515.540    99441031.12445
  21168501.560   111241224.30209  21168497.580    86681455.64748
  22485929.060   118164440.79709  22485925.380    92076209.93547
  21534603.220   113165106.27109  21534598.060    88180587.82648
  24577999.340   129158245.68708  24577995.220   100642770.41244
  20702981.760   108795012.43309  20702976.180    84775364.50348
  20458572.900   107510551.64709  20458571.860    83774462.63749
  24023897.960   126246472.77708  24023897.700    98373892.16745
  21565683.240   115442820.60808  21565682.980    89788869.18508
  19980740.280   106996005.29209  19980740.040    83219144.63208
  22486125.500   120201272.22707  22486128.720    93489909.78107
  22231819.000   118716657.86008  22231819.780    92335185.57304
  21801827.840   116379632.48709  21801830.460    90517501.25108
  20259655.860   108375528.60309  20259655.120    84292082.67108
 15 02 25 02 31 30.0000000  0 15G04G11G16G18G19G21G22G27G32R03R04R05
                                R09R18R19
  22630982.180   118926638.98809  22630980.180    92670108.07346
  24267861.360   127528474.56108  24267858.480    99372823.84645
  21180237.660   111302898.05509  21180233.700    86729513.10948
  22497777.660   118226706.13409  22497774.120    92124728.38147
  21523822.340   113108452.58809  21523817.160    88136442.14448
  24591382.040   129228572.64708  24591377.840   100697570.55344
  20703215.280   108796239.49409  20703209.620    84776320.67348
  20454821.580   107490838.21209  20454820.560    83759101.54949
  24001478.920   126128661.38708  24001478.880    98282091.29745
  21579098.140   115514631.21408  21579097.420    89844721.90107
  19971316.260   106945540.09309  19971315.980    83179893.94208
  22461750.180   120070973.36107  22461753.520    93388566.31207
  22248221.500   118804247.21608  22248222.340    92403310.63004
  21812073.400   116434323.97409  21812076.200    90560039.04808
  20255337.040   108352425.76208  20255336.400    84274113.78908
 15 02 25 02 32  0.0000000  0 15G04G11G16G18G19G21G22G27G32R03R04R05
                                R09R18R19
  22616872.180   118852489.21009  22616869.520    92612329.04846
  24251218.100   127441013.52308  24251215.080    99304672.41745
  21192063.880   111365045.51809  21192060.040    86777939.68948
  22509692.920   118289320.81909  22509689.220    92173519.05147
  21513076.420   113051982.45809  21513070.860    88092439.43548
  24604761.040   129298878.57908  24604756.040   100752354.44544
  20703549.380   108797995.06509  20703543.680    84777688.63648
  20451128.020   107471428.26009  20451126.960    83743976.91949
  23979076.040   126010935.15608  23979076.060    98190356.74145
  21592633.800   115587088.44508  21592633.060    89901077.54408
  19962032.580   106895825.95009  19962032.180    83141227.40108
  22437406.220   119940841.55307  22437409.460    93287352.73507
  22264700.980   118892247.57208  22264702.360    92471755.32404
  21822352.260   116489193.27208  21822355.320    90602715.10608
  20251050.500   108329496.40409  20251049.800    84256279.85108
 15 02 25 02 32 30.0000000  0 15G04G11G16G18G19G21G22G27G32R03R04R05
                                R09R18R19
  22602803.840   118778560.63309  22602800.880    92554722.40146
  24234589.320   127353628.63708  24234586.300    99236580.33045
  21203980.740   111427669.33209  21203977.120    86826737.45248
  22521675.240   118352287.65309  22521671.440    92222584.07746
  21502366.540   112995702.01309  21502361.060    88048584.54348
  24618136.680   129369167.59007  24618131.960   100807125.13945
  20703984.720   108800283.09709  20703979.040    84779471.54548
  20447493.340   107452327.65109  20447492.220    83729093.33049
  23956690.820   125893301.38108  23956691.020    98098694.23245
  21606290.420   115660193.96308  21606289.880    89957937.32908
  19952890.380   106846869.45609  19952889.860    83103150.14108
  22413095.140   119810885.43207  22413098.440    93186275.83307
  22281257.300   118980659.09308  22281258.860    92540519.80004
  21832665.280   116544245.76009  21832668.320    90645533.68008
  20246797.420   108306746.11209  20246797.100    84238585.17108
 15 02 25 02 33  0.0000000  0 15G04G11G16G18G19G21G22G27G32R03R04R05
                                R09R18R19
  22588777.500   118704851.63209  22588774.600    92497286.84946
  24217974.720   127266318.72408  24217971.740    99168546.66545
  21215987.560   111490765.49209  21215984.080    86875903.27848
  22533723.740   118415602.33809  22533719.700    92271920.21047
  21491692.460   112939609.46209  21491686.900    88004876.07048
  24631508.320   129439437.08007  24631504.840   100861880.44645
  20704520.920   108803101.18609  20704515.280    84781667.45848
  20443917.260   107433535.48709  20443916.220    83714450.08749
  23934323.480   125775760.53408  23934323.560    98007104.10045
  21620067.180   115733942.18208  21620066.320    90015297.11208
  19943889.700   106798670.95009  19943889.060    83065662.42808
  22388817.260   119681106.93107  22388820.680    93085337.06207
  22297889.520   119069475.07608  22297891.280    92609598.84104
  21843012.440   116599479.69309  21843015.260    90688493.38807
  20242577.680   108284173.70208  20242577.280    84221028.84108
 15 02 25 02 33 30.0000000  0 15G04G11G16G18G19G21G22G27G32R03R04R05
                                R09R18R19
  22574792.840   118631361.64008  22574789.740    92440021.95346
  24201374.120   127179082.46308  24201371.220    99100570.38645
  21228083.720   111554331.37809  21228080.300    86925435.12548
  22545837.900   118479262.01408  22545833.640    92321525.20147
  21481054.200   112883706.24309  21481048.680    87961315.15048
  24644876.440   129509687.16208  24644873.040   100916620.70944
  20705157.760   108806447.95009  20705152.160    84784275.33349
  20440400.100   107415052.45209  20440399.020    83700047.70649
  23911974.320   125658314.67208  23911974.080    97915587.99245
  21633963.300   115808329.11308  21633962.720    90073153.55708
  19935030.880   106751232.35809  19935030.300    83028765.75608
  22364573.380   119551509.79807  22364576.780    92984539.35607
  22314596.660   119158690.23508  22314598.400    92678988.37504
  21853393.780   116654895.08109  21853396.100    90731594.22808
  20238391.280   108261779.52309  20238391.240    84203611.19908
 15 02 25 02 34  0.0000000  0 15G04G11G16G18G19G21G22G27G32R03R04R05
                                R09R18R19
  22560849.640   118558089.37709  22560846.280    92382926.66246
  24184787.320   127091918.90308  24184784.640    99032650.74945
  21240268.480   111618363.25009  21240265.140    86975330.09248
  22558016.920   118543263.36609  22558012.720    92371396.31146
  21470451.900   112827991.43709  21470446.880    87917901.01448
  24658240.620   129579914.21307  24658236.800   100971343.16544
  20705894.740   108810321.06909  20705889.160    84787293.34548
  20436941.680   107396878.07509  20436940.540    83685885.88049
  23889643.440   125540964.64808  23889643.080    97824146.55045
  21647977.520   115883349.90608  21647977.240    90131503.02508
  19926313.980   106704553.85909  19926313.480    82992460.26308
  22340363.800   119422095.96107  22340367.080    92883884.21407
  22331377.400   119248298.49508  22331378.980    92748683.63304
  21863808.820   116710490.68709  21863811.280    90774835.22208
  20234238.120   108239562.66609  20234238.260    84186331.38408
 15 02 25 02 34 30.0000000  0 15G04G11G16G18G19G21G22G27G32R03R04R05
                                R09R18R19
  22546949.460   118485043.95609  22546946.440    92326008.20146
  24168216.100   127004837.48108  24168213.660    98964795.15445
  21252543.160   111682867.39909  21252539.840    87025593.05148
  22570262.220   118607613.08109  22570258.280    92421538.96447
  21459887.460   112772475.44209  21459882.300    87874641.81248
  24671601.560   129650127.51207  24671597.900   101026054.75244
  20706733.660   108814729.66509  20706728.120    84790728.62349
  20433543.900   107379022.66009  20433542.780    83671972.52949
  23867333.040   125423722.23208  23867332.500    97732788.96445
  21662111.500   115959009.88608  21662111.440    90190349.71608
  19917741.220   106658647.18209  19917740.660    82956755.07208
  22316191.100   119292878.74607  22316194.140    92783382.00407
  22348232.820   119338304.25608  22348234.400    92818688.14004
  21874259.400   116766276.17409  21874261.820    90818223.92607
  20230120.000   108217533.62409  20230119.980    84169197.70908
 15 02 25 02 35  0.0000000  0 15G04G11G16G18G19G21G22G27G32R03R04R05
                                R09R18R19
  22533091.000   118412218.08209  22533088.660    92269260.80846
  24151659.300   126917831.18608  24151656.780    98896998.05945
  21264906.100   111747835.08209  21264902.760    87076217.20648
  22582572.080   118672301.76909  22582568.460    92471945.71647
  21449359.820   112717152.03709  21449354.480    87831532.66148
  24684958.340   129720319.13907  24684955.300   101080749.44545
  20707672.960   108819665.39709  20707667.420    84794574.62948
  20430205.640   107361480.02709  20430204.580    83658302.94549
  23845042.200   125306582.52208  23845041.380    97641511.41445
  21676362.860   116035298.70108  21676362.980    90249685.47108
  19909311.660   106613506.89109  19909311.040    82921645.96708
  22292054.540   119163855.03407  22292057.440    92683030.30307
  22365160.300   119428695.64908  22365162.000    92888992.51804
  21884744.220   116822244.72409  21884746.440    90861754.97508
  20226035.820   108195685.67009  20226035.620    84152204.86008
 15 02 25 02 35 30.0000000  0 15G04G11G16G18G19G21G22G27G32R03R04R05
                                R09R18R19
  22519274.700   118339613.28009  22519272.740    92212685.65046
  24135117.280   126830901.43008  24135114.300    98829260.58545
  21277357.300   111813266.16209  21277353.920    87127202.44448
  22594946.520   118737328.87309  22594942.560    92522616.20346
  21438869.300   112662023.78009  21438863.700    87788575.57148
  24698311.240   129790490.20307  24698308.420   101135428.09144
  20708712.740   108825129.08609  20708707.140    84798832.06648
  20426927.460   107344252.86509  20426926.420    83644879.18649
  23822771.720   125189549.71108  23822770.740    97550317.12845
  21690731.180   116112214.26208  21690731.360    90309508.62308
  19901025.740   106569136.36909  19901025.180    82887135.55708
  22267955.160   119035030.01307  22267958.020    92582833.11207
  22382159.140   119519469.29408  22382160.880    92959594.21704
  21895263.640   116878398.17509  21895266.020    90905429.86207
  20221985.980   108174021.48909  20221985.480    84135354.91508
 15 02 25 02 36  0.0000000  0 15G04G11G16G18G19G21G22G27G32R03R04R05
                                R09R18R19
  22505500.100   118267226.46408  22505497.540    92156280.36247
  24118589.240   126744045.28408  24118586.080    98761580.49044
  21289895.460   111879154.27709  21289892.100    87178543.82548
  22607384.080   118802688.72609  22607379.980    92573545.96346
  21428415.500   112607088.66709  21428410.200    87745769.01648
  24711659.860   129860637.42708  24711656.960   101190088.25844
  20709852.120   108831116.62609  20709846.520    84803497.69048
  20423708.860   107327338.86609  20423707.740    83631699.46349
  23800521.240   125072622.95708  23800520.140    97459205.49445
  21705215.540   116189749.56208  21705215.280    90369813.87307
  19892883.360   106525534.51109  19892882.860    82853223.03008
  22243893.100   118906404.44307  22243895.940    92482791.05807
  22399228.100   119610617.16207  22399230.720    93030486.88904
  21905817.340   116934733.61109  21905819.480    90949246.29507
  20217969.880   108152538.27309  20217969.060    84118645.75308
 15 02 25 02 36 30.0000000  0 15G04G11G16G18G19G21G22G27G32R03R04R05
                                R09R18R19
  22491767.780   118195061.66609  22491764.980    92100048.05947
  24102075.880   126657266.81108  24102072.500    98693960.93245
  21302520.860   111945501.18109  21302517.540    87230242.70748
  22619885.240   118868383.42509  22619881.400    92624736.60046
  21417999.300   112552351.47109  21417994.280    87703116.68648
  24725004.560   129930763.60608  24725001.520   101244732.04844
  20711091.900   108837631.86409  20711086.300    84808574.49648
  20420550.820   107310743.27809  20420549.680    83618767.81149
  23778292.140   124955808.75008  23778291.020    97368181.55245
  21719815.580   116267904.92008  21719815.200    90430601.35707
  19884885.520   106482706.95009  19884885.140    82819912.71508
  22219869.820   118777986.27507  22219872.680    92382910.32607
  22416367.160   119702138.54107  22416369.400    93101670.19804
  21916406.100   116991255.50309  21916408.160    90993207.75208
  20213988.740   108131241.19809  20213988.020    84102081.34908
 15 02 25 02 37  0.0000000  0 15G04G11G16G18G19G21G22G27G32R03R04R05
                                R09R18R19
  22478078.060   118123121.76209  22478075.640    92043991.01646
  24085577.820   126570569.20908  24085574.500    98626404.38445
  21315233.680   112012307.56209  21315230.280    87282299.62048
  22632450.220   118934413.58709  22632446.560    92676188.67646
  21407621.840   112497816.75209  21407616.680    87660622.07148
  24738345.880   130000871.68508  24738342.640   101299361.68144
  20712432.460   108844676.77209  20712426.860    84814064.05448
  20417454.220   107294470.30309  20417453.060    83606087.58849
  23756085.480   124839112.74408  23756084.300    97277249.74545
  21734531.420   116346680.03608  21734531.340    90491870.83507
  19877033.340   106440658.92009  19877032.920    82787208.70408
  22195886.720   118649782.86907  22195889.560    92283196.63207
  22433576.020   119794031.93508  22433578.100    93173142.82704
  21927030.120   117047967.33309  21927032.360    91037316.92707
  20210043.020   108110134.33409  20210042.500    84085664.91808
 15 02 25 02 37 30.0000000  0 15G04G11G16G18G19G21G22G27G32R03R04R05
                                R09R18R19
  22464430.020   118051402.42508  22464428.200    91988105.86247
  24069094.180   126483948.03707  24069091.160    98558907.40445
  21328032.620   112079566.52709  21328029.080    87334709.18748
  22645077.840   119000772.26409  22645074.360    92727896.72947
  21397282.040   112443480.82309  21397277.100    87618282.40948
  24751682.740   130070956.31207  24751679.300   101353973.00344
  20713872.740   108852245.74709  20713867.140    84819961.95448
  20414418.280   107278516.21309  20414417.060    83593655.82749
  23733900.920   124722532.65708  23733899.840    97186408.20645
  21749361.700   116426066.56708  21749361.320    90553615.94407
  19869326.180   106399387.65609  19869325.800    82755108.85908
  22171943.660   118521793.26207  22171946.320    92183649.22007
  22450852.720   119886287.71608  22450854.240    93244897.30904
  21937688.720   117104864.71009  21937691.080    91081570.42807
  20206132.140   108089213.73709  20206131.680    84069393.34408
