     2.11           OBSERVATION DATA    M                   RINEX VERSION / TYPE
SPIDER V4,0,0,3554                      2015 03 21 01:15    PGM / RUN BY / DATE 
CNGR                                                        MARKER NAME         
CNGR                                                        MARKER NUMBER       
                                                            OBSERVER / AGENCY   
496521              LEICA GRX1200+GNSS  8.10/4.007          REC # / TYPE / VERS 
10321004            LEIAR25         NONE                    ANT # / TYPE        
  5218738.7445   688113.1521  3590185.5476                  APPROX POSITION XYZ 
        0.0720        0.0000        0.0000                  ANTENNA: DELTA H/E/N
     1     1                                                WAVELENGTH FACT L1/2
     4    C1    L1    P2    L2                              # / TYPES OF OBSERV 
    30.000                                                  INTERVAL            
  2015    02    25    00    00    0.0000000     GPS         TIME OF FIRST OBS   
  2015    02    25    23    59   30.0000000     GPS         TIME OF LAST OBS    
    16                                                      LEAP SECONDS        
    54                                                      # OF SATELLITES     
   G 1   815   815   815   815                              PRN / # OF OBS      
   G 2   944   942   942   942                              PRN / # OF OBS      
   G 3   861   860   860   860                              PRN / # OF OBS      
   G 4   843   843   843   843                              PRN / # OF OBS      
   G 5   611   611   611   611                              PRN / # OF OBS      
   G 6   809   809   809   809                              PRN / # OF OBS      
   G 7   677   677   677   677                              PRN / # OF OBS      
   G 9   817   817   817   817                              PRN / # OF OBS      
   G10   718   717   717   717                              PRN / # OF OBS      
   G11   778   778   778   778                              PRN / # OF OBS      
   G12   816   816   816   816                              PRN / # OF OBS      
   G13   760   759   759   759                              PRN / # OF OBS      
   G14   942   942   942   942                              PRN / # OF OBS      
   G15   671   671   671   671                              PRN / # OF OBS      
   G16   667   667   667   667                              PRN / # OF OBS      
   G17   936   934   934   934                              PRN / # OF OBS      
   G18   899   899   899   899                              PRN / # OF OBS      
   G19   754   754   754   754                              PRN / # OF OBS      
   G20   750   750   750   750                              PRN / # OF OBS      
   G21   747   747   747   747                              PRN / # OF OBS      
   G22   670   670   670   670                              PRN / # OF OBS      
   G23   762   762   761   761                              PRN / # OF OBS      
   G24   827   827   827   827                              PRN / # OF OBS      
   G25   866   866   866   866                              PRN / # OF OBS      
   G27   810   810   810   810                              PRN / # OF OBS      
   G28   849   848   848   848                              PRN / # OF OBS      
   G29   750   750   750   750                              PRN / # OF OBS      
   G30   724   724   724   724                              PRN / # OF OBS      
   G31   864   864   864   864                              PRN / # OF OBS      
   G32   777   777   777   777                              PRN / # OF OBS      
   R 1   622   622   622   622                              PRN / # OF OBS      
   R 2   717   717   717   717                              PRN / # OF OBS      
   R 3   959   959   959   947                              PRN / # OF OBS      
   R 4   939   939   939   939                              PRN / # OF OBS      
   R 5   832   832   832   832                              PRN / # OF OBS      
   R 6   699   699   699   699                              PRN / # OF OBS      
   R 7   785   785   785   785                              PRN / # OF OBS      
   R 8   762   762   762   762                              PRN / # OF OBS      
   R 9  1011  1011  1011  1008                              PRN / # OF OBS      
   R10   809   809   809   808                              PRN / # OF OBS      
   R11   591   591   591   587                              PRN / # OF OBS      
   R12   690   690   690   690                              PRN / # OF OBS      
   R13   785   785   785   784                              PRN / # OF OBS      
   R14   759   759   759   759                              PRN / # OF OBS      
   R15   752   752   752   752                              PRN / # OF OBS      
   R16   991   991   991   991                              PRN / # OF OBS      
   R17   692   692   692   692                              PRN / # OF OBS      
   R18   957   957   957   957                              PRN / # OF OBS      
   R19  1003  1003  1002  1002                              PRN / # OF OBS      
   R20   708   708   708   708                              PRN / # OF OBS      
   R21   408   408   408   408                              PRN / # OF OBS      
   R22   786   786   786   786                              PRN / # OF OBS      
   R23   825   825   821   821                              PRN / # OF OBS      
   R24   752   752   752   752                              PRN / # OF OBS      
BIT 2 OF LLI FLAGS DATA COLLECTED UNDER A/S CONDITION       COMMENT             
SNR is mapped to RINEX snr flag value [2-9]                 COMMENT             
Lx:     = 25dBHz -> 1; 26-27dBHz -> 2; 28-31dBHz -> 3       COMMENT             
       32-35dBHz -> 4; 36-38dBHz -> 5; 39-41dBHz -> 6       COMMENT             
       42-44dBHz -> 7; 45-48dBHz -> 8; >=49dBHz -> 9        COMMENT             
                                                            END OF HEADER       
 15 02 25 00 00  0.0000000  0  8G16G18G21G22G25G27G29G31
  22221131.420   116772843.89009  22221127.780    90991816.13247
  22637006.340   118958375.63709  22637003.220    92694867.84246
  21099093.700   110876709.64708  21099089.560    86397513.60848
  24187935.440   127108501.95008  24187935.040    99045593.71945
  24316849.520   127786232.22208  24316851.240    99573830.68145
  23440375.020   123180011.22608  23440374.580    95984424.42447
  23426310.040   123106433.43509  23426307.420    95927236.97347
  22576574.960   118640710.57109  22576571.500    92447295.22347
 15 02 25 00 00 30.0000000  0  8G16G18G21G22G25G27G29G31
  22205978.080   116693212.67709  22205974.360    90929765.84647
  22624437.160   118892324.02109  22624433.860    92643399.08746
  21104831.880   110906864.49909  21104827.800    86421010.90348
  24169899.080   127013722.20908  24169898.440    98971739.86545
  24335633.440   127884941.69108  24335635.240    99650747.04246
  23427531.300   123112517.23208  23427530.880    95931831.73247
  23439497.120   123175733.05909  23439494.440    95981236.63547
  22592366.360   118723694.65709  22592362.900    92511958.12147
 15 02 25 00 01  0.0000000  0  8G16G18G21G22G25G27G29G31
  22190865.120   116613793.61509  22190861.340    90867880.87747
  22611917.780   118826533.98009  22611914.440    92592134.14746
  21110637.180   110937371.63808  21110633.120    86444782.70448
  24151856.800   126918911.13308  24151855.900    98897861.56745
  24354450.080   127983823.84908  24354452.180    99727797.91646
  23414703.020   123045104.29708  23414702.560    95879302.20347
  23452691.820   123245073.11008  23452689.880    96035267.76247
  22608205.800   118806931.28209  22608202.340    92576817.80647
 15 02 25 00 01 30.0000000  0  8G16G18G21G22G25G27G29G31
  22175791.680   116534581.99109  22175787.820    90806157.54647
  22599447.280   118761000.91909  22599443.960    92541069.44847
  21116507.800   110968222.00108  21116503.780    86468821.94848
  24133807.680   126824064.23208  24133806.500    98823955.33245
  24373297.920   128082869.96908  24373300.120    99804976.58245
  23401888.800   122977765.16908  23401888.240    95826830.19647
  23465893.260   123314446.57308  23465890.720    96089325.05147
  22624091.380   118890410.43109  22624087.980    92641866.47148
 15 02 25 00 02  0.0000000  0  8G16G18G21G22G25G27G29G31
  22160758.780   116455583.35209  22160754.860    90744600.18047
  22587026.880   118695731.05309  22587023.560    92490209.84947
  21122444.120   110999417.58909  21122440.180    86493130.20748
  24115752.800   126729187.21308  24115751.500    98750025.64346
  24392177.360   128182081.98608  24392179.440    99882284.50645
  23389089.240   122910503.08008  23389088.500    95774418.20947
  23479101.500   123383856.81309  23479099.520    96143410.84247
  22640023.100   118974132.12509  22640019.800    92707104.12447
 15 02 25 00 02 30.0000000  0  8G16G18G21G22G25G27G29G31
  22145766.540   116376798.58109  22145762.580    90683209.44747
  22574656.700   118630725.45709  22574653.500    92439556.16547
  21128445.580   111030955.51109  21128441.700    86517705.21348
  24097692.600   126634281.68508  24097691.220    98676073.73645
  24411087.860   128281457.18208  24411089.820    99959719.55145
  23376304.080   122843316.76308  23376303.300    95722065.27247
  23492316.300   123453302.42008  23492314.320    96197524.25246
  22656000.200   119058092.26809  22655996.920    92772527.58948
 15 02 25 00 03  0.0000000  0  8G16G18G21G22G25G27G29G31
  22130815.320   116298229.39509  22130811.320    90621986.70647
  22562337.140   118565986.30009  22562334.080    92389110.09547
  21134511.900   111062833.86209  21134507.960    86542545.48048
  24079627.300   126539349.42708  24079625.820    98602100.97446
  24430029.200   128380993.66008  24430031.020   100037280.27345
  23363533.200   122776205.74508  23363532.560    95669770.99347
  23505538.100   123522782.78308  23505536.080    96251664.80547
  22672022.100   119142287.72309  22672018.860    92838134.39548
 15 02 25 00 03 30.0000000  0  8G16G18G21G22G25G27G29G31
  22115906.340   116219882.33609  22115902.300    90560937.06747
  22550069.440   118501519.77109  22550066.540    92338876.46946
  21140643.460   111095054.90209  21140639.420    86567652.79448
  24061558.320   126444397.21908  24061556.640    98528112.65445
  24449001.660   128480694.05808  24449003.160   100114968.76145
  23350777.460   122709174.04208  23350776.940    95617538.53247
  23518767.040   123592301.99608  23518764.760    96305835.58846
  22688088.940   119226719.49609  22688085.780    92903925.37847
 15 02 25 00 04  0.0000000  0  8G16G18G21G22G25G27G29G31
  22101039.400   116141756.52009  22101035.440    90500059.80547
  22537853.640   118437325.51409  22537850.600    92288854.99146
  21146839.420   111127614.25009  21146835.220    86593023.70948
  24043485.300   126349424.86208  24043483.580    98454108.64646
  24468004.480   128580554.02808  24468005.820   100192781.58145
  23338036.220   122642218.71808  23338035.860    95565365.59347
  23532002.780   123661857.06308  23532000.960    96360034.24347
  22704199.700   119311381.88009  22704196.620    92969896.03648
 15 02 25 00 04 30.0000000  0  8G16G18G21G22G25G27G29G31
  22086214.840   116063853.29409  22086210.980    90439356.00547
  22525690.040   118373405.42509  22525687.080    92239047.15847
  21153099.260   111160509.68209  21153095.020    86618656.51748
  24025408.640   126254433.62508  24025407.060    98380089.90545
  24487037.060   128680570.96108  24487038.480   100270716.64745
  23325309.200   122575338.57508  23325308.980    95513251.22347
  23545245.340   123731447.44008  23545243.500    96414260.49447
  22720353.580   119396270.97109  22720350.540    93036043.34347
 15 02 25 00 05  0.0000000  0  8G16G18G21G22G25G27G29G31
  22071432.940   115986174.30609  22071429.220    90378826.93147
  22513578.960   118309760.98609  22513575.940    92189454.10946
  21159422.480   111193738.40609  21159418.240    86644549.02148
  24007328.800   126159425.33208  24007327.080    98306057.86445
  24506099.120   128780742.83907  24506100.580   100348772.49145
  23312596.400   122508533.10108  23312596.260    95461195.03847
  23558494.660   123801072.21408  23558492.980    96468513.51247
  22736549.900   119481382.89709  22736546.860    93102364.29047
 15 02 25 00 05 30.0000000  0  8G16G18G21G22G25G27G29G31
  22056695.540   115908728.56809  22056691.820    90318479.61347
  22501522.140   118246401.56809  22501518.940    92140083.15647
  21165810.120   111227305.52609  21165805.860    86670705.22448
  23989247.400   126064409.54008  23989245.600    98232019.99046
  24525191.580   128881074.77208  24525193.300   100426953.02246
  23299899.160   122441808.82308  23299899.060    95409202.12047
  23571751.520   123870737.92808  23571750.420    96522798.43447
  22752789.340   119566721.43109  22752786.300    93168861.80748
 15 02 25 00 06  0.0000000  0  8G16G18G21G22G25G27G29G31
  22042001.480   115831510.26709  22041997.720    90258309.51548
  22489518.520   118183321.72709  22489515.220    92090930.04847
  21172260.400   111261201.76109  21172256.100    86697117.87148
  23971163.660   125969380.95508  23971161.860    98157972.12945
  24544312.840   128981557.50608  24544314.700   100505251.04545
  23287215.940   122375157.95708  23287215.760    95357266.40647
  23585014.760   123940436.81908  23585014.140    96577109.20347
  22769069.900   119652275.98609  22769066.860    93235527.66247
 15 02 25 00 06 30.0000000  0  8G16G18G21G22G25G27G29G31
  22027351.680   115754524.47309  22027347.800    90198320.59148
  22477568.960   118120526.30309  22477565.560    92041998.57346
  21178773.460   111295427.80409  21178769.100    86723787.51148
  23953078.520   125874344.66808  23953076.500    98083918.23245
  24563463.020   129082191.86808  24563464.740   100583667.20845
  23274547.040   122308582.78508  23274546.740    95305389.67747
  23598284.880   124010171.45708  23598284.200    96631447.84847
  22785391.460   119738046.00009  22785388.400    93302361.39847
 15 02 25 00 07  0.0000000  0  8G16G18G21G22G25G27G29G31
  22012746.520   115677773.22209  22012742.600    90138514.42348
  22465673.980   118058018.36509  22465670.760    91993291.12247
  21185349.060   111329982.91309  21185344.640    86750713.58248
  23934992.480   125779303.51308  23934990.220    98009860.54545
  24582641.900   129182976.85608  24582643.800   100662200.75045
  23261892.620   122242083.76108  23261892.360    95253572.27647
  23611561.860   124079942.21408  23611561.300    96685814.62647
  22801753.480   119824028.84009  22801750.440    93369360.99148
 15 02 25 00 07 30.0000000  0  8G16G18G21G22G25G27G29G31
  21998185.820   115601256.08809  21998181.900    90078890.68448
  22453833.440   117995796.60109  22453830.420    91944806.64546
  21191986.140   111364861.55008  21191981.820    86777891.74348
  23916905.480   125684256.72208  23916903.100    97935798.43046
  24601848.560   129283907.55007  24601850.420   100740847.80945
  23249252.040   122175657.45108  23249251.880    95201811.53347
  23624845.300   124149745.85109  23624844.680    96740207.05647
  22818154.800   119910218.23809  22818151.800    93436521.52447
 15 02 25 00 08  0.0000000  0  8G16G18G21G22G25G27G29G31
  21983670.860   115524979.55809  21983667.000    90019454.43148
  22442048.700   117933868.03709  22442045.940    91896550.64347
  21198685.380   111400066.77208  21198681.120    86805324.38148
  23898818.700   125589211.24908  23898816.320    97861737.39246
  24621083.700   129384986.97008  24621085.060   100819610.75845
  23236626.240   122109308.40408  23236626.080    95150110.99947
  23638135.800   124219586.86208  23638135.080    96794628.58947
  22834595.680   119996615.85509  22834592.740    93503844.30848
 15 02 25 00 08 30.0000000  0  8G16G18G21G22G25G27G29G31
  21969201.940   115448945.35609  21969198.200    89960207.00547
  22430320.140   117872234.41609  22430317.460    91848524.45547
  21205446.380   111435596.27209  21205442.180    86833009.70648
  23880732.660   125494169.51108  23880730.180    97787679.19546
  24640346.820   129486212.98708  24640347.600   100898487.95845
  23224015.100   122043036.03208  23224014.800    95098470.20547
  23651432.940   124289464.48208  23651432.280    96849078.64647
  22851075.500   120083218.07009  22851072.620    93571326.52947
 15 02 25 00 09  0.0000000  0  8G16G18G21G22G25G27G29G31
  21954779.220   115373154.02909  21954775.580    89901148.83948
  22418647.900   117810896.53109  22418645.220    91800728.72747
  21212268.500   111471446.41009  21212264.260    86860944.87848
  23862647.460   125399131.77708  23862644.740    97713624.09046
  24659637.020   129587582.02408  24659637.700   100977476.56545
  23211418.200   121976838.18208  23211417.740    95046887.48547
  23664736.980   124359376.72509  23664736.460    96903555.67747
  22867593.280   120170019.72909  22867590.400    93638964.13847
 15 02 25 00 09 30.0000000  0  8G16G18G21G22G25G27G29G31
  21940403.660   115297610.29509  21940400.100    89842283.59047
  22407032.920   117749859.23609  22407030.120    91753167.21547
  21219151.880   111507618.39809  21219147.580    86889130.84348
  23844563.920   125304103.20708  23844561.160    97639576.16746
  24678954.680   129689095.28408  24678954.960   101056577.54845
  23198836.020   121910717.62808  23198835.360    94995365.00247
  23678048.020   124429326.46308  23678046.720    96958061.92346
  22884149.040   120257020.79809  22884146.140    93706757.14447
 15 02 25 00 10  0.0000000  0  8G16G18G21G22G25G27G29G31
  21926075.460   115222315.34609  21926071.940    89783612.20747
  22395475.520   117689124.36309  22395472.620    91705841.36547
  21226095.940   111544109.35109  21226091.560    86917565.34848
  23826482.640   125209085.84108  23826479.760    97565536.94046
  24698299.240   129790750.07208  24698299.340   101135788.78344
  23186268.280   121844673.16508  23186267.500    94943901.80247
  23691366.040   124499312.86808  23691364.500    97012596.75547
  22900742.000   120344217.20209  22900739.100    93774702.35747
 15 02 25 00 10 30.0000000  0  8G16G18G21G22G25G27G29G31
  21911795.140   115147271.71009  21911791.560    89725136.64948
  22383976.100   117628694.24809  22383973.140    91658752.97647
  21233100.380   111580917.77209  21233095.980    86946247.23848
  23808403.960   125114082.23908  23808400.860    97491508.43146
  24717670.480   129892545.13308  24717670.520   101215109.33345
  23173714.980   121778705.09208  23173714.180    94892498.12547
  23704691.040   124569335.52709  23704689.420    97067159.78546
  22917371.640   120431606.31709  22917368.740    93842797.72647
 15 02 25 00 11  0.0000000  0  8G16G18G21G22G25G27G29G31
  21897562.560   115072479.11109  21897558.960    89666856.70148
  22372534.600   117568568.31609  22372531.600    91611901.61747
  21240164.420   111618039.45009  21240160.000    86975173.21148
  23790327.900   125019092.42508  23790324.820    97417490.63446
  24737067.780   129994476.18608  24737067.760   101294535.84345
  23161175.660   121712810.72008  23161174.900    94841151.86847
  23718022.520   124639392.48608  23718020.480    97121749.61646
  22934036.920   120519182.35809  22934033.940    93911038.75247
 15 02 25 00 11 30.0000000  0  8G16G18G21G22G25G27G29G31
  21883379.080   114997944.49109  21883375.580    89608777.78948
  22361152.340   117508753.73709  22361149.160    91565292.87647
  21247288.600   111655477.42109  21247284.260    87004345.65648
  23772255.860   124924123.77108  23772252.720    97343489.34946
  24756491.560   130096546.55308  24756491.520   101374070.86845
  23148651.240   121646994.87408  23148650.580    94789866.81347
  23731361.380   124709488.50009  23731358.820    97176369.84646
  22950738.080   120606947.17009  22950735.020    93979426.88547
 15 02 25 00 12  0.0000000  0  8G16G18G21G22G25G27G29G31
  21869244.400   114923666.47509  21869240.920    89550898.82948
  22349829.080   117449249.55409  22349825.900    91518926.00947
  21254472.040   111693226.57909  21254467.760    87033760.58548
  23754187.500   124829174.72308  23754184.160    97269503.30646
  24775940.600   130198750.81308  24775940.660   101453710.27544
  23136141.040   121581253.68708  23136140.480    94738639.94147
  23744707.020   124779619.74908  23744704.660    97231017.57746
  22967473.900   120694894.08309  22967470.760    94047956.90747
 15 02 25 00 12 30.0000000  0  8G16G18G21G22G25G27G29G31
  21855160.320   114849654.28509  21855156.860    89493226.98948
  22338566.600   117390064.83209  22338563.380    91472808.06747
  21261715.580   111731291.55509  21261711.380    87063421.60748
  23736124.760   124734255.68208  23736121.400    97195540.67246
  24795415.920   130301094.25308  24795416.660   101533458.05844
  23123646.340   121515594.03708  23123645.900    94687476.60447
  23758060.260   124849793.12308  23758058.620    97285698.02646
  22984244.980   120783026.62109  22984241.860    94116631.58247
 15 02 25 00 13  0.0000000  0  8G16G18G21G22G25G27G29G31
  21841125.420   114775900.77109  21841122.080    89435756.73548
  22327363.560   117331192.47309  22327360.240    91426933.52347
  21269017.160   111769661.64809  21269013.040    87093320.38748
  23718066.400   124639359.44008  23718062.960    97121595.74746
  24814915.600   130403565.92007  24814916.600   101613305.79345
  23111165.440   121450006.56208  23111165.020    94636369.49347
  23771419.860   124919999.27208  23771417.640    97340404.17146
  23001049.080   120871332.85509  23001046.100    94185441.60447
 15 02 25 00 13 30.0000000  0  7G16G18G21G22G27G29G31
  21827142.420   114702419.76509  21827139.120    89378498.81248
  22316222.640   117272646.05509  22316219.020    91381312.95447
  21276378.560   111808346.30809  21276374.500    87123464.28248
  23700014.920   124544499.76708  23700011.660    97047679.34646
  23098700.440   121384502.65008  23098700.040    94585327.49147
  23784787.760   124990249.18008  23784786.120    97395144.31646
  23017887.820   120959821.19109  23017884.980    94254393.50947
 15 02 25 00 14  0.0000000  0  7G16G18G21G22G27G29G31
  21813209.400   114629201.20109  21813206.040    89321445.39048
  22305141.880   117214415.85309  22305138.120    91335938.80347
  21283797.200   111847331.80309  21283793.140    87153842.59348
  23681968.620   124449667.28108  23681965.480    96973784.09546
  23086249.020   121319070.12708  23086248.640    94534341.13747
  23798161.840   125060531.65408  23798160.580    97449909.82146
  23034758.280   121048476.09909  23034755.580    94323475.21647
 15 02 25 00 14 30.0000000  0  7G16G18G21G22G27G29G31
  21799326.420   114556245.41009  21799323.020    89264596.72748
  22294121.400   117156502.28009  22294117.400    91290811.35647
  21291272.400   111886614.48909  21291268.320    87184452.47248
  23663927.580   124354862.97108  23663924.720    96899910.81546
  23073810.800   121253707.01908  23073810.480    94483408.85747
  23811541.980   125130844.01008  23811540.180    97504698.68846
  23051659.560   121137292.75709  23051656.960    94392682.95447
 15 02 25 00 15  0.0000000  0 15G16G18G21G22G27G29G31R02R03R09R15R16
                                R17R18R19
  21785496.140   114483566.27009  21785492.580    89207963.63148
  22283163.680   117098918.78609  22283159.540    91245941.11847
  21298805.980   111926203.83209  21298801.840    87215301.30548
  23645894.500   124260100.51908  23645891.780    96826070.14446
  23061387.960   121188424.73308  23061387.620    94432539.55547
  23824929.820   125201198.09408  23824927.940    97559519.99746
  23068593.300   121226279.72209  23068590.700    94462023.40047
  22321554.120   119112103.80509  22321557.360    92642759.51007
  22705576.320   121544739.43108  22705577.620    94534828.83007
  22536602.640   120344193.09808  22536603.280    93601043.49904
  21561031.140   115215619.10808  21561034.720    89612163.58607
  19886608.760   106230695.35008  19886610.580    82623889.44208
  21882022.640   117095381.80608  21882021.920    91074277.37608
  20121867.920   107412114.72809  20121870.460    83542872.12408
  22587582.900   120828350.21508  22587582.900    93977611.57707
 15 02 25 00 15 30.0000000  0 15G16G18G21G22G27G29G31R02R03R09R15R16
                                R17R18R19
  21771717.580   114411159.00409  21771713.900    89151542.38348
  22272267.920   117041660.95209  22272263.780    91201324.64247
  21306396.280   111966091.34309  21306392.120    87246382.47848
  23627868.620   124165375.52208  23627865.980    96752258.64746
  23048979.160   121123216.28808  23048978.860    94381727.80047
  23838324.520   125271586.87108  23838322.920    97614368.37247
  23085557.580   121315427.20009  23085554.940    94531488.91447
  22317762.900   119091872.56309  22317765.680    92627024.09807
  22686825.440   121444364.42208  22686826.520    94456759.39507
  22518446.860   120247241.57008  22518447.480    93525636.75604
  21583506.700   115335721.30408  21583510.200    89705576.34507
  19887486.060   106235381.87309  19887487.940    82627534.51008
  21895200.380   117165899.42908  21895200.140    91129124.37108
  20123709.760   107421946.42709  20123712.200    83550518.99608
  22575695.080   120764758.55408  22575695.160    93928151.41507
 15 02 25 00 16  0.0000000  0 15G16G18G21G22G27G29G31R02R03R09R15R16
                                R17R18R19
  21757991.820   114339029.64309  21757988.120    89095337.69048
  22261435.160   116984734.77709  22261431.000    91156966.60847
  21314043.740   112006279.17409  21314039.580    87277697.66748
  23609851.220   124070694.59208  23609848.580    96678481.48346
  23036585.160   121058085.31008  23036584.900    94330976.40147
  23851726.460   125342014.30508  23851724.900    97669246.82446
  23102552.500   121404735.55009  23102549.800    94601079.77747
  22314103.460   119072345.18909  22314105.720    92611836.16507
  22668120.840   121344237.13408  22668121.820    94378882.67607
  22500385.320   120150793.57808  22500385.920    93450621.66704
  21606044.860   115456157.82908  21606048.260    89799249.15807
  19888521.840   106240914.96508  19888523.740    82631838.02008
  21908380.920   117236431.33208  21908380.960    91183982.49308
  20125591.820   107431992.67909  20125594.080    83558332.74408
  22563842.420   120701355.26808  22563842.620    93878837.77207
 15 02 25 00 16 30.0000000  0 15G16G18G21G22G27G29G31R02R03R09R15R16
                                R17R18R19
  21744318.300   114267174.92609  21744314.600    89039347.01248
  22250664.840   116928136.95409  22250660.800    91112864.43147
  21321746.880   112046759.60809  21321742.740    87309240.86348
  23591841.720   123976054.92108  23591839.080    96604736.47346
  23024204.900   120993026.45708  23024204.600    94280281.20047
  23865134.820   125412474.62708  23865132.940    97724150.99046
  23119576.420   121494196.37009  23119573.680    94670789.44747
  22310575.240   119053517.76809  22310576.820    92597192.64007
  22649462.380   121244356.81108  22649463.300    94301198.01407
  22482417.740   120054847.44408  22482418.380    93375996.95004
  21628643.800   115576919.25608  21628647.120    89893174.64507
  19889715.020   106247288.76708  19889716.940    82636795.41208
  21921563.000   117306971.67408  21921563.020    91238847.16807
  20127512.740   107442246.61109  20127514.960    83566308.03008
  22552023.900   120638134.24608  22552024.100    93829665.88107
 15 02 25 00 17  0.0000000  0 15G16G18G21G22G27G29G31R02R03R09R15R16
                                R17R18R19
  21730699.120   114195605.92309  21730695.480    88983578.96448
  22239959.120   116871878.37609  22239955.100    91069026.59747
  21329507.060   112087539.85809  21329502.920    87341017.69348
  23573842.280   123881467.70108  23573839.440    96531032.34546
  23011840.080   120928048.45608  23011839.640    94229649.00547
  23878550.860   125482976.82408  23878549.140    97779087.71446
  23136630.480   121583815.55109  23136627.680    94740622.52647
  22307180.040   119035400.51409  22307181.420    92583101.46807
  22630852.440   121144736.68808  22630853.340    94223715.77107
  22464546.560   119959416.08908  22464547.000    93301772.54004
  21651304.360   115698009.95008  21651307.560    89987356.24407
  19891067.140   106254511.63508  19891069.060    82642413.19008
  21934748.060   117377528.50408  21934748.160    91293724.70208
  20129474.040   107452715.82209  20129476.220    83574450.75208
  22540241.020   120575103.68708  22540241.140    93780642.12707
 15 02 25 00 17 30.0000000  0 15G16G18G21G22G27G29G31R02R03R09R15R16
                                R17R18R19
  21717133.020   114124315.78609  21717129.420    88928028.20648
  22229316.660   116815951.96609  22229312.660    91025447.58247
  21337322.300   112128609.32109  21337318.160    87373019.86248
  23555851.680   123786926.45508  23555848.560    96457364.00146
  22999488.860   120863142.00708  22999488.240    94179072.55647
  23891973.220   125553511.61508  23891971.860    97834049.82947
  23153712.280   121673580.68709  23153709.460    94810569.32247
  22303916.420   119017986.36209  22303918.280    92569557.13807
  22612290.300   121045371.88008  22612291.040    94146432.04807
  22446770.660   119864493.64608  22446771.280    93227943.98004
  21674023.880   115819416.00508  21674027.240    90081783.11607
  19892576.380   106262573.88908  19892578.340    82648683.80808
  21947934.400   117448091.51608  21947934.940    91348607.03908
  20131473.620   107463389.66709  20131475.840    83582752.62408
  22528491.860   120512253.69708  22528491.920    93731758.81707
 15 02 25 00 18  0.0000000  0 15G16G18G21G22G27G29G31R02R03R09R15R16
                                R17R18R19
  21703621.960   114053314.86209  21703618.340    88872702.80948
  22218739.360   116760367.92909  22218735.420    90982135.36247
  21345193.700   112169973.94109  21345189.540    87405252.03748
  23537871.820   123692441.50808  23537868.640    96383739.52947
  22987152.720   120798314.97308  22987152.000    94128557.99647
  23905403.280   125624086.87008  23905402.120    97889043.48546
  23170822.800   121763496.78809  23170819.960    94880633.75647
  22300786.260   119001284.49609  22300787.940    92556566.82107
  22593778.240   120946274.91308  22593778.900    94069356.67507
  22429092.160   119770091.90508  22429092.760    93154520.40704
  21696802.920   115941140.34208  21696806.440    90176457.54407
  19894244.180   106271483.00408  19894246.200    82655613.11308
  21961123.120   117518668.17708  21961123.840    91403499.97207
  20133512.660   107474274.65509  20133514.940    83591218.73608
  22516777.840   120449591.35608  22516777.820    93683021.47607
 15 02 25 00 18 30.0000000  0 15G16G18G21G22G27G29G31R02R03R09R15R16
                                R17R18R19
  21690165.400   113982600.73509  21690161.880    88817600.90348
  22208226.760   116705123.81209  22208222.920    90939088.02047
  21353120.100   112211627.66708  21353116.000    87437709.47448
  23519902.320   123598011.08008  23519898.980    96310157.52946
  22974830.860   120733562.98308  22974830.180    94078101.91247
  23918840.280   125694698.35908  23918839.080    97944065.42547
  23187960.580   121853556.21909  23187957.680    94950809.87547
  22297789.220   118985292.14309  22297790.600    92544128.34907
  22575316.240   120847445.77408  22575316.840    93992489.61207
  22411511.100   119676210.30808  22411511.740    93081501.39804
  21719640.040   116063175.00308  21719643.720    90271373.32107
  19896069.580   106281233.95608  19896071.560    82663197.18008
  21974313.640   117589253.09708  21974314.260    91458399.32308
  20135590.100   107485364.96609  20135592.540    83599844.54008
  22505098.060   120387111.84408  22505097.920    93634426.32307
 15 02 25 00 19  0.0000000  0 15G16G18G21G22G27G29G31R02R03R09R15R16
                                R17R18R19
  21676764.520   113912178.93009  21676761.060    88762726.77148
  22197780.000   116650225.85709  22197776.300    90896310.40547
  21361101.860   112253572.17309  21361097.800    87470393.50848
  23501944.460   123503641.55509  23501940.920    96236622.98946
  22962523.920   120668889.63208  22962523.300    94027707.10347
  23932284.820   125765349.75208  23932283.900    97999118.38446
  23205125.720   121943759.77809  23205122.880    95021098.30147
  22294926.300   118970014.69409  22294927.500    92532245.93407
  22556905.720   120748892.62308  22556906.280    93915837.20807
  22394028.840   119582856.06008  22394029.660    93008892.56005
  21742535.220   116185519.58308  21742538.920    90366530.14607
  19898053.200   106291830.12708  19898055.160    82671438.63408
  21987506.560   117659849.61908  21987507.120    91513307.72108
  20137706.500   107496663.04009  20137709.200    83608631.94308
  22493452.940   120324817.99708  22493452.800    93585975.58007
 15 02 25 00 19 30.0000000  0 15G16G18G21G22G27G29G31R02R03R09R15R16
                                R17R18R19
  21663419.260   113842049.51709  21663415.840    88708080.47848
  22187398.980   116595673.50409  22187395.380    90853802.09347
  21369138.160   112295803.19909  21369134.140    87503300.79548
  23483998.060   123409332.82308  23483994.260    96163135.80146
  22950231.380   120604292.20508  22950230.820    93977371.45347
  23945736.400   125836038.51808  23945735.240    98054200.54646
  23222317.140   122034101.47108  23222314.380    95091494.35847
  22292196.920   118955450.63109  22292198.360    92520918.31707
  22538546.980   120650617.26308  22538547.840    93839400.86207
  22376645.560   119490030.35208  22376646.200    92936694.79504
  21765487.000   116308166.68008  21765490.800    90461922.26207
  19900194.380   106303268.00409  19900196.340    82680334.74808
  22000700.860   117730454.33608  22000701.560    91568222.45508
  20139861.240   107508164.85809  20139863.960    83617577.79308
  22481841.880   120262706.38508  22481841.740    93537666.56908
 15 02 25 00 20  0.0000000  0 15G16G18G21G22G27G29G31R02R03R09R15R16
                                R17R18R19
  21650130.220   113772215.38209  21650126.840    88653664.27148
  22177084.160   116541469.26109  22177080.640    90811565.03947
  21377228.660   112338318.86309  21377224.640    87536429.88948
  23466063.880   123315088.32108  23466059.980    96089698.67446
  22937953.480   120539771.58908  22937952.900    93927095.66447
  23959195.080   125906764.84208  23959193.960    98109311.93946
  23239534.480   122124579.44209  23239531.840    95161996.61447
  22289601.500   118941602.41109  22289603.380    92510147.50007
  22520241.080   120552625.32108  22520242.000    93763184.94907
  22359362.140   119397737.88608  22359362.780    92864911.79904
  21788494.600   116431112.00308  21788498.500    90557546.34407
  19902493.200   106315547.63608  19902495.140    82689885.55708
  22013896.660   117801067.44908  22013897.440    91623143.76708
  20142054.060   107519869.77009  20142056.640    83626681.60508
  22470264.960   120200777.42908  22470264.840    93489499.64708
 15 02 25 00 20 30.0000000  0 15G16G18G21G22G27G29G31R02R03R09R15R16
                                R17R18R19
  21636897.400   113702676.51009  21636894.040    88599478.13848
  22166835.640   116487613.28209  22166832.120    90769599.35747
  21385372.740   112381115.97209  21385368.740    87569778.28748
  23448141.880   123220908.32609  23448137.860    96016311.82546
  22925689.720   120475325.38508  22925689.180    93876877.85047
  23972660.740   125977527.05308  23972659.600    98164451.26946
  23256776.740   122215188.24308  23256774.160    95232600.81547
  22287140.160   118928469.07709  22287142.540    92499932.66408
  22501988.500   120454918.53008  22501989.500    93687190.83007
  22342178.640   119305979.77708  22342179.340    92793544.40804
  21811556.760   116554349.01808  21811560.660    90653397.27607
  19904949.080   106328665.97809  19904950.940    82700088.70308
  22027093.220   117871685.49808  22027094.000    91678068.90008
  20144284.200   107531774.09709  20144286.620    83635940.52608
  22458721.520   120139027.85408  22458721.420    93441472.22507
 15 02 25 00 21  0.0000000  0 15G16G18G21G22G27G29G31R02R03R09R15R16
                                R17R18R19
  21623721.840   113633438.39009  21623718.540    88545526.36348
  22156654.340   116434110.65209  22156650.920    90727909.01247
  21393570.560   112424195.62009  21393566.640    87603346.84648
  23430233.240   123126798.61108  23430229.180    95942979.69946
  22913440.660   120410956.70708  22913440.160    93826720.45247
  23986133.940   126048328.36108  23986132.620    98219621.11146
  23274043.880   122305927.71308  23274041.400    95303306.83047
  22284813.660   118916055.18309  22284816.200    92490277.46907
  22483790.540   120357504.69108  22483791.640    93611424.54907
  22325096.600   119214762.94908  22325097.420    92722597.97304
  21834673.340   116677876.93208  21834677.280    90749474.48107
  19907562.380   106342625.31709  19907564.160    82710945.95608
  22040291.200   117942311.35808  22040292.340    91733000.07408
  20146552.020   107543879.87409  20146554.300    83645356.14108
  22447212.060   120077460.11608  22447211.940    93393586.21907
 15 02 25 00 21 30.0000000  0 15G16G18G21G22G27G29G31R02R03R09R15R16
                                R17R18R19
  21610603.480   113564500.67809  21610600.200    88491808.66348
  22146540.200   116380960.88709  22146536.880    90686493.62147
  21401821.340   112467553.40509  21401817.340    87637132.12248
  23412338.060   123032759.54308  23412333.800    95869702.61547
  22901205.820   120346663.08008  22901205.480    93776621.54047
  23999614.060   126119166.11908  23999612.720    98274819.31646
  23291334.920   122396792.51308  23291332.480    95374110.50047
  22282622.140   118904359.62209  22282624.140    92481180.89207
  22465647.740   120260385.60408  22465649.120    93535887.52007
  22308116.220   119124088.62708  22308117.080    92652073.48805
  21857843.060   116801688.65808  21857847.000    90845772.43007
  19910332.460   106357422.35208  19910334.200    82722454.74508
  22053490.080   118012941.81108  22053491.580    91787934.82608
  20148856.860   107556183.10609  20148859.100    83654925.31908
  22435736.000   120016070.92508  22435735.780    93345839.08907
 15 02 25 00 22  0.0000000  0 15G16G18G21G22G27G29G31R02R03R09R15R16
                                R17R18R19
  21597543.580   113495870.26709  21597540.280    88438330.42348
  22136494.600   116328170.89209  22136491.300    90645358.56547
  21410125.480   112511192.04409  21410121.460    87671136.26148
  23394457.600   122938797.86209  23394453.320    95796485.86146
  22888986.200   120282448.86708  22888985.960    93726584.49947
  24013101.800   126190044.71308  24013100.740    98330049.30646
  23308650.040   122487783.97509  23308647.680    95445012.86747
  22280566.060   118893387.89209  22280567.280    92472647.36207
  22447561.840   120163570.53408  22447563.160    93460586.97707
  22291239.060   119033964.86408  22291239.960    92581977.25105
  21881065.880   116925784.05808  21881069.820    90942290.99907
  19913259.980   106373060.56908  19913261.700    82734617.79008
  22066690.380   118083580.74108  22066692.160    91842876.18908
  20151199.320   107568687.05009  20151201.540    83664650.60008
  22424294.020   119954864.46208  22424293.840    93298234.08507
 15 02 25 00 22 30.0000000  0 15G16G18G21G22G27G29G31R02R03R09R15R16
                                R17R18R19
  21584541.580   113427543.88309  21584538.180    88385089.08948
  22126516.860   116275737.33109  22126513.560    90604501.27147
  21418481.760   112555104.65009  21418477.760    87705353.88448
  23376591.440   122844911.11908  23376587.180    95723327.48047
  22876780.800   120218309.03608  22876780.640    93676605.43047
  24026596.380   126260958.91008  24026594.980    98385307.15646
  23325987.780   122578894.03808  23325985.440    95516007.65547
  22278645.080   118883136.37109  22278645.820    92464674.00907
  22429532.680   120067058.54408  22429533.560    93385522.09207
  22274464.660   118944390.02308  22274465.600    92512307.95705
  21904340.040   117050153.81508  21904344.080    91039022.95107
  19916343.900   106389534.26808  19916345.660    82747430.66108
  22079891.240   118154222.21808  22079893.140    91897819.55508
  20153578.220   107581385.20609  20153580.280    83674526.94608
  22412885.120   119893834.65008  22412884.980    93250766.48907
 15 02 25 00 23  0.0000000  0 15G16G18G21G22G27G29G31R02R03R09R15R16
                                R17R18R19
  21571598.800   113359528.83909  21571595.380    88332090.35448
  22116608.280   116223667.29709  22116605.100    90563927.22647
  21426890.800   112599294.39508  21426886.800    87739787.44448
  23358741.020   122751106.65508  23358736.700    95650233.21346
  22864590.560   120154248.45908  22864590.260    93626688.10447
  24040098.640   126331914.04408  24040097.360    98440596.80546
  23343348.400   122670124.30408  23343346.020    95587096.10347
  22276860.340   118873611.22409  22276861.100    92457265.52608
  22411561.900   119970859.28708  22411562.720    93310700.49707
  22257794.680   118855372.68608  22257795.240    92443072.22205
  21927665.580   117174798.30608  21927669.700    91135968.57707
  19919584.880   106406847.14008  19919586.720    82760896.20308
  22093093.680   118224870.83908  22093095.220    91952768.49107
  20155994.140   107594281.24909  20155996.100    83684557.19408
  22401510.000   119832985.63908  22401509.880    93203439.49707
 15 02 25 00 23 30.0000000  0 15G16G18G21G22G27G29G31R02R03R09R15R16
                                R17R18R19
  21558715.220   113291824.83809  21558711.740    88279333.98748
  22106768.740   116171960.06309  22106765.580    90523635.88947
  21435351.640   112643756.35409  21435347.600    87774433.12048
  23340906.320   122657384.72709  23340901.980    95577203.25547
  22852414.860   120090264.36308  22852414.400    93576830.38547
  24053608.120   126402907.21908  24053607.020    98495916.10346
  23360730.820   122761469.13908  23360728.380    95658273.80647
  22275210.920   118864810.69708  22275212.900    92450420.74608
  22393649.720   119874974.20708  22393650.460    93236123.23407
  22241229.200   118766913.89608  22241229.720    92374270.96104
  21951041.280   117299710.89008  21951045.480    91233122.72607
  19922982.120   106424995.16008  19922984.100    82775011.32608
  22106296.720   118295523.08008  22106298.160    92007720.17807
  20158446.340   107607371.00009  20158448.260    83694738.11308
  22390167.940   119772314.02108  22390167.980    93156250.51507
 15 02 25 00 24  0.0000000  0 15G16G18G21G22G27G29G31R02R03R09R15R16
                                R17R18R19
  21545891.540   113224435.73009  21545888.040    88226823.00848
  22096998.880   116120619.23809  22096995.740    90483630.07747
  21443864.240   112688490.67209  21443860.240    87809291.03648
  23323087.980   122563749.12509  23323083.640    95504240.56647
  22840254.020   120026358.34508  22840253.460    93527033.50048
  24067125.220   126473940.04808  24067124.140    98551266.35446
  23378134.740   122852926.89808  23378132.260    95729539.51347
  22273697.480   118856737.47609  22273700.220    92444141.61408
  22375797.300   119779409.48808  22375798.200    93161795.18507
  22224769.120   118679018.48708  22224769.520    92305907.88405
  21974466.360   117424887.03808  21974470.460    91330481.87107
  19926535.820   106443978.94908  19926537.940    82789776.47608
  22119500.800   118366180.02008  22119502.360    92062675.54807
  20160934.960   107620654.96609  20160936.960    83705070.08308
  22378859.220   119711820.67908  22378859.360    93109200.17707
 15 02 25 00 24 30.0000000  0 15G16G18G21G22G27G29G31R02R03R09R15R16
                                R17R18R19
  21533127.060   113157357.75009  21533123.500    88174554.44948
  22087297.940   116069640.68609  22087294.780    90443906.53647
  21452427.220   112733489.90309  21452423.360    87844355.36248
  23305285.520   122470196.91908  23305281.100    95431342.85147
  22828106.940   119962524.71409  22828106.380    93477293.02147
  24080648.960   126545006.86208  24080647.820    98606643.03846
  23395558.560   122944489.07808  23395555.940    95800886.58047
  22272319.680   118849386.88308  22272322.720    92438424.47307
  22358004.420   119684163.73708  22358005.360    93087715.18207
  22208414.180   118591684.46008  22208414.580    92237981.41204
  21997939.000   117550317.24008  21997943.040    91428038.59507
  19930244.740   106463791.81708  19930246.920    82805186.45808
  22132704.420   118436835.35908  22132705.800    92117629.63207
  20163458.520   107634125.84009  20163460.620    83715547.42908
  22367582.660   119651499.01008  22367582.800    93062283.36107
 15 02 25 00 25  0.0000000  0 15G16G18G21G22G27G29G31R02R03R09R15R16
                                R17R18R19
  21520423.380   113090599.44609  21520419.820    88122534.98648
  22077667.580   116019033.26009  22077664.500    90404472.18847
  21461041.360   112778758.06909  21461037.600    87879629.25148
  23287500.600   122376736.98509  23287496.120    95358517.03746
  22815974.780   119898769.58809  22815974.220    93427613.71147
  24094180.440   126616113.86908  24094179.240    98662051.04346
  23413002.860   123036158.77308  23413000.120    95872317.41547
  22271079.020   118842766.16109  22271081.780    92433275.03507
  22340273.220   119589247.68208  22340274.100    93013891.60807
  22192166.220   118504921.57308  22192166.900    92170499.17905
  22021459.680   117676003.99208  22021463.600    91525794.86807
  19934109.840   106484438.58408  19934112.080    82821245.03708
  22145908.860   118507494.39108  22145910.120    92172586.68007
  20166017.940   107647788.74509  20166020.180    83726174.13308
  22356339.200   119591354.63708  22356339.360    93015504.41507
 15 02 25 00 25 30.0000000  0 15G16G18G21G22G27G29G31R02R03R09R15R16
                                R17R18R19
  21507780.920   113024162.52809  21507777.300    88070765.96048
  22068108.080   115968798.12909  22068104.960    90365327.94747
  21469706.300   112824292.96409  21469702.620    87915110.99448
  23269733.640   122283371.58708  23269729.280    95285764.88547
  22803857.560   119835092.62608  22803856.860    93377995.31548
  24107719.380   126687260.48808  24107717.880    98717489.95046
  23430466.960   123127932.60008  23430464.200    95943829.40847
  22269975.660   118836876.01409  22269977.620    92428693.79507
  22322604.420   119494665.27308  22322604.960    92940327.56507
  22176025.800   118418732.88708  22176026.600    92103463.54104
  22045027.240   117801941.45408  22045031.120    91623746.13007
  19938130.840   106505917.86009  19938133.040    82837951.12408
  22159113.840   118578156.52408  22159114.960    92227546.09807
  20168612.980   107661641.87209  20168615.300    83736948.78708
  22345128.760   119531386.32408  22345128.820    92968862.42807
 15 02 25 00 26  0.0000000  0 15G16G18G21G22G27G29G31R02R03R09R15R16
                                R17R18R19
  21495200.360   112958051.01309  21495196.680    88019250.50048
  22058620.140   115918938.81809  22058617.040    90326476.55547
  21478422.060   112870094.58709  21478418.360    87950800.57448
  23251985.460   122190105.00009  23251981.040    95213089.72946
  22791755.440   119771495.50909  22791754.660    93328439.14447
  24121266.080   126758448.56408  24121264.500    98772961.16846
  23447950.580   123219808.97008  23447947.760    96015421.29147
  22269009.580   118831719.17409  22269012.060    92424682.98608
  22304999.300   119400422.74808  22304999.440    92867027.83807
  22159993.980   118333123.77408  22159995.060    92036878.69005
  22068641.360   117928127.66008  22068645.260    91721890.87607
  19942307.740   106528229.73309  19942309.920    82855304.78708
  22172319.580   118648822.76908  22172320.760    92282508.71007
  20171243.780   107675685.81909  20171246.200    83747871.85508
  22333951.500   119471595.01708  22333951.380    92922358.12007
 15 02 25 00 26 30.0000000  0 15G16G18G21G22G27G29G31R02R03R09R15R16
                                R17R18R19
  21482681.020   112892261.30109  21482677.320    87967985.79148
  22049203.060   115869451.80709  22049199.960    90287915.26547
  21487187.100   112916155.16409  21487183.340    87986691.92748
  23234255.480   122096933.92009  23234251.080    95140489.00446
  22779667.320   119707972.46408  22779666.540    93278940.68447
  24134819.700   126829672.41208  24134818.100    98828460.21546
  23465452.040   123311779.23509  23465449.180    96087086.32646
  22268179.760   118827290.51409  22268182.560    92421238.46708
  22287457.500   119306518.58808  22287457.300    92793991.30007
  22144070.200   118248091.78908  22144071.200    91970742.69605
  22092300.100   118054552.33608  22092303.980    91820221.06707
  19946639.160   106551367.07008  19946641.260    82873300.48108
  22185524.920   118719486.93008  22185525.960    92337469.68907
  20173909.000   107689913.36609  20173911.480    83758937.71608
  22322806.020   119411974.10708  22322805.840    92875986.33507
 15 02 25 00 27  0.0000000  0 15G16G18G21G22G27G29G31R02R03R09R15R16
                                R17R18R19
  21470224.440   112826801.47109  21470220.680    87916978.12948
  22039858.260   115820344.67809  22039855.180    90249649.98047
  21496002.260   112962478.78509  21495998.400    88022788.25148
  23216545.280   122003866.84708  23216540.900    95067969.30647
  22767594.420   119644529.26508  22767593.660    93229504.43947
  24148381.200   126900937.79208  24148379.440    98883991.64546
  23482971.900   123403846.02708  23482969.060    96158826.59947
  22267487.680   118823596.84209  22267490.440    92418365.63407
  22269980.840   119212963.28308  22269980.540    92721226.09907
  22128256.160   118163646.12508  22128257.120    91905062.74105
  22116003.640   118181216.52808  22116007.540    91918737.57207
  19951126.000   106575334.49708  19951128.020    82891941.80008
  22198731.020   118790154.27408  22198731.680    92392433.14207
  20176609.540   107704329.19709  20176612.060    83770150.02808
  22311693.320   119352528.54608  22311693.080    92829750.91507
 15 02 25 00 27 30.0000000  0 15G16G18G21G22G27G29G31R02R03R09R15R16
                                R17R18R19
  21457830.260   112761669.88609  21457826.580    87866226.25148
  22030585.400   115771615.53009  22030582.380    90211679.22947
  21504866.360   113009059.34609  21504862.360    88059084.79248
  23198854.680   121910902.24308  23198850.280    94995529.43647
  22755535.980   119581162.03708  22755535.240    93180127.38547
  24161949.880   126972240.80408  24161947.820    98939552.39746
  23500508.760   123496002.27108  23500505.900    96230636.54046
  22266933.000   118820635.13609  22266935.440    92416062.06308
  22252569.240   119119756.87608  22252568.720    92648732.22807
  22112551.780   118079786.38408  22112552.820    91839838.51405
  22139750.440   118308111.90708  22139754.240    92017433.86907
  19955767.220   106600126.63409  19955769.180    82911224.56508
  22211936.980   118860819.96008  22211937.200    92447395.39007
  20179344.380   107718927.98009  20179346.860    83781504.64308
  22300612.560   119293254.05608  22300612.340    92783648.56307
 15 02 25 00 28  0.0000000  0 15G16G18G21G22G27G29G31R02R03R09R15R16
                                R17R18R19
  21445499.500   112696871.70209  21445495.860    87815734.16148
  22021385.440   115723269.37409  22021382.460    90174006.92347
  21513779.660   113055898.53909  21513775.520    88095582.85848
  23181184.560   121818045.48309  23181180.220    94923173.62747
  22743492.580   119517874.04708  22743491.860    93130812.08247
  24175526.280   127043584.66008  24175524.240    98995144.95946
  23518062.620   123588248.18808  23518059.740    96302516.39047
  22266515.780   118818409.26609  22266518.520    92414330.86708
  22235224.280   119026907.50508  22235223.940    92576516.11807
  22096958.380   117996519.16008  22096959.380    91775075.11204
  22163540.200   118435236.94408  22163544.060    92116308.79607
  19960563.100   106625745.08909  19960565.040    82931150.01608
  22225142.860   118931487.24408  22225143.400    92502358.79707
  20182113.920   107733711.89209  20182116.360    83793003.24608
  22289564.080   119234152.71508  22289563.920    92737680.88707
 15 02 25 00 28 30.0000000  0 15G16G18G21G22G27G29G31R02R03R09R15R16
                                R17R18R19
  21433233.020   112632411.44809  21433229.440    87765505.39848
  22012259.200   115675310.50509  22012256.240    90136636.38547
  21522742.220   113102996.69209  21522738.020    88132282.71348
  23163536.180   121725302.78509  23163531.760    94850906.68747
  22731464.640   119454667.41308  22731463.920    93081560.16647
  24189110.860   127114971.62708  24189108.880    99050771.13646
  23535633.360   123680582.73208  23535630.420    96374465.26146
  22266236.780   118816922.22709  22266239.660    92413174.26807
  22217947.100   118934421.56108  22217946.700    92504582.63407
  22081476.940   117913849.91908  22081478.100    91710776.81105
  22187372.560   118562589.61808  22187376.440    92215360.77607
  19965513.760   106652190.63908  19965515.700    82951718.75608
  22238349.500   119002157.59308  22238350.140    92557324.57207
  20184918.320   107748681.69009  20184920.660    83804646.40508
  22278548.320   119175226.03608  22278548.220    92691849.05207
 15 02 25 00 29  0.0000000  0 15G16G18G21G22G27G29G31R02R03R09R15R16
                                R17R18R19
  21421030.380   112568286.23409  21421026.800    87715537.69448
  22003206.000   115627735.33109  22003203.020    90099564.83447
  21531752.620   113150346.67709  21531748.500    88169178.80148
  23145908.880   121632670.93509  23145904.400    94778726.11047
  22719451.220   119391537.08808  22719450.540    93032367.70747
  24202702.580   127186396.57908  24202700.680    99106426.90446
  23553219.420   123772998.01208  23553216.480    96446477.05446
  22266095.420   118816169.66109  22266098.400    92412588.97907
  22200737.780   118842298.40708  22200736.960    92432931.29507
  22066107.320   117831777.12608  22066108.460    91646942.41604
  22211245.920   118690161.23008  22211249.880    92314583.03107
  19970618.000   106679456.61308  19970619.960    82972925.60008
  22251555.540   119072825.29408  22251555.660    92612288.29407
  20187756.380   107763831.06509  20187758.740    83816429.24008
  22267564.120   119116468.17908  22267564.040    92646148.51307
 15 02 25 00 29 30.0000000  0 15G16G18G21G22G27G29G31R02R03R09R15R16
                                R17R18R19
  21408892.540   112504501.28309  21408888.880    87665835.12948
  21994226.740   115580548.84409  21994223.620    90062796.15047
  21540811.140   113197949.85209  21540807.100    88206272.17648
  23128303.720   121540155.42909  23128299.260    94706636.19147
  22707453.000   119328486.20808  22707452.300    92983237.15347
  24216302.120   127257862.75408  24216300.340    99162114.79846
  23570820.880   123865493.99109  23570817.980    96518551.73246
  22266092.660   118816155.17409  22266095.380    92412577.72907
  22183597.280   118750545.12008  22183596.800    92361567.68307
  22050850.760   117750307.14308  22050851.980    91583576.88004
  22235159.800   118817949.31908  22235163.860    92413973.65707
  19975876.100   106707544.25309  19975878.020    82994771.52308
  22264761.560   119143492.95208  22264761.580    92667252.00307
  20190628.420   107779162.02309  20190630.880    83828353.33208
  22256611.920   119057881.43808  22256611.900    92600581.09007
 15 02 25 00 30  0.0000000  0 15G16G18G21G22G27G29G31R02R03R09R15R16
                                R17R18R19
  21396819.100   112441054.64109  21396815.400    87616396.19048
  21985321.000   115533748.98209  21985317.880    90026328.74047
  21549916.460   113245799.30409  21549912.600    88243557.45948
  23110720.380   121447754.64509  23110715.980    94634635.67947
  22695469.200   119265510.59308  22695468.480    92934165.26447
  24229908.740   127329365.80208  24229907.080    99217831.42246
  23588436.340   123958063.51108  23588433.520    96590683.71446
  22266227.260   118816875.15708  22266229.100    92413137.70607
  22166525.940   118659162.06708  22166525.800    92290492.00507
  22035706.880   117669439.15608  22035707.980    91520679.56504
  22259112.720   118945945.80608  22259116.840    92513526.38307
  19981286.900   106736447.81009  19981288.800    83017252.06108
  22277966.940   119214156.10408  22277966.760    92722212.18807
  20193533.360   107794668.87009  20193535.920    83840414.20308
  22245690.840   118999460.90408  22245690.660    92555142.93407
 15 02 25 00 30 30.0000000  0 15G16G18G21G22G27G29G31R02R03R09R15R16
                                R17R18R19
  21384811.620   112377954.78409  21384807.880    87567227.47048
  21976490.360   115487343.69309  21976487.240    89990168.78347
  21559069.800   113293900.97908  21559066.120    88281039.28448
  23093160.600   121355477.53109  23093156.180    94562731.50847
  22683500.960   119202616.56608  22683500.200    92885156.93947
  24243523.540   127400911.85908  24243521.700    99273581.59246
  23606066.440   124050709.70208  23606063.640    96662875.43246
  22266501.060   118818336.61709  22266502.520    92414274.38007
  22149525.880   118568160.18008  22149526.200    92219712.80107
  22020677.380   117589182.54508  22020678.220    91458257.76504
  22283104.820   119074152.18608  22283109.020    92613242.33307
  19986851.280   106766171.76409  19986853.140    83040370.68008
  22291172.400   119284820.58608  22291172.080    92777173.38507
  20196472.240   107810356.96909  20196474.820    83852616.06408
  22234801.780   118941211.85008  22234801.600    92509838.13807
 15 02 25 00 31  0.0000000  0 15G16G18G21G22G27G29G31R02R03R09R15R16
                                R17R18R19
  21372870.040   112315201.40809  21372866.320    87518328.75248
  21967734.660   115441332.32309  21967731.520    89954315.79247
  21568270.280   113342250.38509  21568266.700    88318714.15248
  23075624.420   121263324.43809  23075620.000    94490923.99947
  22671547.740   119139801.77908  22671546.960    92836210.38047
  24257146.180   127472499.08408  24257144.280    99329363.78846
  23623710.040   124143427.11508  23623707.300    96735122.66047
  22266913.720   118820537.70008  22266915.540    92415986.35708
  22132597.420   118477541.00908  22132597.880    92149231.27107
  22005762.520   117509538.50508  22005763.420    91396312.44205
  22307134.880   119202561.19908  22307139.060    92713115.92307
  19992568.500   106796712.03009  19992570.300    83064124.22108
  22304377.340   119355483.30208  22304376.320    92832133.31707
  20199444.380   107826222.60809  20199446.960    83864956.02508
  22223944.280   118883131.39108  22223944.040    92464664.46607
 15 02 25 00 31 30.0000000  0 15G16G18G21G22G27G29G31R02R03R09R15R16
                                R17R18R19
  21360994.460   112252794.92909  21360990.780    87469700.32348
  21959053.920   115395714.72709  21959050.720    89918769.61947
  21577517.140   113390843.09409  21577513.540    88356578.58448
  23058111.900   121171295.90809  23058107.480    94419213.50147
  22659609.160   119077064.24608  22659608.460    92787324.00648
  24270776.200   127544124.91508  24270774.360    99385176.09346
  23641366.260   124236210.77808  23641363.580    96807421.47146
  22267464.360   118823476.73809  22267467.120    92418272.31708
  22115740.860   118387307.22808  22115741.180    92079049.46607
  21990962.740   117430508.14808  21990963.320    91334844.37004
  22331201.780   119331166.91108  22331205.940    92813142.47107
  19998437.860   106828064.91109  19998439.640    83088509.77808
  22317581.540   119426141.93708  22317580.520    92887090.03808
  20202449.260   107842262.67509  20202451.700    83877431.62008
  22213117.680   118825216.39508  22213117.380    92419619.49407
 15 02 25 00 32  0.0000000  0 15G16G18G21G22G27G29G31R02R03R09R15R16
                                R17R18R19
  21349186.200   112190742.17809  21349182.520    87421347.52548
  21950449.460   115350497.76909  21950446.200    89883535.63248
  21586811.000   113439682.20809  21586807.280    88394635.03748
  23040624.460   121079399.39209  23040620.020    94347605.90847
  22647686.200   119014408.88408  22647685.620    92738501.67048
  24284414.480   127615794.48408  24284412.900    99441022.50346
  23659035.400   124329062.43108  23659032.760    96879773.28946
  22268154.520   118827159.25209  22268157.900    92421136.49008
  22098957.940   118297467.85608  22098958.320    92009174.43707
  21976279.460   117352099.60608  21976279.960    91273859.96305
  22355305.620   119459969.84208  22355309.660    92913322.40807
  20004459.840   106860233.23708  20004461.640    83113529.58208
  22330785.700   119496801.10308  22330785.860    92942047.09808
  20205487.460   107858480.72109  20205489.700    83890045.64708
  22202322.820   118767471.10908  22202322.400    92374706.51907
 15 02 25 00 32 30.0000000  0 15G16G18G21G22G27G29G31R02R03R09R15R16
                                R17R18R19
  21337445.120   112129042.33309  21337441.420    87373269.72448
  21941920.980   115305679.87509  21941917.600    89848612.61748
  21596150.800   113488762.84209  21596147.000    88432879.68048
  23023162.020   120987634.55409  23023157.640    94276100.91247
  22635778.380   118951832.73908  22635777.740    92689741.03548
  24298060.440   127687505.02708  24298059.060    99496900.82546
  23676716.320   124421976.06608  23676713.760    96952173.38046
  22268983.420   118831582.45808  22268986.960    92424576.74508
  22082248.920   118208024.38408  22082249.280    91939607.31707
  21961712.660   117274313.13808  21961713.260    91213359.39505
  22379444.900   119588962.52308  22379448.960    93013649.91807
  20010633.480   106893211.90008  20010635.380    83139179.63308
  22343989.220   119567456.84408  22343989.700    92997001.54007
  20208558.220   107874872.58009  20208560.360    83902794.86408
  22191558.940   118709891.75908  22191558.620    92329922.60707
 15 02 25 00 33  0.0000000  0 15G16G18G21G22G27G29G31R02R03R09R15R16
                                R17R18R19
  21325771.860   112067698.85109  21325768.120    87325469.60948
  21933469.060   115261264.36009  21933465.600    89814003.13048
  21605536.440   113538084.34509  21605532.540    88471312.02548
  23005725.360   120896005.22809  23005721.040    94204701.51947
  22623885.900   118889337.21108  22623885.180    92641043.24648
  24311714.400   127759257.60208  24311713.280    99552811.87346
  23694408.680   124514949.98008  23694406.280    97024620.45247
  22269951.440   118836748.15908  22269955.420    92428594.57808
  22065615.000   118118982.46808  22065615.300    91870352.53707
  21947263.140   117197153.06408  21947263.640    91153346.00205
  22403619.200   119718142.26308  22403623.220    93114122.92807
  20016958.800   106927000.71808  20016960.760    83165459.80808
  22357192.460   119638110.45708  22357192.820    93051954.35907
  20211661.560   107891438.51009  20211663.640    83915679.48108
  22180826.180   118652478.90108  22180826.020    92285268.19907
 15 02 25 00 33 30.0000000  0 15G16G18G21G22G27G29G31R02R03R09R15R16
                                R17R18R19
  21314166.660   112006713.24509  21314162.920    87277948.36148
  21925093.860   115217252.04609  21925090.220    89779707.83947
  21614967.400   113587644.20109  21614963.440    88509930.09048
  22988314.960   120804513.61009  22988310.660    94133409.41547
  22612008.660   118826921.63608  22612007.840    92592407.73747
  24325376.200   127831051.59708  24325375.040    99608755.22346
  23712111.840   124607980.50608  23712109.600    97097111.61146
  22271058.900   118842655.90409  22271062.720    92433189.43008
  22049056.760   118030345.66208  22049056.980    91801412.83507
  21932931.380   117120622.13108  21932931.940    91093821.95605
  22427827.200   119847502.12208  22427831.320    93214736.01707
  20023435.240   106961596.70308  20023437.200    83192367.78008
  22370395.080   119708761.03108  22370396.100    93106904.78108
  20214797.240   107908176.73209  20214799.260    83928698.09608
  22170124.260   118595230.88308  22170124.000    92240741.98807
 15 02 25 00 34  0.0000000  0 15G16G18G21G22G27G29G31R02R03R09R15R16
                                R17R18R19
  21302629.840   111946087.36709  21302626.200    87230707.41948
  21916795.620   115173643.96409  21916791.840    89745727.51847
  21624443.300   113637440.22909  21624439.300    88548732.18848
  22970931.200   120713161.61909  22970926.840    94062226.10647
  22600146.540   118764585.65208  22600145.660    92543834.24548
  24339045.660   127902886.62608  24339044.580    99664730.52745
  23729825.120   124701063.97408  23729823.000    97169644.03246
  22272305.420   118849305.60809  22272308.700    92438361.44208
  22032574.840   117942117.69508  22032574.900    91732791.09307
  21918717.960   117044722.90408  21918718.420    91034789.22405
  22452068.380   119977039.01908  22452072.600    93315486.79107
  20030062.280   106996997.33508  20030064.260    83219901.59508
  22383597.060   119779407.24208  22383598.060    93161851.83107
  20217964.920   107925085.45209  20217966.900    83941849.32408
  22159452.920   118538146.50308  22159452.620    92196343.04707
 15 02 25 00 34 30.0000000  0 15G16G18G21G22G27G29G31R02R03R09R15R16
                                R17R18R19
  21291161.800   111885822.92309  21291158.240    87183748.11448
  21908574.660   115130442.06309  21908570.700    89712063.71348
  21633963.820   113687470.70709  21633959.820    88587716.97048
  22953574.440   120621951.39709  22953570.020    93991153.28647
  22588299.480   118702329.02308  22588298.600    92495322.59648
  24352723.020   127974762.45708  24352721.820    99720737.66145
  23747547.920   124794197.29408  23747545.800    97242215.29546
  22273690.560   118856697.07608  22273693.620    92444110.40707
  22016170.220   117854302.60308  22016170.240    91664490.49507
  21904623.280   116969458.21408  21904623.640    90976250.03705
  22476341.840   120106748.34208  22476346.020    93416371.70507
  20036839.540   107033200.47708  20036841.580    83248059.58708
  22396798.400   119850048.85308  22396798.680    93216795.29606
  20221164.260   107942163.25809  20221166.280    83955132.05408
  22148811.960   118481224.66508  22148811.640    92152070.51407
 15 02 25 00 35  0.0000000  0 15G16G18G21G22G27G29G31R02R03R09R15R16
                                R17R18R19
  21279762.840   111825921.40409  21279759.380    87137071.60848
  21900431.040   115087646.99009  21900427.040    89678716.90547
  21643528.360   113737732.57309  21643524.360    88626882.05848
  22936245.060   120530884.89609  22936240.500    93920192.43147
  22576467.340   118640151.00508  22576466.500    92446872.19648
  24366408.200   128046678.44808  24366406.580    99776776.10145
  23765279.460   124887376.51708  23765277.360    97314822.33046
  22275214.520   118864829.91509  22275217.040    92450435.94507
  21999843.380   117766903.99908  21999843.440    91596513.84007
  21890647.780   116894830.29908  21890648.280    90918206.10505
  22500646.420   120236624.08808  22500650.860    93517385.99707
  20043766.460   107070203.05608  20043768.600    83276839.35908
  22409998.120   119920684.37908  22409998.260    93271733.99307
  20224394.840   107959408.19309  20224396.900    83968544.76908
  22138201.060   118424463.65209  22138200.780    92107923.06407
 15 02 25 00 35 30.0000000  0 15G16G18G21G22G27G29G31R02R03R09R15R16
                                R17R18R19
  21268434.220   111766389.05409  21268430.720    87090682.77248
  21892365.900   115045264.81709  21892361.920    89645691.85547
  21653137.300   113788227.55409  21653133.280    88666228.79748
  22918944.400   120439969.12009  22918939.660    93849349.04147
  22564650.940   118578055.76908  22564650.200    92398486.32348
  24380101.780   128118638.39208  24380099.920    99832848.72546
  23783019.940   124980602.64608  23783017.820    97387465.89546
  22276878.620   118873708.29209  22276880.300    92457341.33007
  21983595.880   117679930.32008  21983595.980    91528867.67707
  21876792.880   116820846.40808  21876793.600    90860663.08705
  22524982.180   120366666.45208  22524986.660    93618529.93507
  20050843.460   107108006.78309  20050845.600    83306242.26808
  22423197.880   119991317.77308  22423197.760    93326671.07107
  20227657.260   107976823.39909  20227659.340    83982089.94808
  22127621.000   118367867.12608  22127620.620    92063903.57307
 15 02 25 00 36  0.0000000  0 15G16G18G21G22G27G29G31R02R03R09R15R16
                                R17R18R19
  21257175.660   111707224.73509  21257172.140    87044580.70948
  21884378.920   115003293.80509  21884375.080    89612987.17947
  21662789.800   113838951.59509  21662785.760    88705754.01548
  22901672.220   120349203.08609  22901667.340    93778622.31447
  22552849.720   118516040.30408  22552849.140    92350162.59048
  24393803.200   128190639.28808  24393801.280    99888953.30145
  23800768.200   125073869.52808  23800766.100    97460141.21346
  22278681.960   118883329.16009  22278683.340    92464824.22108
  21967428.020   117593382.74008  21967428.240    91461552.93207
  21863058.560   116747506.55408  21863059.420    90803620.96605
  22549347.500   120496866.72108  22549352.080    93719796.65707
  20058069.480   107146606.41209  20058071.580    83336264.19008
  22436396.620   120061945.54608  22436396.460    93381603.72907
  20230950.740   107994404.46209  20230952.860    83995764.09808
  22117070.820   118311430.73109  22117070.400    92020008.61407
 15 02 25 00 36 30.0000000  0 15G16G18G21G22G27G29G31R02R03R09R15R16
                                R17R18R19
  21245987.860   111648432.22909  21245984.260    86998768.35648
  21876470.740   114961736.92409  21876467.080    89580605.21247
  21672485.760   113889904.03309  21672481.720    88745457.19748
  22884429.280   120258591.10309  22884424.360    93708015.64247
  22541064.080   118454106.34808  22541063.560    92301902.38948
  24407512.660   128262682.79708  24407510.880    99945091.07445
  23818523.960   125167175.92508  23818521.840    97532847.29646
  22280623.780   118893694.11708  22280626.720    92472885.86708
  21951340.960   117507266.99908  21951341.300    91394574.03507
  21849445.620   116674815.23608  21849446.780    90747083.28305
  22573742.160   120627223.71908  22573746.800    93821185.26507
  20065444.420   107186001.53709  20065446.460    83366904.83008
  22449594.220   120132568.84208  22449593.900    93436532.91807
  20234275.380   108012152.01409  20234277.580    84009567.74708
  22106550.760   118255155.45109  22106550.320    91976238.97407
 15 02 25 00 37  0.0000000  0 15G16G18G21G22G27G29G31R02R03R09R15R16
                                R17R18R19
  21234871.020   111590012.88009  21234867.420    86953246.79448
  21868641.640   114920595.48509  21868638.200    89548546.96648
  21682224.480   113941081.09409  21682220.440    88785335.42548
  22867215.960   120168135.09209  22867211.220    93637530.50447
  22529293.820   118392253.15909  22529293.340    92253705.11648
  24421229.980   128334768.24508  24421228.440   100001261.56346
  23836286.500   125260517.89308  23836284.320    97605581.12946
  22282704.120   118904802.72308  22282709.460    92481525.96508
  21935335.160   117421586.52208  21935335.620    91327933.70907
  21835954.560   116602774.77508  21835955.760    90691051.81105
  22598165.040   120757731.29808  22598169.600    93922691.00207
  20072967.660   107226188.92109  20072969.640    83398161.69008
  22462790.800   120203186.72608  22462790.400    93491457.93207
  20237630.800   108030064.00509  20237633.040    84023499.29608
  22096060.440   118199039.60108  22096060.100    91932593.33207
 15 02 25 00 37 30.0000000  0 15G16G18G21G22G27G29G31R02R03R09R15R16
                                R17R18R19
  21223826.220   111531972.15909  21223822.600    86908020.26248
  21860892.500   114879873.97609  21860889.060    89516815.93547
  21692006.460   113992485.65709  21692002.380    88825390.92448
  22850033.380   120077840.71109  22850028.660    93567171.28947
  22517539.540   118330483.87509  22517539.080    92205573.21648
  24434955.860   128406898.74108  24434954.540   100057467.09546
  23854055.820   125353895.48308  23854053.580    97678342.68346
  22284925.180   118916657.85209  22284931.720    92490746.60008
  21919412.120   117336348.85908  21919412.580    91261637.78107
  21822586.640   116531391.16708  21822587.860    90635531.23405
  22622615.760   120888387.76008  22622620.340    94024312.51407
  20080639.320   107267169.24509  20080641.240    83430035.24608
  22475986.960   120273801.73908  22475986.900    93546380.72007
  20241017.400   108048142.60209  20241019.740    84037560.41908
  22085600.400   118143085.56309  22085600.140    91889073.54907
 15 02 25 00 38  0.0000000  0 15G16G18G21G22G27G29G31R02R03R09R15R16
                                R17R18R19
  21212853.020   111474307.63209  21212849.420    86863086.85948
  21853222.880   114839569.74609  21853219.360    89485410.04947
  21701830.500   114044111.34809  21701826.400    88865618.73148
  22832881.280   119987706.27409  22832876.560    93496936.71847
  22505800.460   118268794.36409  22505800.000    92157503.48248
  24448689.700   128479070.06308  24448688.360   100113704.46246
  23871830.540   125447301.37108  23871828.260    97751126.32046
  22287286.400   118929255.29909  22287292.100    92500544.62208
  21903571.720   117251553.54808  21903572.100    91195685.89907
  21809341.600   116460663.11208  21809342.800    90580520.54305
  22647092.880   121019185.38408  22647097.460    94126043.82507
  20088458.140   107308935.74309  20088460.040    83462520.28308
  22489181.300   120344409.30807  22489182.560    93601297.64507
  20244434.240   108066382.42309  20244436.700    84051746.93708
  22075169.640   118087288.21509  22075169.400    91845675.63907
 15 02 25 00 38 30.0000000  0 15G16G18G21G22G27G29G31R02R03R09R15R16
                                R17R18R19
  21201952.440   111417024.49809  21201948.800    86818450.65248
  21845633.460   114799686.93509  21845629.860    89454332.54548
  21711696.660   114095958.61309  21711692.600    88906019.19648
  22815760.700   119897737.48409  22815756.040    93426831.23547
  22494077.180   118207187.81809  22494076.660    92109498.40348
  24462431.940   128551285.18108  24462430.280   100169975.94646
  23889610.660   125540735.86208  23889608.460    97823932.19646
  22289787.660   118942597.76509  22289791.260    92510922.10007
  21887815.440   117167208.22008  21887815.600    91130083.99207
  21796220.480   116390596.58808  21796221.660    90526024.35105
  22671595.980   121150121.82408  22671600.580    94227883.08906
  20096424.220   107351489.09609  20096426.080    83495617.31108
  22502374.800   120415012.75908  22502375.180    93656211.46807
  20247881.740   108084785.46209  20247884.300    84066060.41308
  22064768.580   118031649.74509  22064768.300    91802401.29207
 15 02 25 00 39  0.0000000  0 15G16G18G21G22G27G29G31R02R03R09R15R16
                                R17R18R19
  21191124.660   111360123.72809  21191120.940    86774112.38848
  21838124.420   114760226.49809  21838120.880    89423584.16448
  21721604.580   114148025.36609  21721600.600    88946590.68748
  22798671.940   119807935.77509  22798667.180    93356855.92147
  22482369.420   118145663.09508  22482368.840    92061557.07148
  24476182.300   128623542.96208  24476180.200   100226280.74145
  23907395.420   125634194.63908  23907393.440    97896757.00646
  22292428.080   118956684.00608  22292429.520    92521878.07207
  21872143.760   117083315.70508  21872143.780    91064834.28507
  21783223.600   116321193.29108  21783224.620    90472044.00905
  22696124.080   121281191.88808  22696128.900    94329826.25206
  20104536.920   107394825.77208  20104538.800    83529323.59808
  22515567.900   120485610.01908  22515567.880    93711120.49807
  20251359.440   108103349.34109  20251361.980    84080498.98908
  22054396.840   117976168.03909  22054396.540    91759248.87507
 15 02 25 00 39 30.0000000  0 15G16G18G21G22G27G29G31R02R03R09R15R16
                                R17R18R19
  21180370.500   111303609.94409  21180366.720    86730075.67148
  21830696.580   114721192.67509  21830692.960    89393168.21147
  21731554.280   114200311.82309  21731550.400    88987333.38348
  22781615.960   119718306.32409  22781611.200    93287014.83347
  22470677.640   118084222.92009  22470677.040    92013681.61648
  24489941.260   128695845.94908  24489938.880   100282620.73545
  23925184.720   125727677.22208  23925182.940    97969600.34846
  22295207.600   118971516.65808  22295209.040    92533414.56808
  21856557.880   116999883.07408  21856558.080    90999942.27008
  21770351.920   116252458.60208  21770352.900    90418583.71405
  22720676.760   121412393.53908  22720681.660    94431871.77606
  20112796.200   107438945.80908  20112798.160    83563639.16308
  22528759.520   120556203.49108  22528761.260    93766026.38208
  20254867.620   108122075.62709  20254870.080    84095063.86808
  22044054.840   117920845.02909  22044054.440    91716219.86707
 15 02 25 00 40  0.0000000  0 15G16G18G21G22G27G29G31R02R03R09R15R16
                                R17R18R19
  21169689.760   111247482.06609  21169685.940    86686339.66748
  21823349.580   114682583.77509  21823345.900    89363083.37248
  21741544.800   114252812.69609  21741540.940    89028243.15048
  22764592.640   119628848.27609  22764587.900    93217307.31047
  22459001.320   118022864.21209  22459000.800    91965869.64848
  24503708.220   128768191.14508  24503705.720   100338993.58646
  23942977.360   125821177.43808  23942975.680    98042457.43846
  22298126.180   118987092.12608  22298128.380    92545528.82908
  21841058.020   116916910.89608  21841058.260    90935408.38108
  21757605.440   116184392.30108  21757606.140    90365643.26405
  22745252.960   121543720.56008  22745257.960    94534014.79906
  20121201.020   107483843.28108  20121203.060    83598559.40508
  22541950.360   120626789.66608  22541952.080    93820926.70906
  20258405.380   108140960.19009  20258407.880    84109751.86808
  22033741.760   117865676.83409  22033741.120    91673311.29407
 15 02 25 00 40 30.0000000  0 15G16G18G21G22G27G29G31R02R03R09R15R16
                                R17R18R19
  21159083.160   111191743.82909  21159079.280    86642907.26948
  21816083.900   114644402.21909  21816080.120    89333331.50848
  21751576.160   114305527.90709  21751572.280    89069319.92948
  22747602.640   119539565.48809  22747597.900    93147736.36647
  22447340.880   117961588.49109  22447340.360    91918122.33348
  24517483.400   128840579.68108  24517481.140   100395400.19146
  23960773.040   125914693.56608  23960771.320    98115326.93146
  22301184.420   119003411.53209  22301187.020    92558221.72307
  21825645.060   116834404.84008  21825645.500    90871237.03307
  21744984.860   116116998.48308  21744985.300    90313225.85205
  22769851.740   121675168.29008  22769856.900    94636251.67706
  20129751.140   107529516.86209  20129753.300    83634083.29108
  22555140.160   120697369.51608  22555141.020    93875822.14107
  20261972.880   108160003.32309  20261975.380    84124563.18108
  22023457.600   117810663.64409  22023456.840    91630523.27207
 15 02 25 00 41  0.0000000  0 15G16G18G21G22G27G29G31R02R03R09R15R16
                                R17R18R19
  21148551.600   111136400.07009  21148547.660    86599782.26548
  21808900.440   114606652.87909  21808896.600    89303916.44848
  21761648.540   114358458.61009  21761644.660    89110564.64048
  22730647.160   119450464.24909  22730642.480    93078306.86047
  22435696.980   117900398.99209  22435696.440    91870442.21048
  24531267.280   128913014.63308  24531265.340   100451842.98246
  23978571.860   126008225.87208  23978570.280    98188208.99946
  22304382.740   119020477.52109  22304385.480    92571495.26808
  21810320.680   116752372.20408  21810320.940    90807433.87207
  21732491.260   116050283.04108  21732491.620    90261336.07405
  22794473.060   121806736.26907  22794478.340    94738582.10306
  20138446.760   107575967.33208  20138448.980    83670211.42408
  22568329.100   120767946.27608  22568330.020    93930715.17508
  20265570.560   108179207.10509  20265572.900    84139499.44308
  22013202.920   117755807.93808  22013202.240    91587857.74107
 15 02 25 00 41 30.0000000  0 15G16G18G21G22G27G29G31R02R03R09R15R16
                                R17R18R19
  21138094.560   111081448.19109  21138090.600    86556962.61548
  21801798.540   114569332.41609  21801794.720    89274835.57848
  21771760.640   114411597.77809  21771756.760    89151971.77148
  22713725.720   119361541.97309  22713721.160    93009016.83847
  22424068.660   117839291.11409  22424068.040    91822825.69248
  24545059.140   128985491.79808  24545057.400   100508318.67745
  23996372.320   126101766.74608  23996370.920    98261097.75146
  22307719.940   119038285.26708  22307722.500    92585345.78107
  21795084.540   116670812.55308  21795084.980    90743998.62108
  21720124.160   115984244.00208  21720124.640    90209972.36905
  22819115.200   121938415.24008  22819120.460    94840998.83706
  20147286.420   107623187.16908  20147288.660    83706937.94108
  22581516.920   120838514.80008  22581518.000    93985601.74207
  20269197.160   108198565.70209  20269199.440    84154556.13008
  22002976.540   117701104.04309  22002975.940    91545310.28807
 15 02 25 00 42  0.0000000  0 15G16G18G21G22G27G29G31R02R03R09R15R16
                                R17R18R19
  21127713.160   111026893.54509  21127709.180    86514452.50548
  21794779.080   114532445.08109  21794775.280    89246092.20448
  21781912.700   114464947.20609  21781908.900    89193542.75448
  22696839.460   119272804.31509  22696835.040    92939870.65447
  22412456.440   117778268.11009  22412455.800    91775275.31248
  24558859.560   129058014.07308  24558857.840   100564829.55745
  24014174.500   126195316.40708  24014173.040    98333993.34046
  22311196.440   119056837.60709  22311198.080    92599775.39607
  21779938.160   116589732.82508  21779938.700    90680936.63508
  21707884.880   115918887.33808  21707885.520    90159139.38705
  22843778.000   122070204.64307  22843783.400    94943501.42607
  20156270.200   107671176.61609  20156272.420    83744263.05208
  22594703.660   120909078.00007  22594702.820    94040484.31606
  20272853.020   108218081.30509  20272855.380    84169734.93208
  21992778.980   117646554.43608  21992778.440    91502882.84307
 15 02 25 00 42 30.0000000  0 14G16G18G21G22G27G31R02R03R09R15R16R17
                                R18R19
  21117415.180   110972777.28709  21117411.200    86472283.99248
  21787849.960   114496032.45909  21787846.180    89217718.74947
  21792111.920   114518544.42409  21792108.160    89235306.81448
  22679996.340   119184293.14309  22679991.920    92870900.95647
  22400867.760   117717369.37009  22400867.120    91727821.76848
  24031985.160   126288910.79308  24031983.820    98406923.74846
  22314820.160   119076173.65509  22314821.660    92614814.55407
  21764889.640   116509177.18708  21764890.140    90618282.27508
  21695781.300   115854255.44608  21695782.040    90108870.14605
  22868467.880   122202138.77308  22868473.260    95046116.58107
  20165405.000   107719972.92308  20165407.200    83782215.72208
  22607896.340   120979675.65808  22607895.440    94095393.49407
  20276545.480   108237792.83609  20276547.940    84185066.11808
  21982617.560   117592198.14008  21982617.080    91460605.75107
 15 02 25 00 43  0.0000000  0 14G16G18G21G22G27G31R02R03R09R15R16R17
                                R18R19
  21107185.520   110919020.02909  21107181.560    86430395.22048
  21780995.820   114460013.87909  21780992.080    89189652.32748
  21802342.360   114572305.61509  21802338.640    89277198.64948
  22663181.400   119095930.03409  22663177.000    92802046.63747
  22389287.220   117656513.55708  22389286.620    91680401.65748
  24049788.260   126382465.54308  24049786.960    98479823.28346
  22318575.280   119096210.30809  22318576.980    92630398.60308
  21749924.340   116429066.89008  21749924.880    90555974.27608
  21683798.540   115790268.19808  21683799.140    90059102.28205
  22893168.720   122334131.44507  22893174.160    95148777.25307
  20174674.800   107769490.58409  20174677.000    83820729.41908
  22621080.380   121050224.22008  22621079.940    94150264.57208
  20280258.980   108257616.38909  20280261.500    84200484.42908
  21972476.640   117537951.28309  21972476.220    91418413.76607
 15 02 25 00 43 30.0000000  0 14G16G18G21G22G27G31R02R03R09R15R16R17
                                R18R19
  21097033.300   110865669.66309  21097029.440    86388823.51348
  21774225.640   114424436.55509  21774221.900    89161929.75248
  21812612.400   114626274.90809  21812608.680    89319252.65248
  22646403.840   119007763.15909  22646399.360    92733345.21947
  22377723.560   117595746.71808  22377723.000    91633050.89048
  24067591.920   126476023.54108  24067590.680    98552725.36146
  22322470.240   119116993.94409  22322472.260    92646563.63107
  21735051.680   116349452.87708  21735052.400    90494052.30208
  21671945.700   115726974.86208  21671946.340    90009874.15705
  22917888.320   122466224.43207  22917893.780    95251515.90006
  20184087.800   107819773.16209  20184090.000    83859838.08108
  22634263.620   121120770.92407  22634264.040    94205134.15207
  20284002.120   108277597.79109  20284004.600    84216025.53208
  21962364.820   117483859.99109  21962364.400    91376342.78307
 15 02 25 00 44  0.0000000  0 14G16G18G21G22G27G31R02R03R09R15R16R17
                                R18R19
  21086957.540   110812721.03009  21086953.760    86347564.83748
  21767538.340   114389294.85109  21767534.620    89134546.61448
  21822920.420   114680443.66409  21822916.620    89361462.07048
  22629662.700   118919787.73009  22629658.220    92664792.98447
  22366175.480   117535061.76108  22366174.940    91585763.90548
  24085394.260   126569574.62308  24085393.080    98625622.01146
  22326503.800   119138516.29609  22326504.860    92663303.27707
  21720271.120   116270331.49408  21720272.020    90432513.47808
  21660222.020   115664370.83008  21660222.640    89961182.13205
  22942624.580   122598406.19307  22942630.220    95354323.63406
  20193642.080   107870810.48808  20193644.300    83899533.76408
  22647445.380   121191307.69208  22647444.180    94259996.14706
  20287773.320   108297728.60909  20287775.760    84231682.81808
  21952280.600   117429915.92709  21952280.060    91334386.29807
 15 02 25 00 44 30.0000000  0 14G16G18G21G22G27G31R02R03R09R15R16R17
                                R18R19
  21076959.280   110760179.74209  21076955.560    86306623.57248
  21760934.840   114354593.62409  21760931.200    89107506.71348
  21833266.780   114734813.72509  21833262.800    89403828.34348
  22612959.100   118832009.73009  22612954.580    92596394.58747
  22354643.760   117474462.58109  22354643.300    91538543.77348
  24103195.440   126663119.67708  24103194.340    98698513.95446
  22330676.640   119160780.56309  22330677.200    92680619.97308
  21705584.140   116191710.57108  21705585.100    90371363.88108
  21648628.640   115602462.22608  21648629.260    89913030.99805
  22967377.300   122730676.21707  22967382.920    95457199.98206
  20203337.780   107922603.21708  20203339.980    83939816.97108
  22660625.580   121261838.03808  22660625.320    94314852.94107
  20291573.060   108318011.65509  20291575.480    84247458.51408
  21942224.420   117376122.00908  21942223.800    91292546.59407
 15 02 25 00 45  0.0000000  0 15G16G18G19G21G22G27G31R02R03R09R15R16
                                R17R18R19
  21067039.120   110708048.80509  21067035.400    86266002.06548
  21754415.680   114320335.42709  21754412.100    89080812.02447
  24513041.940   128816901.42405  24513039.560   100376797.19443
  21843651.060   114789383.35309  21843646.980    89446350.12748
  22596293.700   118744432.88709  22596289.340    92528152.94147
  22343128.640   117413950.14609  22343128.240    91491391.23148
  24120995.120   126756656.39508  24120994.140    98771399.38946
  22334988.480   119183787.11109  22334989.380    92698513.93408
  21690991.600   116113595.28908  21690992.560    90310607.58208
  21637166.140   115541252.68308  21637166.860    89865423.57805
  22992145.740   122863030.46207  22992151.500    95560141.81607
  20213174.560   107975149.43109  20213176.700    83980686.23408
  22673804.580   121332362.72808  22673804.600    94369705.45906
  20295401.360   108338446.82209  20295403.740    84263352.53408
  21932196.260   117322478.13608  21932195.660    91250823.59907
 15 02 25 00 45 30.0000000  0 15G16G18G19G21G22G27G31R02R03R09R15R16
                                R17R18R19
  21057191.580   110656299.69109  21057187.860    86225678.08448
  21747975.320   114286491.03109  21747971.760    89054439.78248
  24498291.080   128739385.68605  24498289.880   100316385.33443
  21854067.240   114844120.81709  21854063.220    89489002.69248
  22579661.320   118657029.67409  22579657.020    92460046.58647
  22331624.400   117353494.38109  22331623.840    91444282.85148
  24138786.860   126850151.59508  24138786.000    98844252.46646
  22339433.220   119207504.44909  22339434.180    92716960.74607
  21676488.520   116035958.31508  21676489.120    90250223.27508
  21625829.140   115480713.70908  21625829.900    89818337.70705
  23016923.580   122995434.41207  23016929.480    95663122.26606
  20223146.000   108028415.10908  20223148.140    84022115.07808
  22686977.140   121402850.84708  22686976.800    94424529.57907
  20299252.100   108359002.36909  20299254.520    84279340.17908
  21922190.280   117268952.77008  21922189.600    91209192.76207
 15 02 25 00 46  0.0000000  0 15G16G18G19G21G22G27G31R02R03R09R15R16
                                R17R18R19
  21047429.700   110605000.73109  21047425.960    86185704.86848
  21741626.520   114253127.70409  21741622.920    89028442.39948
  24483555.220   128661948.77905  24483552.740   100256044.98543
  21864527.580   114899090.42709  21864523.620    89531836.15248
  22563074.940   118569868.26009  22563070.720    92392128.63847
  22320143.540   117293161.53409  22320142.900    91397270.24948
  24156582.820   126943668.44808  24156582.000    98917122.42246
  22344023.440   119231999.02309  22344023.640    92736012.11507
  21662088.140   115958871.20708  21662088.680    90190266.68108
  21614630.660   115420915.03808  21614631.560    89771827.64205
  23041722.460   123127950.57708  23041728.460    95766190.00607
  20233264.140   108082464.50109  20233266.320    84064153.47708
  22700155.000   121473369.63708  22700154.860    94479377.46507
  20303137.740   108379744.45909  20303140.180    84295472.92008
  21912218.920   117215612.62608  21912218.160    91167706.01507
 15 02 25 00 46 30.0000000  0 15G16G18G19G21G22G27G31R02R03R09R15R16
                                R17R18R19
  21037744.060   110554102.59109  21037740.300    86146043.98048
  21735359.760   114220195.57109  21735356.240    89002781.00748
  24468824.740   128584539.24805  24468821.300   100195725.86044
  21875021.980   114954239.19209  21875018.060    89574809.21148
  22546525.320   118482900.23009  22546521.240    92324361.38047
  22308676.320   117232900.52709  22308675.620    91350313.62048
  24174372.540   127037152.57608  24174371.700    98989966.85346
  22348749.360   119257217.76809  22348749.640    92755626.71507
  21647781.420   115882285.96008  21647781.840    90130700.38708
  21603561.600   115361806.99608  21603562.440    89725854.69705
  23066531.740   123260522.42908  23066537.860    95869301.03906
  20243518.680   108137242.51708  20243520.900    84106758.58008
  22713329.100   121543866.34608  22713329.980    94534208.13607
  20307048.320   108400620.14509  20307050.900    84311709.55708
  21902272.160   117162404.18408  21902271.500    91126321.67307
 15 02 25 00 47  0.0000000  0 15G16G18G19G21G22G27G31R02R03R09R15R16
                                R17R18R19
  21028138.820   110503626.78309  21028135.000    86106712.17948
  21729179.040   114187715.42109  21729175.540    88977471.80748
  24454103.280   128507176.66705  24454099.540   100135443.40644
  21885553.900   115009584.77109  21885549.960    89617935.62848
  22530016.680   118396147.71009  22530012.640    92256762.04347
  22297226.440   117172731.03009  22297225.740    91303428.31448
  24192159.180   127130620.82308  24192158.480    99062798.89746
  22353614.080   119283179.92309  22353615.220    92775819.50208
  21633572.940   115806226.10508  21633573.300    90071542.73408
  21592626.040   115303411.59808  21592626.780    89680436.05405
  23091354.500   123393166.45207  23091360.660    95972468.22607
  20253912.780   108192765.74909  20253915.020    84149943.28708
  22726502.920   121614361.06108  22726503.200    94589037.41506
  20310987.560   108421648.27909  20310990.140    84328064.76308
  21892353.640   117109346.66909  21892353.120    91085054.72808
 15 02 25 00 47 30.0000000  0 15G16G18G19G21G22G27G31R02R03R09R15R16
                                R17R18R19
  21018614.040   110453573.60509  21018610.160    86067709.70348
  21723084.320   114155686.80509  21723080.780    88952514.45248
  24439390.440   128429859.05506  24439386.700   100075195.89744
  21896122.580   115065123.14109  21896118.520    89661212.27748
  22513549.220   118309611.14709  22513545.220    92189330.99448
  22285793.660   117112651.38109  22285793.000    91256613.00848
  24209941.880   127224068.01508  24209941.080    99135614.52246
  22358617.640   119309882.67909  22358619.960    92796588.26108
  21619462.780   115730693.64308  21619463.120    90012795.30108
  21581824.120   115245729.59508  21581824.900    89635572.28705
  23116189.520   123525875.66307  23116195.840    96075686.06306
  20264445.480   108249029.29408  20264447.780    84193703.81608
  22739675.620   121684851.50608  22739675.840    94643863.25807
  20314954.940   108442826.24709  20314957.500    84344536.51208
  21882462.920   117056437.51909  21882462.320    91043903.19108
 15 02 25 00 48  0.0000000  0 15G16G18G19G21G22G27G31R02R03R09R15R16
                                R17R18R19
  21009170.280   110403945.85909  21009166.340    86029038.72648
  21717075.920   114124111.73609  21717072.300    88927910.51048
  24424686.140   128352587.06906  24424682.520   100014983.98743
  21906727.900   115120854.06109  21906723.720    89704638.97048
  22497123.640   118223294.22009  22497119.540    92122071.07848
  22274378.260   117052662.75209  22274377.520    91209868.63448
  24227720.260   127317492.41208  24227719.500    99208412.37246
  22363760.400   119337326.13109  22363762.780    92817933.20307
  21605451.960   115655693.55208  21605452.420    89954461.92808
  21571156.340   115188764.19408  21571157.140    89591265.86405
  23141036.080   123658646.76007  23141042.500    96178952.04106
  20275116.340   108306030.63409  20275118.640    84238038.18108
  22752847.720   121755338.49908  22752848.320    94698686.43307
  20318950.380   108464153.88609  20318952.800    84361124.67308
  21872599.840   117003676.59208  21872599.240    91002866.92807
 15 02 25 00 48 30.0000000  0 15G16G18G19G21G22G27G31R02R03R09R15R16
                                R17R18R19
  20999806.740   110354739.70409  20999802.760    85990696.25948
  21711152.980   114092985.80809  21711149.260    88903656.54548
  24409989.420   128275354.92706  24409985.140    99954803.10344
  21917368.360   115176769.71709  21917364.060    89748209.60348
  22480739.340   118137193.72509  22480735.020    92054979.82148
  22262979.120   116992759.83309  22262978.340    91163191.04948
  24245492.720   127410885.81108  24245492.200    99281186.04346
  22369040.800   119365503.84809  22369042.580    92839849.24007
  21591540.500   115581224.24908  21591540.760    89896541.35308
  21560622.100   115132512.14908  21560623.000    89547514.25205
  23165892.500   123791470.63108  23165899.000    96282259.03506
  20285923.680   108363761.01609  20285925.960    84282939.57108
  22766017.980   121825816.47307  22766018.860    94753502.59806
  20322972.640   108485624.79909  20322975.000    84377824.26408
  21862763.220   116951057.69608  21862762.580    90961941.11107
 15 02 25 00 49  0.0000000  0 15G16G18G19G21G22G27G31R02R03R09R15R16
                                R17R18R19
  20990525.240   110305965.05609  20990521.320    85952690.04248
  21705317.160   114062318.28109  21705313.500    88879759.77848
  24395301.680   128198170.55305  24395297.640    99894659.46144
  21928045.060   115232875.93109  21928040.700    89791928.73448
  22464398.260   118051320.08409  22464393.740    91988065.31348
  22251597.760   116932950.49609  22251596.980    91116586.38748
  24263260.200   127504252.81508  24263259.600    99353939.13045
  22374459.900   119394422.57608  22374461.580    92862341.57507
  21577730.260   115507297.03908  21577730.760    89839042.46208
  21550223.340   115076983.55108  21550224.300    89504325.34305
  23190759.420   123924350.28207  23190766.040    96385609.42206
  20296868.360   108422225.10509  20296870.620    84328411.64208
  22779187.900   121896293.04208  22779189.060    94808317.68007
  20327023.040   108507245.94309  20327025.320    84394640.71008
  21852954.440   116898587.70608  21852953.700    90921131.13407
 15 02 25 00 49 30.0000000  0 15G16G18G19G21G22G27G31R02R03R09R15R16
                                R17R18R19
  20981325.120   110257618.30109  20981321.320    85915017.24848
  21699567.660   114032104.69809  21699563.980    88856216.73548
  24380621.740   128121028.13805  24380617.820    99834548.54444
  21938756.500   115289164.89409  21938752.120    89835790.25648
  22448099.740   117965670.21909  22448095.040    91921325.18647
  22240233.140   116873229.43509  22240232.440    91070050.50948
  24281020.940   127597584.73508  24281020.560    99426664.86646
  22380016.760   119424075.70209  22380019.300    92885405.11808
  21564021.120   115433910.64208  21564021.340    89781964.15108
  21539959.400   115022174.86008  21539960.280    89461696.36705
  23215634.940   124057275.48307  23215641.600    96488995.21506
  20307948.620   108481413.64309  20307950.860    84374447.15308
  22792356.780   121966762.36307  22792358.140    94863127.17107
  20331100.440   108529010.63109  20331102.680    84411568.80108
  21843172.240   116846260.20108  21843171.620    90880431.96907
 15 02 25 00 50  0.0000000  0 15G16G18G19G21G22G27G31R02R03R09R15R16
                                R17R18R19
  20972206.760   110209701.77409  20972203.140    85877679.69848
  21693904.760   114002346.53409  21693901.080    88833028.56148
  24365949.940   128043928.14106  24365946.120    99774470.67644
  21949502.740   115345636.60609  21949498.320    89879794.18348
  22431844.380   117880247.22909  22431839.480    91854761.85247
  22228885.520   116813597.43109  22228884.840    91023584.01748
  24298774.620   127690879.28508  24298774.460    99499361.47546
  22385711.060   119454462.53008  22385713.700    92909039.31807
  21550413.680   115361069.32008  21550413.760    89725309.82208
  21529830.860   114968088.98108  21529831.720    89419629.56205
  23240518.280   124190242.26607  23240524.940    96592413.28806
  20319164.020   108541324.08609  20319166.200    84421044.14908
  22805524.220   122037225.25408  22805526.080    94917931.51306
  20335204.720   108550918.81009  20335206.940    84428608.48408
  21833416.680   116794074.69408  21833416.100    90839843.24707
 15 02 25 00 50 30.0000000  0 15G16G18G19G21G22G27G31R02R03R09R15R16
                                R17R18R19
  20963170.240   110162215.40209  20963166.760    85840677.34148
  21688328.340   113973042.92709  21688324.720    88810194.60248
  24351286.120   127966868.63206  24351282.360    99714424.32943
  21960282.900   115402286.69209  21960278.460    89923937.10548
  22415632.200   117795051.57909  22415627.340    91788375.66147
  22217554.560   116754052.69509  22217553.840    90977185.52048
  24316520.260   127784131.71008  24316520.040    99572025.25046
  22391542.160   119485580.43309  22391545.120    92933242.16207
  21536908.340   115288774.81208  21536908.340    89669080.78108
  21519837.680   114914726.12908  21519838.480    89378125.13405
  23265408.380   124323245.06007  23265414.960    96695859.39206
  20330513.520   108601951.00309  20330515.700    84468198.40208
  22818690.120   122107679.22508  22818691.480    94972729.03107
  20339335.280   108572967.44509  20339337.480    84445757.42808
  21823687.260   116742028.52808  21823686.640    90799362.90907
 15 02 25 00 51  0.0000000  0 15G16G18G19G21G22G27G31R02R03R09R15R16
                                R17R18R19
  20954216.840   110115165.52709  20954213.460    85804015.10548
  21682839.560   113944199.52109  21682835.920    88787719.22548
  24336630.700   127889853.54406  24336626.740    99654412.65044
  21971097.460   115459117.51009  21971092.960    89968220.84748
  22399464.580   117710090.22609  22399459.700    91722172.04847
  22206241.060   116694599.81509  22206240.320    90930858.61248
  24334258.160   127877343.39308  24334258.060    99644657.23145
  22397511.140   119517432.28109  22397514.140    92958015.85308
  21523506.520   115217035.15308  21523506.780    89613283.30208
  21509981.080   114862092.58908  21509981.840    89337187.95105
  23290305.160   124456283.71507  23290311.860    96799333.33106
  20341997.280   108663295.30009  20341999.420    84515910.61808
  22831855.660   122178128.61507  22831856.340    95027523.03106
  20343492.760   108595160.23609  20343494.960    84463018.47408
  21813984.540   116690125.31308  21813983.940    90758993.76208
 15 02 25 00 51 30.0000000  0 15G16G18G19G21G22G27G31R02R03R09R15R16
                                R17R18R19
  20945347.040   110068554.70009  20945343.740    85767694.97048
  21677438.660   113915817.96309  21677435.020    88765603.73148
  24321983.820   127812883.85406  24321979.640    99594436.25244
  21981946.060   115516127.44809  21981941.580    90012644.16948
  22383342.100   117625366.18709  22383337.220    91656153.34547
  22194945.180   116635239.67809  22194944.400    90884603.96448
  24351987.960   127970512.06608  24351987.900    99717255.68545
  22403617.600   119550017.76908  22403621.240    92983360.09507
  21510209.280   115145854.75708  21510209.400    89557920.77408
  21500261.640   114810191.33308  21500262.380    89296820.29305
  23315208.020   124589354.83307  23315214.760    96902832.51606
  20353614.840   108725354.27308  20353616.960    84564178.68808
  22845020.020   122248573.95808  22845021.080    95082313.75007
  20347677.040   108617496.80709  20347679.360    84480391.35508
  21804308.460   116638364.86308  21804307.900    90718735.65508
 15 02 25 00 52  0.0000000  0 16G16G18G19G21G22G27G31R02R03R04R09R15
                                R16R17R18R19
  20936560.620   110022381.86409  20936557.320    85731716.14148
  21672125.340   113887896.36709  21672121.680    88743846.66448
  24307345.000   127735956.22007  24307340.540    99534492.67044
  21992827.840   115573312.20809  21992823.460    90057203.72748
  22367264.680   117540879.13209  22367259.900    91590319.33548
  22183666.300   116575969.59409  22183665.640    90838419.51348
  24369708.520   128063631.94908  24369708.400    99789816.13345
  22409860.520   119583332.58709  22409863.620    93009271.62607
  21497016.860   115075234.83608  21497017.000    89502994.19208
  23567901.640   126205048.99408  23567905.780    98159490.79106
  21490679.200   114759021.45608  21490679.900    89257021.50805
  23340115.700   124722451.17407  23340122.440    97006351.29406
  20365364.960   108788121.51608  20365367.080    84612997.64008
  22858182.940   122319012.47207  22858183.780    95137099.21506
  20351887.540   108639973.51909  20351889.980    84497873.24808
  21794658.380   116586743.30608  21794657.800    90678585.57408
 15 02 25 00 52 30.0000000  0 16G16G18G19G21G22G27G31R02R03R04R09R15
                                R16R17R18R19
  20927857.460   109976646.56309  20927854.140    85696078.24148
  21666899.380   113860433.60209  21666895.680    88722447.12148
  24292713.880   127659068.24307  24292709.340    99474579.97144
  22003742.120   115630667.95409  22003737.940    90101896.51548
  22351232.340   117456629.21109  22351227.540    91524670.08347
  22172404.160   116516787.44709  22172403.680    90792303.57448
  24387418.760   128156697.86008  24387418.760    99862334.48445
  22416239.540   119617373.16508  22416242.200    93035747.65407
  21483929.420   115005176.50208  21483929.440    89448504.40308
  23544838.540   126081548.68307  23544842.900    98063435.46306
  21481233.660   114708582.50108  21481234.360    89217791.20505
  23365026.800   124855565.91107  23365033.800    97109884.32706
  20377246.580   108851591.16108  20377248.780    84662362.91508
  22871344.420   122389441.44707  22871345.720    95191877.27207
  20356123.740   108662587.24009  20356126.200    84515461.70608
  21785033.640   116535257.42808  21785032.980    90638541.00908
 15 02 25 00 53  0.0000000  0 16G16G18G19G21G22G27G31R02R03R04R09R15
                                R16R17R18R19
  20919239.580   109931359.46609  20919236.260    85660789.58648
  21661762.620   113833439.51509  21661758.880    88701412.77648
  24278091.800   127582228.48907  24278087.200    99414704.87944
  22014690.260   115688201.54809  22014686.260    90146727.87848
  22335247.280   117372627.74509  22335242.560    91459214.41748
  22161160.580   116457702.30109  22161160.160    90746263.21648
  24405119.880   128249715.57208  24405119.820    99934815.29045
  22422756.080   119652147.25308  22422759.220    93062794.16408
  21470949.180   114935692.01208  21470949.060    89394460.92808
  23521768.020   125958009.38007  23521772.560    97967349.78806
  21471926.940   114658885.41508  21471927.720    89179137.91405
  23389942.440   124988704.73107  23389949.340    97213436.11106
  20389260.660   108915768.40109  20389262.900    84712278.53608
  22884505.740   122459869.88208  22884506.920    95246654.98507
  20360387.180   108685345.97009  20360389.640    84533162.92208
  21775435.760   116483915.39209  21775435.060    90598608.31807
 15 02 25 00 53 30.0000000  0 16G16G18G19G21G22G27G31R02R03R04R09R15
                                R16R17R18R19
  20910706.540   109886518.20409  20910703.300    85625848.34148
  21656714.440   113806910.81109  21656710.680    88680741.06248
  24263478.060   127505433.06107  24263473.460    99354864.30844
  22025671.140   115745906.89509  22025667.240    90191693.06948
  22319309.160   117288872.87409  22319304.500    91393950.90648
  22149934.840   116398710.24209  22149934.360    90700295.38248
  24422810.500   128342678.04308  24422810.460   100007253.00845
  22429408.880   119687648.97808  22429412.480    93090406.61707
  21458076.140   114866781.45208  21458076.100    89340863.83208
  23498690.140   125834430.87607  23498695.080    97871233.68106
  21462758.720   114609927.88808  21462759.520    89141059.82305
  23414860.740   125121857.77108  23414867.700    97316998.87206
  20401405.820   108980645.52208  20401408.020    84762738.49408
  22897665.720   122530293.50908  22897668.100    95301428.73207
  20364676.940   108708244.78109  20364679.380    84550973.08908
  21765863.900   116432712.22408  21765863.080    90558783.62607
 15 02 25 00 54  0.0000000  0 16G16G18G19G21G22G27G31R02R03R04R09R15
                                R16R17R18R19
  20902258.580   109842124.22909  20902255.420    85591255.63348
  21651754.880   113780848.19209  21651751.180    88660432.53648
  24248872.520   127428681.45006  24248868.140    99295057.90545
  22036684.380   115803782.07509  22036680.560    90236790.60748
  22303418.400   117205367.00509  22303413.820    91328881.42748
  22138726.840   116339811.17709  22138726.260    90654400.01548
  24440489.920   128435582.00108  24440490.080   100079645.13845
  22436197.880   119723876.95408  22436201.680    93118583.90907
  21445310.880   114798447.70008  21445310.880    89287715.38908
  23475605.720   125710816.60608  23475610.740    97775089.63506
  21453729.340   114561711.51908  21453730.340    89103558.20905
  23439781.100   125255021.56307  23439787.920    97420570.03606
  20413681.240   109046218.48708  20413683.400    84813739.68808
  22910824.960   122600711.85707  22910827.000    95356198.56506
  20368992.700   108731282.44409  20368995.080    84568891.26908
  21756317.680   116381646.45908  21756316.860    90519065.81507
 15 02 25 00 54 30.0000000  0 16G16G18G19G21G22G27G31R02R03R04R09R15
                                R16R17R18R19
  20893896.080   109798179.14709  20893893.020    85557012.71948
  21646884.200   113755252.66909  21646880.520    88640487.98648
  24234275.180   127351973.11906  24234271.160    99235285.19045
  22047729.500   115861824.78309  22047725.780    90282018.69148
  22287575.420   117122112.21109  22287570.920    91264007.60248
  22127536.540   116281005.27809  22127535.800    90608577.25548
  24458157.780   128528424.77508  24458158.180   100151989.57145
  22443122.920   119760829.57908  22443126.020    93147324.89207
  21432653.920   114730694.47608  21432653.920    89235018.45008
  23452515.420   125587170.53307  23452520.360    97678920.85806
  21444839.160   114514238.10708  21444840.060    89066634.43105
  23464702.440   125388190.90907  23464709.360    97524145.44606
  20426086.200   109112483.50608  20426088.320    84865279.14608
  22923983.580   122671124.95008  22923985.540    95410964.30407
  20373334.280   108754458.10309  20373336.560    84586916.78008
  21746797.020   116330717.65308  21746796.360    90479454.53007
 15 02 25 00 55  0.0000000  0 16G16G18G19G21G22G27G31R02R03R04R09R15
                                R16R17R18R19
  20885619.500   109754685.28909  20885616.440    85523121.39548
  21642102.520   113730125.34909  21642098.960    88620908.26648
  24219686.300   127275308.48907  24219682.300    99175546.51345
  22058806.220   115920033.38409  22058802.600    90327376.04748
  22271780.840   117039111.44309  22271776.340    91199331.69948
  22116364.020   116222293.11809  22116363.140    90562827.52448
  24475813.400   128621203.61408  24475814.020   100224284.15846
  22450183.660   119798505.61908  22450186.620    93176628.47207
  21420106.100   114663525.66108  21420106.380    89182776.05908
  23429420.140   125463496.72207  23429424.840    97582730.54906
  21436088.480   114467509.68308  21436089.360    89030290.10005
  23489624.160   125521362.13908  23489631.060    97627722.27406
  20438620.060   109179437.21309  20438622.180    84917354.23508
  22937141.240   122741532.80508  22937143.140    95465725.92307
  20377701.660   108777771.34909  20377703.980    84605049.29608
  21737301.760   116279924.90908  21737301.180    90439949.06007
 15 02 25 00 55 30.0000000  0 16G16G18G19G21G22G27G31R02R03R04R09R15
                                R16R17R18R19
  20877429.420   109711645.71609  20877426.300    85489584.06948
  21637410.280   113705468.21009  21637406.860    88601694.92748
  24205106.080   127198689.10007  24205102.280    99115843.12445
  22069914.560   115978408.08309  22069910.960    90372862.82448
  22256035.460   116956368.73409  22256030.840    91134856.89048
  22105209.680   116163676.60809  22105208.640    90517152.33848
  24493456.760   128713917.36208  24493457.640   100296528.03845
  22457379.940   119836905.56109  22457383.040    93206495.07907
  21407668.500   114596946.61308  21407668.820    89130992.38208
  23406320.720   125339800.63108  23406325.140    97486522.90306
  21427477.980   114421529.69108  21427478.820    88994527.89405
  23514545.880   125654533.11207  23514552.940    97731298.92506
  20451282.460   109247077.56108  20451284.620    84969963.40108
  22950298.220   122811937.33908  22950300.100    95520484.93406
  20382095.000   108801223.06909  20382097.380    84623289.51708
  21727832.100   116229268.96108  21727831.580    90400550.00007
 15 02 25 00 56  0.0000000  0 16G16G18G19G21G22G27G31R02R03R04R09R15
                                R16R17R18R19
  20869325.800   109669060.74009  20869322.600    85456400.96848
  21632807.460   113681281.05809  21632804.140    88582847.80648
  24190534.080   127122112.88107  24190530.240    99056173.36344
  22081053.800   116036945.03509  22081050.200    90418476.02348
  22240339.320   116873884.50909  22240334.500    91070583.48548
  22094073.180   116105153.85009  22094071.960    90471550.19148
  24511086.800   128806561.06508  24511087.660   100368717.31645
  22464711.320   119876025.45609  22464714.600    93236921.63708
  21395341.240   114530958.58808  21395341.700    89079668.38308
  23383217.460   125216083.95507  23383221.280    97390299.13706
  21419007.520   114376297.81108  21419008.240    88959347.53405
  23539466.140   125787696.63107  23539473.340    97834869.76306
  20464072.280   109315398.51408  20464074.480    85023101.91508
  22963453.960   122882336.10408  22963455.640    95575239.46907
  20386513.740   108824810.33109  20386516.120    84641635.16108
  21718387.600   116178747.06009  21718387.160    90361255.18508
 15 02 25 00 56 30.0000000  0 16G16G18G19G21G22G27G31R02R03R04R09R15
                                R16R17R18R19
  20861308.440   109626928.92609  20861305.120    85423570.98048
  21628293.660   113657561.42609  21628290.400    88564364.97848
  24175969.660   127045576.60307  24175965.740    98996534.74645
  22092223.080   116095639.48009  22092219.400    90464211.94848
  22224692.220   116791658.15209  22224687.220    91006511.02348
  22082954.000   116046722.25209  22082952.820    90426019.09248
  24528702.340   128899128.69008  24528703.460   100440847.29346
  22472176.660   119915860.80409  22472179.840    93267904.70707
  21383124.660   114465562.30508  21383125.080    89028804.62308
  23360110.180   125092347.64907  23360114.080    97294060.20006
  21410676.900   114331812.92508  21410677.680    88924748.17105
  23564384.000   125920846.99407  23564391.620    97938430.30605
  20476988.280   109384393.52108  20476990.520    85076764.69008
  22976608.160   122952726.21108  22976610.220    95629987.25707
  20390957.200   108848529.30209  20390959.500    84660083.25608
  21708967.560   116128355.50809  21708967.200    90322061.76008
 15 02 25 00 57  0.0000000  0 16G16G18G19G21G22G27G31R02R03R04R09R15
                                R16R17R18R19
  20853379.400   109585261.41409  20853375.980    85391102.79248
  21623870.840   113634319.75209  21623867.700    88546254.59948
  24161414.600   126969089.53507  24161410.780    98936934.45645
  22103423.720   116154498.44709  22103419.940    90510076.07648
  22209096.460   116709701.66209  22209091.220    90942648.85048
  22071853.940   115988391.54709  22071852.920    90380566.59948
  24546304.700   128991626.98708  24546305.760   100512923.26545
  22479777.740   119956419.57209  22479780.640    93299450.44007
  21371020.980   114400770.35308  21371021.340    88978410.89908
  23337001.700   124968605.40407  23337005.680    97197816.57706
  21402488.180   114288086.15908  21402489.000    88890738.46405
  23589300.360   126053989.18907  23589308.200    98041984.55706
  20490031.600   109454068.46909  20490033.860    85130956.32308
  22989762.840   123023117.13108  22989764.320    95684735.80306
  20395427.080   108872388.93309  20395429.240    84678640.73408
  21699573.400   116078102.91808  21699573.100    90282976.42908
 15 02 25 00 57 30.0000000  0 16G16G18G19G21G22G27G31R02R03R04R09R15
                                R16R17R18R19
  20845538.240   109544055.47709  20845534.740    85358994.26848
  21619538.180   113611551.91909  21619535.100    88528513.43248
  24146868.040   126892647.23307  24146864.160    98877369.06445
  22114654.600   116213516.48609  22114650.700    90556064.15448
  22193551.600   116628012.61909  22193546.240    90878995.07148
  22060772.200   115930157.40709  22060771.440    90335189.37548
  24563892.380   129084048.48608  24563893.520   100584939.38346
  22487513.040   119997695.53709  22487515.500    93331553.95307
  21359029.980   114336582.09408  21359030.620    88928486.72908
  23313892.060   124844856.13007  23313895.960    97101567.46506
  21394440.900   114245114.37008  21394441.800    88857315.96805
  23614213.380   126187113.71508  23614221.440    98145525.04905
  20503200.560   109524414.49509  20503202.800    85185669.88608
  23002916.780   123093504.38408  23002918.220    95739481.27707
  20399922.280   108896383.83209  20399924.280    84697303.43108
  21690204.180   116027983.97008  21690203.960    90243995.03608
 15 02 25 00 58  0.0000000  0 16G16G18G19G21G22G27G31R02R03R04R09R15
                                R16R17R18R19
  20837785.280   109503312.84009  20837781.740    85327246.76748
  21615295.940   113589259.31509  21615292.980    88511142.59148
  24132330.080   126816250.12607  24132326.140    98817838.87645
  22125915.360   116272691.97508  22125911.360    90602174.91648
  22178058.160   116546593.88009  22178052.760    90815551.93248
  22049708.940   115872020.35808  22049708.380    90289887.79348
  24581464.920   129176390.83108  24581466.480   100656893.80246
  22495382.320   120039687.10909  22495384.760    93364214.09807
  21347152.600   114273001.20908  21347153.100    88879034.93608
  23290782.140   124721104.32308  23290785.740    97005316.36206
  21386535.380   114202899.50008  21386536.280    88824482.18605
  23639122.600   126320217.66007  23639130.880    98249049.62606
  20516494.520   109595428.20809  20516496.800    85240902.77208
  23016069.900   123163887.96808  23016070.800    95794224.07906
  20404442.640   108920513.58809  20404444.560    84716071.00908
  21680859.760   115977997.85409  21680859.620    90205116.95608
 15 02 25 00 58 30.0000000  0 15G16G18G19G21G22G27G31R02R03R04R09R16
                                R17R18R19
  20830121.080   109463036.44109  20830117.460    85295862.55648
  21611144.600   113567444.36209  21611141.760    88494143.92848
  24117800.900   126739899.37407  24117796.920    98758344.83545
  22137205.820   116332024.22608  22137201.900    90648407.83148
  22162616.940   116465449.54209  22162611.500    90752322.59247
  22038664.600   115813982.14909  22038664.040    90244663.22048
  24599022.120   129268652.60308  24599023.940   100728785.43345
  22503385.560   120082394.03008  22503388.060    93397430.58407
  21335389.500   114210032.32308  21335389.980    88830059.15008
  23267672.840   124597355.22108  23267675.980    96909067.36406
  21378772.260   114161444.71208  21378773.080    88792239.57305
  20529912.920   109667106.83108  20529915.200    85296652.79508
  23029222.460   123234269.70808  23029223.240    95848965.32807
  20408988.320   108944778.94509  20408990.260    84734944.06008
  21671540.280   115928145.34808  21671540.160    90166342.79908
 15 02 25 00 59  0.0000000  0 15G16G18G19G21G22G27G31R02R03R04R09R16
                                R17R18R19
  20822545.140   109423224.23709  20822541.500    85264840.06548
  21607083.500   113546103.33209  21607080.760    88477514.57248
  24103279.780   126663590.62307  24103275.680    98698883.50945
  22148525.000   116391507.55109  22148521.180    90694758.47647
  22147227.540   116384577.79909  22147222.220    90689305.67648
  22027638.420   115756039.12109  22027637.820    90199512.82048
  24616562.720   129360826.81608  24616564.600   100800608.84145
  22511521.620   120125810.50709  22511524.060    93431198.94907
  21323740.520   114147674.88408  21323741.080    88781558.93808
  23244564.200   124473608.81807  23244566.960    96812820.44906
  21371151.040   114120747.20308  21371151.880    88760585.95505
  20543454.360   109739442.54109  20543456.660    85352913.89008
  23042373.840   123304645.41208  23042374.220    95903701.92906
  20413558.480   108969175.01209  20413560.500    84753918.77308
  21662244.800   115878421.57608  21662244.720    90127668.77108
 15 02 25 00 59 30.0000000  0 15G16G18G19G21G22G27G31R02R03R04R09R16
                                R17R18R19
  20815058.760   109383882.77109  20815055.060    85234184.38248
  21603113.800   113525242.21309  21603111.040    88461259.16748
  24088767.480   126587328.54507  24088763.360    98639458.54445
  22159873.540   116451144.75209  22159869.840    90741229.03148
  22131891.280   116303985.28509  22131886.020    90626506.33948
  22016631.320   115698196.15509  22016630.700    90154440.38348
  24634087.040   129452915.05408  24634089.200   100872365.26145
  22519791.420   120169939.65609  22519793.340    93465521.65407
  21312207.380   114085937.10708  21312207.960    88733540.70208
  23221457.420   124349873.49708  23221459.620    96716582.14006
  21363672.860   114080813.40009  21363673.500    88729526.33605
  20557118.960   109812436.12709  20557121.240    85409686.67408
  23055524.840   123375019.69308  23055525.440    95958437.43507
  20418153.880   108993705.89209  20418156.040    84772998.35008
  21652974.240   115828830.45408  21652974.100    90089097.92108
 15 02 25 01 00  0.0000000  0 15G16G18G19G21G22G27G31R02R03R04R09R16
                                R17R18R19
  20807661.620   109345010.42009  20807657.880    85203894.24048
  21599234.960   113504858.10109  21599232.060    88445375.44648
  24074263.500   126511110.32707  24074259.660    98580067.74145
  22171250.500   116510931.14408  22171246.860    90787815.81548
  22116608.140   116223672.13409  22116603.020    90563924.69248
  22005642.760   115640450.59409  22005642.180    90109443.84948
  24651593.960   129544912.02708  24651596.280   100944050.55546
  22528194.060   120214776.41409  22528195.720    93500394.69007
  21300789.960   114024819.03108  21300790.440    88686004.43408
  23198352.800   124226150.45708  23198354.880    96620353.43007
  21356337.280   114041641.38708  21356337.980    88699059.21105
  20570905.300   109886080.27609  20570907.580    85466965.43508
  23068674.840   123445389.43608  23068675.740    96013169.36806
  20422773.880   109018367.88409  20422775.960    84792179.89108
  21643727.780   115779368.16808  21643727.560    90050627.26308
 15 02 25 01 00 30.0000000  0 15G16G18G19G21G22G27G31R02R03R04R09R16
                                R17R18R19
  20800354.280   109306610.12909  20800350.460    85173971.93748
  21595447.340   113484953.12009  21595444.240    88429865.08548
  24059768.080   126434936.66207  24059764.420    98520711.68845
  22182655.720   116570865.82209  22182652.040    90834518.15747
  22101378.780   116143641.30209  22101373.660    90501563.04148
  21994673.000   115582803.84209  21994672.420    90064524.32348
  24669083.220   129636815.67408  24669085.440   101015663.16045
  22536729.040   120260319.98009  22536730.560    93535817.44407
  21289489.320   113964325.15708  21289489.500    88638953.64908
  23175251.400   124102444.63308  23175253.240    96524138.09606
  21349144.820   114003233.82809  21349145.420    88669186.66905
  20584812.960   109960372.36009  20584815.240    85524748.15708
  23081824.440   123515755.88808  23081824.980    96067898.83107
  20427418.440   109043161.27109  20427420.480    84811463.64108
  21634505.460   115730034.90008  21634505.160    90012256.96008
 15 02 25 01 01  0.0000000  0 15G16G18G19G21G22G27G31R02R03R04R09R16
                                R17R18R19
  20793137.160   109268683.94909  20793133.220    85144419.06848
  21591751.100   113465528.57009  21591747.840    88414729.06848
  24045281.280   126358807.72507  24045277.600    98461390.46345
  22194089.040   116630947.74609  22194085.240    90881335.22948
  22086203.740   116063895.94409  22086198.640    90439423.82048
  21983722.220   115525256.85009  21983721.680    90019682.51748
  24686554.320   129728623.83408  24686556.500   101087201.38846
  22545396.200   120306569.21709  22545397.340    93571789.08807
  21278306.000   113904459.47408  21278306.020    88592391.47208
  23152154.200   123978760.68007  23152155.960    96427939.68206
  21342095.860   113965592.80708  21342096.460    88639910.32205
  20598841.220   110035308.85808  20598843.520    85583032.07708
  23094973.680   123586119.61407  23094974.820    96122626.08507
  20432087.580   109068086.21009  20432089.720    84830849.68408
  21625307.260   115680830.39808  21625306.920    89973986.79808
 15 02 25 01 01 30.0000000  0 14G16G18G19G21G22G27R02R03R04R09R16R17
                                R18R19
  20786007.960   109231219.85009  20786003.900    85115226.26448
  21588143.700   113446571.35709  21588140.460    88399957.23148
  24030800.540   126282710.21908  24030796.880    98402093.74745
  22205547.480   116691161.46409  22205543.500    90928255.01348
  22071080.860   115984424.44709  22071075.680    90377498.01148
  21972787.760   115467796.08509  21972787.260    89974907.91048
  22554192.360   120353507.94609  22554193.440    93608297.02107
  21267238.020   113845211.27408  21267237.920    88546309.56408
  23129059.140   123855088.48307  23129061.040    96331750.51406
  21335188.000   113928705.48708  21335188.680    88611220.19405
  20612986.640   110110871.48408  20612989.080    85641802.99608
  23108119.700   123656466.94908  23108120.840    96177340.63806
  20436778.600   109093127.86109  20436780.960    84850326.51908
  21616130.280   115631739.76208  21616129.900    89935805.20408
 15 02 25 01 02  0.0000000  0 14G16G18G19G21G22G27R02R03R04R09R16R17
                                R18R19
  20778972.620   109194249.04109  20778968.500    85086417.83348
  21584630.980   113428111.83209  21584627.720    88385573.18848
  24016331.420   126206673.62608  24016327.680    98342844.47946
  22217036.300   116751534.89509  22217032.220    90975299.23948
  22056016.160   115905258.80209  22056010.900    90315810.52148
  21961875.380   115410451.50709  21961874.980    89930223.84148
  22563123.040   120401164.25409  22563124.340    93645363.01607
  21256291.540   113786613.83508  21256291.360    88500733.80108
  23105972.560   123731462.37807  23105974.360    96235597.06407
  21328427.100   113892603.11408  21328427.820    88583140.55305
  20627254.200   110187086.48208  20627256.640    85701081.30508
  23121268.520   123726827.72608  23121269.560    96232065.68006
  20441497.140   109118315.79109  20441499.660    84869917.12908
  21606980.080   115582792.56209  21606979.860    89897735.17708
 15 02 25 01 02 30.0000000  0 14G16G18G19G21G22G27R02R03R04R09R16R17
                                R18R19
  20772028.840   109157759.46509  20772024.740    85057984.39948
  21581210.460   113410136.87509  21581207.200    88371566.74148
  24001871.140   126130684.22108  24001867.220    98283631.99045
  22228552.480   116812052.46109  22228548.420    91022455.78247
  22041007.560   115826387.77409  22041002.200    90254352.59848
  21950982.620   115353209.99709  21950982.280    89885620.08448
  22572185.360   120449522.58609  22572187.040    93682975.05407
  21245464.560   113728656.45208  21245464.480    88455655.85908
  23082892.600   123607872.41508  23082894.780    96139471.89106
  21321810.840   113857273.42108  21321811.820    88555661.91105
  20641640.520   110263935.84609  20641643.000    85760853.02008
  23134417.140   123797188.34807  23134418.220    96286790.51907
  20446240.360   109143635.52009  20446242.940    84889610.23908
  21597854.060   115533974.26009  21597853.820    89859765.40908
 15 02 25 01 03  0.0000000  0 14G16G18G19G21G22G27R02R03R04R09R16R17
                                R18R19
  20765176.780   109121751.94309  20765172.800    85029926.58448
  21577882.160   113392646.55609  21577878.900    88357937.93448
  23987419.620   126054741.48108  23987415.680    98224455.86046
  22240095.580   116872711.73009  22240091.520    91069722.74147
  22026055.380   115747813.28609  22026049.920    90193125.74548
  21940109.400   115296071.10109  21940109.160    89841096.27748
  22581378.580   120498580.20709  22581380.260    93721130.97107
  21234757.560   113671341.72808  21234757.560    88411077.74908
  23059820.060   123484321.87408  23059822.320    96043377.21406
  21315339.400   113822716.62408  21315340.460    88528784.37505
  20656144.700   110341414.69708  20656147.240    85821114.33008
  23147565.480   123867547.78708  23147566.820    96341514.42907
  20451008.080   109169085.67709  20451010.580    84909404.81008
  21588751.820   115485283.14909  21588751.580    89821894.56008
 15 02 25 01 03 30.0000000  0 14G16G18G19G21G22G27R02R03R04R09R16R17
                                R18R19
  20758416.600   109086227.24909  20758412.760    85002245.00048
  21574645.940   113375640.15509  21574642.700    88344686.20148
  23972976.740   125978844.30408  23972972.920    98165315.22945
  22251665.100   116933510.10509  22251661.020    91117098.08147
  22011159.840   115669536.62109  22011154.360    90132130.95948
  21929255.600   115239034.13409  21929255.380    89796651.89948
  22590702.200   120548333.61708  22590703.740    93759828.06807
  21224170.920   113614671.57408  21224171.120    88367000.97908
  23036755.500   123360813.73408  23036757.820    95947315.56906
  21309012.760   113788932.90608  21309013.860    88502508.15205
  20670765.700   110419517.60709  20670768.280    85881861.02908
  23160713.460   123937905.55708  23160714.440    96396237.13506
  20455800.000   109194664.56909  20455802.320    84929299.48308
  21579672.940   115436717.39108  21579672.680    89784121.21508
 15 02 25 01 04  0.0000000  0 14G16G18G19G21G22G27R02R03R04R09R16R17
                                R18R19
  20751748.900   109051188.51709  20751745.220    84974942.09248
  21571502.300   113359120.38609  21571499.020    88331813.67048
  23958542.960   125902994.29108  23958539.180    98106211.34646
  22263261.040   116994447.57209  22263256.980    91164581.82447
  21996321.720   115591562.07409  21996316.300    90071371.60948
  21918421.700   115182101.52909  21918421.460    89752288.84848
  22600156.180   120598783.01008  22600158.240    93799066.48307
  21213705.740   113558651.27208  21213706.180    88323429.65008
  23013700.000   123237354.13108  23013702.540    95851291.69506
  21302831.480   113755925.29108  21302832.460    88476835.54305
  20685503.260   110498242.69208  20685505.780    85943091.64108
  23173861.620   124008263.38607  23173862.880    96450959.87607
  20460616.380   109220373.71609  20460618.440    84949295.47808
  21570617.720   115388278.21709  21570617.440    89746446.31508
 15 02 25 01 04 30.0000000  0 14G16G18G19G21G22G27R02R03R04R09R16R17
                                R18R19
  20745173.560   109016635.19809  20745170.080    84948017.42248
  21568450.880   113343085.17909  21568447.540    88319318.70148
  23944117.800   125827189.06508  23944113.840    98047142.36246
  22274882.740   117055520.39308  22274878.640    91212171.03847
  21981540.920   115513888.68709  21981535.560    90010846.91248
  21907607.300   115125271.04509  21907606.940    89708005.35648
  22609739.780   120649923.63809  22609742.400    93838842.50107
  21203362.140   113503281.33508  21203362.720    88280364.14708
  22990653.820   123113944.33508  22990656.400    95755306.48207
  21296795.320   113723692.46908  21296796.200    88451765.55805
  20700355.980   110577582.82909  20700358.460    86004800.60908
  23187008.980   124078619.00408  23187010.800    96505680.75507
  20465456.500   109246209.92409  20465458.440    84969390.29208
  21561585.580   115339962.41208  21561585.080    89708867.37408
 15 02 25 01 05  0.0000000  0 14G16G18G19G21G22G27R02R03R04R09R16R17
                                R18R19
  20738691.480   108982571.96109  20738688.160    84921474.63948
  21565492.440   113327538.52409  21565489.020    88307204.43948
  23929701.740   125751431.50608  23929697.640    97988110.52546
  22286530.360   117116729.26009  22286526.180    91259866.24247
  21966818.620   115436522.84609  21966813.400    89950561.87448
  21896813.040   115068546.17109  21896812.380    89663804.16348
  22619453.220   120701756.18608  22619455.980    93879156.70707
  21193141.220   113448568.14008  21193141.960    88237809.45608
  22967618.480   122990591.66808  22967620.880    95659365.71806
  21290905.060   113692238.50208  21290905.840    88427301.36205
  20715323.640   110657537.08308  20715326.080    86066987.23908
  23200156.980   124148975.46608  23200158.920    96560402.48007
  20470320.740   109272175.71509  20470322.760    84989585.90708
  21552576.940   115291772.47108  21552576.280    89671386.31708
 15 02 25 01 05 30.0000000  0 14G16G18G19G21G22G27R02R03R04R09R16R17
                                R18R19
  20732302.620   108948998.58009  20732299.400    84895313.56548
  21562626.700   113312479.10909  21562623.240    88295469.84248
  23915294.380   125675720.18508  23915290.360    97929114.73746
  22298203.420   117178071.58309  22298199.140    91307665.44447
  21952154.980   115359465.09009  21952149.820    89890516.89248
  21886038.640   115011925.75509  21886037.780    89619684.37048
  22629295.540   120754277.18709  22629298.160    93920006.36707
  21183043.180   113394512.52808  21183044.000    88195766.22708
  22944594.200   122867298.65308  22944596.660    95563471.36106
  21285160.600   113661562.78709  21285161.160    88403442.47805
  20730405.180   110738099.60208  20730407.520    86129646.96108
  23213304.880   124219331.37808  23213306.520    96615123.65006
  20475208.740   109298268.96709  20475210.940    85009880.64708
  21543591.260   115243705.57809  21543590.500    89634000.96208
 15 02 25 01 06  0.0000000  0 14G16G18G19G21G22G27R02R03R04R09R16R17
                                R18R19
  20726008.020   108915920.21009  20726004.800    84869538.20448
  21559854.560   113297911.61709  21559851.160    88284118.56048
  23900896.500   125600058.99308  23900892.420    97870158.00246
  22309902.180   117239548.87409  22309897.740    91355569.81747
  21937551.080   115282721.35309  21937545.980    89830716.59848
  21875284.880   114955414.07609  21875283.900    89575649.29948
  22639267.420   120807488.07609  22639269.780    93961392.62807
  21173069.620   113341122.30308  21173070.100    88154240.50108
  22921582.580   122744073.48208  22921585.160    95467629.76806
  21279562.760   113631670.26508  21279563.160    88380192.74605
  20745600.420   110819269.79308  20745602.800    86192779.30308
  23226453.280   124289690.92507  23226454.060    96669847.79406
  20480121.260   109324493.05309  20480123.640    85030277.16008
  21534629.220   115195765.21808  21534628.500    89596714.01608
 15 02 25 01 06 30.0000000  0 14G16G18G19G21G22G27R02R03R04R09R16R17
                                R18R19
  20719807.400   108883335.72909  20719804.180    84844147.69948
  21557175.540   113283833.36109  21557172.140    88273148.50148
  23886507.540   125524445.02608  23886503.460    97811238.06646
  22321625.880   117301157.22809  22321621.340    91403576.32947
  21923006.940   115206291.57309  21923001.920    89771160.94248
  21864551.340   114899008.77109  21864550.400    89531697.12048
  22649367.700   120861384.00909  22649369.860    94003311.70107
  21163220.240   113288397.11808  21163220.560    88113232.04508
  22898583.800   122620917.17808  22898586.400    95371841.72107
  21274111.220   113602559.01208  21274111.520    88357550.66605
  20760908.180   110901040.89708  20760910.600    86256379.02708
  23239601.900   124360051.17508  23239602.800    96724572.31807
  20485057.800   109350844.79409  20485060.320    85050772.95608
  21525690.140   115147947.93308  21525689.740    89559522.80408
 15 02 25 01 07  0.0000000  0 14G16G18G19G21G22G27R02R03R04R09R16R17
                                R18R19
  20713700.860   108851245.53009  20713697.620    84819142.34149
  21554589.520   113270243.59509  21554586.140    88262559.08148
  23872127.400   125448877.28208  23872123.420    97752354.14546
  22333373.880   117362893.74809  22333369.360    91451682.69147
  21908522.720   115130176.48909  21908517.680    89711850.51148
  21853837.860   114842709.02009  21853836.960    89487827.18248
  22659595.540   120915961.41809  22659597.740    94045760.79007
  21153495.440   113236338.84408  21153495.800    88072742.29308
  22875598.500   122497832.67208  22875600.940    95276109.52506
  21268805.900   113574228.65309  21268806.120    88335515.93205
  20776327.340   110983407.08708  20776329.780    86320441.60308
  23252750.640   124430411.13307  23252750.980    96779296.70106
  20490017.900   109377322.23009  20490020.500    85071366.50108
  21516773.700   115100251.55808  21516773.520    89522425.64508
 15 02 25 01 07 30.0000000  0 14G16G18G19G21G22G27R02R03R04R09R16R17
                                R18R19
  20707688.960   108819652.61909  20707685.740    84794524.49649
  21552096.940   113257144.72809  21552093.500    88252352.19048
  23857756.380   125373357.40208  23857752.420    97693507.51946
  22345146.220   117424758.10609  22345141.820    91499888.68947
  21894099.200   115054380.07209  21894094.060    89652788.38748
  21843144.880   114786517.04609  21843144.040    89444041.23548
  22669950.860   120971219.58808  22669953.000    94088739.37007
  21143895.820   113184951.93708  21143896.120    88032774.71508
  22852627.840   122374826.15708  22852629.960    95180437.93107
  21263647.320   113546681.93208  21263647.580    88314090.70205
  20791857.400   111066365.76808  20791859.840    86384965.01708
  23265899.620   124500772.68608  23265899.620    96834022.33307
  20495001.800   109403926.62709  20495004.460    85092058.81608
  21507880.200   115052677.21008  21507880.120    89485423.39808
 15 02 25 01 08  0.0000000  0 14G16G18G19G21G22G27R02R03R04R09R16R17
                                R18R19
  20701772.560   108788561.29109  20701769.300    84770297.48649
  21549698.340   113244539.69809  21549694.820    88242530.10348
  23843394.900   125297887.84308  23843391.040    97634700.11046
  22356943.020   117486751.07708  22356938.760    91548194.89947
  21879737.140   114978906.78809  21879731.840    89593978.06448
  21832472.920   114730435.76509  21832472.100    89400341.53548
  22680433.700   121027158.70008  22680436.180    94132247.55007
  21134422.780   113134241.96408  21134423.060    87993333.64808
  22829672.960   122251903.79808  22829674.660    95084831.83906
  21258636.040   113519921.86708  21258636.480    88293277.31605
  20807498.000   111149915.15808  20807500.480    86449947.85308
  23279049.320   124571138.68908  23279048.920    96888751.37506
  20500009.880   109430660.08409  20500012.580    85112851.51508
  21499009.960   115005226.77308  21499009.760    89448517.54108
 15 02 25 01 08 30.0000000  0 14G16G18G19G21G22G27R02R03R04R09R16R17
                                R18R19
  20695951.340   108757970.06909  20695948.020    84746460.17249
  21547393.100   113232425.63809  21547389.600    88233090.59248
  23829042.500   125222465.83408  23829038.500    97575929.74446
  22368763.540   117548868.43609  22368759.360    91596598.03947
  21865436.640   114903757.38409  21865431.340    89535420.11848
  21821821.580   114674462.95609  21821820.800    89356726.37148
  22691043.220   121083773.84408  22691045.760    94176281.54207
  21125076.240   113084209.27808  21125076.380    87954419.34308
  22806734.100   122129067.25008  22806735.580    94989292.47006
  21253771.720   113493946.75708  21253772.200    88273074.45405
  20823247.880   111234048.11708  20823250.380    86515384.59508
  23292199.280   124641505.98907  23292198.880    96943481.51007
  20505041.600   109457519.42509  20505044.320    85133742.10708
  21490162.180   114957896.73708  21490161.820    89411705.29608
 15 02 25 01 09  0.0000000  0 14G16G18G19G21G22G27R02R03R04R09R16R17
                                R18R19
  20690226.040   108727882.72609  20690222.600    84723015.48549
  21545181.960   113220806.25509  21545178.520    88224036.53548
  23814699.640   125147093.87208  23814695.680    97517198.37046
  22380607.840   117611110.70509  22380603.760    91645098.50048
  21851198.400   114828935.46709  21851193.140    89477117.34548
  21811191.380   114618601.34509  21811190.600    89313197.85648
  22701779.540   121141064.68109  22701781.980    94220841.11307
  21115857.280   113034858.77308  21115857.100    87916035.63408
  22783812.420   122006323.12508  22783813.760    94893824.95907
  21249054.880   113468759.48208  21249055.420    88253484.33805
  20839106.640   111318762.78809  20839109.120    86581273.76708
  23305349.600   124711877.49507  23305350.160    96998214.74306
  20510097.260   109484506.45109  20510099.800    85154732.01908
  21481337.120   114910688.70209  21481336.720    89374987.93608
 15 02 25 01 09 30.0000000  0 14G16G18G19G21G22G27R02R03R04R09R16R17
                                R18R19
  20684596.340   108698297.71709  20684592.760    84699962.22749
  21543064.420   113209678.64909  21543061.040    88215365.66848
  23800365.820   125071769.08508  23800361.780    97458503.75746
  22392475.220   117673474.06909  22392471.180    91693693.31947
  21837022.380   114754440.70909  21837017.240    89419069.49748
  21800581.860   114562848.50109  21800581.180    89269754.08748
  22712641.360   121199026.02908  22712644.440    94265922.09107
  21106765.680   112986190.69208  21106765.460    87878182.71508
  22760908.180   121883672.42308  22760909.380    94798430.13607
  21244485.160   113444357.93408  21244485.740    88234505.34605
  20855072.880   111404051.48008  20855075.360    86647609.40608
  23318500.340   124782250.48908  23318501.160    97052949.37306
  20515176.240   109511617.83409  20515178.520    85175818.63508
  21472534.260   114863599.06909  21472533.780    89338362.66808
 15 02 25 01 10  0.0000000  0 14G16G18G19G21G22G27R02R03R04R09R16R17
                                R18R19
  20679062.980   108669219.07009  20679059.220    84677303.53348
  21541041.000   113199045.60009  21541037.680    88207080.18948
  23786041.440   124996493.88108  23786037.400    97399847.78146
  22404365.700   117735958.75809  22404361.780    91742382.67247
  21822909.520   114680277.88109  21822904.520    89361280.30048
  21789993.600   114507207.42309  21789993.000    89226397.41848
  22723629.040   121257657.88809  22723631.980    94311524.67506
  21097802.480   112938209.98308  21097802.320    87840864.40608
  22738022.640   121761121.95008  22738023.860    94703113.25107
  21240063.220   113420745.24808  21240063.840    88216139.91505
  20871146.200   111489912.47908  20871148.720    86714390.15608
  23331651.600   124852627.59807  23331652.980    97107686.99806
  20520278.820   109538855.49609  20520280.920    85197003.47108
  21463753.940   114816629.69209  21463753.340    89301830.91208
 15 02 25 01 10 30.0000000  0 14G16G18G19G21G22G27R02R03R04R09R16R17
                                R18R19
  20673625.620   108640645.21209  20673621.760    84655038.18749
  21539111.260   113188904.44809  21539107.900    88199178.00348
  23771726.040   124921265.28108  23771721.880    97341228.13446
  22416278.380   117798560.00408  22416274.480    91791162.86447
  21808859.740   114606446.30109  21808854.840    89303749.21948
  21779426.160   114451675.53509  21779425.620    89183125.82148
  22734741.240   121316954.38308  22734743.400    94357644.22907
  21088967.680   112890916.47008  21088967.380    87804080.58008
  22715156.060   121638672.65608  22715157.260    94607875.05307
  21235788.600   113397918.87708  21235789.200    88198386.06905
  20887325.260   111576338.33808  20887327.800    86781610.26008
  23344803.240   124923005.98607  23344804.640    97162425.79406
  20525404.360   109566216.16609  20525406.460    85218283.99608
  21454995.400   114769776.75909  21454994.700    89265389.75808
 15 02 25 01 11  0.0000000  0 14G16G18G19G21G22G27R02R03R04R09R16R17
                                R18R19
  20668284.860   108612579.54109  20668281.000    84633168.83549
  21537275.660   113179257.80909  21537272.260    88191661.15148
  23757419.940   124846085.73808  23757415.680    97282646.69347
  22428213.460   117861278.81809  22428209.560    91840034.66147
  21794873.900   114532950.24509  21794869.060    89246479.59648
  21768880.160   114396255.79209  21768879.600    89139941.61148
  22745977.840   121376915.99109  22745980.560    94404280.95507
  21080262.260   112844315.38108  21080262.000    87767835.30508
  22692309.700   121516331.78908  22692310.780    94512721.17407
  21231661.840   113375881.87208  21231662.400    88181246.16805
  20903609.700   111663326.90108  20903612.320    86849268.01108
  23357955.720   124993388.13608  23357957.600    97217167.38507
  20530553.340   109593701.87809  20530555.500    85239661.76608
  21446258.920   114723042.21708  21446258.220    89229040.68208
 15 02 25 01 11 30.0000000  0 14G16G18G19G21G22G27R02R03R04R09R16R17
                                R18R19
  20663041.480   108585025.86409  20663037.640    84611698.44349
  21535534.680   113170108.48209  21535531.240    88184531.81848
  23743123.540   124770957.69308  23743119.400    97224105.39747
  22440171.060   117924116.22309  22440167.220    91888998.86247
  21780952.960   114459794.85909  21780948.060    89189475.41448
  21758356.140   114340951.11809  21758355.500    89096847.07048
  22757339.280   121437542.16909  22757341.560    94451434.66107
  21071687.100   112798411.61108  21071686.820    87732132.39108
  22669484.700   121394105.44308  22669485.640    94417656.36307
  21227683.440   113354637.19308  21227684.080    88164722.52605
  20919999.040   111750875.98008  20920001.740    86917361.71808
  23371109.580   125063776.89507  23371111.500    97271914.11406
  20535726.120   109621314.51509  20535728.320    85261138.27008
  21437544.880   114676427.79209  21437544.160    89192785.03708
 15 02 25 01 12  0.0000000  0 14G16G18G19G21G22G27R02R03R04R09R16R17
                                R18R19
  20657895.580   108557984.69409  20657891.860    84590627.40449
  21533887.960   113161454.87809  21533884.440    88177788.75848
  23728836.700   124695880.06308  23728832.740    97165603.38246
  22452150.680   117987069.03309  22452146.820    91938052.99447
  21767097.040   114386980.98009  21767092.120    89132737.34648
  21747853.860   114285760.64409  21747853.100    89053841.51448
  22768824.280   121498828.98308  22768826.500    94499102.20007
  21063242.420   112753206.82108  21063242.380    87696973.11408
  22646681.580   121271996.79108  22646682.620    94322683.12307
  21223853.220   113334183.93508  21223853.800    88148814.43305
  20936492.240   111838979.82408  20936495.060    86985886.91208
  23384264.560   125134170.94508  23384265.900    97326665.06906
  20540922.420   109649052.39209  20540924.600    85282712.17808
  21428852.780   114629931.26308  21428852.200    89156621.08308
 15 02 25 01 12 30.0000000  0 14G16G18G19G21G22G27R02R03R04R09R16R17
                                R18R19
  20652847.020   108531454.91309  20652843.400    84569954.84949
  21532335.320   113153295.89709  21532331.760    88171431.12548
  23714559.080   124620850.57908  23714555.020    97107138.88047
  22464151.540   118050133.49208  22464147.680    91987194.13147
  21753306.100   114314508.32309  21753301.060    89076265.17348
  21737372.960   114230682.68809  21737372.060    89010923.62948
  22780432.500   121560771.62409  22780435.200    94547279.80107
  21054928.260   112708701.03908  21054928.360    87662357.52508
  22623900.780   121150007.50308  22623902.060    94227802.70407
  21220170.800   113314520.31208  21220171.480    88133520.50605
  20953088.040   111927631.82308  20953090.940    87054838.43708
  23397420.340   125204568.32707  23397421.300    97381418.52606
  20546141.720   109676912.83909  20546143.700    85304381.40608
  21420182.140   114583549.81408  21420181.620    89120546.64708
 15 02 25 01 13  0.0000000  0 14G16G18G19G21G22G27R02R03R04R09R16R17
                                R18R19
  20647896.760   108505441.36309  20647893.200    84549684.54249
  21530877.560   113145635.42409  21530873.920    88165461.92848
  23700291.380   124545873.41508  23700287.240    97048715.15546
  22476174.000   118113311.72709  22476170.100    92036423.89647
  21739581.280   114242383.17209  21739576.060    89020063.76248
  21726914.240   114175721.77309  21726913.260    88968096.94548
  22792163.740   121623371.54908  22792166.340    94595968.60106
  21046745.900   112664900.99108  21046746.220    87628290.82908
  22601144.020   121028146.32008  22601145.360    94133021.88707
  21216637.040   113295650.61808  21216637.720    88118844.07105
  20969786.300   112016831.26708  20969789.260    87124215.74708
  23410577.400   125274973.20408  23410578.080    97436177.85406
  20551384.620   109704899.54109  20551386.580    85326148.82308
  21411533.680   114537287.03208  21411533.140    89084564.47708
 15 02 25 01 13 30.0000000  0 14G16G18G19G21G22G27R02R03R04R09R16R17
                                R18R19
  20643045.220   108479946.22409  20643041.640    84529818.20349
  21529514.820   113138474.34809  21529511.180    88159881.88548
  23686033.620   124470948.77708  23686029.380    96990332.35347
  22488217.860   118176602.48709  22488213.860    92085741.35647
  21725923.080   114170608.40209  21725917.800    88964135.39348
  21716477.880   114120878.79309  21716476.860    88925362.16648
  22804017.560   121686626.31909  22804019.600    94645166.78807
  21038695.960   112621809.58308  21038696.280    87594775.31108
  22578412.120   120906417.26408  22578413.200    94038343.84607
  21213252.120   113277575.67308  21213252.800    88104785.78505
  20986586.340   112106574.06008  20986589.320    87194015.68708
  23423735.980   125345386.21407  23423736.660    97490943.50506
  20556651.100   109733012.55609  20556653.100    85348014.49908
  21402907.440   114491142.45709  21402906.800    89048674.28308
 15 02 25 01 14  0.0000000  0 14G16G18G19G21G22G27R02R03R04R09R16R17
                                R18R19
  20638292.120   108454968.16609  20638288.480    84510354.78048
  21528246.500   113131809.57109  21528242.880    88154688.55748
  23671785.380   124396074.07308  23671780.940    96931988.45446
  22500282.300   118240001.80208  22500278.240    92135143.42847
  21712331.280   114099183.05309  21712325.920    88908479.29848
  21706063.520   114066151.46409  21706062.520    88882717.51148
  22815993.400   121750530.59408  22815995.380    94694870.16107
  21030778.280   112579426.59108  21030778.720    87561810.77208
  22555705.120   120784822.01108  22555706.180    93943769.87407
  21210015.540   113260292.97508  21210016.260    88091343.69105
  21003486.740   112196852.79208  21003489.680    87264232.46208
  23436895.360   125415804.73108  23436895.880    97545713.41306
  20561940.600   109761248.51709  20561942.580    85369975.80408
  21394302.740   114445112.76609  21394301.920    89012873.42708
 15 02 25 01 14 30.0000000  0 14G16G18G19G21G22G27R02R03R04R09R16R17
                                R18R19
  20633638.460   108430512.56609  20633634.700    84491298.46848
  21527073.540   113125645.76109  21527069.960    88149885.59948
  23657547.520   124321254.16808  23657543.060    96873687.25846
  22512367.840   118303512.49408  22512363.820    92184632.28047
  21698807.140   114028113.65109  21698801.820    88853100.56548
  21695672.160   114011544.83709  21695671.220    88840166.90548
  22828090.800   121815086.11908  22828093.320    94745079.88706
  21022994.240   112537758.99208  21022994.600    87529402.65808
  22533024.760   120663369.49008  22533025.520    93849306.89607
  21206928.240   113243807.21908  21206928.920    88078521.43605
  21020487.460   112287667.25108  21020490.320    87334865.90908
  23450056.740   125486233.53207  23450056.920    97600491.42006
  20567253.980   109789611.88209  20567256.020    85392036.18708
  21385720.180   114399201.67609  21385719.400    88977164.79508
 15 02 25 01 15  0.0000000  0 14G16G18G19G21G22G27R02R03R04R09R16R17
                                R18R19
  20629083.420   108406575.68509  20629079.660    84472646.35349
  21525995.160   113119978.81509  21525991.560    88145469.81348
  23643319.120   124246483.75208  23643314.760    96815424.63547
  22524473.260   118367127.87308  22524469.400    92234202.70447
  21685350.220   113957397.84309  21685344.980    88797997.36048
  21685302.980   113957054.51509  21685302.060    88797706.91248
  22840309.160   121880284.78609  22840311.360    94795790.07807
  21015343.460   112496804.54408  21015343.620    87497549.21108
  22510370.760   120542058.74508  22510371.560    93754954.23207
  21203989.400   113228113.68408  21203990.000    88066315.36105
  21037586.740   112379008.05708  21037589.500    87405908.74608
  23463219.040   125556667.88607  23463219.520    97655273.61707
  20572590.240   109818097.27809  20572592.340    85414191.49908
  21377158.720   114353403.70409  21377158.040    88941544.16308
 15 02 25 01 15 30.0000000  0 14G16G18G19G21G22G27R02R03R04R09R16R17
                                R18R19
  20624627.160   108383158.16909  20624623.420    84454398.93749
  21525011.100   113114807.45809  21525007.400    88141440.18748
  23629100.100   124171762.40808  23629095.800    96757200.23447
  22536598.140   118430845.67708  22536594.540    92283852.92547
  21671960.900   113887037.15809  21671955.720    88743170.87648
  21674955.940   113902680.38509  21674955.080    88755337.45748
  22852647.240   121946123.62608  22852649.360    94846998.02507
  21007826.200   112456564.34408  21007826.380    87466251.30408
  22487743.760   120420893.54308  22487744.560    93660714.73007
  21201198.840   113213211.73708  21201199.320    88054724.95205
  21054783.480   112470869.71208  21054786.180    87477356.67308
  23476382.500   125627107.28508  23476382.820    97710059.79206
  20577949.160   109846703.70909  20577951.400    85436440.93208
  21368618.120   114307717.49709  21368617.540    88906010.47308
 15 02 25 01 16  0.0000000  0 14G16G18G19G21G22G27R02R03R04R09R16R17
                                R18R19
  20620270.720   108360265.41609  20620267.080    84436560.43049
  21524122.160   113110136.08809  21524118.400    88137800.17748
  23614891.340   124097094.73608  23614887.080    96699017.66746
  22548743.160   118494669.06808  22548739.720    92333585.42347
  21658640.400   113817037.78209  21658635.240    88688625.92948
  21664631.980   113848427.47509  21664631.160    88713062.46948
  22865105.640   122012604.15009  22865107.920    94898705.06007
  21000443.820   112417045.59708  21000444.040    87435514.52408
  22465145.500   120299882.67808  22465146.560    93566595.27707
  21198557.320   113199106.07908  21198557.900    88043753.88905
  21072077.720   112563252.12308  21072080.340    87549209.64008
  23489547.740   125697556.75608  23489547.680    97764853.86906
  20583331.480   109875435.30409  20583333.880    85458787.73108
  21360099.160   114262147.07309  21360098.740    88870566.83108
 15 02 25 01 16 30.0000000  0 14G16G18G19G21G22G27R02R03R04R09R16R17
                                R18R19
  20616014.280   108337898.03809  20616010.720    84419131.30248
  21523328.300   113105964.73309  21523324.580    88134549.77448
  23600692.620   124022479.80908  23600688.320    96640876.20747
  22560907.900   118558595.43408  22560904.460    92383398.17447
  21645388.960   113747401.14709  21645383.760    88634363.64148
  21654331.000   113794295.43109  21654330.220    88670881.66748
  22877683.480   122079722.18108  22877685.700    94950908.00407
  20993196.600   112378249.55808  20993196.400    87405339.84208
  22442576.660   120179029.34508  22442577.980    93472598.35407
  21196064.700   113185795.90508  21196065.300    88033401.52905
  21089468.380   112656149.75808  21089470.920    87621463.33908
  23502714.460   125768015.11008  23502714.620    97819654.75406
  20588737.020   109904290.79909  20588739.380    85481230.88308
  21351601.580   114216690.66109  21351601.300    88835211.87108
 15 02 25 01 17  0.0000000  0 14G16G18G19G21G22G27R02R03R04R09R16R17
                                R18R19
  20611857.860   108316056.10109  20611854.400    84402111.59949
  21522629.320   113102292.23909  21522625.660    88131688.09448
  23586503.780   123947916.73708  23586499.380    96582775.11547
  22573091.800   118622622.21909  22573088.400    92433289.14947
  21632206.760   113678128.23909  21632201.520    88580384.75448
  21644052.880   113740283.80809  21644052.140    88628794.68748
  22890380.220   122147474.24009  22890382.400    95003604.04107
  20986084.580   112340177.93008  20986084.200    87375728.57308
  22420037.880   120058336.90408  22420039.580    93378726.55207
  21193720.800   113173280.14408  21193721.600    88023667.03405
  21106954.420   112749556.85208  21106956.900    87694113.27108
  23515882.920   125838481.81608  23515883.160    97874462.15506
  20594165.540   109933268.89309  20594167.880    85503769.38808
  21343125.060   114171346.85309  21343124.780    88799944.46708
 15 02 25 01 17 30.0000000  0 14G16G18G19G21G22G27R02R03R04R09R16R17
                                R18R19
  20607802.040   108294742.71809  20607798.700    84385503.76749
  21522025.600   113099120.34109  21522022.060    88129216.50248
  23572325.200   123873407.60408  23572320.600    96524716.08846
  22585294.920   118686749.72709  22585291.500    92483258.63547
  21619094.540   113609223.38409  21619089.320    88526692.68848
  21633798.160   113686395.21709  21633797.500    88586803.59348
  22903195.760   122215859.10408  22903197.640    95056792.27107
  20979108.560   112302834.50208  20979108.120    87346683.72008
  22397530.400   119937811.48708  22397532.260    93284984.67607
  21191526.120   113161560.93408  21191527.040    88014552.10105
  21124535.300   112843470.72008  21124537.760    87767157.37408
  23529053.320   125908959.11108  23529053.520    97929277.82706
  20599617.360   109962371.27309  20599619.680    85526404.58708
  21334669.840   114126116.99109  21334669.540    88764765.71308
 15 02 25 01 18  0.0000000  0 14G16G18G19G21G22G27R02R03R04R09R16R17
                                R18R19
  20603847.080   108273959.10809  20603843.760    84369308.73849
  21521517.200   113096449.14109  21521513.700    88127135.06248
  23558156.860   123798952.67708  23558152.260    96466699.27647
  22597516.920   118750976.53608  22597513.500    92533305.50247
  21606052.760   113540688.75409  21606047.540    88473289.09448
  21623566.940   113632630.18709  21623566.280    88544908.77948
  22916129.020   122284874.16508  22916131.000    95110470.62907
  20972268.860   112266221.65208  20972268.640    87318207.07408
  22375055.140   119817457.67508  22375056.820    93191376.23007
  21189480.560   113150637.85708  21189481.540    88006056.36605
  21142210.120   112937886.60708  21142212.600    87840591.92508
  23542225.700   125979447.40207  23542225.620    97984102.04206
  20605092.460   109991597.76609  20605094.840    85549136.28908
  21326235.720   114081000.39009  21326235.320    88729675.02708
 15 02 25 01 18 30.0000000  0 14G16G18G19G21G22G27R02R03R04R09R16R17
                                R18R19
  20599992.800   108253704.80309  20599989.540    84353526.16149
  21521103.840   113094277.27409  21521100.340    88125442.70048
  23543998.640   123724550.57108  23543994.100    96408723.62947
  22609757.280   118815299.58708  22609753.820    92583427.35347
  21593081.540   113472524.92109  21593076.400    88420174.43048
  21613359.120   113578987.95409  21613358.460    88503109.65148
  22929179.840   122354514.91009  22929181.560    95164635.68207
  20965565.620   112230340.12108  20965565.560    87290299.24108
  22352612.580   119697278.19608  22352613.840    93097903.36907
  21187583.840   113140509.57408  21187584.940    87998178.80205
  21159977.800   113032798.60508  21159980.360    87914412.34908
  23555399.800   126049945.44207  23555399.740    98038933.84106
  20610590.560   110020946.70309  20610593.100    85571963.21608
  21317822.420   114035995.17909  21317821.920    88694670.97808
 15 02 25 01 19  0.0000000  0 14G16G18G19G21G22G27R02R03R04R09R16R17
                                R18R19
  20596239.580   108233981.36509  20596236.340    84338157.25549
  21520785.620   113092605.34009  21520782.180    88124139.90948
  23529850.660   123650201.97708  23529846.020    96350789.69547
  22622015.800   118879717.80609  22622012.240    92633623.36647
  21580181.300   113404734.09409  21580176.240    88367350.43748
  21603174.920   113525469.73509  21603174.260    88461407.15448
  22942347.400   122424778.99408  22942349.380    95219285.46707
  20958999.660   112195192.82008  20958999.840    87262962.46208
  22330203.460   119577277.88108  22330204.400    93004569.87807
  21185836.060   113131176.77208  21185837.140    87990919.94605
  21177837.560   113128202.46208  21177840.200    87988615.33008
  23568575.880   126120453.85408  23568575.880    98093773.70206
  20616111.680   110050418.36309  20616114.320    85594885.62208
  21309430.060   113991101.67409  21309429.420    88659753.82208
 15 02 25 01 19 30.0000000  0 13G16G18G19G21G22G27R02R03R04R09R16R18
                                R19
  20592587.880   108214791.54709  20592584.600    84323204.14549
  21520562.800   113091434.63109  21520559.420    88123227.67448
  23515713.000   123575908.62208  23515708.320    96292898.79147
  22634292.440   118944231.21709  22634288.740    92683893.54647
  21567352.900   113337320.56509  21567347.880    88314820.42948
  21593014.740   113472077.55809  21593014.060    88419802.87548
  22955631.560   122495664.67009  22955633.400    95274418.80807
  20952571.480   112160782.94908  20952571.900    87236199.25208
  22307828.760   119457462.40308  22307829.640    92911380.14607
  21184237.420   113122640.47808  21184238.480    87984280.59005
  21195788.820   113224094.78808  21195791.440    88063198.22308
  20621655.960   110080013.95409  20621658.560    85617904.41708
  21301058.660   113946320.30208  21301058.000    88624923.88308
 15 02 25 01 20  0.0000000  0 13G16G18G19G21G22G27R02R03R04R09R16R18
                                R19
  20589037.920   108196136.17609  20589034.540    84308667.49149
  21520435.420   113090765.42609  21520432.160    88122706.22848
  23501585.880   123501670.38908  23501581.320    96235050.83447
  22646587.080   119008838.95909  22646583.320    92734237.23147
  21554596.700   113270286.20009  21554591.640    88262585.86548
  21582878.720   113418812.01409  21582877.980    88378297.26248
  22969031.500   122567168.98909  22969033.380    95330033.25307
  20946281.600   112127112.85208  20946281.980    87210011.40708
  22285489.380   119337836.58608  22285490.320    92818337.93207
  21182787.980   113114900.41908  21182788.920    87978260.55005
  21213830.660   113320471.10708  21213833.300    88138157.55208
  20627223.360   110109733.25209  20627225.840    85641019.41708
  21292707.960   113901650.64308  21292707.500    88590180.82508
 15 02 25 01 20 30.0000000  0 13G16G18G19G21G22G27R02R03R04R09R16R18
                                R19
  20585589.920   108178016.61909  20585586.380    84294548.35049
  21520403.460   113090597.11809  21520400.220    88122575.08548
  23487469.400   123427487.63308  23487465.000    96177246.10547
  22658899.200   119073538.81709  22658895.300    92784652.68247
  21541913.020   113203632.67109  21541907.920    88210648.06448
  21572766.960   113365673.59209  21572766.120    88336890.71648
  22982546.700   122639288.77708  22982548.360    95386126.44807
  20940130.340   112094184.17808  20940130.760    87184400.22708
  22263186.040   119218404.04608  22263187.080    92725446.03507
  21181487.680   113107956.31508  21181488.440    87972859.57205
  21231962.160   113417326.37808  21231964.800    88213489.40308
  20632813.940   110139576.02009  20632816.320    85664230.44308
  21284378.020   113857092.01408  21284377.820    88555524.12608
 15 02 25 01 21  0.0000000  0 13G16G18G19G21G22G27R02R03R04R09R16R18
                                R19
  20582243.980   108160433.27809  20582240.280    84280847.04549
  21520466.840   113090929.46709  21520463.520    88122834.07548
  23473363.360   123353360.01908  23473358.920    96119484.34247
  22671228.460   119138328.96109  22671224.400    92835138.50947
  21529302.120   113137361.71809  21529296.960    88159008.37548
  21562679.480   113312662.76409  21562678.500    88295583.58448
  22996176.560   122712020.62308  22996178.400    95442695.64807
  20934118.040   112061998.99808  20934118.380    87159367.32208
  22240919.740   119099169.25808  22240920.740    92632707.93207
  21180336.280   113101807.48708  21180337.000    87968077.14205
  21250182.420   113514655.63808  21250185.020    88289189.90108
  20638427.540   110169541.71309  20638429.840    85687537.09508
  21276068.820   113812643.83609  21276068.740    88520953.34208
 15 02 25 01 21 30.0000000  0 13G16G18G19G21G22G27R02R03R04R09R16R18
                                R19
  20579000.540   108143388.62109  20578996.740    84267565.48449
  21520625.800   113091763.96209  21520622.380    88123484.33248
  23459268.200   123279289.20908  23459263.560    96061766.84447
  22683574.820   119203209.27608  22683570.660    92885694.60347
  21516764.680   113071477.06809  21516759.540    88107669.71348
  21552616.620   113259781.60009  21552615.560    88254377.48848
  23009920.920   122785363.13809  23009922.760    95499739.82107
  20928245.220   112030560.58908  20928245.480    87134915.23808
  22218691.460   118980138.02108  22218692.360    92540128.14107
  21179334.080   113096455.06908  21179334.740    87963914.15005
  21268490.800   113612455.45308  21268493.420    88365256.40708
  20644064.360   110199631.51309  20644066.660    85710940.26508
  21267780.500   113768306.98009  21267780.340    88486469.12808
 15 02 25 01 22  0.0000000  0 13G16G18G19G21G22G27R02R03R04R09R16R18
                                R19
  20575859.600   108126882.85409  20575855.800    84254703.84749
  21520880.200   113093100.07309  21520876.600    88124525.46848
  23445183.660   123205274.75908  23445179.040    96004093.27447
  22695937.940   119268178.17609  22695933.780    92936319.70747
  21504300.920   113005980.06409  21504295.840    88056633.09948
  21542578.360   113207030.14809  21542577.300    88213272.47348
  23023779.020   122859312.50208  23023780.540    95557255.99207
  20922512.140   111999870.33908  20922512.360    87111045.07108
  22196501.860   118861313.73408  22196502.800    92447709.33507
  21178480.800   113091897.97408  21178481.360    87960369.72805
  21286886.300   113710720.38608  21286888.940    88441684.66108
  20649724.300   110229844.73709  20649726.660    85734439.44508
  21259512.700   113724079.98008  21259512.420    88452070.36308
 15 02 25 01 22 30.0000000  0 13G16G18G19G21G22G27R02R03R04R09R16R18
                                R19
  20572821.020   108110915.04809  20572817.260    84242261.39449
  21521229.420   113094934.94209  21521225.760    88125955.24748
  23431109.460   123131314.26508  23431104.740    95946461.73247
  22708317.120   119333231.64708  22708313.080    92987010.72147
  21491910.840   112940870.19809  21491905.880    88005898.15548
  21532564.340   113154406.59909  21532563.360    88172267.12048
  23037749.680   122933862.87508  23037751.180    95615239.62707
  20916918.680   111969927.63108  20916918.780    87087756.30208
  22174351.380   118742698.75308  22174352.320    92355453.32007
  21177775.920   113088133.40108  21177776.460    87957441.72705
  21305367.520   113809443.25008  21305370.100    88518469.08108
  20655406.920   110260178.75609  20655409.260    85758032.56508
  21251264.920   113679960.09209  21251264.660    88417754.89908
 15 02 25 01 23  0.0000000  0 13G16G18G19G21G22G27R02R03R04R09R16R18
                                R19
  20569886.020   108095491.62109  20569882.340    84230243.14049
  21521674.560   113097273.96109  21521670.900    88127777.86148
  23417046.700   123057414.00708  23417041.980    95888877.13047
  22720713.120   119398373.82108  22720709.300    93037770.83847
  21479595.940   112876155.09309  21479591.020    87955470.81748
  21522575.880   113101917.44709  21522575.020    88131366.49248
  23051833.480   123009017.01808  23051835.300    95673692.84407
  20911466.200   111940740.09208  20911466.220    87065054.89708
  22152241.820   118624302.92708  22152242.760    92263367.75007
  21177220.320   113085166.61408  21177220.960    87955134.22805
  21323934.680   113908625.16508  21323937.240    88595610.55608
  20661113.320   110290639.29009  20661115.560    85781724.09008
  21243038.280   113635952.83409  21243038.000    88383527.03408
 15 02 25 01 23 30.0000000  0 13G16G18G19G21G22G27R02R03R04R09R16R18
                                R19
  20567054.020   108080609.42409  20567050.400    84218646.62249
  21522214.900   113100113.41709  21522211.260    88129990.43048
  23402994.560   122983569.92008  23402989.940    95831336.31647
  22733125.080   119463599.40008  22733121.400    93088595.96147
  21467355.860   112811833.21209  21467351.000    87905349.88548
  21512612.440   113049559.39509  21512611.660    88090568.01248
  23066029.020   123084767.95608  23066031.040    95732610.23007
  20906154.380   111912305.68608  20906154.440    87042939.26008
  22130173.280   118506126.49808  22130174.080    92171452.80807
  21176813.220   113082993.09908  21176813.920    87953443.70805
  21342586.060   114008257.31808  21342588.640    88673102.19808
  20666842.560   110321222.13609  20666844.780    85805510.74908
  21234831.800   113592053.45908  21234831.340    88349383.09008
 15 02 25 01 24  0.0000000  0 13G16G18G19G21G22G27R02R03R04R09R16R18
                                R19
  20564325.440   108066270.89409  20564321.940    84207473.74249
  21522850.640   113103454.30809  21522847.020    88132593.73648
  23388953.500   122909783.84408  23388948.820    95773840.68047
  22745552.920   119528908.22408  22745549.280    93139485.94547
  21455191.280   112747907.86009  21455186.420    87855537.95148
  21502674.420   112997334.57909  21502673.640    88049873.36148
  23080336.080   123161113.57308  23080338.020    95791990.16207
  20900983.820   111884627.51408  20900983.920    87021411.81608
  22108146.760   118388175.42808  22108147.540    92079713.16607
  21176554.720   113081613.77008  21176555.660    87952370.89205
  21361321.060   114108336.14108  21361323.640    88750941.26208
  20672594.920   110351928.61309  20672597.240    85829393.55908
  21226645.600   113548263.05308  21226644.940    88315323.91608
 15 02 25 01 24 30.0000000  0 13G16G18G19G21G22G27R02R03R04R09R16R18
                                R19
  20561700.420   108052476.80109  20561697.060    84196725.09949
  21523581.780   113107296.60109  21523578.180    88135587.73548
  23374923.320   122836055.98308  23374918.980    95716390.44447
  22757996.420   119594299.01108  22757992.800    93190439.78947
  21443102.560   112684381.10809  21443097.640    87806036.60048
  21492761.880   112945243.77709  21492761.120    88009283.12849
  23094754.020   123238050.76708  23094756.040    95851830.21907
  20895954.860   111857707.40508  20895954.840    87000473.96208
  22086163.140   118270454.20508  22086163.900    91988152.29207
  21176444.920   113081028.20208  21176446.040    87951915.44905
  21380138.760   114208856.96808  21380141.400    88829124.11008
  20678370.380   110382758.55009  20678372.760    85853372.41708
  21218479.680   113504581.30409  21218479.040    88281349.24208
 15 02 25 01 25  0.0000000  0 13G16G18G19G21G22G27R02R03R04R09R16R18
                                R19
  20559178.940   108039226.92609  20559175.680    84186400.52049
  21524407.960   113111638.55009  21524404.380    88138971.08448
  23360904.160   122762385.38308  23360900.060    95658984.80247
  22770455.000   119659768.70209  22770451.320    93241455.11047
  21431089.820   112621253.25209  21431084.680    87756846.08148
  21482874.640   112893286.33309  21482873.940    87968796.82649
  23109281.720   123315575.05008  23109283.940    95912126.85206
  20891067.520   111831545.39708  20891067.540    86980125.76008
  22064222.980   118152965.96908  22064223.580    91896772.60607
  21176483.420   113081233.99808  21176484.680    87952075.50605
  21399038.080   114309813.70008  21399040.820    88907645.98008
  20684168.700   110413710.67709  20684171.100    85877446.29608
  21210333.820   113461006.20009  21210333.320    88247457.49808
 15 02 25 01 25 30.0000000  0 13G16G18G19G21G22G27R02R03R04R09R16R18
                                R19
  20556761.720   108026524.91609  20556758.580    84176502.84949
  21525329.680   113116482.79209  21525326.120    88142745.82848
  23346896.380   122688774.84308  23346892.240    95601625.96647
  22782928.920   119725319.22908  22782925.200    93292533.44547
  21419153.940   112558529.15709  21419148.560    87707970.18548
  21473013.400   112841465.73709  21473012.740    87928417.14948
  23123919.640   123393685.91008  23123921.460    95972879.79906
  20886322.640   111806146.39208  20886322.860    86960370.98908
  22042327.560   118035717.74908  22042328.180    91805579.62007
  21176670.620   113082233.61408  21176671.900    87952852.97105
  21418018.600   114411204.38008  21418021.460    88986505.37708
  20689990.360   110444787.54709  20689992.800    85901617.18908
  21202208.480   113417540.24309  21202207.980    88213650.64708
 15 02 25 01 26  0.0000000  0 13G16G18G19G21G22G27R02R03R04R09R16R18
                                R19
  20554448.300   108014368.16209  20554445.220    84167030.05349
  21526346.260   113121825.36609  21526342.720    88146908.89148
  23332899.640   122615220.89208  23332895.380    95544311.20647
  22795417.200   119790945.32308  22795413.500    93343670.65747
  21407294.600   112496207.32609  21407289.020    87659407.73448
  21463177.740   112789779.12909  21463177.040    87888141.88048
  23138666.160   123472376.27108  23138667.920    96034083.38406
  20881719.920   111781507.96808  20881720.160    86941207.79208
  22020477.080   117918710.32608  22020477.760    91714573.91507
  21177005.660   113084022.52008  21177006.940    87954244.34205
  21437078.760   114513020.30708  21437081.660    89065695.52608
  20695834.740   110475985.41809  20695837.300    85925882.19108
  21194102.720   113374179.28609  21194102.040    88179925.47908
 15 02 25 01 26 30.0000000  0 13G16G18G19G21G22G27R02R03R04R09R16R18
                                R19
  20552239.440   108002760.49309  20552236.340    84157985.11849
  21527458.260   113127669.36709  21527454.720    88151462.66748
  23318914.500   122541727.45308  23318910.000    95487043.60547
  22807920.140   119856648.86309  22807916.500    93394868.19847
  21395512.720   112434292.76109  21395507.020    87611162.64348
  21453368.480   112738230.65209  21453367.660    87847974.24449
  23153521.280   123551646.36308  23153522.980    96095737.92507
  20877260.360   111757635.54108  20877260.580    86922640.36108
  21998673.040   117801951.61608  21998673.740    91623761.65607
  21177489.020   113086603.32308  21177490.240    87956251.62705
  21456218.240   114615260.20408  21456221.140    89145215.41408
  20701702.460   110507307.80709  20701705.080    85950244.04808
  21186016.980   113330926.25908  21186016.140    88146284.24408
 15 02 25 01 27  0.0000000  0 13G16G18G19G21G22G27R02R03R04R09R16R18
                                R19
  20550135.380   107991703.03109  20550132.160    84149368.91249
  21528665.840   113134015.38709  21528662.360    88156407.62448
  23304941.020   122468295.29508  23304936.320    95429823.76247
  22820437.620   119922429.08209  22820434.040    93446125.51247
  21383808.840   112372788.32009  21383803.040    87563237.12348
  21443585.780   112686821.72209  21443584.880    87807915.34249
  23168484.460   123631493.49008  23168486.520    96157841.24007
  20872944.400   111734531.13308  20872944.540    86904670.28708
  21976916.580   117685446.80608  21976916.980    91533146.84707
  21178120.740   113089975.81508  21178121.760    87958874.67405
  21475436.280   114717919.62308  21475439.240    89225061.59808
  20707593.520   110538755.18509  20707596.120    85974703.11708
  21177951.420   113287781.51108  21177950.680    88112727.24308
 15 02 25 01 27 30.0000000  0 13G16G18G19G21G22G27R02R03R04R09R16R18
                                R19
  20548136.580   107981198.70909  20548133.220    84141183.71649
  21529969.160   113140864.43009  21529965.700    88161744.55448
  23290979.320   122394925.82408  23290974.680    95372652.77147
  22832969.820   119988286.12809  22832966.260    93497442.68447
  21372183.580   112311697.21909  21372177.780    87515633.68248
  21433830.040   112635554.49709  21433829.080    87767966.86349
  23183555.320   123711915.72208  23183557.640    96220391.86006
  20868772.420   111712197.67008  20868772.480    86887299.83008
  21955208.580   117569201.54008  21955209.000    91442733.92907
  21178900.860   113094140.65108  21178901.660    87962113.97505
  21494732.340   114820995.75508  21494735.300    89305231.89808
  20713508.260   110570329.12009  20713510.760    85999260.61808
  21169906.340   113244746.13708  21169905.860    88079255.31108
 15 02 25 01 28  0.0000000  0 13G16G18G19G21G22G27R02R03R04R09R16R18
                                R19
  20546243.200   107971248.36009  20546239.700    84133430.19749
  21531368.140   113148216.07809  21531364.720    88167473.12348
  23277029.520   122321619.69308  23277025.060    95315531.14147
  22845516.440   120054219.15508  22845512.860    93548819.05747
  21360637.340   112251021.48109  21360631.560    87468353.90748
  21424101.400   112584429.87909  21424100.380    87728129.51049
  23198733.560   123792909.91908  23198736.000    96283387.34907
  20864744.660   111690636.66208  20864744.560    86870530.15908
  21933549.980   117453220.43708  21933550.260    91352526.46107
  21179829.100   113099097.01708  21179829.860    87965968.92305
  21514105.420   114924483.16608  21514108.300    89385722.07108
  20719446.740   110602029.49209  20719449.240    86023916.45708
  21161881.680   113201819.93809  21161881.440    88045868.28808
 15 02 25 01 28 30.0000000  0 13G16G18G19G21G22G27R02R03R04R09R16R18
                                R19
  20544454.560   107961848.36509  20544450.960    84126105.52649
  21532861.820   113156065.51109  21532858.460    88173589.58148
  23263091.000   122248372.69608  23263086.540    95258455.57747
  22858076.220   120120221.66808  22858072.660    93600249.58447
  21349169.620   112190758.58109  21349163.980    87421395.81648
  21414399.140   112533444.21309  21414398.180    87688400.43549
  23214017.520   123874468.16208  23214020.240    96346821.51807
  20860860.700   111669845.25208  20860860.380    86854359.07508
  21911940.660   117337503.26608  21911940.860    91262524.27707
  21180904.460   113104839.43508  21180905.220    87970435.23605
  21533553.900   115028372.98008  21533556.640    89466525.22708
  20725408.120   110633851.88009  20725410.680    86048667.20708
  21153876.500   113158997.86409  21153876.260    88012562.23808
 15 02 25 01 29  0.0000000  0 13G16G18G19G21G22G27R02R03R04R09R16R18
                                R19
  20542770.820   107952999.88609  20542767.120    84119210.60549
  21534450.420   113164413.55309  21534447.000    88180094.55948
  23249164.140   122175186.50308  23249159.700    95201427.38947
  22870649.220   120186293.43108  22870645.640    93651734.06947
  21337780.960   112130911.36609  21337775.540    87374761.64248
  21404723.660   112482599.33309  21404722.740    87648781.06249
  23229406.980   123956588.00708  23229409.640    96410692.52507
  20857120.920   111649825.76208  20857120.500    86838788.36908
  21890381.580   117222055.54008  21890381.760    91172731.65307
  21182127.020   113111368.12608  21182127.840    87975513.10105
  21553076.960   115132661.20008  21553079.600    89547638.25608
  20731392.580   110665797.39509  20731395.220    86073513.71008
  21145891.080   113116280.76209  21145890.680    87979337.82108
 15 02 25 01 29 30.0000000  0 13G16G18G19G21G22G27R02R03R04R09R16R18
                                R19
  20541192.660   107944706.28209  20541188.920    84112748.05249
  21536134.320   113173262.23109  21536130.880    88186989.63548
  23235249.320   122102063.32608  23235244.720    95144448.31047
  22883235.760   120252436.07909  22883232.140    93703273.77447
  21326472.140   112071483.83809  21326466.940    87328454.49848
  21395075.500   112431898.29109  21395074.640    87609273.76548
  23244901.500   124039268.49208  23244904.040    96474999.54407
  20853525.980   111630581.90308  20853525.620    86823820.93608
  21868874.140   117106884.10808  21868874.320    91083153.91307
  21183497.060   113118684.22308  21183497.840    87981203.39205
  21572674.160   115237345.31608  21572676.680    89629059.21007
  20737400.500   110697868.29909  20737403.140    86098457.74708
  21137925.660   113073670.56909  21137925.140    87946196.58708
 15 02 25 01 30  0.0000000  0 13G16G18G19G21G22G27R02R03R04R09R16R18
                                R19
  20539719.940   107936966.72609  20539716.160    84106717.22349
  21537913.160   113182609.55209  21537909.620    88194273.27048
  23221346.220   122029001.81908  23221341.500    95087517.28247
  22895835.220   120318646.50709  22895831.600    93754866.29947
  21315243.320   112012476.61909  21315238.300    87282474.85948
  21385454.600   112381340.33309  21385453.720    87569877.95348
  23260500.100   124122504.41508  23260502.440    96539738.61806
  20850075.760   111612113.12708  20850075.540    86809456.34908
  21847418.660   116991991.67808  21847418.980    90993793.19407
  21185014.080   113126785.02308  21185014.860    87987504.00405
  21592344.240   115342418.75708  21592346.640    89710782.95807
  20743431.580   110730062.92109  20743434.360    86123498.00408
  21129979.720   113031165.29009  21129979.240    87913136.93408
 15 02 25 01 30 30.0000000  0 13G16G18G19G21G22G27R02R03R04R09R16R18
                                R19
  20538353.760   107929786.92109  20538349.920    84101122.57049
  21539787.700   113192459.95509  21539784.100    88201948.91148
  23207455.760   121956007.53908  23207451.120    95030638.66047
  22908448.320   120384928.24309  22908444.620    93806514.38547
  21304095.800   111953896.37109  21304090.860    87236827.93148
  21375862.060   112330931.37709  21375861.160    87530598.24549
  23276203.000   124206297.53008  23276204.980    96604911.04707
  20846771.580   111594426.23508  20846771.720    86795699.87708
  21826017.060   116877387.94908  21826017.420    90904657.00907
  21186678.800   113135674.63308  21186679.640    87994418.14705
  21612087.220   115447881.83108  21612089.520    89792809.78007
  20749486.980   110762386.48009  20749489.720    86148638.55508
  21122054.320   112988769.84009  21122053.720    87880162.70208
 15 02 25 01 31  0.0000000  0 14G16G18G19G21G22G27R02R03R04R09R10R16
                                R18R19
  20537093.060   107923161.58209  20537089.180    84095959.96449
  21541756.780   113202807.14409  21541753.060    88210011.66748
  23193577.040   121883074.91508  23193572.500    94973808.05847
  22921073.640   120451274.07808  22921069.720    93858212.44447
  21293028.900   111895739.32409  21293023.920    87191510.77048
  21366296.880   112280666.36309  21366296.000    87491430.70648
  23292008.460   124290638.58608  23292010.200    96670509.66106
  20843612.500   111577516.01108  20843613.060    86782547.51408
  21804669.180   116763071.55108  21804669.640    90815744.32508
  21188489.880   113145345.95608  21188490.820    88001940.28305
  23583411.140   125712849.28408  23583416.680    97776681.17905
  21631901.100   115553723.90108  21631903.380    89875131.34908
  20755565.540   110794833.16809  20755568.300    86173874.85108
  21114148.200   112946477.74209  21114147.560    87847268.84608
 15 02 25 01 31 30.0000000  0 14G16G18G19G21G22G27R02R03R04R09R10R16
                                R18R19
  20535938.480   107917093.82409  20535934.560    84091231.83549
  21543820.740   113213653.08309  21543816.900    88218463.04448
  23179710.580   121810206.86408  23179706.260    94917027.77347
  22933711.320   120517685.19809  22933707.360    93909961.35447
  21282043.340   111838009.62509  21282038.300    87146526.60148
  21356759.780   112230548.59609  21356758.900    87452377.89649
  23307916.380   124375526.44208  23307918.260    96736533.53007
  20840599.260   111561386.66408  20840600.060    86770002.47008
  21783376.120   116649049.00408  21783376.600    90727060.16408
  21190447.520   113155800.16008  21190448.580    88010071.32205
  23567072.860   125625760.01708  23567078.800    97708945.09805
  21651785.460   115659942.53008  21651787.700    89957745.81108
  20761667.600   110827405.40209  20761670.260    86199208.80208
  21106261.840   112904291.14409  21106261.380    87814457.06108
 15 02 25 01 32  0.0000000  0 14G16G18G19G21G22G27R02R03R04R09R10R16
                                R18R19
  20534889.700   107911582.29609  20534885.760    84086937.13349
  21545979.160   113224995.76409  21545975.300    88227301.51448
  23165856.200   121737401.98908  23165851.860    94860296.72847
  22946360.780   120584158.51709  22946356.780    93961758.73147
  21271139.080   111780707.17109  21271134.000    87101875.34848
  21347250.520   112180577.23909  21347249.680    87413439.18949
  23323925.820   124460955.73008  23323927.920    96802978.52906
  20837731.840   111546037.21308  20837732.440    86758064.00408
  21762138.680   116535323.65408  21762139.120    90638607.15107
  21192551.240   113167034.29908  21192552.360    88018808.98405
  23550838.400   125539222.53407  23550844.100    97641638.04905
  21671739.020   115766530.91708  21671741.300    90040647.85007
  20767792.780   110860101.53809  20767795.300    86224639.11708
  21098394.940   112862208.26609  21098394.580    87781725.95508
 15 02 25 01 32 30.0000000  0 14G16G18G19G21G22G27R02R03R04R09R10R16
                                R18R19
  20533947.280   107906629.78209  20533943.320    84083078.03049
  21548232.320   113236836.36009  21548228.440    88236527.95648
  23152014.280   121664662.36408  23152009.880    94803616.51547
  22959022.240   120650695.10708  22959018.240    94013605.39847
  21260316.840   111723835.81309  21260311.800    87057560.01748
  21337769.620   112130755.11809  21337768.900    87374616.76349
  23340036.380   124546925.29608  23340038.580    96869843.76206
  20835010.800   111531471.08008  20835011.340    86746734.80208
  21740957.740   116421901.15308  21740958.220    90550389.68808
  21194801.160   113179049.20308  21194802.340    88028153.90105
  23534708.060   125453241.35208  23534714.280    97574763.81905
  21691761.300   115873486.41708  21691763.720    90123835.43307
  20773941.440   110892923.65509  20773944.020    86250167.43708
  21090547.820   112820230.94109  21090547.260    87749076.92908
 15 02 25 01 33  0.0000000  0 14G16G18G19G21G22G27R02R03R04R09R10R16
                                R18R19
  20533111.760   107902239.13909  20533107.780    84079656.74449
  21550580.520   113249176.69909  21550576.700    88246143.81748
  23138185.220   121591990.64908  23138180.780    94746989.23547
  22971695.780   120717295.40308  22971691.780    94065501.73347
  21249577.360   111667399.56709  21249572.360    87013583.74448
  21328317.760   112081085.17409  21328317.100    87335912.92949
  23356247.960   124633433.48408  23356250.060    96937127.92707
  20832436.640   111517691.26608  20832436.980    86736017.17708
  21719834.740   116308788.70208  21719835.360    90462413.38907
  21197197.500   113191845.72808  21197198.720    88038106.74105
  23518683.620   125367822.93508  23518690.340    97508327.27705
  21711851.760   115980806.23508  21711854.300    90207306.37507
  20780114.060   110925873.96209  20780116.780    86275795.46208
  21082720.720   112778360.66709  21082720.000    87716511.16608
 15 02 25 01 33 30.0000000  0 14G16G18G19G21G22G27R02R03R04R09R10R16
                                R18R19
  20532382.760   107898408.66009  20532378.840    84076671.95049
  21553023.300   113262014.02009  21553019.560    88256146.92348
  23124368.740   121519384.83508  23124364.360    94690413.29347
  22984380.920   120783956.22708  22984377.100    94117445.21547
  21238920.580   111611397.73709  21238915.520    86969945.97548
  21318894.620   112031566.07909  21318893.960    87297326.62749
  23372559.400   124720474.43708  23372561.280    97004826.43106
  20830009.260   111504696.75908  20830009.440    86725910.33908
  21698770.040   116195988.20808  21698770.740    90374679.72008
  21199739.540   113205420.10708  21199740.740    88048664.57905
  23502765.000   125282967.64308  23502771.280    97442328.63505
  21732009.080   116088483.14108  21732011.700    90291055.04407
  20786310.340   110958950.36609  20786313.000    86301521.52108
  21074913.160   112736595.05209  21074912.400    87684026.80308
 15 02 25 01 34  0.0000000  0 14G16G18G19G21G22G27R02R03R04R09R10R16
                                R18R19
  20531760.220   107895137.62909  20531756.360    84074123.09749
  21555560.320   113275346.74209  21555556.660    88266536.07248
  23110564.740   121446844.39408  23110560.500    94633888.31747
  22997077.020   120850674.84508  22997073.200    94169433.75147
  21228346.680   111555831.29109  21228341.480    86926647.46448
  21309500.160   111982197.61909  21309499.440    87258857.71049
  23388969.940   124808043.51608  23388971.760    97072935.80607
  20827728.460   111492487.12408  20827728.540    86716413.97908
  21677764.120   116083503.01508  21677764.980    90287191.29208
  21202426.840   113219769.90108  21202427.940    88059825.53005
  23486952.540   125198677.89008  23486958.760    97376769.98005
  21752232.160   116196511.13808  21752234.880    90375076.79008
  20792530.140   110992151.79509  20792532.660    86327344.85908
  21067124.860   112694932.70109  21067124.000    87651622.76908
 15 02 25 01 34 30.0000000  0 14G16G18G19G21G22G27R02R03R04R09R10R16
                                R18R19
  20531244.560   107892428.40609  20531240.780    84072012.00649
  21558191.840   113289176.20309  21558188.320    88277312.28048
  23096773.660   121374371.49008  23096769.360    94577415.94547
  23009784.360   120917452.25508  23009780.660    94221468.08047
  21217856.280   111500703.57309  21217850.940    86883690.81348
  21300134.860   111932982.47809  21300133.980    87220508.24749
  23405478.900   124896139.15208  23405480.960    97141454.55307
  20825594.760   111481065.24208  20825594.700    86707530.28608
  21656818.340   115971339.63008  21656819.380    90199953.13908
  21205259.440   113234895.53108  21205260.400    88071589.89805
  23471247.220   125114958.84108  23471253.440    97311655.16305
  21772520.360   116304887.18108  21772523.160    90459369.22907
  20798773.700   111025480.24909  20798776.160    86353266.98108
  21059356.180   112653375.44808  21059355.180    87619300.45508
 15 02 25 01 35  0.0000000  0 14G16G18G19G21G22G27R02R03R04R09R10R16
                                R18R19
  20530835.500   107890279.25409  20530831.800    84070337.34449
  21560917.260   113303499.13609  21560913.880    88288473.01948
  23082995.100   121301964.28509  23082990.660    94520994.77347
  23022502.120   120984284.33509  23022498.380    94273545.00947
  21207449.220   111446013.93809  21207443.840    86841075.52948
  21290798.460   111883919.16009  21290797.400    87182277.09248
  23422085.540   124984754.91108  23422087.600    97210377.97806
  20823607.940   111470429.58508  20823607.700    86699258.12208
  21635933.060   115859499.92808  21635933.940    90112966.74408
  21208236.560   113250792.92608  21208237.440    88083954.54105
  23455649.060   125031811.05308  23455655.180    97246984.63205
  21792872.420   116413604.10408  21792875.260    90543926.79807
  20805040.600   111058933.37409  20805042.940    86379286.07208
  21051606.460   112611920.17109  21051605.620    87587057.47208
 15 02 25 01 35 30.0000000  0 15G04G16G18G19G21G22G27R02R03R04R09R10
                                R16R18R19
  24567361.300   129102348.35006  24567361.440   100599236.47743
  20530533.580   107888693.06609  20530529.980    84069101.34349
  21563737.000   113318317.79509  21563733.800    88300020.03048
  23069229.660   121229625.58709  23069225.020    94464626.97947
  23035230.700   121051173.23808  23035226.960    94325666.22047
  21197126.300   111391766.85809  21197120.920    86798805.09248
  21281491.660   111835011.30909  21281490.500    87144167.08149
  23438789.520   125073890.46908  23438791.800    97279705.64407
  20821768.560   111460583.86608  20821768.280    86691600.34908
  21615109.580   115747991.06308  21615110.400    90026237.66808
  21211358.400   113267463.30308  21211359.260    88096920.38405
  23440159.460   124949241.11108  23440165.340    97182763.51605
  21813287.880   116522659.54108  21813290.720    90628747.65907
  20811331.400   111092514.02709  20811333.620    86405404.34108
  21043876.300   112570569.96709  21043875.560    87554896.20608
 15 02 25 01 36  0.0000000  0 15G04G16G18G19G21G22G27R02R03R04R09R10
                                R16R18R19
  24549489.600   129008432.14306  24549489.320   100526055.27343
  20530347.240   107887714.20809  20530343.760    84068338.59949
  21566659.400   113333675.58609  21566656.300    88311987.15348
  23055485.640   121157399.71508  23055480.800    94408347.09947
  23047978.180   121118161.62408  23047974.480    94377864.96247
  21186896.200   111338007.61409  21186890.880    86756914.79948
  21272223.040   111786303.94909  21272221.820    87106213.29149
  23455598.600   125163586.61008  23455600.960    97349469.33607
  20820085.320   111451573.37008  20820084.980    86684592.20308
  21594357.040   115636862.37608  21594357.880    89939804.30108
  21214633.140   113284950.19508  21214633.980    88110521.29305
  23424786.940   124867296.45508  23424792.960    97119028.84505
  21833774.220   116632093.60408  21833777.060    90713863.00807
  20817654.520   111126267.19909  20817656.740    86431656.80608
  21036174.120   112529369.08609  21036173.300    87522851.08708
 15 02 25 01 36 30.0000000  0 15G04G16G18G19G21G22G27R02R03R04R09R10
                                R16R18R19
  24531636.180   128914611.92506  24531635.620   100452948.81043
  20530258.440   107887247.84509  20530255.040    84067975.20349
  21569666.040   113349475.62809  21569662.980    88324298.89248
  23041744.880   121085191.34709  23041739.820    94352080.86347
  23060726.040   121185152.18808  23060722.320    94430065.39047
  21176741.160   111284642.61609  21176735.840    86715331.71048
  21262974.340   111737701.85009  21262973.240    87068341.53248
  23472493.300   125253742.44807  23472495.820    97419590.51906
  20818540.220   111443301.84708  20818539.780    86678158.80708
  21573658.160   115526020.47908  21573658.900    89853593.97408
  21218042.180   113303154.19008  21218042.920    88124679.95405
  23409514.060   124785882.95108  23409520.040    97055707.20505
  21854312.260   116741803.65708  21854315.060    90799193.01107
  20823991.700   111160095.55809  20823994.040    86457967.74308
  21028481.680   112488219.80709  21028480.860    87490846.10508
 15 02 25 01 37  0.0000000  0 15G04G16G18G19G21G22G27R02R03R04R09R10
                                R16R18R19
  24513812.960   128820951.14406  24513812.560   100379966.59844
  20530279.140   107887356.79709  20530275.820    84068060.09549
  21572768.760   113365780.32909  21572765.680    88337003.86048
  23028019.460   121013063.76309  23028014.400    94295877.56247
  23073486.020   121252206.45608  23073482.280    94482315.45047
  21166673.360   111231735.89909  21166668.020    86674105.70948
  21253757.680   111689268.85209  21253756.820    87030601.54649
  23489485.600   125344417.82809  23489488.340    97490115.84507
  20817145.000   111435833.40808  20817144.660    86672350.03008
  21553025.580   115415534.10808  21553026.200    89767660.18408
  21221597.200   113322137.35208  21221597.840    88139444.62805
  23394353.360   124705067.68108  23394359.020    96992850.86905
  21874913.040   116851848.99208  21874915.780    90884783.80307
  20830355.020   111194063.02609  20830357.340    86484386.88608
  21020810.800   112447185.80409  21020810.160    87458930.78108
 15 02 25 01 37 30.0000000  0 15G04G16G18G19G21G22G27R02R03R04R09R10
                                R16R18R19
  24496018.220   128727440.23906  24496017.980   100307101.15544
  20530407.460   107888031.04209  20530404.140    84068585.47849
  21575965.500   113382578.88809  21575962.380    88350093.65548
  23014307.480   120941007.09008  23014302.440    94239729.51347
  23086255.900   121319312.93408  23086252.040    94534606.20247
  21156691.220   111179279.01609  21156685.780    86633230.23248
  21244571.340   111640995.59409  21244570.780    86992986.03149
  23506572.840   125435598.83107  23506575.680    97561034.40506
  20815897.960   111429158.20808  20815897.620    86667158.22008
  21532458.180   115305396.78608  21532458.780    89681997.85808
  21225295.920   113341887.81408  21225296.500    88154806.10805
  23379303.520   124624843.01908  23379309.000    96930453.90105
  21895573.560   116962213.82408  21895576.320    90970623.07907
  20836742.420   111228159.23309  20836744.640    86510906.14708
  21013159.560   112406256.42509  21013158.960    87427096.82608
 15 02 25 01 38  0.0000000  0 15G04G16G18G19G21G22G27R02R03R04R09R10
                                R16R18R19
  24478252.320   128634080.79506  24478252.240   100234353.74143
  20530643.560   107889271.57509  20530640.180    84069552.12549
  21579256.120   113399870.90309  21579252.980    88363567.96248
  23000609.220   120869022.60208  23000604.220    94183637.70747
  23099035.660   121386471.30208  23099031.720    94586937.38347
  21146795.100   111127274.33609  21146789.560    86592707.10948
  21235415.820   111592883.76109  21235415.400    86955496.30949
  23523754.240   125527282.50009  23523756.940    97632343.96506
  20814799.400   111423277.87608  20814799.100    86662584.64308
  21511957.000   115195614.15808  21511957.400    89596611.38808
  21229138.100   113362404.39008  21229138.680    88170763.44105
  23364365.140   124545212.98908  23364370.540    96868519.45405
  21916293.140   117072894.18708  21916295.960    91056707.76207
  20843154.040   111262385.23209  20843156.380    86537526.37108
  21005527.920   112365432.43309  21005527.240    87395344.84508
 15 02 25 01 38 30.0000000  0 15G04G16G18G19G21G22G27R02R03R04R09R10
                                R16R18R19
  24460515.340   128540873.37906  24460515.060   100161724.70643
  20530987.480   107891078.70009  20530984.000    84070960.26949
  21582640.560   113417655.91409  21582637.340    88377426.40848
  22986924.600   120797110.57108  22986919.780    94127602.38347
  23111825.040   121453680.22308  23111820.820    94639307.96946
  21136985.260   111075723.34509  21136979.680    86552537.51748
  21226291.260   111544934.23209  21226290.860    86918133.03949
  23541029.340   125619465.04008  23541032.140    97704041.52507
  20813849.400   111418192.83108  20813849.460    86658629.59608
  21491522.920   115086190.30608  21491523.300    89511503.98108
  21233123.340   113383685.26908  21233123.900    88187315.22505
  23349538.840   124466180.63508  23349544.200    96807049.82005
  21937070.880   117183885.24608  21937073.740    91143034.09607
  20849589.960   111296741.14909  20849592.520    86564247.61708
  20997915.900   112324713.29409  20997915.240    87363674.42008
 15 02 25 01 39  0.0000000  0 15G04G16G18G19G21G22G27R02R03R04R09R10
                                R16R18R19
  24442807.060   128447816.82207  24442807.080   100089213.24543
  20531439.060   107893451.54309  20531435.500    84072809.23348
  21586118.320   113435931.30109  21586115.100    88391666.97548
  22973253.520   120725269.59108  22973249.020    94071622.41847
  23124623.580   121520937.08108  23124619.180    94691715.88447
  21127261.580   111024625.56109  21127256.000    86512721.08348
  21217197.520   111497146.34009  21217197.040    86880895.73348
  23558396.660   125712141.21408  23558399.540    97776122.89806
  20813047.960   111413901.98308  20813047.720    86655292.29808
  21471156.420   114977128.09608  21471156.740    89426677.85308
  21237251.000   113405727.01308  21237251.680    88204458.80605
  23334825.220   124387747.83308  23334830.460    96746046.49705
  21957905.560   117295180.35108  21957908.400    91229596.93007
  20856050.020   111331225.41009  20856052.660    86591068.71508
  20990323.140   112284097.15309  20990322.580    87332084.09508
 15 02 25 01 39 30.0000000  0 15G04G16G18G19G21G22G27R02R03R04R09R10
                                R16R18R19
  24425128.100   128354914.10907  24425128.260   100016821.67444
  20531998.640   107896392.05609  20531995.040    84075100.54249
  21589689.620   113454698.35909  21589686.340    88406290.65948
  22959596.480   120653502.16508  22959592.000    94015699.77647
  23137431.360   121588242.29008  23137426.860    94744161.49346
  21117624.900   110973985.13009  21117619.360    86473261.01948
  21208135.100   111449522.95109  21208134.520    86843786.60549
  23575856.320   125805309.00408  23575858.680    97848586.86206
  20812395.340   111410408.09308  20812394.980    86652574.83508
  21450858.620   114868433.80608  21450858.740    89342137.89008
  21241521.160   113428529.67708  21241521.840    88222194.20305
  23320224.660   124309918.76808  23320230.060    96685512.80705
  21978796.620   117406776.59608  21978799.460    91316393.96007
  20862534.580   111365840.22309  20862537.240    86617991.33708
  20982750.060   112243586.11309  20982749.560    87300575.51008
 15 02 25 01 40  0.0000000  0 15G04G16G18G19G21G22G27R02R03R04R09R10
                                R16R18R19
  24407478.340   128262164.47507  24407478.360    99944549.32444
  20532666.100   107899899.55309  20532662.480    84077833.64649
  21593354.160   113473955.43909  21593350.820    88421296.18248
  22945953.360   120581807.85308  22945949.080    93959834.08847
  23150248.020   121655593.97008  23150243.480    94796643.29146
  21108075.400   110923802.57409  21108069.920    86434157.74748
  21199103.980   111402064.03009  21199103.340    86806805.63849
  23593407.280   125898963.88108  23593409.560    97921429.52507
  20811891.480   111407710.08608  20811890.860    86650476.40908
  21430630.120   114760110.85808  21430630.160    89257886.74508
  21245933.320   113452090.42708  21245933.920    88240519.23105
  23305737.720   124232695.99108  23305742.980    96625450.61505
  21999743.040   117518668.07208  21999745.780    91403420.62407
  20869043.340   111400584.77309  20869046.040    86645014.87208
  20975196.380   112203179.04809  20975195.920    87269147.81408
 15 02 25 01 40 30.0000000  0 15G04G16G18G19G21G22G27R02R03R04R09R10
                                R16R18R19
  24389857.860   128169568.71607  24389857.640    99872396.89744
  20533441.460   107903973.98909  20533437.860    84081008.53048
  21597111.780   113493701.83709  21597108.380    88436682.98648
  22932324.280   120510186.89008  22932319.940    93904025.55847
  23163073.360   121722991.15608  23163068.900    94849160.58046
  21098613.320   110874079.18109  21098607.900    86395412.25248
  21190104.360   111354770.69109  21190103.720    86769953.68849
  23611048.720   125993101.98008  23611051.120    97994648.02406
  20811536.360   111405808.85408  20811535.500    86648997.67808
  21410471.800   114652164.04408  21410471.880    89173928.14408
  21250487.100   113476407.31808  21250487.740    88259432.36405
  23291365.380   124156082.84308  23291370.820    96565862.62405
  22020743.840   117630850.11108  22020746.560    91490673.28607
  20875576.500   111435459.56909  20875579.160    86672139.69808
  20967662.100   112162875.98709  20967661.600    87237800.98908
 15 02 25 01 41  0.0000000  0 14G04G16G18G19G21G22G27R03R04R09R10R16
                                R18R19
  24372267.000   128077128.65907  24372266.820    99800365.82543
  20534325.020   107908616.92609  20534321.400    84084626.40149
  21600962.520   113513937.74609  21600959.120    88452451.24548
  22918709.640   120438641.31408  22918705.180    93848275.77347
  23175907.220   121790433.76608  23175902.940    94901713.23746
  21089239.200   110824817.93709  21089233.780    86357026.88848
  21181136.620   111307644.95209  21181136.060    86733232.34749
  20811330.260   111404705.63608  20811329.520    86648139.63408
  21390384.740   114544598.70708  21390384.740    89090266.25908
  21255182.360   113501479.65408  21255183.040    88278933.07805
  23277108.080   124080083.07008  23277113.640    96506751.72105
  22041798.300   117743318.80908  22041800.900    91578148.91507
  20882134.300   111470465.79909  20882137.020    86699366.76008
  20960147.400   112122677.58309  20960146.820    87206535.57208
 15 02 25 01 41 30.0000000  0 14G04G16G18G19G21G22G27R03R04R09R10R16
                                R18R19
  24354705.700   127984843.93507  24354705.360    99728455.74544
  20535316.540   107913827.21509  20535312.900    84088686.35849
  21604906.020   113534661.31509  21604902.700    88468599.47648
  22905109.300   120367170.48009  22905104.640    93792584.23847
  23188749.260   121857919.34608  23188745.300    94954299.39846
  21079953.000   110776018.80009  21079947.640    86319001.59948
  21172200.820   111260686.74409  21172200.300    86696641.54549
  20811273.080   111404399.81708  20811272.460    86647901.78508
  21370369.320   114437417.84508  21370369.520    89006903.41408
  21260018.500   113527304.09108  21260019.200    88299018.74105
  23262966.080   124004698.55308  23262971.440    96448119.25905
  22062905.240   117856068.11008  22062907.820    91665842.75907
  20888716.640   111505602.43809  20888719.260    86726695.26508
  20952652.080   112082582.78509  20952651.500    87175350.72908
 15 02 25 01 42  0.0000000  0 14G04G16G18G19G21G22G27R03R04R09R10R16
                                R18R19
  24337176.180   127892726.20407  24337175.780    99656675.83444
  20536418.320   107919616.86909  20536414.640    84093197.77649
  21608944.300   113555882.81909  21608941.020    88485135.71648
  22891525.360   120295785.77609  22891520.500    93736959.81247
  23201601.400   121925458.20308  23201597.740    95006927.04946
  21070757.140   110727694.57409  21070751.860    86281346.37848
  21163299.280   111213908.11509  21163298.640    86660190.67049
  20811366.900   111404902.73108  20811366.620    86648292.93808
  21350428.700   114330637.66808  21350429.120    88923852.19608
  21264997.140   113553889.79108  21264997.880    88319696.49305
  23248942.320   123929943.68008  23248947.820    96389976.57105
  22084065.900   117969104.53608  22084068.560    91753759.93407
  20895325.720   111540881.25709  20895328.080    86754134.31708
  20945178.260   112042602.95709  20945177.760    87144255.30908
 15 02 25 01 42 30.0000000  0 14G04G16G18G19G21G22G27R03R04R09R10R16
                                R18R19
  24319674.340   127800753.83907  24319673.900    99585009.20045
  20537626.020   107925963.22009  20537622.320    84098142.98149
  21613072.980   113577579.06909  21613069.620    88502041.88448
  22877953.700   120224465.36209  22877948.580    93681385.47247
  23214459.240   121993026.65808  23214455.760    95059577.78547
  21061647.740   110679824.53009  21061642.540    86244045.05948
  21154427.900   111167287.79509  21154427.060    86623863.14849
  20811607.740   111406192.37308  20811607.580    86649296.00508
  21330559.440   114224239.47808  21330560.000    88841098.08808
  21270113.760   113581212.10108  21270114.500    88340947.17705
  23235032.920   123855798.58308  23235038.520    96332308.13305
  22105275.120   118082400.35508  22105277.800    91841878.85707
  20901957.200   111576279.70409  20901959.480    86781666.44508
  20937721.680   112002715.20709  20937721.320    87113231.52608
 15 02 25 01 43  0.0000000  0 14G04G16G18G19G21G22G27R03R04R09R10R16
                                R18R19
  24302202.940   127708941.43608  24302202.540    99513467.15944
  20538942.280   107932880.31109  20538938.580    84103532.91149
  21617294.480   113599762.95909  21617291.040    88519328.05148
  22864397.020   120153223.97109  22864391.860    93625872.71647
  23227325.220   122060637.75008  23227321.760    95112261.74746
  21052627.760   110632423.95509  21052622.560    86207109.56348
  21145589.540   111120840.89609  21145588.480    86587670.76149
  20811998.360   111408283.05508  20811998.140    86650922.10208
  21310765.140   114118242.31808  21310765.660    88758655.88208
  21275370.640   113609283.30408  21275371.420    88362780.31805
  23221241.040   123782280.46908  23221246.680    96275127.38905
  22126534.660   118195965.16208  22126537.380    91930206.99607
  20908613.780   111611812.51809  20908616.120    86809303.06408
  20930284.900   111962933.72709  20930284.700    87082290.39808
 15 02 25 01 43 30.0000000  0 14G04G16G18G19G21G22G27R03R04R09R10R16
                                R18R19
  24284762.080   127617289.57308  24284761.640    99442050.26544
  20540367.260   107940368.74909  20540363.600    84109368.05049
  21621608.640   113622433.90209  21621605.120    88536993.71548
  22850855.460   120082062.24309  22850850.280    93570422.02547
  23240199.120   122128290.54308  23240195.880    95164978.18347
  21043697.540   110585494.92509  21043692.240    86170541.49148
  21136784.300   111074568.46109  21136783.080    86551614.32549
  20812538.720   111411174.71308  20812538.280    86653171.17608
  21291046.600   114012650.42608  21291047.220    88676528.88608
  21280767.300   113638101.04208  21280768.120    88385194.11405
  23207567.440   123709392.33508  23207573.120    96218436.61105
  22147843.600   118309794.12008  22147846.480    92018740.57407
  20915295.440   111647479.86009  20915297.720    86837044.32908
  20922868.080   111923258.74909  20922867.760    87051432.09008
 15 02 25 01 44  0.0000000  0 14G04G16G18G19G21G22G27R03R04R09R10R16
                                R18R19
  24267351.360   127525796.06608  24267350.680    99370756.72344
  20541900.400   107948425.58609  20541896.760    84115646.10049
  21626014.660   113645587.68309  21626011.100    88555035.63848
  22837328.460   120010977.37908  22837323.360    93515031.24847
  23253080.180   122195980.74708  23253076.700    95217723.78447
  21034856.680   110539035.43809  21034851.240    86134339.30848
  21128011.800   111028468.52909  21128010.460    86515692.29749
  20813228.100   111414864.53408  20813227.680    86656041.04408
  21271404.000   113907465.23508  21271404.660    88594718.21108
  21286302.760   113667660.27708  21286303.580    88408184.61805
  23194011.860   123637134.02508  23194017.560    96162235.70805
  22169200.600   118423879.45208  22169203.580    92107473.56307
  20922001.800   111683279.01409  20922004.200    86864888.10008
  20915470.600   111883686.94409  20915470.020    87020654.01108
 15 02 25 01 44 30.0000000  0 14G04G16G18G19G21G22G27R03R04R09R10R16
                                R18R19
  24249971.540   127434464.88208  24249970.860    99299589.68144
  20543542.340   107957054.22809  20543538.720    84122369.71549
  21630513.140   113669227.32609  21630509.560    88573456.13748
  22823816.840   119939973.65909  22823811.940    93459703.70747
  23265968.800   122263711.03308  23265965.500    95270500.61846
  21026106.080   110493050.56409  21026100.540    86098506.95748
  21119272.920   110982545.63309  21119271.500    86479908.22949
  20814067.140   111419356.22708  20814066.900    86659534.61508
  21251838.840   113802694.71608  21251839.320    88513230.05908
  21291977.360   113697962.35908  21291978.180    88431752.90205
  23180575.820   123565511.97708  23180581.260    96106529.62905
  22190605.360   118538219.79808  22190608.380    92196404.87807
  20928733.580   111719213.83609  20928736.100    86892837.40708
  20908093.180   111844221.97009  20908092.260    86989959.04608
 15 02 25 01 45  0.0000000  0 14G04G16G18G19G21G22G27R03R04R09R10R16
                                R18R19
  24232622.040   127343293.04408  24232621.280    99228546.76844
  20545292.320   107966250.68209  20545288.720    84129535.77949
  21635103.200   113693348.29309  21635099.620    88592251.71348
  22810320.060   119869048.05608  22810315.300    93404437.01248
  23278864.120   122331476.70708  23278860.620    95323305.01146
  21017445.260   110447537.94509  21017439.740    86063042.58648
  21110567.160   110936797.25209  21110565.780    86444260.14249
  20815055.260   111424646.24008  20815055.000    86663649.08208
  21232351.220   113698339.61809  21232351.840    88432065.02008
  21297789.960   113729001.06808  21297790.720    88455894.10905
  23167258.660   123494524.63608  23167264.520    96051317.26306
  22212056.340   118652806.56508  22212059.300    92285527.86907
  20935490.240   111755281.03109  20935492.720    86920889.66408
  20900735.000   111804860.09109  20900734.040    86959344.25508
 15 02 25 01 45 30.0000000  0 14G04G16G18G19G21G22G27R03R04R09R10R16
                                R18R19
  24215303.500   127252284.00308  24215302.660    99157630.74144
  20547151.000   107976018.28409  20547147.420    84137146.88849
  21639785.100   113717952.08009  21639781.560    88611423.49148
  22796838.760   119798203.83008  22796834.220    93349233.73347
  23291766.560   122399279.63208  23291763.160    95376138.46446
  21008875.100   110402501.88309  21008869.580    86027949.56648
  21101895.300   110891227.22909  21101894.120    86408751.03749
  20816193.120   111430737.48108  20816193.020    86668386.70808
  21212942.640   113594407.20008  21212943.060    88351228.70308
  21303740.640   113760777.06008  21303741.340    88480608.75505
  23154061.820   123424178.51108  23154068.080    95996603.61006
  22233553.120   118767637.82408  22233556.020    92374841.00607
  20942272.320   111791483.64709  20942274.700    86949047.24608
  20893396.640   111765604.42209  20893395.640    86928812.07108
 15 02 25 01 46  0.0000000  0 14G04G16G18G19G21G22G27R03R04R09R10R16
                                R18R19
  24198015.500   127161435.30508  24198014.680    99086839.66444
  20549117.880   107986354.22209  20549114.280    84145200.86148
  21644558.060   113743034.60109  21644554.600    88630968.32848
  22783372.480   119727438.34008  22783368.060    93294091.82047
  23304675.300   122467115.32608  23304672.080    95428997.43346
  21000395.200   110357940.40209  21000389.780    85993226.35248
  21093257.080   110845833.48409  21093256.080    86373379.29649
  20817479.980   111437626.46208  20817480.100    86673744.81908
  21193613.060   113490898.62608  21193613.640    88270722.08108
  21309828.340   113793285.10508  21309829.060    88505892.78805
  23140985.200   123354473.20308  23140991.360    95942388.33305
  22255094.120   118882705.41608  22255097.020    92464337.96007
  20949079.220   111827819.01609  20949081.460    86977308.07808
  20886077.440   111726451.45909  20886076.340    86898359.75708
 15 02 25 01 46 30.0000000  0 14G04G16G18G19G21G22G27R03R04R09R10R16
                                R18R19
  24180759.120   127070752.75808  24180758.300    99016178.03544
  20551193.820   107997263.27609  20551190.240    84153701.41748
  21649423.100   113768600.67209  21649419.660    88650889.94248
  22769922.420   119656757.90608  22769917.940    93239016.16447
  23317591.240   122534988.41608  23317587.740    95481885.54746
  20992006.920   110313860.34209  20992001.640    85958878.26848
  21084653.660   110800622.48209  21084652.820    86338149.94849
  20818916.780   111445318.51208  20818917.020    86679727.52608
  21174364.380   113387823.77008  21174364.980    88190552.77208
  21316053.660   113826527.78708  21316054.300    88531748.19105
  23128030.180   123285416.41008  23128036.260    95888677.45305
  22276679.480   118998010.08608  22276682.320    92554019.31407
  20955911.980   111864292.92909  20955914.280    87005676.67508
  20878778.400   111687406.99209  20878777.300    86867991.84108
 15 02 25 01 47  0.0000000  0 14G04G16G18G19G21G22G27R03R04R09R10R16
                                R18R19
  24163533.780   126980233.50808  24163532.980    98945643.64944
  20553378.160   108008741.77109  20553374.560    84162645.69749
  21654379.240   113794645.23709  21654375.740    88671184.41748
  22756487.920   119586159.04209  22756483.400    93184004.08447
  23330513.400   122602893.82408  23330509.920    95534798.81747
  20983709.840   110270259.58809  20983704.720    85924903.67348
  21076084.600   110755591.58909  21076083.800    86303060.95149
  20820503.040   111453809.99008  20820503.420    86686332.01608
  21155196.800   113285183.11908  21155197.440    88110721.18708
  21322415.400   113860499.08708  21322416.020    88558170.30505
  23115197.040   123217007.34308  23115203.120    95835470.40405
  22298307.600   119113543.32708  22298310.440    92643878.43907
  20962769.960   111900901.85509  20962772.480    87034150.27808
  20871498.880   111648467.07909  20871497.880    86837705.25408
 15 02 25 01 47 30.0000000  0 14G04G16G18G19G21G22G27R03R04R09R10R16
                                R18R19
  24146339.680   126889878.27308  24146338.940    98875237.08344
  20555671.000   108020790.36709  20555667.380    84172034.20949
  21659426.340   113821167.56409  21659422.860    88691851.17348
  22743069.160   119515642.92209  22743064.540    93129056.47847
  23343441.560   122670831.12008  23343437.680    95587736.95946
  20975504.300   110227139.65809  20975499.240    85891303.74548
  21067550.100   110710742.26309  21067549.240    86268113.42649
  20822238.620   111463100.79808  20822238.740    86693558.22208
  21136111.200   113182981.49208  21136111.880    88031231.07608
  21328913.220   113895197.09608  21328913.800    88585157.63505
  23102485.700   123149248.93708  23102491.660    95782769.49505
  22319977.600   119229300.65008  22319980.520    92733911.85207
  20969653.320   111937646.46209  20969655.920    87062729.40208
  20864239.020   111609632.37609  20864238.180    86807500.50608
 15 02 25 01 48  0.0000000  0 14G04G16G18G19G21G22G27R03R04R09R10R16
                                R18R19
  24129177.260   126799689.37308  24129176.500    98804960.12544
  20558072.560   108033410.39509  20558068.940    84181867.99349
  21664564.540   113848168.55409  21664561.060    88712890.90348
  22729666.560   119445211.50309  22729661.800    93074174.85647
  23356375.800   122738800.71808  23356371.860    95640700.27246
  20967390.880   110184503.48409  20967385.820    85858080.76848
  21059050.620   110666077.20509  21059049.680    86233309.48449
  20824124.040   111473192.89208  20824124.040    86701407.62508
  21117108.820   113081224.87208  21117109.360    87952087.05508
  21335546.940   113930620.79908  21335547.540    88612709.39405
  23089897.480   123082145.62808  23089902.560    95730577.97205
  22341688.980   119345278.83508  22341691.980    92824117.03507
  20976562.500   111974528.88909  20976565.100    87091415.73008
  20856999.200   111570904.41909  20856998.400    86777378.77008
 15 02 25 01 48 30.0000000  0 14G04G16G18G19G21G22G27R03R04R09R10R16
                                R18R19
  24112046.480   126709666.87408  24112045.620    98734812.80945
  20560582.740   108046601.32809  20560579.120    84192146.63948
  21669793.560   113875646.64809  21669790.020    88734302.39948
  22716280.120   119374865.17309  22716275.360    93019359.55547
  23369315.900   122806801.72308  23369312.120    95693688.03146
  20959369.740   110142351.67009  20959364.560    85825235.21748
  21050586.320   110621597.06909  21050585.340    86198649.64649
  20826158.940   111484084.80608  20826158.600    86709879.13608
  21098190.400   112979917.07008  21098190.800    87873292.12308
  21342315.960   113966767.09508  21342316.600    88640823.17305
  23077432.420   123015699.68408  23077437.560    95678897.80405
  22363440.760   119461472.69908  22363443.740    92914489.97807
  20983497.500   112011549.02509  20983500.180    87120209.16308
  20849779.360   111532282.76309  20849778.560    86747339.71108
 15 02 25 01 49  0.0000000  0 14G04G16G18G19G21G22G27R03R04R09R10R16
                                R18R19
  24094947.540   126619811.79008  24094946.580    98664795.94845
  20563201.540   108060363.10409  20563197.900    84202870.10249
  21675113.180   113903601.03809  21675109.520    88756085.05148
  22702910.080   119304605.07509  22702905.220    92964611.43147
  23382261.680   122874833.24408  23382258.000    95746699.60846
  20951441.260   110100686.40209  20951435.920    85792768.78448
  21042157.500   110577303.44109  21042156.520    86164135.13149
  20828343.380   111495777.39308  20828342.700    86718973.38708
  21079356.780   112879063.06809  21079357.000    87794850.14808
  21349219.920   114003634.10508  21349220.660    88669497.50105
  23065091.060   122949913.72508  23065096.580    95627730.99205
  22385232.080   119577877.69308  22385235.040    93005027.14807
  20990458.580   112048707.61809  20990461.220    87149110.29108
  20842579.600   111493768.29509  20842578.660    86717384.01308
 15 02 25 01 49 30.0000000  0 14G04G16G18G19G21G22G27R03R04R09R10R16
                                R18R19
  24077880.500   126530124.48608  24077879.500    98594909.82545
  20565928.860   108074695.39909  20565925.220    84214038.11349
  21680523.140   113932030.36009  21680519.360    88778237.76948
  22689556.380   119234431.15009  22689551.560    92909930.45847
  23395213.120   122942894.06708  23395209.720    95799733.98746
  20943605.520   110059508.20109  20943599.960    85760681.88748
  21033764.300   110533197.03809  21033763.400    86129766.49749
  20830677.140   111508269.47608  20830676.420    86728689.45608
  21060608.640   112778666.55609  21060608.520    87716763.98708
  21356258.320   114041218.77308  21356259.200    88698730.00105
  23052874.360   122884790.54408  23052879.440    95577079.55705
  22407061.960   119694488.79408  22407064.960    93095724.59307
  20997445.740   112086004.85009  20997448.520    87178119.22208
  20835399.760   111455360.29409  20835398.560    86687511.12008
 15 02 25 01 50  0.0000000  0 14G04G16G18G19G21G22G27R03R04R09R10R16
                                R18R19
  24060844.940   126440602.63108  24060843.920    98525152.62045
  20568764.320   108089596.04909  20568760.700    84225649.00449
  21686022.740   113960931.09509  21686018.900    88800757.83848
  22676218.700   119164341.70208  22676213.940    92855315.33147
  23408169.520   123010980.46708  23408165.940    95852788.33746
  20935862.200   110018815.90009  20935856.460    85728973.61048
  21025406.420   110489276.41309  21025405.620    86095542.65449
  20833159.700   111521558.12408  20833158.640    86739025.08708
  21041946.280   112678729.45609  21041946.040    87639035.16308
  21363430.020   114079515.59808  21363431.040    88728516.40805
  23040781.560   122820329.57308  23040787.020    95526943.29406
  22428929.040   119811298.47408  22428931.980    93186576.50007
  21004458.400   112123438.26009  21004461.140    87207234.10308
  20828239.340   111417056.60809  20828238.120    86657719.38408
 15 02 25 01 50 30.0000000  0 14G04G16G18G19G21G22G27R03R04R09R10R16
                                R18R19
  24043841.780   126351250.82908  24043840.820    98455527.91745
  20571708.540   108105068.25609  20571704.940    84237705.25649
  21691612.460   113990305.92009  21691608.640    88823647.30748
  22662897.980   119094341.09009  22662893.180    92800769.39747
  23421131.440   123079095.55608  23421128.020    95905864.99946
  20928212.220   109978614.47409  20928206.380    85697647.83048
  21017084.920   110445546.57809  21017084.140    86061467.46049
  20835791.680   111535646.88208  20835790.620    86749983.00908
  21023371.140   112579260.06909  21023370.780    87561670.11108
  21370735.360   114118526.23508  21370736.520    88758857.98105
  23028814.320   122756537.49208  23028820.000    95477327.23505
  22450833.160   119928305.96108  22450836.160    93277582.26507
  21011497.360   112161012.39909  21011499.900    87236458.40208
  20821099.020   111378861.30209  20821097.860    86628011.93008
 15 02 25 01 51  0.0000000  0 14G04G16G18G19G21G22G27R03R04R09R10R16
                                R18R19
  24026871.080   126262069.54108  24026870.060    98386036.06345
  20574761.380   108121111.23809  20574757.820    84250206.27349
  21697292.060   114020153.25309  21697288.380    88846904.97748
  22649594.320   119024429.80309  22649589.540    92746293.08248
  23434098.620   123147238.08408  23434095.060    95958963.05646
  20920655.700   109938904.89309  20920649.940    85666705.31448
  21008799.980   110402008.39309  21008799.120    86027541.61449
  20838572.880   111550535.03808  20838571.860    86761562.70408
  21004883.960   112480262.16908  21004883.700    87484671.76908
  21378173.780   114158247.39108  21378175.040    88789752.18905
  23016973.160   122693416.61508  23016978.560    95428233.16305
  22472773.340   120045506.16308  22472776.400    93368737.87207
  21018562.680   112198727.37809  21018565.040    87265792.26008
  20813978.800   111340774.01409  20813977.740    86598388.49108
 15 02 25 01 51 30.0000000  0 14G04G16G18G19G21G22G27R03R04R09R10R16
                                R18R19
  24009932.440   126173056.77308  24009931.440    98316675.52845
  20577922.440   108137722.71009  20577918.860    84263150.26949
  21703060.880   114050469.46809  21703057.400    88870528.00248
  22636307.360   118954606.11009  22636302.500    92691885.01848
  23447070.460   123215404.53908  23447066.920    96012079.79946
  20913192.500   109899685.99809  20913186.900    85636145.15448
  21000551.260   110358660.65209  21000550.320    85993764.15549
  20841502.620   111566219.48208  20841501.660    86773761.72908
  20986485.100   112381737.77108  20986484.920    87408041.71308
  21385744.460   114198674.14408  21385745.680    88821195.20805
  23005257.620   122630966.84708  23005263.200    95379661.14706
  22494748.300   120162892.21708  22494751.400    93460038.08407
  21025654.020   112236581.08909  21025656.240    87295234.01408
  20806878.480   111302792.66509  20806877.480    86568847.44808
 15 02 25 01 52  0.0000000  0 14G04G16G18G19G21G22G27R03R04R09R10R16
                                R18R19
  23993026.760   126084217.16908  23993025.800    98247449.93345
  20581192.520   108154906.86809  20581188.940    84276540.52049
  21708919.580   114081257.87009  21708916.300    88894518.97648
  22623037.980   118884874.89809  22623033.160    92637549.02548
  23460047.420   123283598.44608  23460043.720    96065217.88646
  20905823.660   109860963.00809  20905818.280    85605971.41048
  20992339.780   110315508.58109  20992338.780    85960139.17149
  20844581.780   111582704.01108  20844581.180    86786583.03908
  20968176.180   112283695.35608  20968176.060    87331786.53208
  21393447.540   114239807.71508  21393448.600    88853187.96905
  22993669.440   122569195.04708  22993675.280    95331616.41306
  22516757.880   120280463.07408  22516760.980    93551482.02007
  21032772.160   112274578.22509  21032774.280    87324787.33208
  20799798.920   111264921.46709  20799797.940    86539392.07308
 15 02 25 01 52 30.0000000  0 14G04G16G18G19G21G22G27R03R04R09R10R16
                                R18R19
  23976153.540   125995548.34908  23976152.520    98178357.42545
  20584570.880   108172660.18009  20584567.280    84290374.25749
  21714867.440   114112514.33709  21714864.320    88918874.66348
  22609785.700   118815233.91509  22609780.900    92583283.33648
  23473028.760   123351815.83708  23473025.080    96118374.27447
  20898548.900   109822734.07309  20898543.640    85576182.64648
  20984165.160   110272550.46109  20984164.120    85926665.31749
  20847809.900   111599984.99008  20847809.480    86800023.80208
  20949957.480   112186136.10508  20949957.500    87255907.14008
  21401281.980   114281642.60308  21401282.980    88885726.19705
  22982207.960   122508100.12208  22982213.880    95284098.13805
  22538800.580   120398211.24808  22538803.700    93643063.85607
  21039916.760   112312716.20809  21039918.720    87354450.19808
  20792739.500   111227157.76809  20792738.440    86510020.32208
 15 02 25 01 53  0.0000000  0 14G04G16G18G19G21G22G27R03R04R09R10R16
                                R18R19
  23959312.980   125907051.07108  23959312.020    98109398.55145
  20588057.480   108190982.23709  20588053.900    84304651.18549
  21720904.240   114144237.71509  21720901.220    88943594.18448
  22596550.700   118745683.84109  22596546.020    92529088.50848
  23486014.340   123420055.81508  23486010.660    96171548.26446
  20891368.420   109785000.69509  20891363.220    85546780.03448
  20976027.640   110229787.62809  20976026.600    85893343.63649
  20851186.620   111618061.82608  20851186.240    86814083.58508
  20931829.960   112089064.84008  20931830.160    87180407.29008
  21409247.100   114324175.75808  21409248.120    88918807.53105
  22970874.180   122447685.23808  22970879.780    95237108.76105
  22560875.720   120516132.38708  22560878.820    93734780.21607
  21047087.820   112350995.84009  21047089.880    87384223.21408
  20785700.200   111189501.85909  20785699.140    86480732.40308
 15 02 25 01 53 30.0000000  0 14G04G16G18G19G21G22G27R03R04R09R10R16
                                R18R19
  23942505.180   125818725.63008  23942504.180    98040573.57345
  20591652.280   108209872.81009  20591648.700    84319371.10149
  21727029.560   114176426.17309  21727026.580    88968676.10048
  22583333.220   118676225.23609  22583328.400    92474964.92047
  23499004.120   123488317.40108  23499000.280    96224739.11946
  20884282.360   109747763.51709  20884277.220    85517764.06348
  20967927.420   110187220.89709  20967926.360    85860174.75749
  20854711.940   111636934.05608  20854711.740    86828761.98808
  20913794.320   111992485.00008  20913794.520    87105289.66208
  21417342.440   114367404.12508  21417343.380    88952429.55905
  22959668.300   122387951.99108  22959674.340    95190649.57305
  22582982.160   120634220.92808  22582985.320    93826626.76007
  21054285.320   112389417.04909  21054287.620    87414106.34908
  20778680.920   111151953.79109  20778679.960    86451528.36308
 15 02 25 01 54  0.0000000  0 14G04G16G18G19G21G22G27R03R04R09R10R16
                                R18R19
  23925730.100   125730571.87408  23925729.040    97971882.41845
  20595354.980   108229330.30909  20595351.380    84334532.77749
  21733243.120   114209078.27309  21733240.120    88994119.29548
  22570133.080   118606857.91609  22570128.140    92420912.48148
  23511997.700   123556598.75508  23511993.740    96277945.33646
  20877290.900   109711023.01509  20877285.720    85489135.11148
  20959864.540   110144850.66609  20959863.500    85827158.99049
  20858385.460   111656599.38408  20858385.320    86844057.24308
  20895851.160   111896400.39108  20895851.380    87030557.20708
  21425567.320   114411324.15508  21425568.200    88986589.55105
  22948590.440   122328902.00008  22948596.680    95144721.82405
  22605118.980   120752471.60907  22605122.180    93918599.42707
  21061509.180   112427979.55809  21061511.820    87444099.41008
  20771681.560   111114512.79909  20771680.760    86422407.58508
 15 02 25 01 54 30.0000000  0 14G04G16G18G19G21G22G27R03R04R09R10R16
                                R18R19
  23908988.720   125642595.38608  23908987.660    97903329.36845
  20599166.580   108249359.94509  20599162.940    84350140.28348
  21739545.600   114242197.60909  21739542.480    89019926.56348
  22556951.400   118537587.84109  22556946.420    92366935.82247
  23524995.660   123624904.16008  23524991.940    96331170.29646
  20870395.140   109674785.06809  20870389.800    85460897.76048
  20951840.260   110102683.33909  20951839.300    85794301.34149
  20862208.140   111677062.85108  20862208.060    86859973.27308
  20878002.200   111800820.17008  20878002.520    86956217.06708
  21433922.180   114455938.16008  21433922.920    89021289.31605
  22937642.400   122270542.78408  22937648.440    95099331.29105
  22627286.320   120870885.22108  22627289.440    94010698.79906
  21068760.580   112466689.05709  21068763.360    87474206.78108
  20764703.200   111077184.47709  20764702.580    86393374.47308
 15 02 25 01 55  0.0000000  0 14G04G16G18G19G21G22G27R03R04R09R10R16
                                R18R19
  23892280.180   125554791.51108  23892279.100    97834910.81946
  20603085.940   108269955.91609  20603082.220    84366189.08449
  21745935.800   114275778.11809  21745932.600    89046093.19848
  22543787.280   118468410.63309  22543782.300    92313031.52348
  23537997.200   123693227.49308  23537993.480    96384409.22246
  20863594.320   109639045.98209  20863588.820    85433049.13048
  20943853.880   110060714.88109  20943853.000    85761598.64649
  20866178.720   111698317.86608  20866178.920    86876504.96208
  20860247.340   111705743.69009  20860247.780    86882268.71808
  21442405.320   114501237.56908  21442405.980    89056522.16305
  22926823.400   122212871.40408  22926829.240    95054475.77805
  22649482.280   120989451.33707  22649485.260    94102916.82307
  21076038.800   112505540.82809  21076041.480    87504424.81108
  20757744.980   111039963.56909  20757744.580    86364424.88408
 15 02 25 01 55 30.0000000  0 14G04G16G18G19G21G22G27R03R04R09R10R16
                                R18R19
  23875605.080   125467163.34508  23875603.960    97766629.20146
  20607113.540   108291120.83909  20607109.760    84382681.23449
  21752413.980   114309821.06009  21752410.740    89072620.17648
  22530641.540   118399329.62909  22530636.660    92259202.19548
  23551002.500   123761570.78008  23550998.700    96437663.72946
  20856889.080   109603809.22409  20856883.420    85405591.93549
  20935906.160   110018949.20709  20935905.280    85729053.97349
  20870297.720   111720366.66308  20870298.000    86893654.03708
  20842587.880   111611177.58309  20842588.320    86808717.32308
  21451016.820   114547222.42908  21451017.460    89092288.15505
  22916134.480   122155893.03608  22916140.300    95010159.29505
  22671706.420   121108168.18007  22671709.300    94195252.04707
  21083344.380   112544538.16909  21083346.960    87534756.04808
  20750807.560   111002853.38409  20750807.300    86335561.42108
 15 02 25 01 56  0.0000000  0 14G04G16G18G19G21G22G27R03R04R09R10R16
                                R18R19
  23858963.480   125379711.21508  23858962.320    97698484.72345
  20611249.160   108312853.77709  20611245.400    84399615.98849
  21758979.820   114344325.00109  21758976.560    89099506.36948
  22517514.320   118330345.41809  22517509.380    92205448.27248
  23564011.320   123829932.70108  23564007.460    96490932.73846
  20850279.580   109569075.65509  20850273.800    85378526.82248
  20927997.280   109977387.27309  20927996.320    85696668.05149
  20874564.740   111743207.93008  20874564.800    86911419.46608
  20825024.480   111517125.86209  20825024.940    86735566.00908
  21459756.040   114593889.47008  21459756.680    89128584.73205
  22905575.860   122099608.97808  22905581.520    94966382.78905
  22693957.860   121227030.67908  22693960.700    94287700.56007
  21090677.260   112583681.12109  21090679.780    87565200.55008
  20743891.000   110965853.87409  20743890.740    86306784.03508
 15 02 25 01 56 30.0000000  0 14G04G16G18G19G21G22G27R03R04R09R10R16
                                R18R19
  23842355.220   125292434.27008  23842354.020    97630476.77946
  20615492.480   108335152.71109  20615488.700    84416991.76549
  21765632.720   114379286.44709  21765629.440    89126749.05748
  22504405.380   118261456.90809  22504400.420    92151768.90848
  23577023.260   123898311.14308  23577019.440    96544214.61746
  20843765.660   109534844.80809  20843759.820    85351853.44348
  20920127.140   109936028.77509  20920126.060    85664440.64849
  20878979.240   111766839.26208  20878979.140    86929799.41008
  20807557.540   111423591.17009  20807558.000    86662816.81708
  21468622.140   114641233.94708  21468622.840    89165408.19105
  22895147.780   122044020.62008  22895153.300    94923147.36505
  22716235.420   121346032.79407  22716238.380    94380257.66507
  21098037.220   112622968.74009  21098039.720    87595757.55908
  20736994.980   110928963.82209  20736994.640    86278091.77908
 15 02 25 01 57  0.0000000  0 14G04G16G18G19G21G22G27R03R04R09R10R16
                                R18R19
  23825781.020   125205336.45008  23825779.800    97562608.40845
  20619844.120   108358020.94909  20619840.380    84434811.16548
  21772373.260   114414708.17909  21772369.900    89154350.40448
  22491315.480   118192668.64309  22491310.580    92098167.67348
  23590038.820   123966708.99008  23590035.240    96597511.58546
  20837348.240   109501121.29409  20837342.400    85325575.38848
  20912296.520   109894878.57409  20912295.420    85632375.56249
  20883541.960   111791263.58708  20883541.800    86948796.09508
  20790188.600   111330581.55309  20790189.180    86590476.03008
  21477615.180   114689256.49508  21477616.040    89202759.02805
  22884851.100   121989133.26008  22884856.720    94880457.21905
  22738538.880   121465173.67108  22738541.960    94472922.63607
  21105425.100   112662405.20109  21105427.560    87626430.36308
  20730120.180   110892187.05609  20730119.580    86249487.62108
 15 02 25 01 57 30.0000000  0 14G04G16G18G19G21G22G27R03R04R09R10R16
                                R18R19
  23809240.780   125118417.17508  23809239.600    97494879.16846
  20624303.720   108381456.63309  20624300.040    84453072.72748
  21779201.060   114450588.34209  21779197.680    89182308.97348
  22478244.520   118123980.36409  22478239.680    92044644.36748
  23603057.620   124035124.04508  23603054.040    96650821.98746
  20831027.280   109467904.85309  20831021.460    85299692.45748
  20904505.500   109853936.81009  20904504.420    85600472.89749
  20888252.380   111816478.60608  20888252.280    86968407.78908
  20772918.260   111238099.92409  20772918.920    86518545.89508
  21486734.400   114737952.90108  21486735.440    89240633.98405
  22874686.200   121934948.15108  22874691.660    94838313.24705
  22760867.220   121584447.25808  22760870.400    94565690.89007
  21112840.740   112701989.90209  21112843.340    87657218.43308
  20723266.320   110855522.75309  20723265.540    86220970.95108
 15 02 25 01 58  0.0000000  0 14G04G16G18G19G21G22G27R03R04R09R10R16
                                R18R19
  23792733.700   125031672.15008  23792732.540    97427285.68546
  20628870.300   108405454.30509  20628866.640    84471772.20549
  21786114.840   114486920.25109  21786111.420    89210619.55448
  22465191.800   118055388.31709  22465187.060    91991196.05048
  23616078.780   124103550.68708  23616075.460    96704141.44446
  20824802.040   109435191.47909  20824796.260    85274201.52148
  20896753.360   109813199.79909  20896752.340    85568729.78049
  20893109.300   111842478.21108  20893109.220    86988629.71608
  20755746.420   111146145.36109  20755746.960    86447025.69808
  21495978.320   114787315.00408  21495979.420    89279026.70105
  22864652.340   121881462.11608  22864657.480    94796712.99405
  22783218.600   121703844.23307  22783221.980    94658555.06806
  21120283.260   112741718.40109  21120286.000    87688118.37708
  20716432.620   110818966.59309  20716431.560    86192538.38008
 15 02 25 01 58 30.0000000  0 14G04G16G18G19G21G22G27R03R04R09R10R16
                                R18R19
  23776260.660   124945106.09808  23776259.560    97359831.65746
  20633544.580   108430017.90409  20633540.920    84490912.65949
  21793115.160   114523706.84209  21793111.680    89239284.42048
  22452158.240   117986896.97009  22452153.580    91937826.17948
  23629102.860   124171992.53908  23629099.500    96757472.74546
  20818673.640   109402986.83309  20818667.860    85249106.99948
  20889041.240   109772673.12309  20889040.380    85537150.55449
  20898113.320   111869265.47208  20898113.140    87009464.25108
  20738674.700   111054726.65209  20738675.060    86375922.26908
  21505347.160   114837344.01508  21505348.240    89317938.13605
  22854750.800   121828681.89608  22854756.220    94755661.73605
  22805592.980   121823363.87907  22805596.460    94751514.66207
  21127753.700   112781595.65809  21127756.560    87719134.00808
  20709619.880   110782523.03809  20709618.740    86164193.40008
 15 02 25 01 59  0.0000000  0 14G04G16G18G19G21G22G27R03R04R09R10R16
                                R18R19
  23759822.000   124858720.59508  23759820.820    97292518.33646
  20638326.660   108455147.77509  20638322.960    84510494.37349
  21800202.020   114560947.99109  21800198.440    89268303.50748
  22439144.180   117918508.24309  22439139.660    91884536.29348
  23642129.840   124240449.51308  23642126.520    96810815.81946
  20812642.300   109371292.27909  20812636.560    85224409.95548
  20881369.560   109732358.83009  20881368.840    85505736.82949
  20903264.420   111896840.45808  20903264.440    87030911.47208
  20721703.940   110963848.59109  20721704.080    86305239.35308
  21514840.460   114888037.49308  21514841.560    89357366.37405
  22844982.400   121776610.22508  22844987.940    94715161.52305
  22827989.680   121943002.75308  22827993.300    94844566.99307
  21135252.260   112821623.06109  21135255.060    87750266.41708
  20702828.280   110746193.29609  20702827.260    86135936.94208
 15 02 25 01 59 30.0000000  0 14G04G16G18G19G21G22G27R03R04R09R10R16
                                R18R19
  23743417.360   124772513.81408  23743416.140    97225344.26246
  20643216.040   108480841.30109  20643212.260    84530515.28949
  21807374.480   114598639.49909  21807370.900    89297673.50348
  22426149.440   117850220.91009  22426144.920    91831325.39448
  23655159.220   124308918.93108  23655155.660    96864168.61446
  20806707.820   109340106.72609  20806702.120    85200109.53248
  20873738.240   109692256.14309  20873737.520    85474487.98449
  20908562.100   111925199.85908  20908562.200    87052968.78708
  20704834.460   110873512.80709  20704834.380    86234978.20608
  21524457.180   114939390.25808  21524458.320    89397307.39805
  22835346.860   121725246.91908  22835352.420    94675212.29705
  22850407.500   122062754.19207  22850411.080    94937706.88107
  21142778.660   112861799.04209  21142781.420    87781514.37308
  20696057.620   110709975.79609  20696056.860    86107767.77908
 15 02 25 02 00  0.0000000  0 14G04G16G18G19G21G22G27R03R04R09R10R16
                                R18R19
  23727047.380   124686489.21708  23727046.160    97158312.15646
  20648213.060   108507100.53009  20648209.220    84550977.01748
  21814632.920   114636783.16609  21814629.400    89327395.84748
  22413174.700   117782038.65609  22413170.220    91778196.39248
  23668191.360   124377402.39008  23668187.800    96917532.32246
  20800870.920   109309433.92409  20800865.280    85176208.66448
  20866148.060   109652369.11509  20866147.240    85443407.17749
  20914006.660   111954345.15508  20914006.640    87075637.34308
  20688067.660   110783726.81109  20688067.380    86165144.67808
  21534197.360   114991401.84308  21534198.380    89437760.84105
  22825845.180   121674596.90908  22825850.400    94635817.83005
  22872846.000   122182616.05507  22872849.520    95030932.63207
  21150333.440   112902126.94109  21150336.220    87812880.51708
  20689308.560   110673873.48609  20689308.060    86079688.21108
 15 02 25 02 00 30.0000000  0 14G04G16G18G19G21G22G27R03R04R09R10R16
                                R18R19
  23710711.900   124600645.96408  23710710.680    97091421.36646
  20653317.340   108533923.61809  20653313.480    84571878.12048
  21821976.900   114675376.25409  21821973.460    89357468.39048
  22400219.920   117713960.90609  22400215.380    91725148.82148
  23681225.820   124445898.33608  23681222.060    96970905.78245
  20795131.560   109279273.42909  20795125.940    85152706.99348
  20858599.040   109612697.82809  20858598.020    85412494.48849
  20919597.560   111984273.83808  20919597.760    87098915.23508
  20671404.000   110694493.30109  20671403.660    86095740.86908
  21544060.020   115044067.68308  21544061.000    89478723.15105
  22816477.460   121624660.84508  22816482.440    94596978.68005
  22895304.140   122302582.78208  22895307.640    95124239.93206
  21157916.560   112942606.14509  21157919.260    87844364.34608
  20682580.980   110637885.73109  20682580.600    86051697.73708
 15 02 25 02 01  0.0000000  0 14G04G16G18G19G21G22G27R03R04R09R10R16
                                R18R19
  23694410.300   124514980.66908  23694409.080    97024669.25046
  20658527.980   108561305.57409  20658524.100    84593214.70148
  21829405.400   114714413.59609  21829402.020    89387887.10148
  22387284.520   117645984.52409  22387279.900    91672180.22648
  23694261.780   124514401.93508  23694258.100    97024285.16346
  20789489.060   109249621.68909  20789483.400    85129601.75048
  20851090.500   109573239.43009  20851089.380    85381747.68849
  20925333.900   112014980.37408  20925334.000    87122798.09708
  20654843.480   110605811.99709  20654843.040    86026766.53408
  21554043.800   115097380.42108  21554044.740    89520188.59305
  22807243.140   121575436.45408  22807248.040    94558693.04005
  22917780.360   122422645.77007  22917783.820    95217622.12407
  21165527.340   112983232.95309  21165530.000    87875962.97808
  20675874.120   110602008.77209  20675873.800    86023793.46308
 15 02 25 02 01 30.0000000  0 14G04G16G18G19G21G22G27R03R04R09R10R16
                                R18R19
  23678143.960   124429500.59408  23678142.720    96958061.44046
  20663846.220   108589253.02709  20663842.320    84614991.92748
  21836919.480   114753900.64409  21836916.200    89418656.22848
  22374369.980   117578117.56909  22374365.160    91619296.88348
  23707300.240   124582919.08408  23707296.700    97077675.10246
  20783944.920   109220487.00209  20783939.240    85106899.40748
  20843623.980   109534002.15009  20843622.840    85351173.19549
  20931216.680   112046470.96308  20931216.620    87147290.78108
  20638388.060   110517693.98709  20638387.420    85958230.32008
  21564149.320   115151343.45708  21564150.280    89562159.82005
  22798143.900   121526932.40008  22798148.800    94520967.64505
  22940274.900   122542807.31908  22940278.460    95311080.92807
  21173167.120   113024015.14509  21173169.880    87907682.43008
  20669189.320   110566250.06009  20669189.060    85995981.13308
 15 02 25 02 02  0.0000000  0 14G04G16G18G19G21G22G27R03R04R09R10R16
                                R18R19
  23661912.280   124344202.57908  23661910.900    96891595.48145
  20669271.280   108617761.93109  20669267.400    84637206.64748
  21844518.080   114793832.03009  21844514.880    89449771.60348
  22361475.720   117510356.97409  22361470.800    91566496.42148
  23720340.500   124651445.84508  23720336.860    97131072.55446
  20778498.620   109191866.64509  20778492.980    85084597.84148
  20836199.040   109494983.74909  20836197.980    85320769.25249
  20937244.960   112078740.31408  20937244.940    87172389.17008
  20622037.920   110430139.84409  20622037.200    85890132.66608
  21574375.380   115205950.14008  21574376.280    89604631.66005
  22789179.420   121479146.94408  22789184.540    94483801.19905
  22962786.380   122663059.01208  22962790.040    95404609.86706
  21180835.500   113064949.54809  21180838.320    87939520.30308
  20662526.040   110530606.66009  20662525.860    85968258.50308
 15 02 25 02 02 30.0000000  0 14G04G16G18G19G21G22G27R03R04R09R10R16
                                R18R19
  23645715.000   124259085.16708  23645713.480    96825270.27246
  20674802.560   108646829.10909  20674798.760    84659856.38848
  21852200.740   114834204.91409  21852197.560    89481230.97748
  22348601.440   117442701.68809  22348596.420    91513778.02448
  23733382.080   124719979.23008  23733378.080    97184475.16746
  20773149.820   109163758.88909  20773144.280    85062695.70348
  20828815.500   109456183.38609  20828814.540    85290535.21349
  20943418.040   112111784.83508  20943417.980    87198090.47608
  20605793.380   110343151.36709  20605792.740    85822474.97708
  21584720.960   115261194.76808  21584721.820    89647599.67905
  22780349.740   121432079.71708  22780355.140    94447193.34806
  22985313.640   122783394.51208  22985317.240    95498203.97907
  21188532.140   113106034.63409  21188535.020    87971475.34308
  20655883.940   110495076.34009  20655883.800    85940623.82208
 15 02 25 02 03  0.0000000  0 14G04G16G18G19G21G22G27R03R04R09R10R16
                                R18R19
  23629552.560   124174150.97708  23629551.060    96759087.83146
  20680440.360   108676456.18909  20680436.660    84682942.42348
  21859967.580   114875019.93409  21859964.400    89513034.89947
  22335747.700   117375154.74109  22335742.680    91461144.05248
  23746425.300   124788520.96808  23746421.280    97237884.28646
  20767899.240   109136167.31809  20767893.800    85041195.79148
  20821474.140   109417604.83609  20821473.260    85260474.01149
  20949736.040   112145605.53508  20949735.980    87224395.46708
  20589655.720   110256735.30009  20589655.120    85755262.49908
  21595185.880   115317076.38108  21595186.660    89691063.14005
  22771655.600   121385735.20208  22771661.000    94411147.61005
  23007856.200   122903811.80608  23007859.680    95591861.71906
  21196257.620   113147273.46109  21196260.180    88003549.97808
  20649263.780   110459662.57609  20649263.400    85913079.79008
 15 02 25 02 03 30.0000000  0 14G04G16G18G19G21G22G27R03R04R09R10R16
                                R18R19
  23613425.560   124089402.94408  23613424.020    96693050.45646
  20686185.000   108706644.90209  20686181.440    84706466.07949
  21867818.600   114916277.50409  21867815.420    89545183.65148
  22322915.160   117307719.58809  22322910.260    91408597.19648
  23759470.340   124857072.46908  23759466.240    97291301.03046
  20762747.440   109109094.77009  20762742.040    85020100.30848
  20814175.660   109379251.56609  20814174.800    85230588.34549
  20956199.260   112180203.43608  20956199.060    87251304.93308
  20573625.980   110170897.38909  20573625.380    85688499.68908
  21605769.820   115373593.65708  21605770.540    89735020.99305
  22763097.680   121340117.23808  22763103.080    94375666.94405
  23030413.620   123024308.38708  23030417.080    95685581.09207
  21204012.460   113188669.05709  21204015.200    88035746.52708
  20642665.860   110424367.78909  20642665.300    85885628.29308
 15 02 25 02 04  0.0000000  0 14G04G16G18G19G21G22G27R03R04R09R10R16
                                R18R19
  23597333.660   124004839.48608  23597332.080    96627156.86946
  20692035.980   108737392.25909  20692032.540    84730425.05048
  21875753.260   114957974.67009  21875750.180    89577674.95448
  22310103.640   117240395.06109  22310098.820    91356136.54048
  23772516.660   124925631.30908  23772512.720    97344723.46946
  20757694.160   109082539.99109  20757688.800    84999408.27648
  20806919.980   109341123.00209  20806919.060    85200877.77749
  20962806.980   112215574.42208  20962806.600    87278815.71108
  20557704.640   110085639.81609  20557704.080    85622188.25608
  21616471.840   115430741.49708  21616472.480    89779469.28005
  22754675.880   121295225.33608  22754681.440    94340751.01406
  23052984.720   123144877.89608  23052988.180    95779357.19606
  21211796.260   113230219.73609  21211799.060    88068063.70408
  20636089.980   110389190.59409  20636089.300    85858268.26108
 15 02 25 02 04 30.0000000  0 14G04G16G18G19G21G22G27R03R04R09R10R16
                                R18R19
  23581277.020   123920461.42308  23581275.380    96561407.78046
  20697993.160   108768697.49309  20697989.800    84754818.72549
  21883771.240   115000109.97309  21883768.260    89610507.65347
  22297313.340   117173182.24809  22297308.680    91303762.94448
  23785564.240   124994197.21708  23785560.680    97398151.42646
  20752739.540   109056503.57609  20752734.180    84979120.16048
  20799707.380   109303220.73109  20799706.440    85171343.53849
  20969559.080   112251717.90908  20969558.540    87306927.31108
  20541892.460   110000966.86909  20541892.120    85556331.54108
  21627291.260   115488516.36608  21627291.880    89824405.25705
  22746390.800   121251061.56308  22746396.540    94306401.41905
  23075568.540   123265515.99507  23075572.100    95873186.61906
  21219609.340   113271926.82209  21219612.160    88100502.51708
  20629536.340   110354131.85709  20629535.380    85831000.35208
 15 02 25 02 05  0.0000000  0 14G04G16G18G19G21G22G27R03R04R09R10R16
                                R18R19
  23565255.820   123836269.83708  23565254.280    96495803.99846
  20704056.580   108800560.99409  20704053.260    84779647.41849
  21891872.460   115042682.64709  21891869.580    89643681.17148
  22284544.600   117106082.71809  22284540.020    91251477.61248
  23798613.140   125062769.79408  23798609.500    97451584.59746
  20747883.900   109030987.24109  20747878.560    84959237.30948
  20792538.300   109265546.74009  20792537.320    85141987.18649
  20976455.180   112288632.58208  20976454.720    87335638.73608
  20526190.300   109916883.13409  20526190.140    85490933.09208
  21638227.620   115546915.61208  21638228.320    89869826.87305
  22738242.840   121207628.13008  22738248.480    94272619.85805
  23098164.500   123386218.98807  23098168.220    95967066.50906
  21227451.840   113313791.30509  21227454.740    88133063.77808
  20623004.980   110319192.58909  20623003.900    85803825.36208
 15 02 25 02 05 30.0000000  0 14G04G16G18G19G21G22G27R03R04R09R10R16
                                R18R19
  23549270.420   123752266.21908  23549268.940    96430346.66646
  20710226.320   108832982.92809  20710223.000    84804911.25349
  21900056.880   115085692.60309  21900054.040    89677195.41248
  22271797.880   117039098.49409  22271793.280    91199282.11548
  23811663.240   125131349.57808  23811659.320    97505023.36545
  20743127.560   109005992.76409  20743122.280    84939761.09648
  20785413.120   109228103.51709  20785412.140    85112810.65849
  20983495.100   112326318.06808  20983494.800    87364949.67208
  20510599.180   109833393.78809  20510599.140    85425996.95508
  21649280.420   115605936.81608  21649281.220    89915732.22705
  22730232.240   121164927.94008  22730237.960    94239408.59705
  23120771.960   123506983.67207  23120775.800    96060994.39906
  21235324.300   113355815.06909  21235327.060    88165748.90708
  20616496.160   110284374.63109  20616495.060    85776744.72308
 15 02 25 02 06  0.0000000  0 14G04G16G18G19G21G22G27R03R04R09R10R16
                                R18R19
  23533319.660   123668444.78008  23533318.280    96365031.31746
  20716500.940   108865955.88709  20716497.560    84830604.46849
  21908323.060   115129131.76909  21908320.100    89711044.12847
  22259072.200   116972224.36909  22259067.460    91147172.42748
  23824713.520   125199929.28908  23824710.040    97558462.10546
  20738469.360   108981514.40609  20738464.220    84920687.06848
  20778330.860   109190885.87409  20778329.920    85083809.91049
  20990677.440   112364765.88708  20990677.100    87394853.53108
  20495118.560   109750495.94709  20495118.620    85361520.87808
  21660447.740   115665569.72508  21660448.620    89962113.36805
  22722358.340   121122955.75308  22722363.960    94206763.54605
  23143388.900   123627798.73707  23143392.920    96154961.45606
  21243225.560   113397992.04509  21243228.300    88198553.18608
  20610008.860   110249672.11309  20610007.840    85749753.87808
 15 02 25 02 06 30.0000000  0 14G04G16G18G19G21G22G27R03R04R09R10R16
                                R18R19
  23517405.540   123584815.71208  23517404.120    96299865.84246
  20722882.060   108899488.50809  20722878.620    84856733.77449
  21916672.520   115173008.27809  21916669.400    89745233.61147
  22246369.620   116905471.29309  22246364.660    91095157.04748
  23837765.480   125268518.43508  23837762.060    97611908.16045
  20733911.400   108957562.57509  20733906.380    84902023.31148
  20771293.640   109153905.00709  20771292.700    85054993.65049
  20998003.900   112403984.69308  20998003.440    87425357.03808
  20479751.080   109668203.58609  20479751.080    85297515.71808
  21671730.760   115725820.75308  21671731.800    90008975.24405
  22714623.280   121081722.96808  22714628.960    94174693.59205
  23166016.360   123748669.63207  23166020.460    96248971.93106
  21251157.540   113440332.96509  21251160.300    88231485.00408
  20603545.000   110215095.19009  20603544.160    85722860.71608
 15 02 25 02 07  0.0000000  0 15G04G16G18G19G21G22G27R03R04R05R09R10
                                R16R18R19
  23501525.700   123501366.93908  23501524.200    96234840.85346
  20729367.160   108933567.52609  20729363.660    84883288.84549
  21925102.560   115217308.02009  21925099.300    89779752.88448
  22233687.720   116838827.11109  22233682.520    91043226.51748
  23850816.940   125337104.00008  23850813.380    97665351.44546
  20729451.420   108934125.39009  20729446.480    84883760.57848
  20764299.380   109117149.92009  20764298.380    85026353.33049
  21005471.600   112443959.98808  21005471.180    87456448.94508
  20464495.060   109586507.72209  20464494.920    85233974.51108
  23589668.660   126100292.20406  23589674.960    98078027.60906
  21683126.460   115786673.63608  21683127.680    90056305.25305
  22707024.840   121041218.62308  22707030.640    94143190.21906
  23188651.140   123869579.57608  23188655.340    96343012.72906
  21259117.960   113482825.93609  21259120.480    88264535.07708
  20597102.420   110180632.21009  20597101.700    85696056.19508
 15 02 25 02 07 30.0000000  0 15G04G16G18G19G21G22G27R03R04R05R09R10
                                R16R18R19
  23485683.060   123418113.57708  23485681.620    96169968.15046
  20735958.780   108968206.70909  20735955.280    84910280.41148
  21933615.660   115262043.95009  21933612.220    89814612.05747
  22221029.520   116772307.76909  22221024.360    90991393.27548
  23863870.180   125405699.91908  23863867.100    97718802.72346
  20725092.400   108911218.12309  20725087.420    84865910.76749
  20757351.140   109080636.43609  20757350.020    84997901.26149
  21013082.940   112484704.80708  21013082.600    87488139.37208
  20449353.980   109505427.29909  20449353.720    85170911.97308
  23564616.860   125966377.22106  23564623.220    97973872.26406
  21694636.960   115848139.59208  21694638.240    90104112.07705
  22699566.120   121001458.92308  22699571.760    94112266.00805
  23211295.140   123990538.93707  23211299.360    96437091.96807
  21267109.740   113525486.28909  21267112.300    88297715.32608
  20590684.040   110146298.46109  20590683.280    85669352.18508
 15 02 25 02 08  0.0000000  0 15G04G16G18G19G21G22G27R03R04R05R09R10
                                R16R18R19
  23469875.360   123335043.79008  23469874.000    96105238.48246
  20742654.540   109003393.43409  20742651.060    84937698.63148
  21942209.200   115307202.77709  21942205.680    89849800.74947
  22208392.860   116705901.95109  22208387.720    90939648.49248
  23876922.940   125474293.12008  23876919.160    97772251.98045
  20720832.060   108888829.09909  20720826.960    84848464.79048
  20750446.840   109044353.82109  20750445.620    84969629.09749
  21020835.440   112526204.85508  21020834.880    87520417.21208
  20434326.180   109424953.62809  20434325.900    85108321.37108
  23539562.820   125832451.08707  23539569.360    97869708.22306
  21706259.260   115910202.58108  21706260.680    90152383.27205
  22692245.020   120962432.67708  22692250.500    94081912.26505
  23233945.260   124111530.82907  23233949.400    96531196.52606
  21275130.660   113568302.32509  21275133.140    88331016.68408
  20584287.660   110112081.93009  20584286.900    85642739.33808
 15 02 25 02 08 30.0000000  0 16G04G16G18G19G21G22G27R03R04R05R09R10
                                R16R18R19R20
  23454103.940   123252164.59408  23454102.560    96040657.32046
  20749455.400   109039132.80709  20749452.020    84965547.48348
  21950884.120   115352789.23709  21950880.500    89885322.65847
  22195779.220   116639617.17209  22195774.200    90887998.02148
  23889976.440   125542889.61208  23889972.720    97825703.79245
  20716671.600   108866964.99909  20716666.400    84831427.83849
  20743587.960   109008309.89309  20743586.700    84941542.91549
  21028729.740   112568464.75008  21028729.420    87553286.02108
  20419413.480   109345097.09909  20419413.240    85046210.76008
  23514508.440   125698523.90007  23514515.080    97765543.28406
  21717993.980   115972865.46508  21717995.380    90201121.05205
  22685063.000   120924148.40208  22685068.480    94052135.59806
  23256601.880   124232557.46507  23256606.140    96625328.06906
  21283182.100   113611281.35809  21283184.520    88364444.78908
  20577914.580   110077990.07309  20577913.840    85616223.44908
  23642274.160   126425862.84906  23642278.080    98331244.22316
 15 02 25 02 09  0.0000000  0 16G04G16G18G19G21G22G27R03R04R05R09R10
                                R16R18R19R20
  23438368.560   123169474.67208  23438367.140    95976223.64346
  20756360.920   109075422.10009  20756357.580    84993824.84048
  21959639.760   115398799.78709  21959635.880    89921175.03447
  22183188.400   116573452.53909  22183183.500    90836441.19348
  23903030.240   125611487.10808  23903026.900    97879156.37246
  20712610.900   108845625.30309  20712605.660    84814799.51548
  20736774.420   108972504.22209  20736773.180    84913642.39949
  21036765.320   112611480.82908  21036765.140    87586742.97408
  20404616.280   109265859.57609  20404616.200    84984581.59508
  23489454.340   125564598.07407  23489460.620    97661379.35506
  21729840.080   116036122.79108  21729841.440    90250321.16105
  22678020.040   120886605.10209  22678025.480    94022935.26005
  23279263.820   124353612.66107  23279268.180    96719481.80506
  21291263.900   113654422.06609  21291266.080    88397998.65408
  20571564.480   110044021.45109  20571563.860    85589803.41108
  23628212.340   126350665.21106  23628215.880    98272757.21206
 15 02 25 02 09 30.0000000  0 16G04G16G18G19G21G22G27R03R04R05R09R10
                                R16R18R19R20
  23422669.340   123086974.92208  23422667.920    95911938.14246
  20763370.960   109112260.55809  20763367.660    85022530.12048
  21968475.880   115445233.47509  21968471.900    89957357.12547
  22170620.760   116507409.54209  22170616.020    90784979.12848
  23916084.040   125680085.35308  23916079.980    97932609.53045
  20708650.080   108824810.52809  20708644.800    84798580.21548
  20730006.480   108936938.57609  20730005.340    84885928.91549
  21044941.840   112655251.89008  21044941.940    87620787.13508
  20389935.420   109187245.04909  20389935.500    84923436.98308
  23464401.040   125430677.11207  23464407.480    97557219.28306
  21741796.900   116099971.10208  21741798.240    90299980.92705
  22671116.360   120849804.13408  22671121.520    93994312.24705
  23301930.360   124474692.56007  23301934.800    96813654.76306
  21299376.260   113697725.62609  21299378.360    88431679.17408
  20565237.600   110010177.50609  20565237.120    85563480.34308
  23614143.240   126275430.95406  23614146.720    98214241.71006
 15 02 25 02 10  0.0000000  0 16G04G16G18G19G21G22G27R03R04R05R09R10
                                R16R18R19R20
  23407005.840   123004662.67908  23407004.420    95847798.76846
  20770484.780   109149644.21109  20770481.500    85051660.22248
  21977391.680   115492085.73209  21977387.640    89993865.37247
  22158076.000   116441486.40409  22158071.280    90733610.46548
  23929137.320   125748680.51608  23929134.220    97986060.24546
  20704788.700   108804518.33009  20704783.360    84782768.11549
  20723283.940   108901611.45009  20723282.780    84858401.28249
  21053258.600   112699772.85408  21053258.880    87655414.53408
  20375371.140   109109254.66809  20375371.280    84862777.80808
  23439349.000   125296762.48506  23439355.480    97453064.02706
  21753863.160   116164403.82508  21753864.520    90350095.23805
  22664351.620   120813744.88908  22664356.860    93966266.17905
  23324600.120   124595789.53407  23324604.680    96907840.96406
  21307518.700   113741189.81909  21307520.700    88465484.64708
  20558933.520   109976455.60509  20558933.080    85537252.20208
  23600066.740   126200156.77506  23600070.060    98155695.15307
 15 02 25 02 10 30.0000000  0 16G04G16G18G19G21G22G27R03R04R05R09R10
                                R16R18R19R20
  23391379.640   122922546.55408  23391378.200    95783812.19246
  20777703.800   109187580.39609  20777700.520    85081220.87848
  21986388.340   115539363.10009  21986384.320    90030704.88248
  22145555.820   116375692.27509  22145551.140    90682342.33948
  23942191.420   125817280.65608  23942187.900    98039514.90546
  20701028.380   108784757.34209  20701022.940    84767369.95249
  20716608.620   108866532.54309  20716607.440    84831067.07949
  21061716.880   112745050.03008  21061717.080    87690630.12208
  20360925.680   109031900.32009  20360925.820    84802613.33608
  23414300.480   125162866.27107  23414306.580    97348923.05506
  21766039.700   116229425.38008  21766041.020    90400667.53405
  22657727.700   120778436.03908  22657733.180    93938803.75606
  23347273.980   124716907.94807  23347278.600    97002043.79606
  21315692.860   113784823.77909  21315694.640    88499422.17308
  20552654.080   109942865.03109  20552653.620    85511126.20208
  23585984.300   126124851.04006  23585987.560    98097124.08707
 15 02 25 02 11  0.0000000  0 16G04G16G18G19G21G22G27R03R04R05R09R10
                                R16R18R19R20
  23375788.740   122840615.98408  23375787.340    95719970.20446
  20785025.640   109226056.56009  20785022.300    85111202.28848
  21995463.420   115587052.72509  21995459.440    90067865.63348
  22133058.220   116310016.80509  22133053.500    90631166.65648
  23955244.600   125885874.19208  23955240.520    98092964.43746
  20697367.040   108765516.66809  20697361.500    84752377.22149
  20709978.640   108831691.84509  20709977.420    84803918.48149
  21070313.900   112791069.75908  21070314.120    87726423.24708
  20346597.580   108955174.22209  20346597.740    84742937.48408
  23389253.920   125028980.73407  23389259.940    97244790.41706
  21778323.660   116295020.62808  21778324.880    90451686.02705
  22651242.660   120743867.35808  22651248.260    93911916.99406
  23369948.960   124838031.73807  23369953.440    97096250.84006
  21323896.620   113828616.52209  21323898.760    88533483.16708
  20546397.140   109909394.82709  20546396.600    85485093.81508
  23571893.780   126049502.03707  23571896.920    98038519.31107
 15 02 25 02 11 30.0000000  0 16G04G16G18G19G21G22G27R03R04R05R09R10
                                R16R18R19R20
  23360235.420   122758882.85408  23360234.080    95656282.06746
  20792452.400   109265083.82909  20792448.960    85141613.14548
  22004618.920   115635165.09209  22004614.900    90105355.78347
  22120585.740   116244473.21509  22120580.920    90580093.74148
  23968298.320   125954472.25608  23968295.020    98146417.39746
  20693807.020   108746808.78609  20693801.440    84737799.66248
  20703396.560   108797102.73909  20703395.280    84776965.93349
  21079051.660   112837842.39608  21079051.440    87762801.98508
  20332389.820   108879092.40909  20332389.960    84683762.77208
  23364212.500   124895121.98107  23364218.320    97140678.56306
  21790716.600   116361197.79008  21790717.820    90503157.12205
  22644898.920   120710051.96108  22644904.500    93885616.12306
  23392626.520   124959168.81107  23392630.840    97190468.19106
  21332132.560   113872580.95109  21332134.940    88567677.72508
  20540165.100   109876057.76509  20540164.680    85459164.99908
  23557797.240   125974121.66307  23557800.280    97979890.15407
 15 02 25 02 12  0.0000000  0 16G04G16G18G19G21G22G27R03R04R05R09R10
                                R16R18R19R20
  23344718.100   122677338.74808  23344716.700    95592741.20946
  20799981.980   109304651.59009  20799978.460    85172445.15648
  22013852.720   115683689.14409  22013848.780    90143166.72847
  22108136.740   116179053.09909  22108131.840    90529117.02048
  23981351.080   126023064.78608  23981347.000    98199866.11644
  20690346.660   108728624.88409  20690341.080    84723630.39648
  20696860.860   108762757.38509  20696859.640    84750203.31449
  21087927.800   112885356.26808  21087927.360    87799757.21908
  20318301.240   108803648.55309  20318301.320    84625084.23208
  23339174.960   124761284.51006  23339180.660    97036583.26706
  21803216.020   116427943.66408  21803217.220    90555070.55305
  22638695.020   120676981.82408  22638700.600    93859894.90606
  23415304.020   125080305.64008  23415308.220    97284685.32006
  21340399.160   113916708.34509  21340401.320    88601999.02708
  20533956.360   109842845.35809  20533955.980    85433333.12508
  23543692.880   125898700.16507  23543696.120    97921229.00507
 15 02 25 02 12 30.0000000  0 16G04G16G18G19G21G22G27R03R04R05R09R10
                                R16R18R19R20
  23329237.240   122595986.36108  23329235.800    95529349.75146
  20807614.760   109344761.57809  20807611.160    85203699.69148
  22023164.980   115732625.62409  22023161.080    90181299.06547
  22095711.920   116113760.20309  22095706.900    90478239.45748
  23994403.220   126091655.20908  23994399.760    98253313.13646
  20686986.620   108710968.31209  20686981.060    84709872.03848
  20690372.260   108728659.83009  20690371.160    84723633.79649
  21096942.660   112933612.06608  21096941.880    87837289.51308
  20304333.100   108728849.36609  20304333.100    84566907.09708
  23314142.680   124627474.86706  23314148.260    96932509.55106
  21815821.720   116495257.16408  21815822.880    90607425.46205
  22632631.800   120644661.04508  22632637.400    93834756.53206
  23437981.080   125201440.32207  23437985.200    97378900.74806
  21348696.920   113961002.08009  21348699.260    88636449.68208
  20527771.520   109809760.93709  20527771.200    85407600.81208
  23529581.440   125823240.45107  23529584.860    97862538.14307
 15 02 25 02 13  0.0000000  0 16G04G16G18G19G21G22G27R03R04R05R09R10
                                R16R18R19R20
  23313793.340   122514828.32408  23313791.940    95466109.74046
  20815350.840   109385414.48509  20815347.180    85235377.26848
  22032555.840   115781975.43009  22032552.080    90219753.43747
  22083311.800   116048597.62709  22083306.900    90427463.43748
  24007455.120   126160243.32008  24007451.120    98306758.46446
  20683727.300   108693840.94009  20683721.760    84696526.03649
  20683931.440   108694813.53909  20683930.460    84697260.05949
  21106095.960   112982609.44208  21106095.080    87875398.57908
  20290486.420   108654700.56309  20290486.300    84509235.82008
  23289116.640   124493698.80206  23289122.220    96828461.95806
  21828533.380   116563136.40708  21828534.500    90660220.40105
  22626709.660   120613092.37008  22626715.260    93810203.09606
  23460657.260   125322570.88907  23460661.520    97473112.95106
  21357026.300   114005464.94509  21357028.700    88671031.88208
  20521611.200   109776807.35709  20521610.920    85381970.25008
  23515463.200   125747744.33907  23515466.720    97803818.97307
 15 02 25 02 13 30.0000000  0 16G04G16G18G19G21G22G27R03R04R05R09R10
                                R16R18R19R20
  23298386.220   122433863.61108  23298384.860    95403020.37246
  20823189.580   109426607.17909  20823185.900    85267475.46148
  22042024.640   115831734.89909  22042021.040    90258527.05347
  22070936.380   115983564.96009  22070931.600    90376788.65148
  24020506.280   126228827.61008  24020502.500    98360200.70645
  20680568.500   108677241.79109  20680563.000    84683591.64048
  20677538.320   108661218.37909  20677537.520    84671082.02049
  21115387.000   113032344.85808  21115386.140    87914081.69208
  20276761.440   108581203.77409  20276761.220    84452071.67008
  23264097.380   124359959.00407  23264103.180    96724442.54207
  21841349.900   116631575.93508  21841351.060    90713451.11505
  22620928.300   120582275.03808  22620933.980    93786234.07206
  23483331.600   125443691.38807  23483336.060    97567317.31506
  21365387.200   114050096.12509  21365390.000    88705744.98508
  20515475.280   109743983.80709  20515474.900    85356440.81808
  23501337.920   125672210.23907  23501341.340    97745070.25107
 15 02 25 02 14  0.0000000  0 16G04G16G18G19G21G22G27R03R04R05R09R10
                                R16R18R19R20
  23283015.820   122353091.86908  23283014.540    95340081.37145
  20831130.700   109468338.19109  20831127.020    85299993.12648
  22051571.040   115881902.12109  22051567.560    90297618.38747
  22058585.740   115918662.67609  22058581.220    90326215.47348
  24033556.340   126297407.35008  24033552.740    98413639.43645
  20677510.160   108661170.53409  20677504.720    84671068.58948
  20671193.220   108627875.04709  20671192.480    84645100.20349
  21124815.260   113082815.24808  21124814.600    87953336.44308
  20263158.760   108508361.94109  20263158.480    84395416.92108
  23239085.580   124226258.61407  23239091.380    96620453.75107
  21854270.480   116700571.17308  21854271.720    90767114.06505
  22615287.960   120552209.20408  22615293.660    93762849.53706
  23506003.060   125564796.81607  23506007.740    97661509.87906
  21373779.560   114094895.43809  21373782.520    88740588.89508
  20509363.660   109711290.44009  20509363.180    85331012.64808
  23487205.300   125596636.91407  23487208.620    97686291.05407
 15 02 25 02 14 30.0000000  0 16G04G16G18G19G21G22G27R03R04R05R09R10
                                R16R18R19R20
  23267681.940   122272511.89908  23267680.660    95277291.80846
  20839173.840   109510605.26409  20839170.140    85332928.49548
  22061194.380   115932473.35109  22061191.000    90337024.54847
  22046259.820   115853890.01809  22046255.440    90275743.29248
  24046605.460   126365980.30007  24046602.140    98467072.90946
  20674552.100   108645625.94709  20674546.640    84658955.93248
  20664896.160   108594783.41109  20664895.340    84619314.51549
  21134380.040   113134016.89108  21134379.420    87993159.94208
  20249678.780   108436177.10509  20249678.460    84339273.18108
  23214081.680   124092599.92206  23214087.180    96516497.33107
  21867294.120   116770116.55308  21867295.360    90821204.88505
  22609788.660   120522894.56108  22609794.380    93740049.25406
  23528670.740   125685881.53307  23528675.600    97755686.34306
  21382203.280   114139862.30309  21382206.360    88775563.08408
  20503276.040   109678726.13609  20503275.560    85305684.86608
  23473065.080   125521023.07507  23473068.120    97627480.31107
 15 02 25 02 15  0.0000000  0 16G04G16G18G19G21G22G27R03R04R05R09R10
                                R16R18R19R20
  23252386.300   122192132.92608  23252384.960    95214658.85046
  20847320.360   109553415.61209  20847316.680    85366287.19648
  22070896.120   115983456.26209  22070892.840    90376751.48847
  22033960.520   115789256.97809  22033956.180    90225379.89548
  24059654.420   126434553.71508  24059651.340    98520506.68845
  20671696.040   108630617.22209  20671690.560    84647260.83648
  20658649.000   108561953.70709  20658648.080    84593732.92549
  21144082.640   113185956.19808  21144082.200    88033557.18108
  20236323.780   108364661.59309  20236323.540    84283650.01108
  23189087.980   123958995.58207  23189093.380    96412583.21407
  21880421.680   116840216.95408  21880422.900    90875727.39205
  22604431.980   120494340.72708  22604437.740    93717840.71306
  23551335.380   125806950.02807  23551340.480    97849850.14806
  21390660.260   114185006.22609  21390663.300    88810675.00508
  20497214.240   109646300.81809  20497214.000    85280465.17908
  23458918.820   125445377.60407  23458922.040    97568644.97207
 15 02 25 02 15 30.0000000  0 16G04G16G18G19G21G22G27R03R04R05R09R10
                                R16R18R19R20
  23237126.500   122111942.15408  23237125.080    95152172.55746
  20855567.500   109596754.70409  20855563.840    85400057.90148
  22080673.400   116034835.85809  22080670.080    90416787.54347
  22021685.600   115724751.81509  22021681.260    90175116.13548
  24072701.400   126503115.55808  24072697.520    98573931.50145
  20668939.480   108616131.42509  20668934.020    84635973.20449
  20652449.540   108529374.43109  20652448.500    84568346.47249
  21153920.280   113238618.06408  21153919.820    88074516.40408
  20223091.920   108293805.60209  20223091.840    84228539.81908
  23164102.840   123825436.59807  23164108.020    96308704.34107
  21893649.960   116910855.35408  21893651.260    90930668.35305
  22599215.740   120466535.41608  22599221.440    93696214.33705
  23573993.820   125927985.12207  23573998.980    97943987.93006
  21399148.140   114230314.84409  21399151.060    88845915.02308
  20491176.180   109614002.03708  20491176.020    85255343.91308
  23444764.060   125369686.99306  23444767.540    97509774.56706
 15 02 25 02 16  0.0000000  0 16G04G16G18G19G21G22G27R03R04R05R09R10
                                R16R18R19R20
  23221904.480   122031949.72808  23221903.000    95089840.82845
  20863916.900   109640631.01609  20863913.220    85434247.22748
  22090527.620   116086619.78209  22090524.220    90457138.65047
  22009437.140   115660385.38109  22009432.660    90124960.48548
  24085747.780   126571674.37207  24085744.720    98627353.88846
  20666284.320   108602178.55209  20666278.900    84625100.84749
  20646299.820   108497056.53309  20646298.640    84543163.69749
  21163894.260   113292009.48008  21163893.900    88116043.06308
  20209985.680   108223622.47509  20209985.640    84173952.96108
  23139128.740   123691936.65606  23139133.700    96204871.36707
  21906980.120   116982037.53108  21906981.340    90986032.24405
  22594141.960   120439488.91708  22594147.580    93675178.17306
  23596647.080   126048992.30007  23596652.380    98038103.95306
  21407668.860   114275798.45509  21407671.640    88881291.14208
  20485163.860   109581840.46009  20485163.680    85230329.35708
  23430602.860   125293960.97007  23430606.360    97450876.53306
 15 02 25 02 16 30.0000000  0 15G04G16G18G19G21G22G27R03R04R05R09R10
                                R18R19R20
  23206719.700   121952153.07608  23206718.220    95027661.64145
  20872367.660   109685040.05209  20872363.980    85468851.65848
  22100457.920   116138803.38709  22100454.400    90497801.21247
  21997214.680   115596155.46609  21997209.980    90074911.21148
  24098793.180   126640227.65208  24098789.780    98680772.05745
  20663730.060   108588755.70409  20663724.660    84614641.49649
  20640199.520   108464998.44409  20640198.180    84518183.36649
  21174003.400   113346124.85108  21174003.140    88158132.80008
  20197005.120   108154112.43609  20197005.180    84119889.60908
  23114165.760   123558496.52907  23114170.620    96101084.89507
  21920410.760   117053756.28708  21920412.040    91041813.47505
  22589210.060   120413199.10108  22589215.700    93654730.56206
  21416221.840   114321454.76309  21416224.440    88916801.57208
  20479176.880   109549813.87309  20479176.680    85205419.80008
  23416434.460   125218196.24306  23416437.880    97391948.42006
 15 02 25 02 17  0.0000000  0 15G04G16G18G19G21G22G27R03R04R05R09R10
                                R18R19R20
  23191572.080   121872551.54908  23191570.560    94965634.49946
  20880919.400   109729979.69909  20880915.700    85503869.55848
  22110463.720   116191384.03509  22110460.080    90538773.15547
  21985018.280   115532062.40509  21985013.400    90024968.58648
  24111836.920   126708771.81008  24111833.000    98734183.03244
  20661276.540   108575862.30409  20661271.160    84604594.69849
  20634148.680   108433200.53709  20634147.240    84493405.77849
  21184247.180   113400961.05208  21184247.060    88200783.17208
  20184150.740   108085278.10909  20184150.960    84066351.82308
  23089214.540   123425119.13206  23089219.180    95997347.21007
  21933940.920   117126006.57608  21933942.200    91098008.10705
  22584420.040   120387665.36209  22584425.760    93634871.00106
  21424807.140   114367283.47709  21424809.720    88952446.12808
  20473215.180   109517921.95509  20473214.860    85180614.97508
  23402258.560   125142391.96606  23402261.840    97332989.54406
 15 02 25 02 17 30.0000000  0 15G04G16G18G19G21G22G27R03R04R05R09R10
                                R18R19R20
  23176462.060   121793147.61308  23176460.480    94903761.30946
  20889572.240   109775450.57509  20889568.520    85539301.40048
  22120545.120   116244362.38609  22120541.640    90580054.97147
  21972848.620   115468109.72409  21972843.500    89975135.33148
  24124879.240   126777310.21108  24124876.100    98787589.53546
  20658924.220   108563500.66809  20658918.820    84594962.26849
  20628148.000   108401666.69109  20628146.540    84468833.95649
  21194625.540   113456517.80608  21194625.360    88243993.99208
  20171423.580   108017124.61109  20171423.840    84013343.56308
  23064276.360   123291811.16307  23064280.940    95893663.51307
  21947570.320   117198786.82808  21947571.560    91154614.93805
  22579772.520   120362891.27308  22579778.260    93615602.26506
  21433425.300   114413287.74209  21433427.880    88988227.20008
  20467279.320   109486168.21609  20467278.820    85155917.63308
  23388075.840   125066550.56706  23388079.360    97274001.84807
 15 02 25 02 18  0.0000000  0 15G04G16G18G19G21G22G27R03R04R05R09R10
                                R18R19R20
  23161388.580   121713935.74708  23161386.980    94842037.80546
  20898324.780   109821445.55909  20898321.080    85575141.64148
  22130700.680   116297730.41109  22130697.340    90621640.45347
  21960704.600   115404292.21609  21960699.420    89925407.42948
  24137919.700   126845835.91808  24137915.700    98840986.27045
  20656672.040   108551665.29009  20656666.620    84585739.90649
  20622196.600   108370392.08009  20622195.140    84444464.13749
  21205136.860   113512786.36508  21205136.860    88287758.42008
  20158823.020   107949649.13409  20158823.300    83960862.65508
  23039350.640   123158569.98907  23039355.100    95790031.73906
  21961296.960   117272086.56208  21961298.300    91211625.81005
  22575266.340   120338870.73908  22575272.080    93596919.62806
  21442075.360   114459462.03509  21442078.000    89024140.52208
  20461368.240   109454546.85109  20461367.620    85131323.23608
  23373885.020   124990665.45307  23373888.480    97214980.09806
 15 02 25 02 18 30.0000000  0 15G04G16G18G19G21G22G27R03R04R05R09R10
                                R18R19R20
  23146353.520   121634926.04708  23146351.940    94780471.82446
  20907178.640   109867973.09209  20907174.980    85611396.85348
  22140931.980   116351496.43909  22140928.660    90663536.06047
  21948588.420   115340621.15009  21948583.220    89875793.62648
  24150959.060   126914358.67707  24150955.260    98894380.50745
  20654521.820   108540365.79809  20654516.400    84576935.11249
  20616296.720   108339388.21209  20616295.300    84420305.27749
  21215782.640   113569774.51908  21215782.680    88332082.54008
  20146351.700   107882865.52709  20146351.860    83908919.86408
  23014440.200   123025409.82307  23014444.360    95686462.96206
  21975122.060   117345912.00408  21975123.440    91269045.58505
  22570903.660   120315614.97909  22570909.360    93578831.81606
  21450759.320   114505817.17309  21450761.760    89060194.52908
  20455483.880   109423069.16709  20455483.160    85106840.59908
  23359687.920   124914746.79907  23359691.320    97155932.26907
 15 02 25 02 19  0.0000000  0 15G04G16G18G19G21G22G27R03R04R05R09R10
                                R18R19R20
  23131355.000   121556108.34708  23131353.420    94719055.47346
  20916131.540   109915021.12209  20916127.960    85648057.63748
  22151236.700   116405648.00109  22151233.420    90705732.07847
  21936498.340   115277087.06709  21936493.120    89826286.54448
  24163996.160   126982867.16108  24163992.000    98947763.82146
  20652471.540   108529591.59309  20652466.120    84568539.63649
  20610446.600   108308645.84409  20610445.220    84396350.18349
  21226560.360   113627468.70708  21226560.300    88376955.80108
  20134008.140   107816765.91109  20134008.100    83857509.06108
  22989543.680   122892323.87707  22989547.380    95582951.89906
  21989042.820   117420248.23808  21989044.240    91326862.62705
  22566682.440   120293112.72808  22566687.880    93561330.05105
  21459475.120   114552343.02809  21459477.700    89096381.27208
  20449624.360   109391725.06309  20449623.720    85082461.85108
  23345482.540   124838783.88707  23345485.780    97096850.02107
 15 02 25 02 19 30.0000000  0 15G04G16G18G19G21G22G27R03R04R05R09R10
                                R18R19R20
  23116395.700   121477496.81108  23116394.100    94657799.73946
  20925185.960   109962602.41509  20925182.400    85685133.96148
  22161617.000   116460196.87909  22161613.780    90748237.69547
  21924437.100   115213704.66009  21924431.920    89776897.65948
  24177032.440   127051375.01708  24177029.100    99001146.41845
  20650523.840   108519356.66009  20650518.500    84560564.37249
  20604649.120   108278180.17309  20604647.780    84372610.70549
  21237472.220   113685880.55808  21237472.100    88422387.24108
  20121795.460   107751367.40109  20121795.380    83806643.57108
  22964664.380   122759329.99307  22964667.820    95479512.42306
  22003061.100   117495105.00208  22003062.460    91385084.52105
  22562605.260   120271379.27008  22562610.600    93544426.25805
  21468225.680   114599054.29309  21468228.460    89132712.25608
  20443792.580   109360529.49109  20443792.040    85058198.64108
  23331271.340   124762790.47907  23331274.560    97037744.05807
 15 02 25 02 20  0.0000000  0 16G04G16G18G19G21G22G27G32R03R04R05R09
                                R10R18R19R20
  23101473.300   121399079.09108  23101471.740    94596695.02846
  20934339.100   110010702.43209  20934335.560    85722614.47848
  22172070.260   116515128.92409  22172067.040    90791041.88247
  21912402.540   115150462.61809  21912397.360    89727618.15248
  24190066.280   127119868.94108  24190061.720    99054518.34245
  20648676.300   108509648.35709  20648671.080    84552999.46949
  20598902.180   108247980.11209  20598900.880    84349078.18649
  24497945.160   128737566.46408  24497943.460   100314983.10455
  21248515.120   113744994.30208  21248515.040    88468364.59708
  20109711.960   107686660.84709  20109711.800    83756316.26008
  22939800.640   122626419.74007  22939803.820    95376137.98006
  22017173.760   117570465.42908  22017175.040    91443698.18105
  22558669.860   120250401.75908  22558675.220    93528110.42106
  21477008.780   114645939.14409  21477011.640    89169178.22008
  20437986.340   109329470.57609  20437985.920    85034041.70108
  23317052.140   124686754.12607  23317055.500    96978604.67607
 15 02 25 02 20 30.0000000  0 16G04G16G18G19G21G22G27G32R03R04R05R09
                                R10R18R19R20
  23086587.060   121320851.51608  23086585.460    94535738.47646
  20943589.900   110059315.67309  20943586.360    85760494.91548
  22182595.320   116570438.11209  22182592.120    90834139.95047
  21900394.100   115087358.06609  21900388.920    89678445.77648
  24203096.620   127188344.39707  24203092.440    99107875.82045
  20646928.200   108500462.57109  20646923.080    84545841.71549
  20593205.300   108218043.09209  20593204.060    84325750.63849
  24475314.380   128618640.40208  24475315.840   100222325.87045
  21259687.900   113804803.48508  21259687.860    88514882.82608
  20097757.300   107622644.78009  20097757.180    83706525.99408
  22914952.460   122493592.91507  22914955.480    95272828.39306
  22031379.180   117646321.18708  22031380.380    91502697.05405
  22554875.660   120230176.93608  22554881.020    93512380.00106
  21485823.800   114692994.17309  21485826.540    89205776.55708
  20432205.120   109298545.00909  20432204.640    85009988.48208
  23302824.160   124610670.61006  23302827.520    96919428.61507
 15 02 25 02 21  0.0000000  0 16G04G16G18G19G21G22G27G32R03R04R05R09
                                R10R18R19R20
  23071740.740   121242833.75408  23071739.120    94474945.44746
  20952941.720   110108459.91609  20952938.220    85798789.12448
  22193195.520   116626142.26809  22193192.260    90877545.78647
  21888415.740   115024411.63009  21888410.620    89629396.61148
  24216127.000   127256820.44708  24216123.440    99161233.71945
  20645283.380   108491819.12309  20645278.300    84539106.57949
  20587562.400   108188389.76009  20587561.240    84302644.15249
  24452692.560   128499763.72808  24452694.240   100129695.40345
  21270993.800   113865324.69808  21270993.800    88561954.87408
  20085935.820   107559342.19409  20085935.760    83657290.67208
  22890124.220   122360873.01307  22890127.340    95169602.00006
  22045680.280   117722687.71308  22045681.380    91562093.21805
  22551226.420   120210724.70508  22551231.840    93497250.50006
  21494674.560   114740239.60009  21494677.180    89242522.97708
  20426452.800   109267773.55009  20426452.240    84986055.12708
  23288591.080   124534559.42706  23288594.280    96860231.04407
 15 02 25 02 21 30.0000000  0 16G04G16G18G19G21G22G27G32R03R04R05R09
                                R10R18R19R20
  23056931.480   121165010.78808  23056929.880    94414304.18846
  20962391.420   110158118.31909  20962387.900    85837483.97148
  22203867.540   116682223.97009  22203864.200    90921245.81847
  21876464.760   114961609.19009  21876459.740    89580459.66148
  24229155.100   127325281.53308  24229150.400    99214580.09244
  20643738.960   108483702.72609  20643733.760    84532782.11649
  20581970.820   108159006.33109  20581969.780    84279747.97849
  24430077.740   128380923.89408  24430079.500   100037093.54545
  21282429.420   113926539.96408  21282429.260    88609566.75008
  20074245.300   107496740.55509  20074245.240    83608600.51908
  22865313.940   122228248.47307  22865316.840    95066449.74706
  22060073.320   117799545.50608  22060074.380    91621871.47205
  22547719.280   120192029.77908  22547724.800    93482709.99806
  21503558.060   114787660.55609  21503560.700    89279405.92608
  20420726.600   109237141.53809  20420725.880    84962230.23108
  23274349.840   124458405.17806  23274352.820    96800999.95207
 15 02 25 02 22  0.0000000  0 16G04G16G18G19G21G22G27G32R03R04R05R09
                                R10R18R19R20
  23042161.200   121087392.60008  23042159.640    94353822.50146
  20971940.580   110208299.19709  20971937.020    85876585.94048
  22214612.820   116738690.96009  22214609.460    90965246.05847
  21864543.180   114898961.33209  21864538.240    89531643.16948
  24242181.520   127393736.95708  24242177.600    99267921.89846
  20642296.680   108476122.83109  20642291.300    84526875.70949
  20576432.700   108129903.68509  20576431.800    84257070.58949
  24407472.100   128262132.91808  24407473.960    99944529.71045
  21293996.080   113988455.96408  21293995.800    88657723.61608
  20062688.040   107434852.37809  20062687.980    83560465.27908
  22840524.020   122095733.02807  22840527.080    94963382.35307
  22074559.320   117876899.80908  22074560.320    91682035.89305
  22544355.900   120174101.64708  22544361.580    93468765.88106
  21512476.440   114835267.57809  21512479.180    89316433.59608
  20415028.420   109206659.59109  20415027.660    84938522.05008
  23260102.360   124382217.48606  23260105.340    96741742.88707
 15 02 25 02 22 30.0000000  0 16G04G16G18G19G21G22G27G32R03R04R05R09
                                R10R18R19R20
  23027427.920   121009968.95708  23027426.420    94293492.40246
  20981586.940   110258990.87709  20981583.340    85916085.93448
  22225429.080   116795531.21109  22225425.740    91009537.14247
  21852649.400   114836459.14009  21852644.400    89482940.16548
  24255205.280   127462175.75308  24255201.860    99321250.78445
  20640954.520   108469069.08709  20640948.980    84521379.28249
  20570946.400   108101073.15709  20570945.580    84234605.24249
  24384874.380   128143383.38708  24384876.080    99851998.13745
  21305691.120   114051059.73008  21305690.460    88706415.43408
  20051262.760   107373670.67309  20051262.700    83512879.52408
  22815753.460   121963320.52007  22815756.580    94860395.01307
  22089135.540   117954736.09608  22089136.620    91742575.19405
  22541134.600   120156930.93408  22541140.360    93455410.88806
  21521427.940   114883050.90809  21521430.880    89353598.36908
  20409356.420   109176318.11409  20409355.660    84914923.12108
  23245846.640   124305986.10307  23245849.680    96682451.82007
 15 02 25 02 23  0.0000000  0 16G04G16G18G19G21G22G27G32R03R04R05R09
                                R10R18R19R20
  23012733.540   120932749.66808  23012732.020    94233321.56946
  20991331.820   110310200.35909  20991328.220    85955989.42548
  22236317.840   116852752.39109  22236314.520    91054125.08447
  21840785.380   114774112.98709  21840780.340    89434358.75948
  24268227.200   127530606.98808  24268223.160    99374573.81244
  20639714.180   108462550.73009  20639708.560    84516300.06049
  20565513.960   108072525.42109  20565513.080    84212360.25649
  24362286.780   128024687.13608  24362288.460    99759508.10545
  21317515.840   114114357.95908  21317515.260    88755647.37308
  20039971.700   107313207.69309  20039971.620    83465852.78708
  22791004.520   121831024.10207  22791007.940    94757497.96707
  22103803.040   118033059.61108  22103804.180    91803493.45405
  22538057.180   120140526.91608  22538063.020    93442652.22006
  21530414.320   114931020.83109  21530417.340    89390908.30908
  20403712.640   109146127.68809  20403711.960    84891441.69808
  23231584.500   124229720.51306  23231587.640    96623134.17107
 15 02 25 02 23 30.0000000  0 16G04G16G18G19G21G22G27G32R03R04R05R09
                                R10R18R19R20
  22998076.340   120855725.76208  22998074.780    94173302.95746
  21001173.200   110361917.15209  21001169.640    85996288.21248
  22247276.820   116910342.80209  22247273.460    91099000.71647
  21828949.500   114711914.88909  21828944.440    89385892.71948
  24281246.220   127599020.83708  24281242.100    99427883.31846
  20638573.880   108456558.32409  20638568.220    84511630.64849
  20560133.840   108044252.65809  20560132.920    84190329.52149
  24339708.060   127906037.48708  24339709.800    99667054.31245
  21329468.000   114178338.24508  21329467.120    88805409.84308
  20028813.600   107253456.78309  20028813.600    83419379.87008
  22766276.380   121698838.72207  22766279.860    94654687.24507
  22118559.140   118111856.46308  22118560.400    91864779.85705
  22535121.880   120124880.12609  22535127.740    93430482.50706
  21539433.960   114979168.51109  21539437.140    89428356.48408
  20398095.520   109116079.72909  20398094.840    84868071.06008
  23217314.280   124153411.19807  23217317.440    96563782.47407
 15 02 25 02 24  0.0000000  0 16G04G16G18G19G21G22G27G32R03R04R05R09
                                R10R18R19R20
  22983457.820   120778904.97908  22983456.240    94113442.63146
  21011112.260   110414147.54609  21011108.800    86036987.21248
  22258307.220   116968308.32109  22258303.840    91144168.65947
  21817143.480   114649873.69109  21817138.460    89337548.94648
  24294263.240   127667424.32207  24294259.780    99481184.65645
  20637535.000   108451099.01209  20637529.380    84507376.64949
  20554807.640   108016263.76609  20554806.780    84168520.00749
  24317140.160   127787444.67408  24317141.880    99574644.76045
  21341548.360   114243005.12808  21341547.560    88855706.28908
  20017790.420   107194428.75409  20017790.560    83373469.20408
  22741571.180   121566775.97807  22741574.800    94551971.94207
  22133404.560   118191130.23608  22133405.920    91926437.20305
  22532330.140   120109998.24808  22532336.060    93418907.71506
  21548488.360   115027502.45809  21548491.760    89465949.53508
  20392506.620   109086182.83109  20392505.840    84844817.92008
  23203037.560   124077066.07207  23203040.680    96504402.92107
 15 02 25 02 24 30.0000000  0 16G04G16G18G19G21G22G27G32R03R04R05R09
                                R10R18R19R20
  22968877.980   120702287.54408  22968876.420    94053740.75246
  21021148.640   110466889.55009  21021145.300    86078084.86348
  22269408.740   117026647.17909  22269405.240    91189627.51147
  21805367.480   114587990.51909  21805362.520    89289328.29948
  24307278.120   127735817.51308  24307274.140    99534478.04145
  20636597.580   108446173.07009  20636592.020    84503538.25849
  20549535.740   107988560.27009  20549534.980    84146932.86549
  24294583.620   127668911.31908  24294585.300    99482281.53245
  21353756.440   114308355.95808  21353755.560    88906534.70308
  20006902.840   107136126.49609  20006903.060    83328123.01108
  22716889.760   121434839.94007  22716893.400    94449355.15207
  22148338.480   118270876.64808  22148339.880    91988462.14604
  22529682.000   120095881.80308  22529687.860    93407928.25205
  21557577.900   115076023.29609  21557581.040    89503687.96508
  20386946.160   109056438.32309  20386945.340    84821683.30108
  23188754.040   124000685.00907  23188757.260    96444995.43607
 15 02 25 02 25  0.0000000  0 16G04G16G18G19G21G22G27G32R03R04R05R09
                                R10R18R19R20
  22954335.660   120625866.96108  22954334.000    93994192.27846
  21031280.660   110520134.14709  21031277.480    86119574.15348
  22280579.620   117085350.56009  22280576.100    91235370.39947
  21793620.400   114526259.33609  21793615.420    89241226.07948
  24320289.680   127804192.51108  24320285.740    99587757.28345
  20635760.300   108441773.36609  20635754.800    84500109.92049
  20544317.100   107961136.39209  20544316.400    84125563.61349
  24272037.560   127550432.94708  24272039.060    99389961.12945
  21366090.420   114374380.53908  21366089.620    88957887.15508
  19996149.960   107078545.29309  19996150.200    83283337.64808
  22692231.380   121303027.25907  22692235.020    94346834.33007
  22163358.760   118351084.07808  22163360.180    92050845.69904
  22527176.080   120082523.28308  22527181.780    93397538.28706
  21566701.160   115124724.45709  21566704.480    89541566.61008
  20381412.960   109026839.63509  20381412.160    84798662.11308
  23174462.380   123924260.86907  23174465.580    96385554.43607
