     2.11           OBSERVATION DATA    M                   RINEX VERSION / TYPE
SPIDER V4,0,0,3554                      2015 03 21 00:10    PGM / RUN BY / DATE 
CNGR                                                        MARKER NAME         
CNGR                                                        MARKER NUMBER       
                                                            OBSERVER / AGENCY   
496521              LEICA GRX1200+GNSS  8.10/4.007          REC # / TYPE / VERS 
10321004            LEIAR25         NONE                    ANT # / TYPE        
  5218738.7445   688113.1521  3590185.5476                  APPROX POSITION XYZ 
        0.0720        0.0000        0.0000                  ANTENNA: DELTA H/E/N
     1     1                                                WAVELENGTH FACT L1/2
     4    C1    L1    P2    L2                              # / TYPES OF OBSERV 
    30.000                                                  INTERVAL            
  2015    02    19    00    00    0.0000000     GPS         TIME OF FIRST OBS   
  2015    02    19    23    59   30.0000000     GPS         TIME OF LAST OBS    
    16                                                      LEAP SECONDS        
    38                                                      # OF SATELLITES     
   G 1   815   815   815   815                              PRN / # OF OBS      
   G 2   936   934   934   934                              PRN / # OF OBS      
   G 3   860   860   860   860                              PRN / # OF OBS      
   G 4   843   843   843   843                              PRN / # OF OBS      
   G 5   620   620   620   620                              PRN / # OF OBS      
   G 6   797   797   797   797                              PRN / # OF OBS      
   G 7   677   676   676   676                              PRN / # OF OBS      
   G 9   818   817   817   817                              PRN / # OF OBS      
   G10   740   740   739   739                              PRN / # OF OBS      
   G11   444   444   443   443                              PRN / # OF OBS      
   G12   817   817   817   817                              PRN / # OF OBS      
   G13   769   769   768   768                              PRN / # OF OBS      
   G14   942   940   941   940                              PRN / # OF OBS      
   G15   651   651   651   651                              PRN / # OF OBS      
   G16   668   667   667   667                              PRN / # OF OBS      
   G17   936   936   936   936                              PRN / # OF OBS      
   G18   899   899   898   898                              PRN / # OF OBS      
   G19   756   756   756   756                              PRN / # OF OBS      
   G20   778   778   777   777                              PRN / # OF OBS      
   G21   718   718   718   718                              PRN / # OF OBS      
   G22   660   660   660   660                              PRN / # OF OBS      
   G23   757   757   757   757                              PRN / # OF OBS      
   G24   829   828   828   828                              PRN / # OF OBS      
   G25   853   853   853   853                              PRN / # OF OBS      
   G27   810   810   810   810                              PRN / # OF OBS      
   G28   852   852   852   852                              PRN / # OF OBS      
   G29   743   743   742   742                              PRN / # OF OBS      
   G30   724   724   724   724                              PRN / # OF OBS      
   G31   863   863   863   863                              PRN / # OF OBS      
   G32   778   778   777   777                              PRN / # OF OBS      
   R 4    30    30    30    30                              PRN / # OF OBS      
   R 9    30    30    30    30                              PRN / # OF OBS      
   R10    30    30    30    30                              PRN / # OF OBS      
   R11    10    10     9     9                              PRN / # OF OBS      
   R16     9     9     9     9                              PRN / # OF OBS      
   R19    30    30    30    30                              PRN / # OF OBS      
   R20    30    30    30    30                              PRN / # OF OBS      
   R21    12    12    12    12                              PRN / # OF OBS      
BIT 2 OF LLI FLAGS DATA COLLECTED UNDER A/S CONDITION       COMMENT             
SNR is mapped to RINEX snr flag value [2-9]                 COMMENT             
Lx:     = 25dBHz -> 1; 26-27dBHz -> 2; 28-31dBHz -> 3       COMMENT             
       32-35dBHz -> 4; 36-38dBHz -> 5; 39-41dBHz -> 6       COMMENT             
       42-44dBHz -> 7; 45-48dBHz -> 8; >=49dBHz -> 9        COMMENT             
                                                            END OF HEADER       
 15 02 19 00 00  0.0000000  0 14G16G18G21G25G27G29G31R04R09R10R16R19
                                R20R21
  22985257.920   120788353.72708  22985254.680    94120795.99046
  23297755.580   122430608.61608  23297752.720    95400489.93846
  20901282.460   109837356.50608  20901278.580    85587701.43948
  23452329.460   123243016.81508  23452329.300    96033582.90246
  24088509.280   126585984.17008  24088509.220    98638437.81245
  22760257.340   119606423.26009  22760255.080    93200010.99648
  21875281.020   114955395.70109  21875277.840    89575626.38248
  22996672.680   123146124.78508  22996672.700    95780324.96007
  19961544.120   106593554.50609  19961545.400    82906105.42106
  20084900.260   107063821.36909  20084905.080    83271890.36607
  23409340.600   125048482.92207  23409346.840    97259935.65906
  20749308.900   110995257.36009  20749308.520    86329853.52108
  20309514.260   108604207.22008  20309516.400    84470015.49108
  23314245.320   124759235.65406  23314248.240    97034971.97505
 15 02 19 00 00 30.0000000  0 14G16G18G21G25G27G29G31R04R09R10R16R19
                                R20R21
  22968693.780   120701308.61308  22968690.480    94052968.63347
  23283424.640   122355299.09708  23283421.820    95341807.25346
  20903357.000   109848258.32908  20903353.140    85596196.36748
  23469254.160   123331957.94108  23469254.140    96102887.64946
  24074927.860   126514613.79108  24074928.060    98582824.58145
  22773030.980   119673549.63809  22773028.820    93252317.26048
  21888142.160   115022981.59809  21888139.040    89628290.68948
  22983810.560   123077249.97708  22983810.880    95726755.69007
  19975731.920   106669316.81509  19975733.280    82965031.64906
  20075392.400   107013139.53309  20075397.240    83232471.16507
  23434925.560   125185150.94807  23434932.080    97366232.46006
  20761174.640   111058730.95609  20761174.340    86379221.87308
  20305970.120   108585255.53308  20305972.300    84455275.29208
  23299847.620   124682188.13807  23299849.980    96975046.23805
 15 02 19 00 01  0.0000000  0 13G16G18G21G25G27G29G31R04R09R10R16R19
                                R20
  22952150.320   120614372.08108  22952146.820    93985225.90546
  23269118.280   122280119.45108  23269115.500    95283225.77046
  20905510.720   109859575.96809  20905506.840    85605015.31648
  23486222.700   123421129.09508  23486222.680    96172371.66446
  24061362.060   126443325.50108  24061362.420    98527275.33845
  22785813.300   119740722.05308  22785811.420    93304659.36547
  21901076.140   115090950.25809  21901073.100    89681253.25948
  22971033.720   123008832.07308  22971034.700    95673541.79407
  19990043.180   106745738.30509  19990044.580    83024470.57306
  20066026.980   106963216.93109  20066031.900    83193642.46807
  23460527.120   125321907.46907  23460533.600    97472598.08206
  20773065.680   111122339.66809  20773065.380    86428695.30908
  20302489.320   108566642.78108  20302491.620    84440798.72008
 15 02 19 00 01 30.0000000  0 13G16G18G21G25G27G29G31R04R09R10R16R19
                                R20
  22935628.040   120527546.66609  22935624.380    93917569.74046
  23254837.380   122205073.94708  23254834.760    95224748.80946
  20907743.440   109871308.76508  20907739.540    85614157.75748
  23503235.020   123510530.06108  23503235.300    96242034.70646
  24047812.080   126372120.05708  24047812.440    98471790.61345
  22798604.460   119807940.66708  22798602.660    93357037.48148
  21914082.700   115159299.84309  21914079.640    89734512.65348
  22958343.100   122940876.25408  22958344.780    95620687.30907
  20004477.480   106822816.85109  20004478.880    83084420.53906
  20056804.680   106914057.07209  20056809.680    83155407.01207
  23486144.740   125458749.83607  23486151.120    97579030.44006
  20784981.780   111186082.78409  20784981.440    86478273.27808
  20299071.820   108548368.50408  20299074.280    84426585.40108
 15 02 19 00 02  0.0000000  0 13G16G18G21G25G27G29G31R04R09R10R16R19
                                R20
  22919126.700   120440831.30808  22919122.920    93849999.35346
  23240581.860   122130161.96408  23240579.360    95166375.90046
  20910054.320   109883452.52908  20910050.440    85623620.43948
  23520290.420   123600156.78208  23520290.840    96311873.69346
  24034277.360   126300994.37108  24034277.600    98416368.07345
  22811404.080   119875202.97508  22811402.360    93409449.64647
  21927160.760   115228024.95209  21927157.700    89788064.66248
  22945738.920   122873383.56008  22945741.140    95568193.00007
  20019033.700   106900546.24409  20019035.100    83144876.72906
  20047725.400   106865659.72309  20047730.520    83117764.62107
  23511777.140   125595671.04807  23511783.440    97685524.10106
  20796922.100   111249955.38009  20796921.620    86527951.97408
  20295716.800   108530428.50908  20295719.420    84412632.09308
 15 02 19 00 02 30.0000000  0 14G16G18G21G25G27G29G31R04R09R10R16R19
                                R20R21
  22902646.620   120354227.69608  22902642.820    93782516.02346
  23226352.400   122055386.20108  23226349.980    95108109.10346
  20912443.220   109896006.23608  20912439.400    85633402.55048
  23537388.540   123690007.97808  23537389.100    96381887.61646
  24020757.760   126229948.11308  24020757.660    98361007.39145
  22824211.760   119942508.01608  22824210.080    93461895.09048
  21940309.720   115297122.88609  21940306.720    89841907.17848
  22933221.920   122806357.40108  22933224.360    95516061.55807
  20033711.240   106978923.26409  20033712.620    83205836.61906
  20038789.660   106818027.47509  20038794.960    83080717.31707
  23537423.640   125732667.46207  23537430.000    97792076.24306
  20808886.260   111313955.27409  20808885.560    86577729.65708
  20292423.920   108512821.04808  20292426.740    84398937.41608
  23242659.180   124376160.25706  23242662.260    96737029.19905
 15 02 19 00 03  0.0000000  0 14G16G18G21G25G27G29G31R04R09R10R16R19
                                R20R21
  22886189.060   120267742.29208  22886185.240    93715124.79447
  23212150.200   121980753.15708  23212147.700    95049953.52446
  20914910.840   109908973.41408  20914907.020    85643506.85148
  23554530.000   123780086.88408  23554530.620    96452078.95246
  24007254.000   126158985.56408  24007253.960    98305711.97045
  22837028.580   120009860.19508  22837026.440    93514377.30547
  21953529.940   115366595.34809  21953527.020    89896041.53848
  22920793.740   122739806.38108  22920796.060    95464299.66607
  20048510.320   107057949.26409  20048511.720    83267301.26506
  20029998.820   106771167.53709  20030004.200    83044270.68707
  23563084.240   125869739.76007  23563090.880    97898687.29406
  20820874.660   111378084.94109  20820873.900    86627608.27608
  20289193.840   108495549.12608  20289196.820    84385503.70308
  23228463.300   124300195.87506  23228465.900    96677945.92205
 15 02 19 00 03 30.0000000  0 13G16G18G21G25G27G29G31R04R09R10R16R19
                                R20
  22869753.660   120181373.49909  22869749.880    93647824.45746
  23197975.240   121906262.90909  23197972.660    94991909.24446
  20917456.240   109922349.29008  20917452.420    85653929.63048
  23571713.940   123870389.23208  23571714.440    96522444.40346
  23993765.480   126088103.42808  23993765.540    98250479.19845
  22849853.760   120077255.80909  22849851.380    93566893.33647
  21966820.340   115436436.79209  21966817.520    89950463.42648
  22908454.660   122673731.21608  22908456.920    95412907.89607
  20063429.700   107137617.72609  20063431.080    83329265.61606
  20021352.740   106725078.86609  20021358.100    83008423.95707
  23588757.800   126006881.02307  23588764.600    98005352.02306
  20832886.380   111442339.52209  20832885.680    86677584.07208
  20286025.800   108478608.25908  20286028.780    84372327.49208
 15 02 19 00 04  0.0000000  0 13G16G18G21G25G27G29G31R04R09R10R16R19
                                R20
  22853341.200   120095125.43709  22853337.600    93580618.20246
  23183828.180   121831919.37009  23183825.660    94933979.25346
  20920079.440   109936134.29909  20920075.640    85664671.19748
  23588940.580   123960915.57108  23588941.100    96592984.39946
  23980292.620   126017303.21508  23980292.740    98195310.23445
  22862687.300   120144696.13909  22862684.880    93619444.16447
  21980180.660   115506646.00509  21980177.960    90005171.86948
  22896205.600   122608137.75608  22896207.640    95361890.78807
  20078469.140   107217927.39809  20078470.440    83391728.67506
  20012852.260   106679766.13709  20012857.500    82973180.72307
  23614443.980   126144089.18107  23614450.780    98112068.74006
  20844921.360   111506718.90309  20844920.760    86727656.91808
  20282919.840   108461998.92608  20282922.720    84359409.13008
 15 02 19 00 04 30.0000000  0 12G16G18G21G25G27G29G31R04R09R10R19R20
  22836951.480   120008997.01309  22836947.900    93513505.14746
  23169709.000   121757723.12808  23169706.640    94876164.02946
  20922779.840   109950324.94408  20922776.060    85675728.85748
  23606209.060   124051662.18008  23606209.700    96663696.00646
  23966834.860   125946582.24108  23966835.060    98140203.06146
  22875528.800   120212178.41709  22875526.080    93672027.74547
  21993609.980   115577217.88409  21993607.440    90060162.92348
  22884046.780   122543027.11808  22884048.580    95311249.19707
  20093627.560   107298872.28009  20093628.800    83454685.79706
  20004497.260   106635229.22209  20004502.440    82938540.91107
  20856978.820   111571218.53909  20856978.400    86777823.29908
  20279875.120   108445716.93708  20279877.860    84346745.37108
 15 02 19 00 05  0.0000000  0 12G16G18G21G25G27G29G31R04R09R10R19R20
  22820585.300   119922992.33809  22820581.840    93446488.53747
  23155618.780   121683678.59309  23155616.620    94818467.04846
  20925557.540   109964921.96708  20925553.740    85687103.16648
  23623519.600   124142629.82408  23623520.160    96734579.89646
  23953392.520   125875942.33308  23953392.540    98085159.03046
  22888378.560   120279704.53208  22888376.080    93724645.50148
  22007108.180   115648151.54609  22007105.720    90115435.88448
  22871979.080   122478404.95308  22871980.480    95260987.52307
  20108904.720   107380451.11509  20108905.880    83518135.98606
  19996288.540   106591472.30609  19996293.760    82904507.75207
  20869058.800   111635838.54309  20869058.460    86828083.30308
  20276891.780   108429763.00408  20276894.320    84334336.76908
 15 02 19 00 05 30.0000000  0 13G16G18G21G25G27G29G31R04R09R10R19R20
                                R21
  22804243.460   119837115.80209  22804240.180    93379571.78547
  23141558.400   121609790.82108  23141556.200    94760892.22146
  20928412.900   109979926.74009  20928409.000    85698795.19848
  23640872.460   124233819.97108  23640873.180    96805637.14846
  23939966.060   125805385.94908  23939965.900    98030180.08946
  22901236.960   120347276.41308  22901234.720    93777298.90947
  22020675.280   115719447.07409  22020672.800    90170990.81948
  22860003.980   122414277.97908  22860005.140    95211110.99907
  20124300.500   107462663.33409  20124301.580    83582078.80606
  19988227.160   106548500.84409  19988232.380    82871085.49507
  20881161.480   111700579.90809  20881161.180    86878437.68908
  20273969.880   108414138.10708  20273972.320    84322184.08608
  23158089.720   123923619.01207  23158092.220    96385045.24805
 15 02 19 00 06  0.0000000  0 13G16G18G21G25G27G29G31R04R09R10R19R20
                                R21
  22787925.700   119751365.79108  22787922.480    93312753.59647
  23127527.740   121536059.09709  23127525.360    94703438.97246
  20931344.880   109995334.10009  20931340.880    85710800.93748
  23658266.740   124325227.65808  23658267.620    96876863.89246
  23926554.720   125734909.18908  23926554.680    97975263.19246
  22914103.300   120414890.35908  22914101.440    93829985.07247
  22034310.080   115791098.19609  22034307.540    90226822.83648
  22848121.480   122350646.25808  22848122.400    95161619.66707
  20139813.520   107545501.80809  20139814.560    83646508.71006
  19980312.980   106506313.40309  19980318.100    82838273.03707
  20893285.700   111765436.86308  20893285.540    86928881.98308
  20271108.600   108398837.22808  20271110.940    84310283.40608
  23144136.080   123848951.58207  23144138.660    96326970.68406
 15 02 19 00 06 30.0000000  0 12G16G18G21G25G27G29G31R04R09R10R19R20
  22771632.340   119665743.96609  22771629.300    93246035.30847
  23113527.120   121462485.59508  23113524.640    94646109.02646
  20934353.200   110011142.55209  20934349.060    85723119.21148
  23675702.160   124416851.27708  23675703.120    96948258.89546
  23913158.480   125664511.46708  23913158.540    97920407.87846
  22926977.620   120482545.29908  22926976.100    93882703.19748
  22048011.920   115863101.74809  22048009.360    90282929.46848
  22836332.080   122287513.07308  22836332.520    95112516.08307
  20155443.040   107628962.62609  20155444.060    83711422.67306
  19972546.320   106464911.76209  19972551.200    82806071.75907
  20905431.240   111830407.47809  20905431.180    86979414.69008
  20268307.580   108383858.39908  20268309.780    84298633.20808
 15 02 19 00 07  0.0000000  0 12G16G18G21G25G27G29G31R04R09R10R19R20
  22755364.440   119580255.64109  22755361.340    93179421.04646
  23099557.820   121389076.37508  23099555.080    94588907.06946
  20937438.280   110027354.71208  20937434.080    85735752.08248
  23693179.100   124508693.29008  23693180.320    97019824.07046
  23899777.940   125594196.29408  23899778.040    97865616.89846
  22939860.440   120550244.96209  22939859.000    93935456.17747
  22061781.020   115935458.55809  22061778.420    90339311.38148
  22824637.000   122224886.03908  22824637.260    95063806.19407
  20171189.180   107713046.32009  20171190.280    83776821.08706
  19964928.200   106424302.15509  19964932.940    82774486.51107
  20917598.400   111895493.37609  20917598.360    87030037.05808
  20265567.240   108369204.11808  20265569.300    84287235.44208
 15 02 19 00 07 30.0000000  0 12G16G18G21G25G27G29G31R04R09R10R19R20
  22739121.520   119494898.31009  22739118.340    93112908.85747
  23085619.360   121315829.35208  23085616.640    94531831.50446
  20940598.960   110043964.34208  20940594.780    85748694.64948
  23710696.640   124600747.85908  23710697.700    97091554.89746
  23886412.220   125523958.96208  23886412.340    97810886.56246
  22952750.720   120617984.37409  22952749.560    93988240.08547
  22075615.940   116008161.16109  22075613.220    90395962.72848
  22813036.220   122162764.19908  22813036.340    95015489.24007
  20187050.440   107797744.85709  20187051.560    83842697.72106
  19957458.120   106384482.08909  19957462.780    82743515.35007
  20929785.880   111960688.08809  20929785.780    87080744.04708
  20262886.300   108354868.18608  20262888.360    84276085.30208
 15 02 19 00 08  0.0000000  0 13G16G18G21G25G27G29G31R04R09R10R19R20
                                R21
  22722904.460   119409676.74009  22722901.120    93046502.45147
  23071712.820   121242750.36208  23071710.120    94474886.86546
  20943835.660   110060973.38109  20943831.460    85761948.44748
  23728255.000   124693016.76808  23728255.760    97163452.73346
  23873061.780   125453802.21008  23873061.800    97756219.02647
  22965649.240   120685765.90509  22965647.760    94041056.85647
  22089516.760   116081210.10409  22089513.880    90452883.96348
  22801530.880   122101154.37008  22801530.960    94967570.49107
  20203026.720   107883057.73609  20203027.860    83909052.15306
  19950137.040   106345456.95109  19950141.740    82713162.46307
  20941994.040   112025993.04709  20941993.880    87131536.77808
  20260265.040   108340851.94608  20260267.260    84265183.80108
  23088724.300   123552421.68807  23088725.760    96096340.27606
 15 02 19 00 08 30.0000000  0 13G16G18G21G25G27G29G31R04R09R10R19R20
                                R21
  22706713.540   119324592.68409  22706710.000    92980203.20947
  23057838.640   121169841.25909  23057836.060    94418074.64446
  20947147.960   110078379.71408  20947143.780    85775511.82848
  23745853.820   124785498.04808  23745854.560    97235516.05246
  23859726.520   125383725.30808  23859726.540    97701613.70046
  22978555.620   120753589.09009  22978554.220    94093906.03647
  22103482.800   116154601.98209  22103479.800    90510072.40348
  22790121.760   122040059.58808  22790121.880    94920052.35607
  20219117.260   107968980.79709  20219118.480    83975881.17606
  19942965.360   106307228.40009  19942970.180    82683429.15207
  20954222.440   112091405.92009  20954221.840    87182413.45808
  20257703.300   108327153.37208  20257705.600    84254529.35008
  23074971.760   123478829.14607  23074973.320    96039101.73406
 15 02 19 00 09  0.0000000  0 12G16G18G21G25G27G29G31R04R09R10R19R20
  22690549.140   119239647.93609  22690545.520    92914012.50747
  23043997.380   121097105.07308  23043994.820    94361397.12746
  20950535.660   110096182.29008  20950531.500    85789383.96448
  23763492.840   124878191.03808  23763493.460    97307744.33346
  23846406.540   125313728.54608  23846406.560    97647070.82547
  22991469.920   120821453.78208  22991468.040    94146787.61447
  22117513.660   116228334.67509  22117510.580    90567526.41948
  22778809.520   121979483.97508  22778809.900    94872938.00707
  20235321.620   108055511.15709  20235322.860    84043182.55206
  19935943.500   106269798.62809  19935948.540    82654317.09807
  20966470.700   112156925.29009  20966469.860    87233372.96808
  20255200.880   108313771.90608  20255203.300    84244121.55008
 15 02 19 00 09 30.0000000  0 12G16G18G21G25G27G29G31R04R09R10R19R20
  22674411.520   119154844.28409  22674407.880    92847931.73947
  23030189.380   121024544.15208  23030187.080    94304856.21846
  20953998.440   110114379.62408  20953994.340    85803563.69748
  23781171.880   124971093.93008  23781172.140    97380136.20346
  23833101.660   125243811.26808  23833101.720    97592589.87946
  23004392.060   120889359.45809  23004390.320    94199701.07747
  22131608.660   116302404.48609  22131605.540    90625243.13448
  22767594.920   121919430.79708  22767595.540    94826230.00507
  20251639.000   108142644.80709  20251640.220    84110953.15506
  19929071.980   106233169.74109  19929077.120    82625827.96207
  20978738.460   112222548.87909  20978737.400    87284413.51408
  20252757.300   108300705.24508  20252759.800    84233958.60208
 15 02 19 00 10  0.0000000  0 13G16G18G21G25G27G29G31R04R09R10R11R19
                                R20
  22658301.240   119070184.53809  22658297.640    92781963.11447
  23016415.360   120952161.73808  23016413.220    94248454.38046
  20957536.220   110132971.12208  20957532.180    85818050.59748
  23798890.800   125064206.29008  23798891.120    97452691.26246
  23819811.940   125173974.07008  23819812.040    97538171.33446
  23017322.200   120957306.99309  23017320.160    94252647.20047
  22145767.420   116376809.64809  22145764.360    90683221.15648
  22756478.780   121859904.55108  22756479.500    94779931.84907
  20268068.900   108230378.94809  20268070.040    84179190.81106
  19922351.340   106197344.40909  19922356.500    82597963.82207
  23601781.400   126120762.32007                                
  20991025.480   112288275.75709  20991024.360    87335534.40908
  20250372.440   108287952.55208  20250374.960    84224039.85508
 15 02 19 00 10 30.0000000  0 14G16G18G21G25G27G29G31R04R09R10R11R19
                                R20R21
  22642218.860   118985671.26809  22642215.360    92716108.62647
  23002675.960   120879961.14009  23002673.900    94192194.20246
  20961148.900   110151956.12008  20961144.900    85832844.10248
  23816649.200   125157527.35408  23816649.620    97525408.92145
  23806537.500   125104217.43108  23806537.740    97483815.56546
  23030260.240   121025296.39209  23030258.020    94305625.89347
  22159989.540   116451547.77409  22159986.560    90741458.62848
  22745461.840   121800909.49008  22745462.500    94734046.82507
  20284610.700   108318710.61809  20284611.840    84247893.19806
  19915782.040   106162325.54709  19915787.120    82570726.92207
  23579589.780   126002176.84607  23579590.800    98001706.53104
  21003331.660   112354105.14509  21003330.420    87386735.04408
  20248046.240   108275513.16508  20248048.780    84214364.77008
  23020362.920   123186609.61507  23020365.040    95811815.84006
 15 02 19 00 11  0.0000000  0 14G16G18G21G25G27G29G31R04R09R10R11R19
                                R20R21
  22626163.540   118901300.11609  22626160.160    92650364.90447
  22988970.460   120807938.46708  22988968.320    94136072.68446
  20964834.960   110171326.77708  20964831.000    85847938.12148
  23834445.880   125251049.64308  23834446.220    97598283.47246
  23793277.220   125034534.90408  23793277.580    97429517.55147
  23043205.020   121093321.02109  23043202.680    94358632.06747
  22174273.440   116526610.45109  22174270.540    90799949.00348
  22734543.600   121742442.67708  22734544.240    94688572.64307
  20301262.480   108407630.00709  20301263.660    84317052.69806
  19909363.040   106128108.36309  19909368.120    82544113.56207
  23557450.100   125883870.60807  23557451.840    97909690.61804
  21015655.360   112420028.64909  21015654.240    87438008.88208
  20245777.180   108263379.13108  20245779.680    84204927.20308
  23006809.680   123114084.66007  23006811.900    95755407.61606
 15 02 19 00 11 30.0000000  0 13G16G18G21G25G27G29G31R04R09R10R11R19
                                R20
  22610137.780   118817084.35209  22610134.360    92584742.23547
  22975301.540   120736107.72008  22975299.360    94080100.69846
  20968596.300   110191092.93908  20968592.340    85863340.32548
  23852282.560   125344782.84408  23852283.240    97671322.27246
  23780033.200   124964937.34308  23780033.540    97375285.73947
  23056158.460   121161391.73209  23056156.080    94411674.11547
  22188620.600   116602005.27509  22188617.740    90858698.19448
  22723726.800   121684519.13208  22723727.560    94643521.01707
  20318025.640   108497144.49609  20318026.880    84386675.05306
  19903096.780   106094706.22609  19903101.980    82518134.10907
  23535365.760   125765858.54008  23535367.840    97817903.44804
  21027998.360   112486055.95409  21027997.500    87489363.45708
  20243567.020   108251560.44208  20243569.420    84195734.90108
 15 02 19 00 12  0.0000000  0 13G16G18G21G25G27G29G31R04R09R10R11R19
                                R20
  22594140.440   118733018.13309  22594137.040    92519236.10746
  22961668.140   120664463.81409  22961665.980    94024274.33546
  20972431.180   110211245.47209  20972427.180    85879043.60748
  23870157.720   125438718.08808  23870158.580    97744518.54746
  23766803.940   124895417.00708  23766804.180    97321114.11047
  23069119.380   121229500.64608  23069116.620    94464746.02147
  22203029.080   116677722.03609  22203026.240    90917698.24548
  22713010.660   121627134.62708  22713011.420    94598888.61907
  20334898.160   108587243.05409  20334899.480    84456751.70006
  19896982.280   106062113.45409  19896987.580    82492784.18407
  23513335.860   125648137.13707  23513338.000    97726342.36105
  21040358.900   112552177.65009  21040358.400    87540791.44508
  20241413.960   108240047.56308  20241416.300    84186780.44608
 15 02 19 00 12 30.0000000  0 13G16G18G21G25G27G29G31R04R09R10R11R19
                                R20
  22578172.560   118649106.70409  22578169.080    92453850.58647
  22948071.500   120593012.69509  22948069.240    93968598.16946
  20976339.940   110231786.30408  20976335.940    85895049.44348
  23888071.620   125532857.39208  23888072.660    97817873.84546
  23753590.040   124825977.07408  23753590.080    97267005.09547
  23082088.180   121297650.72109  23082085.340    94517849.92947
  22217498.980   116753761.25909  22217496.100    90976949.56948
  22702396.400   121570296.13508  22702397.220    94554680.92507
  20351879.980   108677925.26609  20351881.380    84527282.28806
  19891020.660   106030335.28309  19891026.060    82468067.83507
  23491361.580   125530713.65407  23491363.880    97635012.99105
  21052737.360   112618395.39708  21052737.100    87592294.13008
  20239318.500   108228842.64308  20239320.840    84178065.51408
 15 02 19 00 13  0.0000000  0 14G16G18G21G25G27G29G31R04R09R10R11R19
                                R20R21
  22562234.300   118565351.03208  22562230.680    92388586.42447
  22934511.820   120521755.56509  22934509.340    93913073.15746
  20980322.140   110252712.85708  20980318.120    85911355.84148
  23906023.820   125627198.16708  23906025.020    97891386.09246
  23740391.100   124756616.03908  23740391.020    97212957.56747
  23095064.320   121365840.84709  23095061.720    94570985.03447
  22232029.480   116830118.80809  22232026.540    91036448.92848
  22691884.500   121514006.02008  22691885.580    94510899.73107
  20368970.220   108769186.19609  20368971.580    84598262.99106
  19885212.040   105999372.22709  19885217.420    82443985.45207
  23469443.500   125413590.90807  23469445.820    97543917.52004
  21065133.380   112684706.34908  21065133.140    87643869.31008
  20237280.140   108217942.87808  20237282.520    84169587.93008
  22952999.640   122826137.05008  22953001.520    95531447.48606
 15 02 19 00 13 30.0000000  0 14G16G18G21G25G27G29G31R04R09R10R11R19
                                R20R21
  22546325.800   118481751.75509  22546322.040    92323444.14246
  22920989.280   120450693.51709  22920986.380    93857700.14746
  20984377.200   110274022.30408  20984373.180    85927960.61148
  23924014.060   125721737.60008  23924015.260    97965053.16746
  23727206.860   124687332.41408  23727206.760    97158970.36347
  23108047.580   121434069.58908  23108045.200    94624150.25547
  22246619.720   116906790.44109  22246616.740    91096193.03848
  22681475.500   121458266.25708  22681476.660    94467546.54907
  20386167.900   108861020.65909  20386169.160    84669689.78306
  19879556.400   105969224.61109  19879561.800    82420537.30207
  23447582.100   125296771.24607  23447584.580    97453057.75605
  21077546.380   112751107.38509  21077546.100    87695514.56408
  20235298.280   108207345.21707  20235300.800    84161345.31908
  22939646.480   122754681.10408  22939648.460    95475870.72206
 15 02 19 00 14  0.0000000  0 13G16G18G21G25G27G29G31R04R09R10R11R19
                                R20
  22530448.060   118398314.19308  22530444.420    92258427.87547
  22907504.840   120379832.41209  22907501.880    93802483.73446
  20988505.500   110295716.50208  20988501.460    85944865.19348
  23942042.500   125816477.71808  23942043.760    98038876.59846
  23714037.860   124618129.26408  23714037.800    97105045.87847
  23121038.920   121502339.61008  23121036.500    94677347.65847
  22261269.800   116983776.57909  22261266.760    91156182.21248
  22671170.320   121403083.46908  22671171.660    94424626.66107
  20403472.920   108953428.36408  20403474.140    84741562.42606
  19874054.620   105939897.59309  19874060.140    82397727.38408
  23425778.880   125180262.61907  23425781.740    97362439.97705
  21089976.560   112817600.16109  21089976.220    87747231.14908
  20233373.240   108197051.51608  20233375.820    84153339.12208
 15 02 19 00 14 30.0000000  0 14G16G18G21G22G25G27G29G31R04R09R10R11
                                R19R20
  22514601.200   118315038.68209  22514597.640    92193537.88047
  22894058.880   120309173.39909  22894055.600    93747424.78446
  20992706.380   110317792.10909  20992702.340    85962066.96948
  24545016.160   128984928.73708  24545015.260   100507735.64445
  23960108.700   125911415.60408  23960109.780    98112854.16446
  23700883.880   124549004.82208  23700883.860    97051182.72547
  23134037.600   121570649.05409  23134035.120    94730575.77647
  22275978.820   117061072.86109  22275975.800    91216413.06748
  22660969.600   121348459.66008  22660970.560    94382141.49507
  20420884.200   109046403.96909  20420885.540    84813876.75806
  19868706.760   105911391.02809  19868712.380    82375555.59907
  23404034.360   125064067.02907  23404037.000    97272065.59105
  21102423.260   112884181.58108  21102422.900    87799016.68308
  20231504.540   108187058.64408  20231507.100    84145566.90508
 15 02 19 00 15  0.0000000  0  8G16G18G21G22G25G27G29G31
  22498783.200   118231914.55709  22498779.660    92128765.84947
  22880649.440   120238706.51109  22880646.220    93692515.54146
  20996977.280   110340235.48009  20996973.180    85979555.31448
  24527214.800   128891383.65608  24527214.200   100434844.10445
  23978209.880   126006537.16608  23978210.840    98186974.83145
  23687742.400   124479946.33608  23687742.400    96997370.96747
  23147041.480   121638985.16208  23147039.120    94783824.63847
  22290743.900   117138663.92809  22290740.880    91276873.61848
 15 02 19 00 15 30.0000000  0  8G16G18G21G22G25G27G29G31
  22483000.020   118148973.20009  22482996.620    92064136.23847
  22867282.440   120168462.77009  22867279.600    93637780.18746
  21001323.400   110363074.14609  21001319.240    85997351.66748
  24509400.220   128797770.29408  24509400.040   100361899.27445
  23996351.400   126101870.22308  23996352.120    98261260.30746
  23674618.940   124410982.70808  23674618.960    96943633.10447
  23160056.000   121707376.58209  23160054.060    94837116.60247
  22305569.980   117216575.77509  22305566.960    91337584.12248
 15 02 19 00 16  0.0000000  0  8G16G18G21G22G25G27G29G31
  22467248.080   118066195.65009  22467244.700    91999634.26247
  22853954.500   120098424.47909  22853951.920    93583204.92446
  21005740.420   110386285.34809  21005736.200    86015438.32448
  24491569.040   128704070.30308  24491569.020   100288886.95745
  24014528.880   126197392.46908  24014529.240    98335693.20645
  23661509.540   124342092.85608  23661509.660    96889952.72647
  23173077.020   121775802.67009  23173074.780    94890435.59047
  22320452.560   117294784.62309  22320449.600    91398526.05348
 15 02 19 00 16 30.0000000  0  8G16G18G21G22G25G27G29G31
  22451528.500   117983588.31009  22451525.120    91935264.92947
  22840666.780   120028598.18809  22840664.340    93528794.85846
  21010228.880   110409872.15709  21010224.600    86033817.66848
  24473722.660   128610290.26408  24473722.880   100215812.23345
  24032742.820   126293106.67108  24032743.140    98410275.69446
  23648415.020   124273280.81008  23648415.220    96836332.98947
  23186105.540   121844267.13508  23186103.700    94943784.47947
  22335391.900   117373291.75509  22335389.060    91459700.41948
 15 02 19 00 17  0.0000000  0  8G16G18G21G22G25G27G29G31
  22435841.580   117901152.53509  22435838.060    91871029.26847
  22827419.940   119958986.19608  22827417.560    93474551.75846
  21014788.420   110433832.90109  21014784.160    86052488.38448
  24455861.460   128516431.86208  24455861.920   100142676.39445
  24050992.860   126389011.19408  24050993.220    98485006.45746
  23635335.220   124204546.11808  23635335.480    96782773.51547
  23199141.260   121912769.23908  23199139.140    94997162.78147
  22350387.380   117452094.00209  22350384.680    91521104.74048
 15 02 19 00 17 30.0000000  0  8G16G18G21G22G25G27G29G31
  22420188.240   117818893.09209  22420184.560    91806931.00747
  22814214.780   119889593.55008  22814212.720    93420479.61546
  21019419.260   110458168.45308  21019415.080    86071451.15648
  24437986.240   128422499.91908  24437986.860   100069483.24746
  24069279.220   126485107.08008  24069279.540    98559886.35845
  23622270.580   124135891.07408  23622270.820    96729276.11347
  23212184.820   121981311.73909  23212182.200    95050572.48247
  22365439.000   117531190.96409  22365436.400    91582738.70448
 15 02 19 00 18  0.0000000  0  8G16G18G21G22G25G27G29G31
  22404568.660   117736811.30909  22404564.920    91742971.19647
  22801051.720   119820422.03108  22801049.660    93366579.76446
  21024120.960   110482876.48209  21024116.820    86090704.18348
  24420097.460   128328496.41508  24420098.020    99996234.31045
  24087601.520   126581392.28308  24087602.020    98634913.77746
  23609220.880   124067314.84208  23609221.140    96675840.14047
  23225235.680   122049893.92709  23225233.300    95104013.07947
  22380546.100   117610579.12409  22380543.520    91644599.58148
 15 02 19 00 18 30.0000000  0  8G16G18G21G22G25G27G29G31
  22388982.680   117654906.36809  22388978.920    91679149.17947
  22787930.720   119751471.34108  22787928.540    93312851.97746
  21028892.720   110507952.73008  21028888.620    86110244.12248
  24402195.060   128234420.67508  24402195.460    99922929.06146
  24105958.980   126677862.29308  24105959.720    98710085.18646
  23596185.500   123998814.25408  23596185.800    96622463.08947
  23238293.280   122118512.09908  23238290.300    95157481.79347
  22395707.540   117690252.69009  22395704.940    91706682.84948
 15 02 19 00 19  0.0000000  0  8G16G18G21G22G25G27G29G31
  22373431.180   117573182.51309  22373427.320    91615468.26347
  22774852.620   119682745.93509  22774850.520    93259299.74946
  21033734.680   110533397.70408  21033730.620    86130071.37048
  24384279.780   128140277.30608  24384280.020    99849571.10945
  24124351.800   126774517.96908  24124352.720    98785401.25046
  23583164.960   123930391.37208  23583165.280    96569146.58647
  23251358.040   122187168.74308  23251355.420    95210980.38647
  22410923.140   117770210.57209  22410920.460    91768987.65948
 15 02 19 00 19 30.0000000  0  8G16G18G21G22G25G27G29G31
  22357914.440   117491641.64409  22357910.700    91551929.93847
  22761818.120   119614248.56309  22761815.840    93205925.21246
  21038646.380   110559209.30308  21038642.400    86150184.31048
  24366352.000   128046068.53508  24366352.120    99776162.16545
  24142779.760   126871357.77808  24142780.300    98860860.83246
  23570159.260   123862045.86508  23570159.600    96515890.38647
  23264429.940   122255863.10808  23264426.700    95264508.46547
  22426192.280   117850449.83509  22426189.520    91831511.73148
 15 02 19 00 20  0.0000000  0  8G16G18G21G22G25G27G29G31
  22342433.120   117410286.92609  22342429.440    91488536.67647
  22748827.520   119545982.32309  22748825.300    93152730.76246
  21043627.880   110585387.24709  21043623.940    86170582.71048
  24348412.540   127951797.58208  24348412.320    99702704.78145
  24161242.840   126968381.14808  24161243.220    98936463.42146
  23557168.460   123793778.51908  23557168.800    96462695.10047
  23277509.080   122324596.06909  23277506.180    95318066.55747
  22441514.560   117930968.55209  22441511.780    91894253.56048
 15 02 19 00 20 30.0000000  0  8G16G18G21G22G25G27G29G31
  22326987.480   117329119.44009  22326983.860    91425289.29947
  22735881.300   119477948.89709  22735878.880    93099717.72546
  21048678.760   110611929.46109  21048674.860    86191264.95548
  24330461.600   127857465.90408  24330461.100    99629200.00745
  24179740.480   127065585.74708  24179740.660    99012207.24346
  23544192.360   123725588.33808  23544192.660    96409559.92547
  23290595.640   122393366.75009  23290592.520    95371654.06346
  22456889.300   118011763.13609  22456886.520    91957210.34648
 15 02 19 00 21  0.0000000  0  8G16G18G21G22G25G27G29G31
  22311577.580   117248139.42809  22311573.920    91362188.00947
  22722979.560   119410149.13309  22722976.780    93046886.77246
  21053798.320   110638832.31609  21053794.420    86212228.22448
  24312499.180   127763074.27308  24312498.400    99555648.51945
  24198271.980   127162968.28808  24198272.100    99088089.70045
  23531230.560   123657473.22008  23531230.800    96356483.24547
  23303689.100   122462172.94708  23303685.900    95425269.24947
  22472315.540   118092828.50309  22472312.740    92020378.14648
 15 02 19 00 21 30.0000000  0  8G16G18G21G22G25G27G29G31
  22296204.060   117167350.61509  22296200.420    91299235.69947
  22710122.960   119342586.97609  22710120.040    92994240.95146
  21058986.520   110666095.77609  21058982.500    86233472.48548
  24294526.160   127668626.56408  24294525.320    99482053.32745
  24216837.380   127260528.94708  24216837.400    99164110.99246
  23518283.280   123589434.71208  23518283.400    96303466.26547
  23316789.800   122531016.25308  23316786.700    95478913.34946
  22487793.060   118174163.28809  22487790.220    92083755.86448
 15 02 19 00 22  0.0000000  0  8G16G18G21G22G25G27G29G31
  22280867.960   117086758.12409  22280864.240    91236436.35647
  22697312.540   119275267.81209  22697309.580    92941784.48246
  21064243.520   110693721.06709  21064239.340    86254998.68648
  24276543.560   127574128.03308  24276542.420    99408418.51245
  24235436.780   127358269.14108  24235437.080    99240272.10945
  23505351.080   123521475.48008  23505351.040    96250511.05147
  23329898.040   122599899.13209  23329894.620    95532588.29947
  22503321.840   118255767.42009  22503318.940    92147343.46948
 15 02 19 00 22 30.0000000  0  8G16G18G21G22G25G27G29G31
  22265569.540   117006364.02709  22265565.820    91173791.61747
  22684548.840   119208194.20309  22684545.640    92889519.34646
  21069569.080   110721706.94709  21069564.740    86276805.86848
  24258551.760   127479581.42408  24258550.320    99334746.18846
  24254069.980   127456187.55408  24254070.400    99316572.12645
  23492433.980   123453595.57408  23492433.720    96197617.66147
  23343013.840   122668822.08009  23343010.680    95586294.47647
  22518901.320   118337637.97009  22518898.360    92211138.66748
 15 02 19 00 23  0.0000000  0  8G16G18G21G22G25G27G29G31
  22250308.280   116926165.54909  22250304.520    91111299.30647
  22671831.400   119141363.92009  22671828.300    92837443.81846
  21074962.020   110750046.98309  21074957.620    86298889.01648
  24240550.260   127384984.28508  24240548.880    99261034.54146
  24272735.880   127554277.77308  24272736.520    99393006.04845
  23479531.020   123385789.88608  23479530.600    96144782.07447
  23356136.160   122737779.91709  23356133.500    95640027.81947
  22534530.100   118419767.36109  22534527.040    92275135.57548
 15 02 19 00 23 30.0000000  0  8G16G18G21G22G25G27G29G31
  22235085.580   116846169.94109  22235081.860    91048965.09147
  22659161.660   119074784.35509  22659158.580    92785563.65947
  21080422.880   110778744.25909  21080418.520    86321250.54448
  24222540.600   127290343.66908  24222539.140    99187288.94645
  24291435.080   127652543.10008  24291435.860    99469576.38246
  23466643.100   123318063.03308  23466642.580    96092007.93047
  23369265.680   122806777.03208  23369263.300    95693791.78647
  22550208.500   118502157.33309  22550205.340    92339335.51548
 15 02 19 00 24  0.0000000  0  8G16G18G21G22G25G27G29G31
  22219901.000   116766375.10509  22219897.380    90986787.31347
  22646539.340   119008453.81809  22646536.200    92733877.54146
  21085950.600   110807793.09109  21085946.360    86343885.99648
  24204522.300   127195657.95408  24204520.640    99113508.19745
  24310166.600   127750978.14108  24310167.580    99546278.97946
  23453769.320   123250411.03608  23453768.920    96039292.11147
  23382402.180   122875809.49009  23382399.860    95747583.34547
  22565935.180   118584801.00609  22565931.940    92403733.14347
 15 02 19 00 24 30.0000000  0  8G16G18G21G22G25G27G29G31
  22204756.080   116686788.98209  22204752.540    90924772.15947
  22633965.920   118942380.44609  22633962.940    92682391.81646
  21091545.900   110837197.26409  21091541.880    86366798.33848
  24186497.060   127100935.43208  24186495.040    99039698.75546
  24328931.360   127849587.03708  24328932.440    99623117.03646
  23440910.780   123182839.34908  23440910.540    95986638.86747
  23395546.200   122944882.88508  23395544.380    95801406.73447
  22581710.680   118667701.05309  22581707.340    92468330.55848
 15 02 19 00 25  0.0000000  0  8G16G18G21G22G25G27G29G31
  22189650.140   116607407.58309  22189646.600    90862916.53147
  22621440.800   118876560.77009  22621437.760    92631103.76046
  21097207.520   110866949.82209  21097203.580    86389982.15448
  24168464.140   127006172.60508  24168461.860    98965857.92545
  24347727.760   127948362.37308  24347728.800    99700084.77845
  23428066.360   123115341.87608  23428066.260    95934043.48047
  23408696.940   123013990.98208  23408695.260    95855257.18346
  22597533.220   118750848.39809  22597529.740    92533120.66148
 15 02 19 00 25 30.0000000  0  8G16G18G21G22G25G27G29G31
  22174583.980   116528234.99309  22174580.360    90801223.61047
  22608964.820   118810999.33309  22608961.940    92580016.94946
  21102935.540   110897050.95109  21102931.580    86413437.58348
  24150424.400   126911373.92208  24150421.800    98891989.07945
  24366556.080   128047304.50108  24366556.820    99777182.50945
  23415236.440   123047920.47308  23415236.400    95881507.35647
  23421854.840   123083135.95309  23421853.480    95909136.35947
  22613402.580   118834242.06109  22613399.040    92598102.70647
 15 02 19 00 26  0.0000000  0  8G16G18G21G22G25G27G29G31
  22159558.220   116449274.60309  22159554.640    90739696.03847
  22596538.660   118745699.72909  22596535.940    92529134.14546
  21108729.780   110927499.87509  21108725.760    86437164.01548
  24132378.420   126816542.59208  24132375.600    98818094.82146
  24385416.120   128146413.09608  24385416.500    99854409.92845
  23402421.160   122980576.03708  23402421.100    95829031.19147
  23435019.800   123152318.64709  23435018.380    95963044.88647
  22629318.400   118917880.12809  22629314.900    92663275.17547
 15 02 19 00 26 30.0000000  0  8G16G18G21G22G25G27G29G31
  22144572.960   116370526.77809  22144569.380    90678334.09847
  22584162.480   118680662.57209  22584159.860    92478455.85747
  21114589.640   110958293.46809  21114585.600    86461159.03148
  24114326.340   126721679.55908  24114323.400    98744175.85145
  24404307.260   128245684.71308  24404307.260    99931764.37945
  23389620.200   122913306.63608  23389620.000    95776613.51747
  23448191.640   123221536.73408  23448190.300    96016981.02747
  22645279.800   119001757.94609  22645276.360    92728634.48647
 15 02 19 00 27  0.0000000  0  8G16G18G21G22G25G27G29G31
  22129629.320   116291997.34609  22129625.640    90617142.32947
  22571837.460   118615893.91309  22571834.880    92427986.79046
  21120515.440   110989433.65809  21120511.360    86485424.11248
  24096269.420   126626791.17008  24096266.260    98670237.10545
  24423229.860   128345121.75208  24423229.660   100009247.73845
  23376834.180   122846116.00208  23376833.900    95724257.20347
  23461371.120   123290794.47808  23461369.220    96070948.11346
  22661286.880   119085876.17109  22661283.560    92794181.13347
 15 02 19 00 27 30.0000000  0  8G16G18G21G22G25G27G29G31
  22114727.340   116213686.96209  22114723.600    90556121.24447
  22559563.700   118551394.47009  22559561.020    92377727.49647
  21126506.500   111020917.13209  21126502.540    86509956.69248
  24078207.800   126531878.31408  24078204.540    98596279.28945
  24442183.160   128444720.94108  24442182.760   100086857.45745
  23364062.780   122779002.34408  23364062.540    95671960.87947
  23474557.620   123360090.25009  23474555.740    96124944.77147
  22677338.780   119170230.14209  22677335.600    92859911.44547
 15 02 19 00 28  0.0000000  0  8G16G18G21G22G25G27G29G31
  22099867.040   116135595.85309  22099863.320    90495271.03847
  22547341.280   118487164.95409  22547338.580    92327678.56446
  21132562.180   111052740.00009  21132558.280    86534753.73848
  24060141.680   126436941.18508  24060138.280    98522302.55345
  24461166.480   128544478.73308  24461166.040   100164590.79245
  23351305.720   122711963.43608  23351305.480    95619722.80247
  23487750.800   123429421.11608  23487749.000    96178968.77546
  22693434.580   119254814.76009  22693431.580    92925821.52247
 15 02 19 00 28 30.0000000  0  8G16G18G21G22G25G27G29G31
  22085049.400   116057728.98909  22085045.720    90434595.56547
  22535171.200   118423210.67809  22535168.220    92277844.07147
  21138682.780   111084903.81509  21138678.840    86559816.44748
  24042071.840   126341985.06408  24042068.560    98448310.99146
  24480179.940   128644396.55008  24480179.960   100242448.75845
  23338563.440   122645002.14508  23338563.220    95567545.18747
  23500951.460   123498790.43508  23500949.500    96233022.78046
  22709574.320   119339630.17609  22709571.480    92991911.41147
 15 02 19 00 29  0.0000000  0  8G16G18G21G22G25G27G29G31
  22070275.120   115980090.01309  22070271.520    90374097.69047
  22523054.160   118359535.26609  22523051.060    92228226.89447
  21144868.200   111117408.47009  21144864.240    86585144.75948
  24023999.120   126247014.04308  24023996.000    98374307.84445
  24499223.700   128744474.22908  24499223.920   100320431.34945
  23325836.080   122578119.77908  23325835.940    95515429.07847
  23514159.460   123568199.71808  23514157.700    96287107.90747
  22725757.700   119424674.64309  22725755.040    93058179.79647
 15 02 19 00 29 30.0000000  0  8G16G18G21G22G25G27G29G31
  22055544.040   115902677.59109  22055540.440    90313776.33147
  22510989.940   118296137.59609  22510986.860    92178826.13246
  21151117.440   111150248.66009  21151113.540    86610734.53048
  24005923.420   126152027.12208  24005920.420    98300292.30945
  24518296.720   128844706.64408  24518297.340   100398534.48145
  23313123.000   122511312.56608  23313122.900    95463371.54447
  23527374.260   123637645.06508  23527372.960    96341221.10047
  22741983.500   119509941.73909  22741980.940    93124621.64147
 15 02 19 00 30  0.0000000  0  8G16G18G21G22G25G27G29G31
  22040856.780   115825494.79109  22040853.080    90253633.89647
  22498979.220   118233021.02609  22498976.220    92129644.40846
  21157430.320   111183423.52809  21157426.540    86636585.08148
  23987845.340   126057028.00408  23987842.300    98226267.25245
  24537399.200   128945093.19608  24537400.260   100476757.70245
  23300424.400   122444581.49508  23300424.340    95411373.34647
  23540596.280   123707127.60908  23540595.340    96395363.35747
  22758251.360   119595429.39309  22758248.800    93191235.36247
 15 02 19 00 30 30.0000000  0  8G16G18G21G22G25G27G29G31
  22026213.380   115748542.41409  22026209.560    90193671.01948
  22487022.140   118170186.41709  22487019.240    92080682.38347
  21163806.280   111216929.55809  21163802.540    86662693.68048
  23969765.240   125962017.83008  23969762.280    98152233.59046
  24556530.420   129045630.87907  24556531.960   100555098.69845
  23287740.040   122377924.96508  23287739.940    95359433.23447
  23553825.060   123776645.60808  23553824.420    96449533.20847
  22774560.360   119681132.97009  22774557.740    93258017.32347
 15 02 19 00 31  0.0000000  0  8G16G18G21G22G25G27G29G31
  22011614.800   115671825.45409  22011610.880    90133891.56348
  22475119.780   118107639.51809  22475116.980    92031944.55646
  21170245.700   111250768.55509  21170241.940    86689061.73148
  23951684.000   125867001.41008  23951681.020    98078195.04645
  24575690.780   129146321.13107  24575692.680   100633558.54745
  23275070.440   122311345.80208  23275070.220    95307553.40147
  23567060.860   123846201.76008  23567060.400    96503732.77647
  22790910.420   119767052.39209  22790907.740    93324967.47547
 15 02 19 00 31 30.0000000  0  8G16G18G21G22G25G27G29G31
  21997060.720   115595342.42509  21997056.680    90074294.40048
  22463271.800   118045378.64409  22463269.140    91983429.60847
  21176747.540   111284935.14009  21176743.640    86715685.04748
  23933601.380   125771977.66208  23933598.280    98004150.80346
  24594879.380   129247158.35208  24594881.360   100712132.93545
  23262414.820   122244840.00708  23262414.520    95255730.73047
  23580303.480   123915792.20808  23580302.900    96557959.09347
  22807300.300   119853181.01809  22807297.540    93392080.64748
 15 02 19 00 32  0.0000000  0  8G16G18G21G22G25G27G29G31
  21982552.040   115519098.44009  21982547.980    90014883.50448
  22451479.320   117983409.28709  22451476.760    91935141.82647
  21183311.780   111319430.18409  21183307.800    86742564.30948
  23915518.580   125676952.31708  23915515.480    97930105.30446
  24614096.480   129348144.09508  24614098.100   100790823.07144
  23249773.720   122178410.58008  23249773.480    95203967.57147
  23593553.420   123985420.54008  23593552.640    96612214.92647
  22823729.900   119939518.72309  22823727.080    93459356.74447
 15 02 19 00 32 30.0000000  0  8G16G18G21G22G25G27G29G31
  21968088.700   115443093.24109  21968084.700    89955658.68048
  22439742.300   117921731.05109  22439739.880    91887080.87547
  21189937.720   111354249.86009  21189933.720    86769696.53148
  23897435.480   125581925.18708  23897432.300    97856058.39946
  24633341.240   129449274.07908  24633342.260   100869625.61145
  23237146.520   122112054.65408  23237146.380    95152261.67147
  23606810.020   124055083.38408  23606809.400    96666497.59847
  22840198.180   120026060.00809  22840195.340    93526791.46947
 15 02 19 00 33  0.0000000  0  8G16G18G21G22G25G27G29G31
  21953672.240   115367335.00209  21953668.420    89896626.30148
  22428062.280   117860352.03709  22428060.000    91839253.10147
  21196626.100   111389397.84109  21196622.080    86797084.57448
  23879353.600   125486904.81308  23879350.440    97782016.79946
  24652614.360   129550552.77207  24652615.100   100948543.99945
  23224534.440   122045778.27808  23224534.320    95100617.78146
  23620074.360   124124786.92908  23620073.480    96720812.02847
  22856705.640   120112807.48509  22856702.820    93594386.85848
 15 02 19 00 33 30.0000000  0  8G16G18G21G22G25G27G29G31
  21939301.480   115291817.18409  21939297.880    89837781.26048
  22416438.100   117799266.29609  22416435.840    91791653.83247
  21203375.040   111424864.02009  21203370.960    86824720.56448
  23861271.840   125391884.89908  23861268.420    97707975.48946
  24671913.760   129651969.84108  24671914.100   101027570.20945
  23211935.980   121979572.60008  23211935.700    95049028.96647
  23633344.960   124194522.51309  23633344.000    96775151.35947
  22873250.140   120199749.56909  22873247.360    93662133.89648
 15 02 19 00 34  0.0000000  0  8G16G18G21G22G25G27G29G31
  21924978.840   115216551.93809  21924975.360    89779133.01648
  22404872.080   117738486.06209  22404869.900    91744292.62147
  21210186.020   111460656.12509  21210181.900    86852610.51648
  23843192.480   125296877.80908  23843189.220    97633944.20246
  24691241.100   129753533.54308  24691241.160   101106710.65244
  23199352.940   121913447.51208  23199352.420    94997502.95747
  23646623.220   124264299.77308  23646622.080    96829523.22747
  22889833.000   120286893.15309  22889830.220    93730037.93147
 15 02 19 00 34 30.0000000  0  8G16G18G21G22G25G27G29G31
  21910703.380   115141534.33909  21910699.940    89720677.75248
  22393363.220   117678005.90909  22393360.980    91697165.24147
  21217057.520   111496766.06209  21217053.380    86880748.13148
  23825114.820   125201879.19408  23825111.520    97559919.48746
  24710594.640   129855235.12208  24710594.360   101185958.59144
  23186783.740   121847395.59108  23186783.140    94946033.96747
  23659908.220   124334111.68909  23659906.940    96883922.06547
  22906452.260   120374227.90909  22906449.460    93798090.93547
 15 02 19 00 35  0.0000000  0  8G16G18G21G22G25G27G29G31
  21896476.460   115066771.53309  21896473.000    89662421.02648
  22381912.900   117617833.54609  22381910.580    91650277.69447
  21223990.020   111533196.47109  21223985.900    86909135.46948
  23807040.200   125106896.24308  23807036.540    97485906.94946
  24729974.940   129957077.75208  24729974.480   101265316.38845
  23174229.220   121781421.64008  23174228.800    94894625.72447
  23673200.720   124403963.14008  23673199.060    96938351.75046
  22923108.320   120461755.85809  22923105.480    93866294.49347
 15 02 19 00 35 30.0000000  0  8G16G18G21G22G25G27G29G31
  21882298.020   114992263.21209  21882294.500    89604362.59548
  22370521.040   117557968.70709  22370518.800    91603629.79847
  21230982.780   111569943.49709  21230978.660    86937769.52648
  23788968.580   125011929.08108  23788964.760    97411906.74846
  24749381.340   130059057.45608  24749380.580   101344781.02945
  23161689.000   121715523.21908  23161688.760    94843276.34747
  23686500.120   124473851.62709  23686498.200    96992810.26546
  22939800.160   120549471.53909  22939797.240    93934644.32947
 15 02 19 00 36  0.0000000  0  8G16G18G21G22G25G27G29G31
  21868168.420   114918011.76309  21868164.880    89546504.33148
  22359188.220   117498414.04709  22359185.860    91557223.58647
  21238035.440   111607005.40009  21238031.300    86966648.93648
  23770900.520   124916980.65108  23770896.580    97337921.12246
  24768813.420   130161172.79808  24768812.220   101424351.41545
  23149163.200   121649700.50508  23149163.200    94791985.94347
  23699806.580   124543776.97608  23699804.560    97047297.49546
  22956527.220   120637372.20209  22956524.220    94003138.29547
 15 02 19 00 36 30.0000000  0  8G16G18G21G22G25G27G29G31
  21854088.340   114844020.71909  21854084.880    89488848.97847
  22347915.020   117439172.93409  22347912.520    91511061.70247
  21245147.900   111644381.64709  21245143.780    86995773.29348
  23752836.640   124822054.52308  23752832.320    97263952.86846
  24788271.140   130263423.25808  24788270.080   101504026.96745
  23136652.080   121583954.41008  23136652.180    94740755.25847
  23713120.240   124613740.81108  23713118.280    97101814.71746
  22973289.080   120725455.76109  22973286.020    94071774.79347
 15 02 19 00 37  0.0000000  0  8G16G18G21G22G25G27G29G31
  21840058.520   114770293.97409  21840055.200    89431399.57348
  22336702.260   117380249.29109  22336699.560    91465147.18347
  21252320.100   111682072.08309  21252316.020    87025142.46648
  23734777.700   124727155.00208  23734773.400    97190005.36746
  24807754.320   130365808.73807  24807753.320   101583807.76644
  23124155.900   121518286.53008  23124155.920    94689585.50647
  23726441.400   124683744.48308  23726439.140    97156362.98246
  22990085.400   120813720.58709  22990082.320    94140552.53547
 15 02 19 00 37 30.0000000  0  7G16G18G21G22G27G29G31
  21826078.880   114696831.03209  21826075.740    89374155.73648
  22325549.800   117321642.79909  22325547.000    91419479.81047
  21259551.300   111720072.62409  21259547.320    87054753.29448
  23716723.800   124632282.12308  23716719.340    97116078.58846
  23111674.180   121452694.45708  23111674.080    94638474.83947
  23739769.720   124753785.64008  23739767.540    97210940.49547
  23006915.180   120902161.53609  23006912.180    94209467.50747
 15 02 19 00 38  0.0000000  0  7G16G18G21G22G27G29G31
  21812150.160   114623635.52209  21812147.100    89317120.28248
  22314458.340   117263356.89409  22314455.320    91374062.23547
  21266841.440   111758382.71309  21266837.560    87084605.29748
  23698675.480   124537439.68508  23698671.320    97042175.53346
  23099207.060   121387179.29408  23099206.920    94587424.08547
  23753105.180   124823865.07808  23753103.380    97265547.80846
  23023778.120   120990776.79209  23023775.220    94278518.30047
 15 02 19 00 38 30.0000000  0  7G16G18G21G22G27G29G31
  21798271.960   114550705.17609  21798269.000    89260291.45348
  22303427.580   117205389.82709  22303424.420    91328893.11547
  21274189.300   111796996.04409  21274185.480    87114693.62148
  23680632.640   124442625.94908  23680628.740    96968294.82446
  23086753.800   121321736.64808  23086753.600    94536429.84247
  23766447.200   124893978.68308  23766445.460    97320181.74946
  23040672.740   121079558.84809  23040670.040    94347699.06847
 15 02 19 00 39  0.0000000  0  7G16G18G21G22G27G29G31
  21784445.180   114478044.69309  21784442.180    89203672.89548
  22292458.280   117147745.88809  22292454.980    91283975.77647
  21281594.980   111835913.23909  21281591.180    87145018.70648
  23662596.140   124347845.59808  23662592.640    96894440.15546
  23074314.800   121256368.70708  23074314.540    94485493.79447
  23779796.480   124964129.05808  23779794.380    97374844.39846
  23057599.000   121168506.95809  23057596.500    94417009.23247
 15 02 19 00 39 30.0000000  0  7G16G18G21G22G27G29G31
  21770671.420   114405662.53609  21770668.320    89147271.22948
  22281551.920   117090433.10209  22281548.560    91239316.48547
  21289059.320   111875138.64509  21289055.480    87175583.96348
  23644567.660   124253107.26508  23644564.320    96820618.22046
  23061891.140   121191081.44708  23061890.800    94434620.62147
  23793153.520   125034321.91208  23793151.760    97429540.04646
  23074557.400   121257623.98509  23074555.020    94486451.01947
 15 02 19 00 40  0.0000000  0  7G16G18G21G22G27G29G31
  21756949.440   114333552.45409  21756946.280    89091081.56248
  22270707.560   117033446.21009  22270704.320    91194911.12547
  21296580.480   111914662.62809  21296576.560    87206381.87648
  23626546.140   124158405.54508  23626543.040    96746824.80646
  23049481.220   121125866.77208  23049480.840    94383804.02047
  23806517.420   125104549.35508  23806515.640    97484262.71446
  23091545.900   121346898.97209  23091543.660    94556015.88847
 15 02 19 00 40 30.0000000  0  7G16G18G21G22G27G29G31
  21743280.480   114261720.94609  21743277.240    89035108.96948
  22259926.440   116976791.25709  22259923.180    91150764.42747
  21304158.840   111954487.01609  21304154.780    87237413.86948
  23608533.040   124063747.39508  23608530.000    96673065.32346
  23037085.800   121060728.64008  23037085.460    94333047.06847
  23819888.600   125174815.21708  23819886.460    97539015.29146
  23108564.680   121436332.93609  23108562.520    94625704.63447
 15 02 19 00 41  0.0000000  0  7G16G18G21G22G27G29G31
  21729664.500   114190168.08009  21729661.220    88979353.48948
  22249208.560   116920468.09409  22249205.300    91106876.27347
  21311793.620   111994607.79009  21311789.420    87268676.81048
  23590528.420   123969132.84908  23590525.340    96599339.84046
  23024704.500   120995664.72409  23024704.160    94282347.93647
  23833266.680   125245117.00808  23833264.300    97593795.88346
  23125612.660   121525920.32809  23125610.480    94695512.92247
 15 02 19 00 41 30.0000000  0  7G16G18G21G22G27G29G31
  21716102.660   114118899.65509  21716099.340    88923819.64548
  22238554.980   116864482.40009  22238551.620    91063251.07847
  21319485.160   112035027.02209  21319480.920    87300172.31748
  23572533.400   123874568.18908  23572530.100    96525653.23346
  23012338.040   120930678.72208  23012337.720    94231709.51547
  23846652.380   125315459.03908  23846650.480    97648607.78647
  23142690.000   121615661.89609  23142687.780    94765441.35147
 15 02 19 00 42  0.0000000  0  7G16G18G21G22G27G29G31
  21702595.060   114047916.55109  21702591.680    88868508.14048
  22227965.880   116808835.23909  22227962.340    91019889.66947
  21327232.860   112075741.55409  21327228.640    87331897.93148
  23554548.180   123780054.60308  23554544.500    96452006.39746
  22999986.180   120865769.26709  22999985.760    94181130.72947
  23860045.400   125385839.73508  23860043.880    97703449.81246
  23159795.960   121705553.69209  23159793.640    94835486.84447
 15 02 19 00 42 30.0000000  0  7G16G18G21G22G27G29G31
  21689141.820   113977219.36909  21689138.380    88813419.43048
  22217441.240   116753526.87409  22217437.520    90976792.25047
  21335036.060   112116747.90509  21335031.880    87363850.92948
  23536572.900   123685592.90208  23536569.180    96378399.98146
  22987648.580   120800934.39809  22987648.040    94130610.07247
  23873445.420   125456257.04408  23873443.760    97758320.43146
  23176929.380   121795590.18809  23176927.020    94905645.08347
 15 02 19 00 43  0.0000000  0  7G16G18G21G22G27G29G31
  21675743.640   113906811.72009  21675740.120    88758556.33448
  22206981.760   116698561.24709  22206977.880    90933961.89947
  21342894.720   112158045.67009  21342890.560    87396031.01948
  23518608.240   123591187.22508  23518604.280    96304837.20246
  22975325.460   120736175.71008  22975324.860    94080148.76747
  23886852.860   125526712.76608  23886851.440    97813220.98547
  23194090.060   121885770.02809  23194087.680    94975915.02747
 15 02 19 00 43 30.0000000  0  7G16G18G21G22G27G29G31
  21662401.320   113836697.83909  21662397.820    88703922.15148
  22196588.100   116643942.16909  22196584.300    90891401.59947
  21350808.800   112199634.98509  21350804.720    87428438.28148
  23500655.040   123496841.97508  23500651.000    96231321.49746
  22963017.100   120671495.07008  22963016.500    94029748.30247
  23900267.660   125597208.54608  23900266.720    97868152.67646
  23211277.780   121976092.29509  23211275.380    95046295.94747
 15 02 19 00 44  0.0000000  0  7G16G18G21G22G27G29G31
  21649115.480   113766880.72509  21649111.960    88649519.21748
  22186260.880   116589672.36109  22186257.180    90849113.45847
  21358778.200   112241514.95108  21358774.180    87461072.02548
  23482713.880   123402560.58508  23482709.600    96157855.56146
  22950723.580   120606893.10408  22950723.140    93979409.12747
  23913690.240   125667745.59508  23913689.400    97923116.61046
  23228492.140   122066554.53109  23228489.760    95116785.93347
 15 02 19 00 44 30.0000000  0  7G16G18G21G22G27G29G31
  21635885.700   113697358.12509  21635882.160    88595345.74848
  22175999.660   116535749.62809  22175996.060    90807095.75847
  21366801.680   112283679.07009  21366797.760    87493927.18448
  23464784.540   123308341.53309  23464780.160    96084438.21046
  22938444.200   120542365.39308  22938443.860    93929127.82147
  23927119.720   125738319.20508  23927119.140    97978108.98246
  23245731.720   122157149.31408  23245729.360    95187379.20547
 15 02 19 00 45  0.0000000  0  7G16G18G21G22G27G29G31
  21622712.460   113628132.47609  21622708.920    88541403.70248
  22165805.000   116482176.66709  22165801.460    90765350.61847
  21374879.000   112326125.82509  21374875.160    87527002.58648
  23446867.500   123214187.37809  23446863.040    96011071.44246
  22926179.040   120477912.25208  22926178.840    93878904.60847
  23940556.540   125808929.49008  23940555.880    98033129.96146
  23262996.020   122247873.87308  23262993.720    95258073.58747
 15 02 19 00 45 30.0000000  0  7G16G18G21G22G27G29G31
  21609596.580   113559208.22909  21609593.020    88487696.50348
  22155677.520   116428956.95509  22155674.140    90723880.73347
  21383010.300   112368855.66709  21383006.440    87560298.56348
  23428963.600   123120102.52608  23428959.200    95937758.64046
  22913928.420   120413535.64808  22913928.340    93828741.05347
  23954000.860   125879578.54708  23954000.160    98088181.13146
  23280284.820   122338727.09808  23280282.560    95328868.23247
 15 02 19 00 46  0.0000000  0  7G16G18G21G22G27G29G31
  21596538.460   113490587.78209  21596534.940    88434226.03348
  22145617.860   116376093.24209  22145614.580    90682688.24847
  21391195.180   112411866.88909  21391191.300    87593813.80548
  23411073.460   123026089.93108  23411068.880    95864502.16546
  22901692.340   120349235.62508  22901692.520    93778637.18047
  23967452.680   125950267.12708  23967451.760    98143263.09946
  23297597.560   122429706.09508  23297595.400    95399760.86947
 15 02 19 00 46 30.0000000  0  7G16G18G21G22G27G29G31
  21583539.440   113422277.72009  21583535.980    88380997.41348
  22135627.260   116323592.24009  22135624.000    90641778.40147
  21399434.120   112455162.20709  21399430.200    87627550.42048
  23393198.520   122932157.04409  23393193.920    95791307.79046
  22889471.760   120285016.72708  22889472.080    93728596.50947
  23980912.480   126020999.02708  23980911.400    98198378.85446
  23314934.520   122520812.23309  23314932.360    95470752.56847
 15 02 19 00 47  0.0000000  0  7G16G18G21G22G27G29G31
  21570598.440   113354272.82409  21570595.120    88328006.59348
  22125704.560   116271448.09709  22125701.300    90601146.62447
  21407725.200   112498731.73809  21407721.240    87661500.70448
  23375337.760   122838298.49009  23375333.220    95718171.34046
  22877265.300   120220871.28608  22877265.640    93678613.07447
  23994378.980   126091766.46908  23994378.060    98253522.26146
  23332293.680   122612034.74508  23332291.500    95541834.97647
 15 02 19 00 47 30.0000000  0  7G16G18G21G22G27G29G31
  21557716.580   113286578.47409  21557713.420    88275257.75548
  22115850.700   116219666.02909  22115847.500    90560796.99147
  21416068.840   112542577.47309  21416064.820    87695666.21448
  23357492.360   122744520.16209  23357487.720    95645097.40446
  22865073.620   120156802.61608  22865073.680    93628689.43547
  24007853.120   126162573.40008  24007852.380    98308696.46046
  23349675.100   122703374.14908  23349672.920    95613008.43747
 15 02 19 00 48  0.0000000  0  7G16G18G21G22G27G29G31
  21544894.040   113219195.68109  21544891.000    88222751.68748
  22106065.880   116168246.97509  22106062.800    90520730.21247
  21424464.400   112586696.13409  21424460.340    87730044.39148
  23339662.520   122650823.48909  23339657.940    95572087.06946
  22852896.360   120092809.52108  22852896.100    93578824.68847
  24021334.520   126233418.58508  24021333.720    98363900.46246
  23367077.920   122794825.93108  23367075.700    95684269.46947
 15 02 19 00 48 30.0000000  0  7G16G18G21G22G27G29G31
  21532131.400   113152127.18509  21532128.380    88170490.51948
  22096350.480   116117193.18109  22096347.640    90480948.05147
  21432911.700   112631086.72409  21432907.580    87764634.45348
  23321848.780   122557211.61409  23321844.220    95499142.83146
  22840733.520   120028892.53309  22840733.080    93529019.25247
  24034823.340   126304302.10108  24034822.100    98419134.35346
  23384501.740   122886387.75908  23384499.380    95755616.25847
 15 02 19 00 49  0.0000000  0  7G16G18G21G22G27G29G31
  21519429.300   113085376.75009  21519426.280    88118477.20848
  22086705.340   116066508.44609  22086702.560    90441453.47947
  21441410.640   112675748.94709  21441406.500    87799436.19248
  23304051.980   122463688.80209  23304047.460    95426267.99146
  22828585.360   119965053.15909  22828584.900    93479274.31847
  24048319.780   126375225.92208  24048318.240    98474399.63446
  23401946.240   122978058.04809  23401943.720    95827047.54447
 15 02 19 00 49 30.0000000  0  7G16G18G21G22G27G29G31
  21506788.120   113018945.91809  21506784.920    88066712.91948
  22077130.780   116016194.14009  22077128.040    90402247.54347
  21449960.560   112720679.69508  21449956.540    87834447.15848
  23286272.380   122370256.72209  23286267.860    95353463.81146
  22816451.800   119901290.44009  22816451.240    93429589.09347
  24061823.720   126446188.82808  24061821.880    98529695.42146
  23419410.580   123069832.67508  23419407.840    95898560.13247
 15 02 19 00 50  0.0000000  0  7G16G18G21G22G27G29G31
  21494208.720   112952839.75809  21494205.300    88015201.64048
  22067627.620   115966254.85509  22067624.860    90363333.83047
  21458561.780   112765880.33308  21458557.960    87869668.43748
  23268511.120   122276920.94408  23268506.580    95280734.69047
  22804333.460   119837607.68609  22804332.720    93379966.19348
  24075335.720   126517194.54708  24075334.120    98585024.50646
  23436894.900   123161712.35409  23436891.980    95970154.57646
 15 02 19 00 50 30.0000000  0  7G16G18G21G22G27G29G31
  21481690.680   112887056.20209  21481687.060    87963941.73448
  22058195.520   115916688.76609  22058192.760    90324710.90747
  21467213.260   112811344.80109  21467209.540    87905095.28648
  23250767.820   122183679.93109  23250763.280    95208079.42047
  22792229.440   119774000.55008  22792228.620    93330402.19948
  24088855.020   126588238.61408  24088853.660    98640383.47646
  23454397.720   123253689.26909  23454394.700    96041824.78147
 15 02 19 00 51  0.0000000  0  7G16G18G21G22G27G29G31
  21469235.380   112821602.72209  21469231.600    87912939.01648
  22048835.700   115867502.44909  22048832.960    90286383.91247
  21475915.580   112857076.26409  21475911.900    87940730.18648
  23233044.040   122090541.31109  23233039.560    95135503.93846
  22780140.660   119710473.76909  22780139.800    93280900.81747
  24102382.460   126659325.48408  24102381.300    98695775.81546
  23471919.300   123345764.86608  23471916.160    96113571.87347
 15 02 19 00 51 30.0000000  0  7G16G18G21G22G27G29G31
  21456842.280   112756476.59209  21456838.480    87862191.39148
  22039547.500   115818692.55209  22039544.760    90248350.24947
  21484667.440   112903067.56709  21484663.640    87976567.55948
  23215339.260   121997502.60508  23215334.880    95063006.33247
  22768066.220   119647022.44308  22768065.500    93231458.24547
  24115917.020   126730450.34008  24115916.040    98751197.78146
  23489458.160   123437931.40109  23489454.920    96185389.82546
 15 02 19 00 52  0.0000000  0  7G16G18G21G22G27G29G31
  21444512.900   112691685.64909  21444509.160    87811704.95648
  22030332.520   115770267.34309  22030329.740    90210616.33647
  21493469.680   112949323.13809  21493465.720    88012610.85748
  23197655.180   121904572.37908  23197650.900    94990593.23847
  22756007.280   119583652.65608  22756006.720    93182079.21947
  24129460.040   126801619.49508  24129459.120    98806654.24746
  23507014.880   123530192.24108  23507011.740    96257281.25746
 15 02 19 00 52 30.0000000  0  7G16G18G21G22G27G29G31
  21432246.200   112627224.43309  21432242.560    87761475.43948
  22021189.580   115722220.84809  22021186.800    90173177.52547
  21502320.340   112995832.94809  21502316.240    88048852.25948
  23179990.820   121811745.57808  23179986.640    94918260.73547
  22743962.400   119520356.83908  22743961.860    93132757.83248
  24143010.120   126872825.44608  24143009.260    98862139.39246
  23524587.400   123622536.40408  23524584.320    96329237.59347
 15 02 19 00 53  0.0000000  0  7G16G18G21G22G27G29G31
  21420043.840   112563101.13209  21420040.240    87711509.24148
  22012120.200   115674561.13409  22012117.440    90136040.10447
  21511220.380   113042602.30309  21511216.140    88085295.90348
  23162347.800   121719030.86108  23162343.620    94846015.57947
  22731932.720   119457140.80908  22731932.100    93083498.61747
  24156568.220   126944073.37008  24156567.340    98917657.22146
  23542176.260   123714966.56408  23542173.360    96401260.93246
 15 02 19 00 53 30.0000000  0  7G16G18G21G22G27G29G31
  21407906.220   112499317.74509  21407902.600    87661807.90248
  22003124.600   115627289.37309  22003122.000    90099204.97447
  21520169.160   113089627.94509  21520164.880    88121939.25448
  23144726.480   121626430.18109  23144722.220    94773859.26447
  22719918.160   119394004.11408  22719917.460    93034301.22147
  24170134.300   127015363.75608  24170133.500    98973208.14146
  23559780.820   123807479.29308  23559778.040    96473348.64346
 15 02 19 00 54  0.0000000  0  7G16G18G21G22G27G29G31
  21395832.980   112435872.59609  21395829.360    87612370.12848
  21994202.560   115580404.04609  21994199.940    90062670.95947
  21529165.620   113136904.56909  21529161.440    88158778.18448
  23127126.740   121533942.80209  23127122.380    94701791.24747
  22707918.020   119330943.32908  22707917.200    92985162.95947
  24183707.680   127086692.36308  24183706.780    99028788.83746
  23577399.860   123900068.11208  23577397.220    96545495.61846
 15 02 19 00 54 30.0000000  0  7G16G18G21G22G27G29G31
  21383825.160   112372771.14409  21383821.480    87563200.18448
  21985354.940   115533910.03609  21985352.360    90026441.88947
  21538210.120   113184434.00309  21538206.060    88195814.10848
  23109549.640   121441574.44509  23109545.120    94629815.96947
  22695932.960   119267961.62308  22695932.040    92936086.32647
  24197289.060   127158062.60208  24197288.100    99084402.00446
  23595033.420   123992732.90108  23595030.860    96617701.80746
 15 02 19 00 55  0.0000000  0  7G16G18G21G22G27G29G31
  21371883.340   112310016.66909  21371879.640    87514300.59748
  21976582.460   115487810.49709  21976579.820    89990520.17247
  21547302.460   113232215.04509  21547298.540    88233046.08548
  23091995.800   121349328.51109  23091991.080    94557936.07147
  22683963.160   119205060.03709  22683962.220    92887072.10847
  24210878.560   127229475.50708  24210877.400    99140048.36446
  23612681.100   124085471.95608  23612678.600    96689965.73446
 15 02 19 00 55 30.0000000  0  7G16G18G21G22G27G29G31
  21360007.320   112247607.77609  21360003.580    87465670.30148
  21967884.720   115442103.30209  21967881.920    89954904.18747
  21556441.520   113280241.92609  21556437.820    88270469.63248
  23074465.100   121257204.06909  23074460.180    94486150.83347
  22672007.980   119142234.99409  22672007.080    92838117.54047
  24224475.620   127300927.55508  24224474.300    99195725.24846
  23630341.640   124178278.31609  23630339.240    96762282.18846
 15 02 19 00 56  0.0000000  0  7G16G18G21G22G27G29G31
  21348197.860   112185548.59509  21348194.060    87417312.48948
  21959262.400   115396792.18709  21959259.420    89919596.83447
  21565627.460   113328515.20209  21565623.940    88308085.16248
  23056958.380   121165206.04109  23056953.380    94414464.09347
  22660067.720   119079488.66008  22660067.000    92789224.31148
  24238080.620   127372420.79108  24238079.120    99251434.24446
  23648014.900   124271151.22208  23648012.580    96834650.47746
 15 02 19 00 56 30.0000000  0  7G16G18G21G22G27G29G31
  21336456.060   112123844.78809  21336452.220    87369231.61348
  21950716.460   115351882.21309  21950713.320    89884602.05747
  21574860.540   113377035.84309  21574857.100    88345893.45448
  23039476.820   121073340.54409  23039471.800    94342880.62747
  22648143.100   119016824.50108  22648142.580    92740395.10047
  24251694.020   127443958.85208  24251692.220    99307178.18046
  23665700.920   124364091.32508  23665698.660    96907071.21446
 15 02 19 00 57  0.0000000  0  7G16G18G21G22G27G29G31
  21324781.920   112062496.73909  21324778.020    87321427.94348
  21942246.900   115307373.80209  21942243.640    89849920.19347
  21584140.380   113425801.49209  21584136.840    88383892.65748
  23022020.560   120981608.01908  23022015.620    94271400.79547
  22636233.800   118954240.79308  22636233.320    92691628.59148
  24265315.420   127515540.05008  24265313.580    99362955.72146
  23683398.760   124457093.48708  23683396.580    96979540.27646
 15 02 19 00 57 30.0000000  0  7G16G18G21G22G27G29G31
  21313175.720   112001506.02809  21313171.820    87273902.72148
  21933854.020   115263268.32309  21933850.760    89815552.29047
  21593466.340   113474809.07309  21593462.600    88422080.38248
  23004589.960   120890010.51509  23004585.140    94200026.18047
  22624339.700   118891736.92308  22624339.220    92642924.30648
  24278944.800   127587163.43308  24278943.320    99418766.13646
  23701107.760   124550153.99108  23701105.560    97052054.78846
 15 02 19 00 58  0.0000000  0  7G16G18G21G22G27G29G31
  21301638.060   111940875.73609  21301634.280    87226658.35248
  21925538.180   115219567.71909  21925534.840    89781499.88547
  21602838.120   113524057.25009  21602834.160    88460455.58348
  22987185.800   120798551.69409  22987181.140    94128759.60547
  22612461.020   118829313.86208  22612460.500    92594282.97648
  24292582.140   127658829.87708  24292581.080    99474610.08446
  23718827.460   124643270.65208  23718825.260    97124613.06146
 15 02 19 00 58 30.0000000  0  7G16G18G21G22G27G29G31
  21290168.980   111880605.99409  21290165.340    87179694.92148
  21917299.500   115176272.32309  21917296.000    89747763.21547
  21612254.920   113573542.19009  21612250.820    88499015.28248
  22969808.240   120707232.26209  22969803.580    94057601.64147
  22600597.340   118766969.82408  22600596.800    92545703.23348
  24306227.420   127730537.76908  24306226.600    99530486.32646
  23736556.960   124736438.82908  23736554.840    97197211.48746
 15 02 19 00 59  0.0000000  0  7G16G18G21G22G27G29G31
  21278768.880   111820698.44009  21278765.320    87133013.71248
  21909138.060   115133383.13309  21909134.400    89714343.07547
  21621716.380   113623262.30109  21621712.240    88537758.22448
  22952457.600   120616054.37809  22952453.000    93986553.97647
  22588748.540   118704704.35908  22588748.020    92497184.71948
  24319880.660   127802286.68308  24319879.980    99586394.54146
  23754295.540   124829654.93908  23754293.480    97269847.24346
 15 02 19 00 59 30.0000000  0  7G16G18G21G22G27G29G31
  21267438.600   111761157.52409  21267435.040    87086618.19048
  21901054.600   115090904.13709  21901050.860    89681242.56148
  21631222.440   113673216.96709  21631218.340    88576683.93848
  22935134.800   120525022.70409  22935130.220    93915620.24747
  22576915.200   118642519.82509  22576914.620    92448729.23848
  24333542.240   127874078.66308  24333541.260    99642336.31546
  23772043.080   124922918.18408  23772041.120    97342519.77346
 15 02 19 01 00  0.0000000  0  7G16G18G21G22G27G29G31
  21256178.400   111701984.61909  21256174.820    87040509.43448
  21893049.180   115048835.76809  21893045.460    89648462.03048
  21640772.720   113723404.33509  21640768.760    88615790.97048
  22917840.160   120434138.90209  22917835.640    93844801.73147
  22565097.120   118580415.07509  22565096.460    92400335.92448
  24347212.020   127945912.85408  24347210.680    99698310.97045
  23789798.760   125016224.11108  23789796.840    97415225.54446
 15 02 19 01 00 30.0000000  0  7G16G18G21G22G27G29G31
  21244988.300   111643180.01009  21244984.680    86994687.66148
  21885121.880   115007178.28709  21885118.240    89616001.66847
  21650366.580   113773820.43809  21650362.680    88655076.24548
  22900573.820   120343404.06209  22900569.300    93774099.28747
  22553293.980   118518388.85009  22553293.260    92352003.82048
  24360889.600   128017787.46408  24360887.800    99754317.15546
  23807561.660   125109568.42908  23807559.820    97487961.17346
 15 02 19 01 01  0.0000000  0  7G16G18G21G22G27G29G31
  21233869.380   111584749.57809  21233865.760    86949157.46548
  21877273.720   114965936.80109  21877270.140    89583865.45247
  21660004.260   113824466.88609  21660000.400    88694540.99748
  22883336.900   120252824.30809  22883332.460    93703517.71247
  22541506.400   118456444.82608  22541505.700    92303735.77748
  24374575.580   128089706.58608  24374573.600    99810358.00546
  23825332.000   125202951.72808  23825330.240    97560727.16846
 15 02 19 01 01 30.0000000  0  7G16G18G21G22G27G29G31
  21222822.420   111526697.38309  21222818.800    86903921.98848
  21869505.460   114925115.07309  21869502.020    89552056.31847
  21669685.920   113875344.53909  21669682.140    88734185.90948
  22866130.320   120162404.09209  22866126.140    93633060.43947
  22529734.780   118394585.03109  22529734.180    92255533.35448
  24388270.260   128161672.05608  24388268.220    99866434.92946
  23843109.640   125296373.05508  23843107.920    97633522.72146
 15 02 19 01 02  0.0000000  0  7G16G18G21G22G27G29G31
  21211847.180   111469022.19409  21211843.580    86858980.30048
  21861816.780   114884711.35409  21861813.440    89520572.92347
  21679410.380   113926446.92909  21679406.600    88774005.95448
  22848954.020   120072142.95909  22848949.940    93562727.13047
  22517978.600   118332806.18209  22517978.120    92207394.02248
  24401973.040   128233680.37008  24401970.800    99922545.32445
  23860893.280   125389825.87308  23860891.680    97706342.85946
 15 02 19 01 02 30.0000000  0  7G16G18G21G22G27G29G31
  21200944.160   111411726.24509  21200940.580    86814334.10548
  21854207.960   114844727.15109  21854204.800    89489416.41948
  21689177.460   113977773.46009  21689173.580    88814000.64748
  22831808.660   119982043.78709  22831804.600    93492520.00747
  22506237.960   118271108.52709  22506237.460    92159317.93748
  24415683.900   128305731.85108  24415681.540    99978689.31745
  23878682.440   125483307.59708  23878680.860    97779185.51946
 15 02 19 01 03  0.0000000  0  7G16G18G21G22G27G29G31
  21190114.000   111354813.16309  21190110.420    86769986.25048
  21846679.580   114805165.55909  21846676.440    89458589.22848
  21698987.120   114029323.65009  21698983.100    88854169.62448
  22814694.900   119892110.32609  22814690.780    93422442.03347
  22494513.140   118209493.75609  22494512.580    92111306.44648
  24429403.240   128377827.97408  24429400.940   100034868.12645
  23896476.820   125576816.56208  23896475.320    97852049.42246
 15 02 19 01 03 30.0000000  0  7G16G18G21G22G27G29G31
  21179357.140   111298284.93509  21179353.520    86725938.28548
  21839232.020   114766028.43609  21839228.940    89428092.76848
  21708838.860   114081094.91109  21708834.760    88894510.86748
  22797613.160   119802344.88809  22797608.920    93352494.97947
  22482804.100   118147961.71309  22482803.420    92063359.40148
  24443130.980   128449968.52008  24443128.920   100091081.49245
  23914275.780   125670349.54408  23914274.340    97924932.00746
 15 02 19 01 04  0.0000000  0  7G16G18G21G22G27G29G31
  21168673.660   111242142.36209  21168669.940    86682190.81748
  21831865.240   114727315.67509  21831862.120    89397926.98447
  21718732.200   114133084.49309  21718728.020    88935022.22348
  22780563.760   119712749.16809  22780559.320    93282680.16747
  22471110.500   118086511.38308  22471109.780    92015476.02348
  24456867.120   128522152.41008  24456865.300   100147328.65446
  23932078.560   125763902.60408  23932077.260    97997830.25646
 15 02 19 01 04 30.0000000  0  7G16G18G21G22G27G29G31
  21158064.860   111186392.44209  21158061.060    86638749.31948
  21824580.400   114689033.47909  21824577.160    89368096.71247
  21728667.680   114185295.61209  21728663.580    88975706.20148
  22763548.040   119623330.41209  22763543.460    93213003.24947
  22459433.240   118025147.62208  22459432.620    91967660.12048
  24470612.380   128594384.14408  24470610.820   100203613.09245
  23949885.320   125857477.08208  23949884.180    98070745.14546
 15 02 19 01 05  0.0000000  0  7G16G18G21G22G27G29G31
  21147530.020   111131031.05109  21147526.080    86595610.58148
  21817376.700   114651177.53909  21817373.280    89338598.59147
  21738643.740   114237719.98209  21738639.740    89016556.35848
  22746565.320   119534085.08509  22746560.560    93143461.46547
  22447771.240   117963864.49608  22447770.820    91919907.06248
  24484365.660   128666658.15208  24484364.140   100259930.54445
  23967694.480   125951064.16308  23967693.560    98143669.80246
 15 02 19 01 05 30.0000000  0  7G16G18G21G22G27G29G31
  21137070.440   111076065.60309  21137066.380    86552780.37148
  21810255.340   114613754.46609  21810251.840    89309437.77447
  21748660.980   114290360.89909  21748657.060    89057575.25748
  22729617.040   119445020.98109  22729612.140    93074060.88547
  22436125.720   117902667.45608  22436125.460    91872221.07548
  24498127.940   128738979.83408  24498126.640   100316285.07446
  23985506.520   126044666.17508  23985505.800    98216606.11846
 15 02 19 01 06  0.0000000  0  7G16G18G21G22G27G29G31
  21126685.060   111021490.24409  21126680.960    86510254.11248
  21803215.160   114576758.10409  21803211.620    89280609.45447
  21758717.660   114343209.11009  21758713.820    89098755.67448
  22712702.400   119356133.55909  22712697.300    93004797.98347
  22424495.380   117841549.19209  22424494.960    91824596.45548
  24511897.820   128811341.35008  24511896.860   100372670.63646
  24003319.520   126138272.81308  24003318.800    98289546.07546
 15 02 19 01 06 30.0000000  0  7G16G18G21G22G27G29G31
  21116375.660   110967314.24109  21116371.560    86468039.05148
  21796257.720   114540196.58409  21796254.220    89252119.97248
  21768814.720   114396269.75209  21768810.920    89140101.62748
  22695823.020   119267431.41409  22695817.800    92935679.45947
  22412881.320   117780516.13809  22412880.660    91777038.24048
  24525676.640   128883749.28008  24525675.800   100429092.37746
  24021134.080   126231887.35708  24021133.300    98362492.21846
 15 02 19 01 07  0.0000000  0  7G16G18G21G22G27G29G31
  21106142.220   110913537.25309  21106138.120    86426134.89848
  21789382.860   114504069.31909  21789379.460    89223968.87347
  21778951.420   114449538.82509  21778947.640    89181609.98948
  22678979.000   119178915.31809  22678973.660    92866705.91547
  22401283.020   117719566.42109  22401282.320    91729544.96248
  24539463.940   128956201.62608  24539462.980   100485548.74745
  24038949.100   126325504.55008  24038948.380    98435440.33646
 15 02 19 01 07 30.0000000  0  7G16G18G21G22G27G29G31
  21095985.640   110860164.22009  21095981.640    86384545.52448
  21782591.380   114468380.33109  21782588.100    89196159.28047
  21789127.840   114503016.48009  21789124.080    89223280.89648
  22662171.400   119090590.81509  22662166.120    92797881.64847
  22389701.000   117658703.10708  22389700.460    91682119.02648
  24553260.280   129028701.03808  24553259.100   100542041.80445
  24056764.660   126419124.35008  24056763.900    98508390.51446
 15 02 19 01 08  0.0000000  0  6G16G18G21G22G27G31
  21085912.080   110807227.02409  21085908.120    86343295.77348
  21775889.220   114433160.94209  21775886.080    89168715.63347
  21799349.480   114556731.56909  21799345.800    89265136.82748
  22645406.340   119002490.14109  22645401.080    92729231.79447
  22378141.100   117597956.16108  22378140.760    91634783.77648
  24074585.820   126512773.78008  24074585.120    98581363.76046
 15 02 19 01 08 30.0000000  0  7G16G18G19G21G22G27G31
  21075909.800   110754664.45409  21075905.880    86302337.92648
  21769264.760   114398349.74209  21769261.700    89141590.04147
  24539511.040   128955994.09405  24539504.160   100485174.71844
  21809603.960   114610619.17509  21809600.380    89307127.16648
  22628672.380   118914552.70809  22628667.200    92660709.15447
  22366591.480   117537262.83008  22366591.240    91587490.29748
  24092400.100   126606387.21308  24092399.520    98654308.98746
 15 02 19 01 09  0.0000000  0  7G16G18G19G21G22G27G31
  21065970.800   110702434.54909  21065966.900    86261639.29748
  21762709.720   114363903.36309  21762706.720    89114748.72748
  24524739.480   128878367.15405  24524733.720   100424682.12443
  21819882.400   114664632.74209  21819878.900    89349215.65548
  22611961.560   118826737.09509  22611956.480    92592281.43247
  22355043.700   117476578.79108  22355043.480    91540204.06048
  24110198.420   126699916.84908  24110197.800    98727188.90446
 15 02 19 01 09 30.0000000  0  7G16G18G19G21G22G27G31
  21056134.840   110650746.49509  21056131.020    86221362.88748
  21756263.900   114330030.57109  21756260.920    89088354.36247
  24510000.760   128800913.52305  24509996.020   100364333.74942
  21830223.940   114718977.70209  21830220.420    89391562.36948
  22595313.860   118739252.95709  22595308.920    92524111.99647
  22343537.160   117416111.55209  22343536.880    91493086.74148
  24128019.780   126793567.25908  24128019.040    98800162.93246
 15 02 19 01 10  0.0000000  0  7G16G18G19G21G22G27G31
  21046368.920   110599426.71009  21046365.200    86181373.44648
  21749894.240   114296557.54809  21749891.140    89062271.50447
  24495261.500   128723457.82105  24495257.820   100303987.76543
  21840594.820   114773476.82309  21840591.220    89434029.21348
  22578696.280   118651927.09809  22578691.480    92456065.91147
  22332038.500   117355685.77608  22332038.140    91446001.72548
  24145830.140   126887160.05608  24145829.560    98873092.14446
 15 02 19 01 10 30.0000000  0  7G16G18G19G21G22G27G31
  21036676.660   110548494.13109  21036673.020    86141685.73348
  21743604.140   114263502.29009  21743600.860    89036514.17648
  24480524.780   128646016.87005  24480521.260   100243644.24943
  21850997.980   114828145.58509  21850994.300    89476628.24848
  22562112.640   118564779.44409  22562107.820    92388158.67147
  22320551.000   117295318.73709  22320550.640    91398962.49048
  24163632.140   126980709.16208  24163631.600    98945987.40846
 15 02 19 01 11  0.0000000  0  7G16G18G19G21G22G27G31
  21027065.720   110497988.78909  21027062.140    86102330.91548
  21737401.080   114230904.12509  21737397.620    89011113.02148
  24465797.920   128568628.30105  24465794.060   100183341.51744
  21861440.260   114883019.82109  21861436.440    89519387.38148
  22545570.540   118477850.68209  22545565.860    92320422.00447
  22309081.980   117235048.55409  22309081.640    91351998.73048
  24181432.520   127074249.81808  24181432.080    99018876.07446
 15 02 19 01 11 30.0000000  0  7G16G18G19G21G22G27G31
  21017537.460   110447917.58909  21017533.900    86063314.39348
  21731286.120   114198768.91609  21731282.520    88986072.61048
  24451081.960   128491296.95705  24451079.080   100123083.35244
  21871922.240   114938102.70409  21871918.240    89562309.10648
  22529071.380   118391147.67009  22529066.680    92252861.24247
  22297632.360   117174880.17909  22297631.980    91305114.31248
  24199231.480   127167783.61908  24199231.180    99091759.40946
 15 02 19 01 12  0.0000000  0  7G16G18G19G21G22G27G31
  21008089.160   110398266.36409  21008085.640    86024625.11948
  21725256.400   114167081.85809  21725252.760    88961381.40548
  24436373.960   128414006.24706  24436371.600   100062856.93744
  21882440.460   114993376.23609  21882436.360    89605379.38348
  22512612.560   118304657.02309  22512608.000    92185465.95747
  22286199.140   117114797.69809  22286198.620    91258296.79548
  24217025.620   127261291.84908  24217025.340    99164622.89846
 15 02 19 01 12 30.0000000  0  7G16G18G19G21G22G27G31
  20998720.820   110349035.24209  20998717.360    85986263.21248
  21719311.760   114135842.12309  21719308.120    88937038.76648
  24421673.600   128336754.70806  24421670.700   100002660.95843
  21892994.260   115048836.65409  21892990.080    89648595.29448
  22496194.420   118218379.72209  22496189.900    92118236.91847
  22274781.960   117054799.50809  22274781.220    91211544.97248
  24234813.880   127354769.71808  24234813.760    99237462.71446
 15 02 19 01 13  0.0000000  0  7G16G18G19G21G22G27G31
  20989433.520   110300230.07809  20989430.140    85948233.21548
  21713453.200   114105055.38709  21713449.600    88913049.11748
  24406981.220   128259545.99806  24406977.520    99942498.39443
  21903583.860   115104485.33309  21903579.620    89691957.90748
  22479818.080   118132321.72609  22479813.540    92051178.77947
  22263381.580   116994889.64709  22263380.680    91164861.98048
  24252596.480   127448217.45208  24252596.660    99310278.89846
 15 02 19 01 13 30.0000000  0  7G16G18G19G21G22G27G31
  20980227.220   110251850.77109  20980223.960    85910535.06648
  21707680.600   114074720.70309  21707677.200    88889411.71048
  24392296.660   128182378.39306  24392292.080    99882367.87343
  21914208.880   115160319.98709  21914204.580    89735465.43448
  22463483.740   118046483.91709  22463479.180    91984292.19448
  22251997.640   116935066.48609  22251996.720    91118246.55148
  24270372.500   127541630.70208  24270372.780    99383068.25846
 15 02 19 01 14  0.0000000  0  7G16G18G19G21G22G27G31
  20971102.720   110203901.51809  20971099.560    85873172.00648
  21701994.640   114044841.47809  21701991.380    88866129.21648
  24377620.280   128105253.63806  24377615.320    99822270.70144
  21924869.080   115216339.68209  21924864.760    89779117.14748
  22447192.280   117960871.17309  22447187.580    91917580.98647
  22240630.580   116875332.51309  22240629.740    91071700.63148
  24288141.840   127635008.94608  24288142.240    99455830.28446
 15 02 19 01 14 30.0000000  0  7G16G18G19G21G22G27G31
  20962060.400   110156384.33109  20962057.320    85836145.63148
  21696395.580   114015418.87609  21696392.340    88843202.51748
  24362952.160   128028171.94206  24362947.180    99762207.07144
  21935564.440   115272544.13409  21935560.040    89822912.81948
  22430944.060   117875485.89609  22430939.220    91851047.03047
  22229280.480   116815687.99509  22229279.780    91025224.39548
  24305904.020   127728349.41408  24305904.680    99528563.02646
 15 02 19 01 15  0.0000000  0  7G16G18G19G21G22G27G31
  20953101.120   110109303.16709  20953098.040    85799459.00848
  21690884.060   113986456.13109  21690880.820    88820634.15548
  24348292.580   127951135.11106  24348287.480    99702178.45543
  21946294.820   115328932.62709  21946290.380    89866851.90148
  22414740.000   117790332.87509  22414735.260    91784694.04847
  22217947.860   116756135.20609  22217947.260    90978819.64248
  24323658.900   127821651.30808  24323659.520    99601265.67846
 15 02 19 01 15 30.0000000  0  7G16G18G19G21G22G27G31
  20944225.400   110062660.82109  20944222.260    85763114.32448
  21685460.520   113957955.29709  21685457.220    88798425.71948
  24333641.540   127874143.86806  24333636.680    99642185.34443
  21957059.940   115385503.69109  21957055.460    89910933.25748
  22398580.680   117705415.19109  22398576.060    91718524.45648
  22206633.020   116696675.20209  22206632.400    90932487.18448
  24341405.940   127914912.01508  24341406.420    99673936.32446
 15 02 19 01 16  0.0000000  0  7G16G18G19G21G22G27G31
  20935433.100   110016456.81509  20935429.900    85727111.20048
  21680124.600   113929914.87409  21680121.220    88776576.06148
  24318998.420   127797195.69406  24318993.740    99582225.76844
  21967859.080   115442253.92509  21967854.680    89955154.21348
  22382466.160   117620732.91209  22382461.620    91652538.28147
  22195335.460   116637305.78409  22195334.720    90886225.31948
  24359144.300   128008127.09808  24359144.700    99746571.52145
 15 02 19 01 16 30.0000000  0  7G16G18G19G21G22G27G31
  20926724.760   109970693.89309  20926721.460    85691451.77648
  21674876.660   113902336.48709  21674873.120    88755086.41948
  24304363.740   127720291.25306  24304359.340    99522300.26644
  21978692.120   115499182.53109  21978687.880    89999514.17048
  22366397.140   117536289.60509  22366392.700    91586738.34148
  22184055.280   116578028.13809  22184054.500    90840034.95848
  24376873.420   128101294.07408  24376873.540    99819169.25445
 15 02 19 01 17  0.0000000  0  7G16G18G19G21G22G27G31
  20918100.260   109925371.77309  20918096.960    85656135.84048
  21669716.540   113875219.41409  21669712.840    88733956.24148
  24289737.220   127643428.60907  24289732.780    99462407.39044
  21989558.280   115556285.22009  21989554.240    90044009.76248
  22350373.660   117452085.72009  22350369.220    91521124.95748
  22172792.140   116518840.50809  22172791.500    90793914.74348
  24394592.320   128194407.59307  24394592.380    99891725.17245
 15 02 19 01 17 30.0000000  0  7G16G18G19G21G22G27G31
  20909560.160   109880493.22909  20909556.880    85621165.55248
  21664644.620   113848565.92709  21664640.820    88713187.30048
  24275118.960   127566608.90507  24275114.660    99402547.91844
  22000457.460   115613561.34209  22000453.540    90088640.51248
  22334396.420   117368124.78609  22334391.980    91455700.89348
  22161546.280   116459744.04009  22161545.780    90747865.56548
  24412300.880   128287466.42207  24412300.800    99964238.65245
 15 02 19 01 18  0.0000000  0  7G16G18G19G21G22G27G31
  20901105.700   109836064.70309  20901102.420    85586545.92248
  21659661.820   113822380.96509  21659658.020    88692783.43848
  24260509.580   127489835.94307  24260505.260    99342724.87944
  22011390.120   115671013.38309  22011386.280    90133408.33248
  22318466.720   117284413.66609  22318462.240    91390471.46748
  22150318.760   116400743.31309  22150318.280    90701890.98148
  24429999.180   128380471.84508  24429999.180   100036710.43446
 15 02 19 01 18 30.0000000  0  7G16G18G19G21G22G27G31
  20892736.180   109792082.54909  20892732.900    85552274.11948
  21654767.400   113796660.95909  21654763.700    88672741.89048
  24245908.080   127413104.48507  24245903.920    99282934.20044
  22022354.980   115728634.42709  22022351.140    90178307.84748
  22302583.980   117200949.51709  22302579.380    91325434.48447
  22139108.640   116341833.50109  22139108.140    90655987.23848
  24447685.700   128473415.51308  24447685.540   100109134.07446
 15 02 19 01 19  0.0000000  0  7G16G18G19G21G22G27G31
  20884452.540   109748551.71409  20884449.240    85518353.97948
  21649962.060   113771409.55409  21649958.520    88653065.48248
  24231315.060   127336417.60707  24231311.040    99223178.23344
  22033352.160   115786425.58408  22033348.460    90223339.91548
  22286749.220   117117737.75909  22286744.500    91260594.17648
  22127916.460   116283017.77509  22127915.820    90610156.80448
  24465360.560   128566297.95008  24465360.600   100181510.03045
 15 02 19 01 19 30.0000000  0  7G16G18G19G21G22G27G31
  20876255.440   109705475.59209  20876252.080    85484788.17248
  21645246.300   113746628.84309  21645242.880    88633755.84948
  24216730.720   127259776.78807  24216726.580    99163458.19444
  22044381.580   115844386.16509  22044378.040    90268504.00148
  22270963.260   117034782.51309  22270958.560    91195953.75148
  22116742.460   116224297.90909  22116741.800    90564401.07848
  24483023.400   128659117.12408  24483023.420   100253836.59545
 15 02 19 01 20  0.0000000  0  7G16G18G19G21G22G27G31
  20868144.820   109662854.05709  20868141.380    85451576.58848
  21640620.060   113722318.18209  21640616.740    88614812.48548
  24202154.700   127183180.10307  24202150.800    99103772.50244
  22055442.760   115902513.32909  22055439.400    90313797.89748
  22255226.260   116952084.27409  22255221.540    91131513.59048
  22105586.360   116165672.32609  22105585.680    90518718.82448
  24500673.580   128751869.08608  24500673.760   100326110.92944
 15 02 19 01 20 30.0000000  0  7G16G18G19G21G22G27G31
  20860121.080   109620689.02109  20860117.560    85418720.71048
  21636083.540   113698478.81309  21636080.220    88596236.36048
  24187587.000   127106627.44207  24187583.440    99044121.12844
  22066535.320   115960804.82109  22066532.020    90359219.84048
  22239538.680   116869645.63209  22239533.940    91067275.70548
  22094448.340   116107141.67309  22094447.580    90473110.51548
  24518310.340   128844550.67007  24518310.440   100398330.29045
 15 02 19 01 21  0.0000000  0  7G16G18G19G21G22G27G31
  20852184.680   109578982.71309  20852181.080    85386222.28248
  21631636.840   113675111.64709  21631633.500    88578028.19248
  24173027.780   127030119.10007  24173024.360    98984504.27045
  22077658.960   116019259.46009  22077655.640    90404768.90548
  22223901.020   116787469.32409  22223896.220    91003242.24147
  22083328.540   116048706.43009  22083327.720    90427576.57448
  24535933.380   128937159.86808  24535933.500   100470493.31046
 15 02 19 01 21 30.0000000  0  7G16G18G19G21G22G27G31
  20844336.180   109537737.94509  20844332.480    85354083.50948
  21627280.460   113652219.20909  21627277.240    88560189.94548
  24158477.260   126953656.37907  24158473.640    98924922.97444
  22088813.600   116077876.65609  22088810.220    90450444.63048
  22208314.040   116705559.48809  22208309.180    90939416.41747
  22072227.200   115990368.23709  22072226.280    90382118.25648
  24553542.180   129029694.52408  24553542.400   100542598.13846
 15 02 19 01 22  0.0000000  0  7G16G18G19G21G22G27G31
  20836575.140   109496952.64709  20836571.340    85322302.75048
  21623013.800   113629798.31909  21623010.740    88542719.14348
  24143934.800   126877235.48307  24143931.120    98865374.24845
  22099998.160   116136651.22209  22099994.700    90496242.99748
  22192777.460   116623914.36209  22192772.480    90875796.85748
  22061143.600   115932123.46509  22061142.620    90336732.74848
  24571135.680   129122148.54608  24571135.980   100614640.25245
 15 02 19 01 22 30.0000000  0  7G16G18G19G21G22G27G31
  20828902.640   109456632.70209  20828898.800    85290884.61548
  21618837.800   113607853.52509  21618834.840    88525619.31148
  24129401.060   126800860.21607  24129397.320    98805861.09744
  22111213.040   116195585.21209  22111209.440    90542165.57548
  22177292.600   116542540.72309  22177287.420    90812388.84948
  22050078.500   115873976.35108  22050077.580    90291423.32048
  24588713.960   129214523.20508  24588714.320   100686620.55846
 15 02 19 01 23  0.0000000  0  7G16G18G19G21G22G27G31
  20821318.880   109416779.37209  20821315.060    85259830.08048
  21614752.600   113586385.29409  21614749.580    88508890.82648
  24114875.940   126724530.04307  24114871.920    98746383.08345
  22122457.720   116254676.22109  22122454.060    90588210.52548
  22161859.740   116461440.22309  22161854.320    90749193.68147
  22039031.900   115815926.91409  22039031.140    90246190.03448
  24606276.320   129306814.17608  24606276.680   100758535.37445
 15 02 19 01 23 30.0000000  0  7G16G18G19G21G22G27G31
  20813824.160   109377394.03009  20813820.360    85229140.20348
  21610758.300   113565394.12609  21610755.100    88492534.06948
  24100359.260   126648244.39607  24100355.020    98686939.76645
  22133731.760   116313922.02609  22133728.140    90634376.08648
  22146479.240   116380614.93009  22146473.720    90686212.93548
  22028003.820   115757974.95809  22028003.260    90201032.68748
  24623822.360   129399019.17607  24623822.760   100830383.37445
 15 02 19 01 24  0.0000000  0  7G16G18G19G21G22G27G31
  20806418.420   109338476.61409  20806414.680    85198814.96248
  21606854.820   113544879.86309  21606851.420    88476548.94348
  24085850.840   126572002.74107  24085846.460    98627530.72545
  22145034.720   116373319.95809  22145031.180    90680660.19448
  22131151.380   116300066.37909  22131145.840    90623447.86348
  22016994.240   115700119.77709  22016993.780    90155950.74548
  24641351.300   129491133.90407  24641351.740   100902161.00345
 15 02 19 01 24 30.0000000  0  7G16G18G19G21G22G27G31
  20799102.520   109300031.49709  20799098.780    85168857.72648
  21603042.660   113524845.47109  21603039.040    88460937.73148
  24071351.100   126495806.57407  24071346.920    98568157.13045
  22156366.660   116432870.16209  22156363.280    90727062.94248
  22115877.020   116219799.05709  22115871.600    90560901.91748
  22006003.720   115642364.03309  22006003.240    90110946.27048
  24658863.060   129583158.26208  24658863.540   100973868.21346
 15 02 19 01 25  0.0000000  0  7G16G18G19G21G22G27G31
  20791877.000   109262061.48509  20791873.260    85139270.70448
  21599321.940   113505292.15409  21599318.260    88445701.40348
  24056860.160   126419656.37507  24056856.240    98508819.34745
  22167727.420   116492571.71008  22167724.180    90773583.63248
  22100656.640   116139815.69109  22100651.380    90498577.24247
  21995032.380   115584708.58009  21995031.800    90066019.95748
  24676357.180   129675089.95508  24676357.700   101045503.25745
 15 02 19 01 25 30.0000000  0  7G16G18G19G21G22G27G31
  20784741.460   109224564.62909  20784737.780    85110052.38748
  21595692.240   113486217.55009  21595688.520    88430838.08148
  24042377.500   126343549.18608  24042373.600    98449515.08745
  22179116.100   116552419.79909  22179112.860    90820218.50848
  22085490.260   116060116.01809  22085485.080    90436473.62248
  21984079.580   115527150.57309  21984078.960    90021169.56848
  24693832.480   129766922.81908  24693833.060   101117061.30246
 15 02 19 01 26  0.0000000  0  6G16G18G19G21G22G27
  20777695.360   109187537.62809  20777691.680    85081200.17248
  21592152.700   113467617.18309  21592149.040    88416344.30748
  24027902.160   126267480.19307  24027898.160    98390240.59045
  22190531.560   116612407.74209  22190528.160    90866962.35748
  22070377.380   115980697.19309  22070372.200    90374588.85148
  21973144.400   115469685.59109  21973143.800    89976391.67248
 15 02 19 01 26 30.0000000  0  6G16G18G19G21G22G27
  20770742.120   109150998.62809  20770738.480    85052728.22048
  21588706.640   113449508.28609  21588703.040    88402233.48748
  24013437.200   126191465.81108  24013433.180    98331008.64545
  22201976.440   116672550.05109  22201972.800    90913826.48848
  22055321.520   115901577.93309  22055316.260    90312937.50348
  21962229.960   115412330.28709  21962229.520    89931699.24848
 15 02 19 01 27  0.0000000  0  6G16G18G19G21G22G27
  20763881.000   109114943.37509  20763877.400    85024633.21848
  21585353.200   113431886.17409  21585349.680    88388501.99148
  23998981.380   126115499.92508  23998977.200    98271814.48946
  22213449.340   116732839.49409  22213445.440    90960805.27948
  22040322.120   115822755.18109  22040316.700    90251517.20348
  21951335.280   115355079.39009  21951335.000    89887088.18848
 15 02 19 01 27 30.0000000  0  6G16G18G19G21G22G27
  20757111.940   109079371.69009  20757108.380    84996915.02648
  21582092.060   113414749.30609  21582088.600    88375148.59848
  23984534.360   126039580.91107  23984530.160    98212656.83246
  22224949.440   116793272.24409  22224945.380    91007895.74048
  22025379.160   115744229.17509  22025373.580    90190328.13848
  21940460.260   115297931.41509  21940460.060    89842557.30548
 15 02 19 01 28  0.0000000  0  6G16G18G19G21G22G27
  20750435.060   109044284.30209  20750431.540    84969574.19648
  21578923.220   113398097.44409  21578919.860    88362173.12948
  23970096.060   125963707.92108  23970091.900    98153535.07145
  22236476.360   116853846.42309  22236472.280    91055096.39148
  22010493.000   115666001.81909  22010487.360    90129371.76148
  21929604.860   115240885.91309  21929604.560    89798106.26948
 15 02 19 01 28 30.0000000  0  6G16G18G19G21G22G27
  20743850.580   109009682.51609  20743847.140    84942611.77148
  21575846.600   113381930.47509  21575843.340    88349575.51348
  23955666.400   125887880.30208  23955662.340    98094448.66245
  22248029.680   116914559.49509  22248025.600    91102405.27647
  21995663.960   115588074.76409  21995658.300    90068649.39748
  21918768.980   115183942.79609  21918768.620    89753735.01848
 15 02 19 01 29  0.0000000  0  6G16G18G19G21G22G27
  20737358.860   108975568.43609  20737355.520    84916029.37048
  21572862.620   113366250.38409  21572859.400    88337357.27148
  23941245.740   125812099.27208  23941241.800    98035398.52946
  22259609.180   116975410.48309  22259605.100    91149821.62447
  21980892.720   115510451.49709  21980887.080    90008163.75348
  21907952.920   115127103.52509  21907952.480    89709444.69848
 15 02 19 01 29 30.0000000  0  6G16G18G19G21G22G27
  20730960.400   108941944.66709  20730957.180    84889829.03048
  21569971.480   113351058.26609  21569968.320    88325519.26148
  23926834.120   125736365.37708  23926830.300    97976385.13846
  22271214.760   117036398.29909  22271210.680    91197344.59447
  21966179.800   115433134.89909  21966174.320    89947917.06948
  21897156.880   115070369.09809  21897156.280    89665236.05448
 15 02 19 01 30  0.0000000  0  6G16G18G19G21G22G27
  20724655.440   108908812.08909  20724652.300    84864011.43948
  21567173.160   113336353.66209  21567170.080    88314061.13848
  23912431.360   125660678.01908  23912427.420    97917408.01046
  22282846.040   117097521.05209  22282841.900    91244972.70047
  21951525.620   115356126.86809  21951520.240    89887910.83248
  21886380.800   115013739.40709  21886380.000    89621109.04448
 15 02 19 01 30 30.0000000  0  6G16G18G19G21G22G27
  20718444.560   108876173.94409  20718441.500    84838579.11849
  21564468.220   113322139.48009  21564465.240    88302985.16248
  23898037.760   125585038.82208  23898033.580    97858468.40746
  22294502.940   117158778.56709  22294498.720    91292705.81247
  21936930.840   115279431.33309  21936925.600    89828148.09848
  21875624.960   114957216.52909  21875623.960    89577065.25348
 15 02 19 01 31  0.0000000  0  6G16G18G19G21G22G27
  20712327.520   108844028.81609  20712324.500    84813530.97249
  21561856.200   113308413.02809  21561853.200    88292289.25048
  23883652.840   125509445.12408  23883648.500    97799564.26746
  22306184.580   117220166.26209  22306180.260    91340540.37647
  21922395.360   115203047.43509  21922390.280    89768628.19448
  21864888.860   114900798.02709  21864887.860    89533102.78848
 15 02 19 01 31 30.0000000  0  6G16G18G19G21G22G27
  20706305.660   108812383.62009  20706302.660    84788872.37249
  21559338.240   113295180.55209  21559335.160    88281978.23248
  23869277.520   125433902.49708  23869273.240    97740699.92746
  22317891.740   117281688.19209  22317887.400    91388479.53247
  21907920.800   115126983.67109  21907915.840    89709357.74548
  21854173.680   114844489.97209  21854172.720    89489226.39048
 15 02 19 01 32  0.0000000  0  6G16G18G19G21G22G27
  20700378.900   108781238.10209  20700375.880    84764603.14349
  21556914.020   113282440.51409  21556910.800    88272050.94248
  23854911.520   125358408.95708  23854907.360    97681873.82746
  22329623.720   117343340.83809  22329619.500    91436520.54747
  21893507.280   115051240.43609  21893502.360    89650337.05648
  21843479.240   114788290.82609  21843478.380    89445434.86048
 15 02 19 01 32 30.0000000  0  6G16G18G19G21G22G27
  20694547.140   108750591.37609  20694544.000    84740722.57449
  21554583.040   113270190.69509  21554579.760    88262505.63748
  23840554.340   125282962.32608  23840550.300    97623084.30247
  22341379.680   117405119.40308  22341375.600    91484659.68048
  21879154.640   114975817.22409  21879149.720    89591565.73448
  21832805.200   114732198.69809  21832804.420    89401726.71748
 15 02 19 01 33  0.0000000  0  6G16G18G19G21G22G27
  20688811.120   108720447.73609  20688807.840    84717234.02949
  21552345.920   113258434.38209  21552342.720    88253344.89048
  23826206.660   125207565.05008  23826202.600    97564333.21546
  22353160.060   117467026.14308  22353156.140    91532898.70247
  21864863.880   114900719.30109  21864859.000    89533047.88748
  21822152.180   114676216.84209  21822151.500    89358104.51448
 15 02 19 01 33 30.0000000  0  6G16G18G19G21G22G27
  20683170.640   108690806.24909  20683167.240    84694136.76849
  21550202.380   113247169.80409  21550199.180    88244567.30548
  23811868.020   125132215.11708  23811863.960    97505618.99846
  22364964.020   117529056.70309  22364960.300    91581234.20147
  21850635.080   114825946.86509  21850630.240    89474783.68048
  21811519.800   114620343.53909  21811519.160    89314566.89248
 15 02 19 01 34  0.0000000  0  6G16G18G19G21G22G27
  20677626.020   108661668.90609  20677622.520    84671432.34749
  21548152.600   113236398.16909  21548149.500    88236173.82348
  23797538.620   125056913.45708  23797534.540    97446942.40846
  22376791.340   117591209.90209  22376787.760    91629665.24947
  21836468.760   114751502.52709  21836463.900    89416775.12148
  21800908.300   114564579.89609  21800907.720    89271114.70048
 15 02 19 01 34 30.0000000  0  6G16G18G19G21G22G27
  20672177.560   108633037.22609  20672174.020    84649121.94149
  21546196.680   113226119.66609  21546193.640    88228164.60648
  23783218.420   124981659.83508  23783214.160    97388303.26346
  22388641.840   117653484.67309  22388638.260    91678191.05147
  21822365.460   114677388.88309  21822360.540    89359024.25248
  21790317.800   114508926.39809  21790317.120    89227748.35648
 15 02 19 01 35  0.0000000  0  6G16G18G19G21G22G27
  20666825.600   108604912.95409  20666822.120    84627206.92848
  21544334.720   113216335.03209  21544331.720    88220540.22648
  23768907.400   124906454.78908  23768902.940    97329701.96146
  22400515.300   117715879.44609  22400511.620    91726810.34047
  21808325.600   114603608.35109  21808320.600    89301532.93248
  21779748.460   114453384.00509  21779747.740    89184468.57148
 15 02 19 01 35 30.0000000  0  6G16G18G19G21G22G27
  20661570.800   108577299.23809  20661567.380    84605689.75349
  21542567.040   113207046.11009  21542564.140    88213302.12848
  23754605.940   124831300.25108  23754601.480    97271140.00446
  22412411.620   117778393.87409  22412407.720    91775522.88747
  21794349.900   114530164.94709  21794344.800    89244304.32048
  21769200.680   114397954.74709  21769199.880    89141276.95948
 15 02 19 01 36  0.0000000  0  6G16G18G19G21G22G27
  20656413.820   108550199.49809  20656410.500    84584573.07149
  21540894.160   113198255.44009  21540891.360    88206452.25048
  23740314.320   124756197.91408  23740310.120    97212618.73846
  22424330.880   117841028.94609  22424326.800    91824329.40347
  21780439.140   114457062.78209  21780433.940    89187341.60248
  21758674.900   114342641.27909  21758674.080    89098175.55748
 15 02 19 01 36 30.0000000  0  6G16G18G19G21G22G27
  20651354.360   108523611.84609  20651351.080    84563855.42249
  21539315.580   113189960.16909  21539312.800    88199988.42448
  23726032.180   124681144.97508  23726028.080    97154135.94646
  22436272.120   117903779.72409  22436267.880    91873226.11148
  21766593.240   114384301.62709  21766587.980    89130644.61148
  21748170.620   114287441.00209  21748169.820    89055162.36648
 15 02 19 01 37  0.0000000  0  6G16G18G19G21G22G27
  20646392.360   108497536.24409  20646389.100    84543536.76949
  21537831.120   113182159.38409  21537828.300    88193909.89448
  23711759.280   124606140.11708  23711755.080    97095690.61847
  22448234.660   117966642.94409  22448230.380    91922210.42447
  21752812.320   114311882.12209  21752807.040    89074213.84248
  21737687.680   114232353.03009  21737686.940    89012236.67048
 15 02 19 01 37 30.0000000  0  6G16G18G19G21G22G27
  20641528.780   108471977.72809  20641525.480    84523621.04049
  21536441.520   113174857.05309  21536438.620    88188219.77448
  23697496.300   124531187.30708  23697491.880    97037285.87046
  22460219.020   118029621.28609  22460214.840    91971284.45647
  21739097.540   114239810.24109  21739092.160    89018053.95548
  21727226.960   114177381.95409  21727226.340    88969402.08748
 15 02 19 01 38  0.0000000  0  6G16G18G19G21G22G27
  20636763.760   108446937.01609  20636760.380    84504108.79549
  21535146.660   113168052.77209  21535143.700    88182917.74748
  23683243.100   124456286.13508  23683238.460    96978921.34246
  22472224.960   118092713.24409  22472220.940    92020447.01948
  21725449.120   114168087.46209  21725443.760    88962166.09648
  21716788.480   114122527.72109  21716787.920    88926658.53948
 15 02 19 01 38 30.0000000  0  6G16G18G19G21G22G27
  20632097.820   108422417.03109  20632094.300    84485002.30948
  21533946.820   113161748.00209  21533943.820    88178004.94948
  23668999.840   124381437.65108  23668995.260    96920597.86647
  22484252.180   118155917.15609  22484248.360    92069696.79647
  21711867.720   114096717.09409  21711862.380    88906552.82848
  21706372.500   114067791.72309  21706371.940    88884007.11548
 15 02 19 01 39  0.0000000  0  6G16G18G19G21G22G27
  20627530.600   108398416.15209  20627527.020    84466300.31748
  21532841.520   113155940.03709  21532838.500    88173479.26848
  23654766.100   124306639.43608  23654761.600    96862313.54947
  22496300.040   118219229.46908  22496296.360    92119031.05547
  21698353.300   114025698.86509  21698348.000    88851213.96548
  21695978.700   114013172.09809  21695978.100    88841446.36848
 15 02 19 01 39 30.0000000  0  6G16G18G19G21G22G27
  20623062.920   108374938.33209  20623059.260    84448005.91649
  21531831.520   113150632.50309  21531828.400    88169343.54048
  23640542.540   124231894.69908  23640538.240    96804070.93747
  22508368.780   118282651.50609  22508365.180    92168450.82347
  21684906.880   113955037.92209  21684901.620    88796153.50048
  21685607.820   113958672.67209  21685607.120    88798979.29748
 15 02 19 01 40  0.0000000  0  6G16G18G19G21G22G27
  20618694.140   108351980.33809  20618690.480    84430116.56449
  21530915.840   113145820.58009  21530912.620    88165593.99848
  23626328.320   124157198.54008  23626324.080    96745866.15647
  22520457.060   118346176.37008  22520453.600    92217950.71047
  21671528.040   113884731.94509  21671522.800    88741369.64148
  21675258.960   113904288.90109  21675258.220    88756602.33748
 15 02 19 01 40 30.0000000  0  6G16G18G19G21G22G27
  20614425.480   108329548.52009  20614421.840    84412637.23349
  21530095.420   113141509.30709  21530092.160    88162234.57948
  23612124.380   124082556.09208  23612120.140    96687703.23147
  22532565.780   118409808.78708  22532562.480    92267534.40447
  21658218.100   113814787.68609  21658212.900    88686867.63948
  21664933.180   113850026.37209  21664932.360    88714319.85748
 15 02 19 01 41  0.0000000  0  6G16G18G19G21G22G27
  20610257.020   108307643.27809  20610253.460    84395568.20549
  21529370.180   113137698.26109  21529366.880    88159264.94148
  23597930.640   124007967.21708  23597926.400    96629582.04447
  22544694.440   118473546.04808  22544691.240    92317199.78847
  21644977.360   113745207.13009  21644972.180    88632649.04848
  21654630.440   113795885.35509  21654629.700    88672132.06148
 15 02 19 01 41 30.0000000  0  6G16G18G19G21G22G27
  20606188.380   108286262.52209  20606184.900    84378907.87049
  21528739.560   113134384.35109  21528736.280    88156682.68048
  23583746.500   123933428.93508  23583742.140    96571500.29847
  22556842.200   118537383.31808  22556838.960    92366943.10547
  21631805.500   113675988.63609  21631800.380    88578712.58248
  21644350.240   113741863.09909  21644349.600    88630036.82148
 15 02 19 01 42  0.0000000  0  6G16G18G19G21G22G27
  20602220.180   108265409.84809  20602216.840    84362659.02949
  21528204.100   113131570.33509  21528200.800    88154489.94848
  23569572.440   123858943.66808  23569567.920    96513459.86147
  22569009.180   118601321.51608  22569005.960    92416765.05747
  21618703.580   113607137.84409  21618698.540    88525062.63748
  21634093.260   113687962.93609  21634092.800    88588036.70348
 15 02 19 01 42 30.0000000  0  6G16G18G19G21G22G27
  20598352.960   108245087.97709  20598349.760    84346823.80349
  21527763.920   113129257.26309  21527760.640    88152687.56248
  23555408.760   123784512.80608  23555404.180    96455461.79547
  22581195.340   118665360.31409  22581192.060    92466665.41047
  21605672.180   113538657.69609  21605667.180    88471701.50148
  21623859.900   113634186.57309  21623859.500    88546133.05648
 15 02 19 01 43  0.0000000  0  6G16G18G19G21G22G27
  20594587.060   108225298.30209  20594583.940    84331403.27849
  21527419.060   113127445.31109  21527415.860    88151275.66648
  23541255.560   123710136.90508  23541250.900    96397506.57046
  22593400.660   118729499.23308  22593397.320    92516643.78747
  21592711.720   113470550.17409  21592706.680    88418630.71048
  21613650.380   113580534.83209  21613649.920    88504326.50248
 15 02 19 01 43 30.0000000  0  6G16G18G19G21G22G27
  20590922.360   108206040.12809  20590919.200    84316396.91249
  21527169.220   113126132.96809  21527166.160    88150253.06948
  23527112.360   123635814.02908  23527107.460    96339592.64947
  22605624.380   118793734.68409  22605620.940    92566697.39447
  21579822.340   113402815.99609  21579817.220    88365850.85448
  21603464.380   113527006.75109  21603463.880    88462616.33248
 15 02 19 01 44  0.0000000  0  6G16G18G19G21G22G27
  20587359.760   108187318.22409  20587356.460    84301808.41749
  21527015.320   113125324.51309  21527012.360    88149623.10648
  23512980.020   123561548.79108  23512975.240    96281723.67547
  22617866.820   118858068.37909  22617863.200    92616827.53747
  21567005.220   113335461.71509  21567000.120    88313367.01948
  21593302.800   113473607.16709  21593302.300    88421006.28748
 15 02 19 01 44 30.0000000  0  6G16G18G19G21G22G27
  20583898.620   108169129.23009  20583895.120    84287635.16849
  21526956.420   113125014.79109  21526953.420    88149381.77148
  23498857.920   123487336.43108  23498853.380    96223895.87647
  22630126.960   118922495.28209  22630123.200    92667030.31047
  21554259.840   113268484.23009  21554254.740    88261176.77648
  21583164.840   113420331.75709  21583164.320    88379492.98848
 15 02 19 01 45  0.0000000  0  6G16G18G19G21G22G27
  20580539.300   108151475.40809  20580535.600    84273878.93649
  21526992.720   113125204.74509  21526989.540    88149529.79148
  23484746.100   123413178.24508  23484741.520    96166110.29447
  22642404.700   118987014.62909  22642400.860    92717305.12047
  21541586.740   113201886.50909  21541581.720    88209282.46248
  21573050.880   113367182.24909  21573050.240    88338077.80448
 15 02 19 01 45 30.0000000  0  6G16G18G19G21G22G27
  20577282.260   108134359.29009  20577278.460    84260541.69949
  21527124.480   113125896.22909  21527121.160    88150068.61648
  23470644.980   123339076.35908  23470640.380    96108368.57947
  22654699.920   119051626.02509  22654696.000    92767651.65747
  21528986.640   113135672.62609  21528981.700    88157687.24248
  21562961.360   113314160.98609  21562960.520    88296762.53648
 15 02 19 01 46  0.0000000  0  6G16G18G19G21G22G27
  20574127.520   108117781.15109  20574123.720    84247623.66449
  21527351.580   113127088.95409  21527348.140    88150998.02648
  23456554.440   123265030.25108  23456549.800    96050670.33747
  22667012.400   119116328.14309  22667008.300    92818068.89147
  21516459.860   113069844.17609  21516455.040    88106392.35548
  21552896.360   113261268.32009  21552895.320    88255547.47848
 15 02 19 01 46 30.0000000  0  6G16G18G19G21G22G27
  20571075.500   108101742.84609  20571071.760    84235126.27548
  21527674.060   113128783.11709  21527670.580    88152318.15748
  23442474.580   123191040.40808  23442469.940    95993015.92647
  22679341.960   119181120.06009  22679337.760    92868556.09347
  21504006.940   113004403.60009  21504002.180    88055399.70648
  21542856.020   113208505.48409  21542854.880    88214433.57548
 15 02 19 01 47  0.0000000  0  6G16G18G19G21G22G27
  20568126.500   108086246.06709  20568122.860    84223050.85949
  21528091.920   113130978.71009  21528088.380    88154029.02348
  23428405.640   123117107.68408  23428400.980    95935406.02247
  22691688.340   119246000.42609  22691684.080    92919112.21647
  21491628.300   112939353.41909  21491623.560    88004711.26748
  21532840.480   113155873.47409  21532839.400    88173421.61948
 15 02 19 01 47 30.0000000  0  6G16G18G19G21G22G27
  20565281.000   108071292.93909  20565277.420    84211399.06549
  21528605.520   113133677.38609  21528601.940    88156131.88448
  23414347.840   123043234.00108  23414343.300    95877842.14147
  22704051.460   119310968.81309  22704047.180    92969736.94447
  21479324.640   112874697.17309  21479319.820    87954329.78948
  21522850.140   113103374.52409  21522849.280    88132513.35949
 15 02 19 01 48  0.0000000  0  6G16G18G19G21G22G27
  20562538.240   108056879.61709  20562534.700    84200167.90149
  21529213.900   113136874.11409  21529210.200    88158622.85948
  23400300.460   122969414.45508  23400295.920    95820320.44647
  22716430.440   119376020.69708  22716426.320    93020426.70347
  21467095.280   112810431.64709  21467090.440    87904252.78548
  21512884.340   113051004.47209  21512883.700    88091705.54349
 15 02 19 01 48 30.0000000  0  6G16G18G19G21G22G27
  20559899.340   108043012.05409  20559895.840    84189362.01048
  21529918.020   113140574.05009  21529914.320    88161505.92648
  23386264.480   122895654.81408  23386259.760    95762845.41547
  22728825.780   119441158.53809  22728821.740    93071183.44847
  21454941.860   112746565.05609  21454936.960    87854486.62348
  21502944.320   112998769.60309  21502943.760    88051003.04849
 15 02 19 01 49  0.0000000  0  6G16G18G19G21G22G27
  20557364.180   108029689.96409  20557360.740    84178981.15849
  21530717.440   113144775.20709  21530713.760    88164779.56348
  23372239.460   122821953.46208  23372234.960    95705415.82347
  22741236.880   119506379.54509  22741232.960    93122005.00647
  21442864.380   112683097.21609  21442859.360    87805031.17748
  21493029.820   112946668.68009  21493029.280    88010404.93048
 15 02 19 01 49 30.0000000  0  6G16G18G19G21G22G27
  20554932.880   108016913.70109  20554929.540    84169025.63549
  21531612.200   113149477.62009  21531608.600    88168443.79548
  23358225.460   122748310.50908  23358221.280    95648031.74747
  22753663.620   119571682.75209  22753659.820    93172890.61147
  21430863.240   112620030.17209  21430858.020    87755888.05648
  21483140.960   112894702.47009  21483140.360    87969911.79549
 15 02 19 01 50  0.0000000  0  6G16G18G19G21G22G27
  20552605.760   108004685.04909  20552602.460    84159496.80549
  21532602.320   113154681.17709  21532598.780    88172498.52348
  23344222.720   122674727.13208  23344218.520    95590694.05347
  22766105.720   119637066.40708  22766101.940    93223838.90247
  21418938.880   112557366.31209  21418933.380    87707059.07948
  21473278.000   112842872.36009  21473277.300    87929524.68948
 15 02 19 01 50 30.0000000  0  6G16G18G19G21G22G27
  20550382.280   107993000.83809  20550379.000    84150392.22549
  21533687.080   113160382.02109  21533683.620    88176940.75348
  23330230.800   122601199.45908  23330226.700    95533399.78447
  22778562.080   119702525.34208  22778558.380    93274845.85747
  21407090.840   112495103.59009  21407085.100    87658542.68948
  21463440.400   112791175.09209  21463439.580    87889241.10749
 15 02 19 01 51  0.0000000  0  6G16G18G19G21G22G27
  20548264.180   107981869.96409  20548260.820    84141718.81449
  21534867.960   113166587.80509  21534864.560    88181776.43248
  23316251.220   122527735.82108  23316246.960    95476155.39547
  22791034.280   119768067.51609  22791030.760    93325917.66147
  21395320.960   112433252.02209  21395315.020    87610346.68048
  21453629.800   112739619.57309  21453628.900    87849067.97049
 15 02 19 01 51 30.0000000  0  6G16G18G19G21G22G27
  20546250.020   107971284.95809  20546246.580    84133470.75849
  21536143.340   113173290.22509  21536140.020    88186999.10648
  23302282.560   122454328.67208  23302278.080    95418955.02547
  22803520.320   119833682.66909  22803516.960    93377046.31947
  21383628.120   112371805.65209  21383622.040    87562466.41648
  21443844.820   112688198.57309  21443843.840    87808999.66049
 15 02 19 01 52  0.0000000  0  6G16G18G19G21G22G27
  20544341.580   107961255.44709  20544338.040    84125655.54249
  21537514.700   113180497.10109  21537511.440    88192614.85648
  23288326.060   122380986.02608  23288321.600    95361804.92247
  22816021.620   119899377.59608  22816018.260    93428237.17147
  21372014.300   112310774.80509  21372008.200    87514909.91448
  21434087.100   112636921.01709  21434086.140    87769043.12449
 15 02 19 01 52 30.0000000  0  6G16G18G19G21G22G27
  20542537.840   107951776.29909  20542534.240    84118269.18549
  21538980.920   113188202.51509  21538977.720    88198619.07948
  23274380.840   122307702.83808  23274376.300    95304701.14547
  22828536.840   119965145.32909  22828533.420    93479484.76447
  21360478.800   112250155.68009  21360472.680    87467674.25348
  21424355.720   112585782.14109  21424354.780    87729194.65649
 15 02 19 01 53  0.0000000  0  6G16G18G19G21G22G27
  20540839.380   107942850.55009  20540835.740    84111314.06049
  21540542.460   113196408.62109  21540539.280    88205013.46148
  23260447.300   122234481.79608  23260442.780    95247645.81847
  22841066.160   120030987.11609  22841062.480    93530790.05047
  21349022.460   112189952.41209  21349016.420    87420762.63648
  21414651.320   112534785.00409  21414650.400    87689456.64149
 15 02 19 01 53 30.0000000  0  6G16G18G19G21G22G27
  20539246.260   107934478.40409  20539242.620    84104790.30149
  21542199.140   113205114.51709  21542195.920    88211797.28548
  23246525.520   122161322.88408  23246521.100    95190638.90347
  22853609.240   120096901.02108  22853605.380    93582151.51247
  21337645.520   112130166.50409  21337639.660    87374176.22048
  21404973.980   112483930.12609  21404973.040    87649829.46049
 15 02 19 01 54  0.0000000  0  6G16G18G19G21G22G27
  20537758.700   107926661.00809  20537755.040    84098698.82449
  21543951.020   113214320.37509  21543947.720    88218970.68148
  23232615.740   122088226.72008  23232611.340    95133680.86947
  22866165.800   120162885.74809  22866161.700    93633568.16847
  21326348.420   112070800.24509  21326342.820    87327916.81848
  21395323.900   112433218.70809  21395322.900    87610314.07748
 15 02 19 01 54 30.0000000  0  6G16G18G19G21G22G27
  20536376.720   107919398.35209  20536373.080    84093039.61149
  21545797.860   113224025.12509  21545794.400    88226532.83648
  23218717.960   122015193.23308  23218713.560    95076771.68147
  22878735.560   120228940.26709  22878731.440    93685039.17947
  21315131.420   112011854.86609  21315126.040    87281985.36748
  21385701.080   112382650.99909  21385700.100    87570910.67648
 15 02 19 01 55  0.0000000  0  6G16G18G19G21G22G27
  20535100.620   107912692.17209  20535096.980    84087814.01149
  21547739.720   113234229.25809  21547736.160    88234484.11248
  23204832.240   121942223.32408  23204827.840    95019912.03647
  22891318.440   120295063.65308  22891314.320    93736563.89147
  21303995.060   111953333.29909  21303989.820    87236384.15148
  21376105.920   112332228.66609  21376105.000    87531620.55049
 15 02 19 01 55 30.0000000  0  6G16G18G19G21G22G27
  20533930.580   107906543.43609  20533926.960    84083022.78249
  21549776.520   113244932.28909  21549772.880    88242824.14048
  23190958.680   121869317.40008  23190954.240    94963102.25847
  22903914.180   120361254.84208  22903910.120    93788141.42947
  21292939.720   111895237.46609  21292934.540    87191114.68348
  21366538.620   112281952.58309  21366537.800    87492444.38648
 15 02 19 01 56  0.0000000  0  6G16G18G19G21G22G27
  20532866.740   107900952.84309  20532863.120    84078666.47249
  21551908.240   113256134.28009  21551904.540    88251552.97548
  23177097.440   121796476.35508  23177093.060    94906343.03347
  22916522.620   120427512.81708  22916518.660    93839771.02847
  21281965.740   111837569.30809  21281960.600    87146178.46748
  21356999.420   112231824.11909  21356998.680    87453383.24548
 15 02 19 01 56 30.0000000  0  6G16G18G19G21G22G27
  20531909.280   107895921.18609  20531905.620    84074745.68649
  21554134.780   113267834.64809  21554131.080    88260670.14948
  23163248.660   121723700.53008  23163244.060    94849634.61547
  22929143.540   120493836.48908  22929139.760    93891451.77447
  21271073.480   111780330.63909  21271068.360    87101576.92548
  21347488.500   112181844.02309  21347487.780    87414437.71649
 15 02 19 01 57  0.0000000  0  6G16G18G19G21G22G27
  20531058.060   107891447.91909  20531054.340    84071260.02149
  21556455.760   113280031.47209  21556452.020    88270174.17848
  23149412.160   121650989.27909  23149407.440    94792976.52847
  22941776.480   120560223.33308  22941772.860    93943181.77947
  21260263.160   111723522.55809  21260258.140    87057310.90848
  21338005.880   112132012.19809  21338005.080    87375607.72749
 15 02 19 01 57 30.0000000  0  6G16G18G19G21G22G27
  20530313.480   107887535.07709  20530309.720    84068211.05149
  21558871.480   113292726.37409  21558867.720    88280066.32148
  23135588.260   121578344.32608  23135583.460    94736370.07547
  22954421.540   120626673.67708  22954417.960    93994961.25747
  21249535.420   111667148.09809  21249530.440    87013382.76848
  21328551.900   112082330.97509  21328551.020    87336895.09549
 15 02 19 01 58  0.0000000  0  6G16G18G19G21G22G27
  20529675.480   107884182.24909  20529671.660    84065598.44549
  21561381.620   113305917.85809  21561377.940    88290345.40448
  23121776.980   121505765.56208  23121772.200    94679815.20847
  22967078.320   120693185.36608  22967074.760    94046788.52947
  21238890.460   111611208.28209  21238885.480    86969793.31148
  21319126.580   112032800.44709  21319125.680    87298299.87749
 15 02 19 01 58 30.0000000  0  6G16G18G19G21G22G27
  20529144.460   107881391.83809  20529140.620    84063424.09149
  21563986.260   113319606.28509  21563982.700    88301011.71748
  23107978.360   121433254.18408  23107973.880    94623312.87647
  22979746.840   120759758.56508  22979743.400    94098663.73247
  21228328.780   111555705.81409  21228323.740    86926544.64948
  21309730.280   111983422.71309  21309729.440    87259823.73649
 15 02 19 01 59  0.0000000  0  6G16G18G19G21G22G27
  20528720.160   107879162.26109  20528716.340    84061686.75049
  21566685.120   113333789.87309  21566681.740    88312063.87848
  23094192.400   121360809.09308  23094188.080    94566862.17847
  22992426.540   120826390.43108  22992422.960    94150584.63647
  21217850.460   111500641.38709  21217845.360    86883637.32448
  21300362.880   111934197.10109  21300362.140    87221466.12149
 15 02 19 01 59 30.0000000  0  6G16G18G19G21G22G27
  20528402.860   107877495.17409  20528399.120    84060387.71949
  21569478.340   113348469.17009  21569475.120    88323502.28948
  23080419.500   121288432.10908  23080415.220    94510464.57247
  23005117.380   120893080.69808  23005113.880    94202551.06247
  21207455.980   111446017.68009  21207450.860    86841073.40848
  21291024.860   111885125.64809  21291024.160    87183228.62949
 15 02 19 02 00  0.0000000  0  7G04G16G18G19G21G22G27
  24555307.120   129039005.09906  24555307.880   100549870.01044
  20528192.080   107876388.11709  20528188.520    84059525.07549
  21572365.360   113363640.94109  21572362.220    88335324.47148
  23066659.240   121216120.99008  23066654.840    94454118.26047
  23017818.580   120959825.61108  23017815.000    94254560.07447
  21197145.180   111391833.92309  21197139.980    86798852.31848
  21281715.980   111836206.81909  21281715.180    87145110.05349
 15 02 19 02 00 30.0000000  0  7G04G16G18G19G21G22G27
  24537445.460   128945142.67706  24537446.060   100476730.88743
  20528099.140   107875900.43109  20528095.780    84059145.05649
  21575357.140   113379362.70409  21575354.020    88347575.19348
  23052922.620   121143933.96808  23052917.880    94397868.64747
  23030541.040   121026682.44508  23030537.500    94306656.29047
  21186929.320   111338149.64209  21186924.160    86757020.42948
  21272447.400   111787499.59309  21272446.480    87107156.37649
 15 02 19 02 01  0.0000000  0  7G04G16G18G19G21G22G27
  24519599.560   128851363.81006  24519600.240   100403656.77743
  20528101.200   107875911.70309  20528097.980    84059153.84249
  21578430.660   113395513.68009  21578427.460    88360160.38448
  23039186.860   121071751.63908  23039181.980    94341622.70347
  23043261.560   121093529.39708  23043258.000    94358744.82047
  21176785.960   111284846.40709  21176780.820    86715485.46048
  21263196.360   111738884.69009  21263195.360    87069274.64648
 15 02 19 02 01 30.0000000  0  7G04G16G18G19G21G22G27
  24501784.880   128757749.02606  24501785.380   100330710.53643
  20528213.540   107876502.26709  20528210.380    84059614.02149
  21581600.760   113412172.13209  21581597.480    88373141.01048
  23025467.060   120999653.70108  23025462.280    94285442.51547
  23055995.100   121160444.83508  23055991.480    94410886.69346
  21166730.600   111232005.56709  21166725.440    86674310.80948
  21253978.040   111690442.56109  21253977.160    87031527.54548
 15 02 19 02 02  0.0000000  0  7G04G16G18G19G21G22G27
  24483998.440   128664282.27206  24483999.000   100257879.57544
  20528433.080   107877655.78109  20528429.880    84060512.86049
  21584864.260   113429321.61409  21584860.940    88386504.23548
  23011760.300   120927624.30608  23011755.560    94229315.74347
  23068738.420   121227411.42308  23068734.740    94463068.45447
  21156760.480   111179612.40609  21156755.260    86633484.98148
  21244789.500   111642157.67209  21244788.900    86993902.97049
 15 02 19 02 02 30.0000000  0  7G04G16G18G19G21G22G27
  24466240.860   128570967.20906  24466241.740   100185166.81843
  20528760.400   107879375.57609  20528757.100    84061852.95149
  21588221.540   113446963.96109  21588218.240    88400251.52648
  22998067.180   120855666.59008  22998062.480    94173244.80647
  23081491.760   121294430.69808  23081487.860    94515291.24647
  21146876.320   111127670.67909  21146871.020    86593010.91248
  21235631.620   111594033.67809  21235631.280    86956403.76949
 15 02 19 02 03  0.0000000  0  7G04G16G18G19G21G22G27
  24448512.900   128477807.23307  24448513.880   100112574.87443
  20529196.080   107881664.75309  20529192.680    84063636.71549
  21591673.000   113465101.55609  21591669.760    88414384.72148
  22984388.280   120783783.96409  22984383.740    94117232.37047
  23094255.420   121361504.13408  23094251.340    94567556.24046
  21137079.060   111076185.57009  21137073.680    86552892.64648
  21226505.220   111546074.61609  21226504.940    86919033.08248
 15 02 19 02 03 30.0000000  0  7G04G16G18G19G21G22G27
  24430813.680   128384798.17407  24430814.400   100040100.53244
  20529739.180   107884518.47409  20529735.700    84065860.39649
  21595217.440   113483727.99509  21595214.180    88428898.83348
  22970722.740   120711971.61808  22970718.260    94061274.71247
  23107028.280   121428625.75408  23107023.880    94619858.78946
  21127368.000   111025153.56009  21127362.560    86513127.46648
  21217409.500   111498276.29009  21217409.100    86881787.62948
 15 02 19 02 04  0.0000000  0  7G04G16G18G19G21G22G27
  24413143.760   128291942.85107  24413144.420    99967745.97044
  20530390.100   107887939.04009  20530386.580    84068525.77249
  21598855.280   113502845.38809  21598852.060    88443795.50648
  22957071.100   120640232.48908  22957066.700    94005374.12047
  23119810.540   121495796.43108  23119805.920    94672199.56046
  21117743.840   110974578.24809  21117738.360    86473718.14648
  21208344.980   111450641.96409  21208344.460    86844669.97549
 15 02 19 02 04 30.0000000  0  7G04G16G18G19G21G22G27
  24395502.900   128199239.88407  24395503.560    99895510.08144
  20531148.600   107891924.87109  20531145.100    84071631.60849
  21602585.940   113522450.43809  21602582.660    88459072.17848
  22943433.140   120568564.98208  22943428.860    93949529.31247
  23132601.500   121563012.94108  23132596.760    94724576.04747
  21108206.540   110924459.20309  21108200.940    86434664.35348
  21199311.400   111403170.44609  21199310.860    86807679.18449
 15 02 19 02 05  0.0000000  0  7G04G16G18G19G21G22G27
  24377891.980   128106694.18207  24377892.320    99823396.73543
  20532015.660   107896481.12909  20532012.140    84075181.93149
  21606410.160   113542546.87409  21606406.820    88474731.73248
  22929809.680   120496973.65608  22929805.320    93893743.88547
  23145401.860   121630278.81408  23145397.140    94776990.99446
  21098757.220   110874802.32909  21098751.520    86395970.69148
  21190309.880   111355867.11009  21190309.340    86770819.43649
 15 02 19 02 05 30.0000000  0  7G04G16G18G19G21G22G27
  24360310.280   128014302.15907  24360310.540    99751403.13944
  20532990.400   107901603.08309  20532986.840    84079173.06049
  21610326.920   113563129.55509  21610323.480    88490770.20148
  22916200.120   120425454.80908  22916195.640    93838014.94547
  23158210.520   121697588.45608  23158205.940    94829440.08547
  21089395.220   110825604.56609  21089389.500    86357634.78448
  21181339.760   111308728.49109  21181339.240    86734088.05149
 15 02 19 02 06  0.0000000  0  7G04G16G18G19G21G22G27
  24342758.660   127922068.17808  24342758.680    99679532.67444
  20534073.520   107907294.74109  20534069.920    84083608.11449
  21614336.900   113584201.89309  21614333.420    88507190.20548
  22902605.300   120354013.11909  22902600.660    93782346.11247
  23171027.880   121764944.68908  23171023.540    94881925.42646
  21080121.680   110776871.94509  21080116.020    86319661.32348
  21172401.960   111261759.75909  21172401.500    86697489.04348
 15 02 19 02 06 30.0000000  0  7G04G16G18G19G21G22G27
  24325237.180   127829992.49408  24325237.100    99607785.58344
  20535264.940   107913555.51409  20535261.280    84088486.63449
  21618439.700   113605761.95009  21618436.200    88523990.25348
  22889025.040   120282647.99608  22889020.120    93726736.93947
  23183853.700   121832345.31708  23183849.740    94934445.40046
  21070936.680   110728604.84309  21070931.120    86282050.59948
  21163496.580   111214961.02209  21163496.060    86661022.49549
 15 02 19 02 07  0.0000000  0  7G04G16G18G19G21G22G27
  24307745.540   127738073.91008  24307745.440    99536160.86844
  20536564.420   107920384.48309  20536560.760    84093807.89449
  21622634.860   113627807.52009  21622631.420    88541168.62048
  22875459.140   120211358.67108  22875454.140    93671186.84847
  23196687.380   121899787.91108  23196683.720    94986998.02046
  21061840.300   110680803.36709  21061834.860    86244802.69748
  21154623.540   111168331.83609  21154622.820    86624688.07249
 15 02 19 02 07 30.0000000  0  7G04G16G18G19G21G22G27
  24290284.560   127646316.48408  24290284.320    99464661.75144
  20537972.700   107927785.18609  20537969.060    84099574.67249
  21626922.800   113650340.80509  21626919.360    88558727.04448
  22861908.360   120140148.86208  22861903.440    93615698.70247
  23209529.540   121967274.65108  23209526.180    95039585.11846
  21052833.480   110633472.26609  21052828.100    86207921.32848
  21145783.640   111121876.58709  21145782.660    86588489.17949
 15 02 19 02 08  0.0000000  0  7G04G16G18G19G21G22G27
  24272853.480   127554716.25508  24272853.400    99393285.11344
  20539488.860   107935752.76009  20539485.220    84105783.16949
  21631302.420   113673356.27609  21631299.020    88576661.18948
  22848372.040   120069014.51309  22848367.080    93560269.36447
  23222379.100   122034800.11708  23222375.840    95092202.34046
  21043915.540   110586608.12509  21043910.180    86171403.82448
  21136976.000   111075591.49309  21136974.900    86552422.88249
 15 02 19 02 08 30.0000000  0  7G04G16G18G19G21G22G27
  24255453.180   127463277.60308  24255453.180    99322034.38145
  20541113.620   107944290.93709  20541109.960    84112436.29249
  21635774.380   113696857.07509  21635771.060    88594973.50548
  22834850.900   119997959.93309  22834845.980    93504902.19047
  23235236.600   122102366.84308  23235233.580    95144851.72146
  21035087.480   110540216.44609  21035082.120    86135254.48048
  21128201.560   111029481.52909  21128200.460    86516493.03849
 15 02 19 02 09  0.0000000  0  7G04G16G18G19G21G22G27
  24238083.680   127372000.78708  24238083.540    99250909.72144
  20542846.960   107953399.75509  20542843.320    84119534.06649
  21640338.400   113720841.86709  21640335.180    88613662.96948
  22821345.000   119926985.30109  22821340.000    93449597.29647
  23248101.760   122169973.35008  23248098.420    95197532.10446
  21026349.480   110494298.42709  21026344.160    86099474.21248
  21119460.520   110983547.44809  21119459.400    86480700.25149
 15 02 19 02 09 30.0000000  0  7G04G16G18G19G21G22G27
  24220744.980   127280886.03208  24220744.840    99179911.32944
  20544688.740   107963078.29009  20544685.080    84127075.78249
  21644994.300   113745309.45909  21644991.160    88632728.63148
  22807854.160   119856090.55508  22807849.180    93394354.65548
  23260974.100   122237617.82008  23260970.700    95250242.06746
  21017701.680   110448854.73809  21017696.440    86064063.55348
  21110753.040   110937789.82309  21110751.840    86445044.95349
 15 02 19 02 10  0.0000000  0  7G04G16G18G19G21G22G27
  24203437.240   127189933.95408  24203437.000    99109039.72944
  20546639.060   107973327.07809  20546635.380    84135061.85149
  21649741.920   113770258.57509  21649738.800    88652169.51448
  22794378.580   119785276.71408  22794373.780    93339175.05747
  23273853.640   122305300.05708  23273849.800    95302981.46546
  21009144.380   110403886.76609  21009139.280    86029023.58748
  21102079.380   110892209.84209  21102078.160    86409528.09349
 15 02 19 02 10 30.0000000  0  7G04G16G18G19G21G22G27
  24186160.200   127099143.12908  24186159.860    99038293.76344
  20548697.480   107984144.04609  20548693.780    84143490.65649
  21654580.640   113795686.31809  21654577.580    88671983.35548
  22780918.000   119714542.04209  22780913.460    93284057.15347
  23286739.700   122373016.59608  23286735.880    95355747.56746
  21000677.620   110359394.29409  21000672.600    85994354.14548
  21093439.280   110846806.30409  21093438.140    86374148.72149
 15 02 19 02 11  0.0000000  0  7G04G16G18G19G21G22G27
  24168914.760   127008518.56508  24168914.460    98967677.32845
  20550864.860   107995533.49709  20550861.180    84152365.54149
  21659511.080   113821595.75209  21659508.060    88692172.51948
  22767473.560   119643891.60009  22767469.080    93229004.86347
  23299633.000   122440770.75908  23299629.360    95408543.01246
  20992302.400   110315382.73909  20992297.460    85960059.43348
  21084833.880   110801584.79509  21084832.880    86338911.16949
 15 02 19 02 11 30.0000000  0  7G04G16G18G19G21G22G27
  24151700.540   126918057.84608  24151700.280    98897188.57345
  20553140.560   108007492.34509  20553136.920    84161684.11349
  21664532.500   113847983.00709  21664529.460    88712734.02248
  22754044.740   119573322.84308  22754040.300    93174016.23847
  23312532.680   122508558.42508  23312528.980    95461364.54246
  20984018.400   110271850.42209  20984013.560    85926138.15548
  21076262.740   110756543.36309  21076261.920    86303813.95849
 15 02 19 02 12  0.0000000  0  7G04G16G18G19G21G22G27
  24134517.600   126827761.23908  24134517.300    98826827.69544
  20555524.560   108020020.29709  20555520.920    84171446.15049
  21669644.660   113874847.00309  21669641.480    88733667.00848
  22740631.600   119502836.19009  22740627.140    93119091.59247
  23325438.580   122576378.34208  23325435.140    95514211.22647
  20975825.920   110228798.65109  20975821.100    85892591.33748
  21067726.000   110711682.84409  21067725.300    86268857.71749
 15 02 19 02 12 30.0000000  0  7G04G16G18G19G21G22G27
  24117366.040   126737629.47208  24117365.700    98756595.26245
  20558016.780   108033117.19609  20558013.180    84181651.51949
  21674847.420   113902186.81109  21674844.020    88754970.76148
  22727234.240   119432432.33909  22727229.680    93064231.46047
  23338350.340   122644229.54208  23338346.780    95567082.26046
  20967725.200   110186228.62109  20967720.260    85859419.89548
  21059223.880   110667004.39509  21059223.220    86234043.34249
 15 02 19 02 13  0.0000000  0  7G04G16G18G19G21G22G27
  24100246.400   126647665.31208  24100245.900    98686493.44445
  20560617.600   108046784.88609  20560614.040    84192301.66849
  21680140.900   113930003.45309  21680137.320    88776646.07748
  22713853.100   119362113.87109  22713848.480    93009437.86147
  23351268.320   122712113.49108  23351264.820    95619978.84146
  20959716.840   110144143.59309  20959711.660    85826626.37948
  21050757.020   110622511.25809  21050756.320    86199373.37349
 15 02 19 02 13 30.0000000  0  7G04G16G18G19G21G22G27
  24083159.020   126557870.68408  24083158.460    98616523.70044
  20563327.420   108061025.18909  20563323.860    84203398.00149
  21685525.200   113958297.41809  21685521.440    88798693.32648
  22700488.580   119291883.00508  22700483.840    92954712.53347
  23364192.460   122780030.44408  23364189.100    95672901.08946
  20951801.300   110102546.30109  20951795.840    85794212.91748
  21042326.000   110578206.02509  21042325.240    86164849.82749
 15 02 19 02 14  0.0000000  0  7G04G16G18G19G21G22G27
  24066103.740   126468244.81108  24066103.000    98546685.45445
  20566145.840   108075836.22509  20566142.300    84214939.05448
  21690999.720   113987066.12309  21690995.900    88821110.49948
  22687140.660   119221739.07808  22687135.860    92900054.94447
  23377122.320   122847977.90608  23377118.880    95725847.14746
  20943978.540   110061436.37609  20943972.820    85762179.20548
  21033930.800   110534088.35209  21033929.920    86130472.40549
 15 02 19 02 14 30.0000000  0  7G04G16G18G19G21G22G27
  24049080.680   126378788.28208  24049079.860    98476979.16045
  20569072.860   108091218.01109  20569069.320    84226924.85749
  21696564.300   114016308.48009  21696560.440    88843896.76147
  22673809.380   119151682.88609  22673804.580    92845465.72247
  23390057.860   122915955.35808  23390054.720    95778816.56346
  20936248.940   110020816.25009  20936243.060    85730527.17148
  21025571.600   110490159.71409  21025570.640    86096242.30449
 15 02 19 02 15  0.0000000  0  7G04G16G18G19G21G22G27
  24032089.800   126289500.95208  24032088.980    98407404.71945
  20572108.280   108107169.55009  20572104.820    84239354.61449
  21702218.540   114046022.48109  21702214.780    88867050.53148
  22660494.820   119081714.06209  22660489.920    92790944.54848
  23402998.700   122983960.81408  23402995.400    95831807.81146
  20928612.400   109980685.52009  20928606.480    85699256.48348
  21017248.300   110446420.20909  21017247.440    86062159.59349
 15 02 19 02 15 30.0000000  0  7G04G16G18G19G21G22G27
  24015130.980   126200382.38408  24015130.160    98337961.76345
  20575251.820   108123689.09309  20575248.400    84252226.97949
  21707962.040   114076205.80709  21707958.520    88890570.02248
  22647196.800   119011832.05709  22647191.780    92736491.04447
  23415944.600   123051992.22908  23415941.480    95884819.28046
  20921068.900   109941044.34409  20921063.080    85668367.26948
  21008960.880   110402869.81209  21008960.120    86028224.24549
 15 02 19 02 16  0.0000000  0  7G04G16G18G19G21G22G27
  23998204.960   126111436.29508  23998204.120    98268653.20645
  20578504.120   108140779.99509  20578500.720    84265544.55548
  21713795.380   114106861.05409  21713792.020    88914457.23148
  22633916.140   118942041.17609  22633910.980    92682108.54347
  23428895.940   123120051.85208  23428892.560    95937852.70946
  20913619.420   109901897.47709  20913613.740    85637863.24048
  21000710.380   110359513.17609  21000709.620    85994439.86249
 15 02 19 02 16 30.0000000  0  7G04G16G18G19G21G22G27
  23981311.620   126022661.55708  23981310.720    98199478.18445
  20581864.840   108158440.45109  20581861.420    84279305.94049
  21719717.900   114137984.91409  21719714.660    88938709.59748
  22620652.480   118872340.09109  22620647.360    92627796.03848
  23441852.280   123188136.92408  23441848.600    95990906.02446
  20906263.800   109863243.95409  20906258.280    85607743.62748
  20992496.680   110316349.55009  20992495.820    85960805.87549
 15 02 19 02 17  0.0000000  0  7G04G16G18G19G21G22G27
  23964450.940   125934058.55608  23964450.080    98130436.97245
  20585333.820   108176669.78809  20585330.380    84293510.61949
  21725729.480   114169576.41809  21725726.320    88963326.35548
  22607405.920   118802729.46809  22607400.880    92573554.01148
  23454813.380   123256246.95808  23454809.460    96043978.74146
  20899002.240   109825084.82109  20898996.900    85578009.25248
  20984319.980   110273380.07809  20984318.980    85927323.17549
 15 02 19 02 17 30.0000000  0  7G04G16G18G19G21G22G27
  23947623.040   125845627.70708  23947622.180    98061529.88945
  20588911.040   108195467.90409  20588907.580    84308158.49149
  21731829.880   114201634.32409  21731826.760    88988306.55548
  22594176.580   118733209.93909  22594171.820    92519382.97848
  23467778.980   123324380.74508  23467774.780    96097069.97746
  20891835.000   109787421.32809  20891829.820    85548661.09848
  20976180.420   110230605.88409  20976179.300    85893992.63249
 15 02 19 02 18  0.0000000  0  7G04G16G18G19G21G22G27
  23930828.060   125757369.62808  23930827.120    97992757.45445
  20592596.420   108214834.42509  20592592.980    84323249.28349
  21738018.740   114234156.86309  21738015.600    89013648.80648
  22580964.760   118663782.04009  22580960.060    92465283.33348
  23480748.840   123392537.29408  23480744.680    96150178.95546
  20884762.320   109750254.52209  20884757.240    85519699.96948
  20968078.060   110188027.95809  20968076.960    85860815.03749
 15 02 19 02 18 30.0000000  0  7G04G16G18G19G21G22G27
  23914065.800   125669283.63608  23914064.920    97924119.08845
  20596389.580   108234767.37909  20596386.120    84338781.44649
  21744295.680   114267142.00609  21744292.480    89039351.51648
  22567770.420   118594445.44409  22567765.740    92411254.83348
  23493722.540   123460714.47608  23493718.400    96203304.00046
  20877784.160   109713584.09609  20877779.140    85491125.62848
  20960012.920   110145646.46209  20960012.020    85827790.51349
 15 02 19 02 19  0.0000000  0  7G04G16G18G19G21G22G27
  23897337.160   125581374.35708  23897336.360    97855618.43445
  20600291.300   108255270.63809  20600287.740    84354758.01249
  21750661.220   114300592.60809  21750658.020    89065416.92348
  22554594.460   118525204.97009  22554589.680    92357301.23348
  23506700.720   123528915.57508  23506696.800    96256447.70746
  20870901.560   109677415.62109  20870896.480    85462942.41348
  20951986.120   110103466.60409  20951985.400    85794923.10649
 15 02 19 02 19 30.0000000  0  7G04G16G18G19G21G22G27
  23880642.180   125493642.19408  23880641.420    97787255.76546
  20604301.420   108276343.78209  20604297.800    84371178.63649
  21757115.000   114334507.07809  21757111.780    89091843.79548
  22541436.960   118456061.06309  22541431.920    92303422.85648
  23519683.000   123597139.39608  23519679.740    96309609.07946
  20864114.660   109641749.94209  20864109.480    85435150.99148
  20943998.040   110061489.45509  20943997.440    85762213.64349
 15 02 19 02 20  0.0000000  0  7G04G16G18G19G21G22G27
  23863980.700   125406085.91008  23863979.980    97719030.15045
  20608419.480   108297984.12309  20608415.800    84388041.22748
  21763656.560   114368882.67709  21763653.300    89118629.97448
  22528297.620   118387013.10809  22528292.500    92249619.26947
  23532669.300   123665383.49408  23532666.340    96362786.28246
  20857423.300   109606586.12409  20857417.960    85407750.61848
  20936048.600   110019714.46409  20936047.920    85729661.70249
 15 02 19 02 20 30.0000000  0  7G04G16G18G19G21G22G27
  23847352.520   125318704.45708  23847351.800    97650940.78245
  20612645.160   108320190.25309  20612641.460    84405344.70348
  21770285.360   114403716.59209  21770282.020    89145773.29048
  22515176.280   118318059.94109  22515171.040    92195889.54047
  23545659.020   123733645.45008  23545656.160    96415977.39846
  20850827.320   109571923.75509  20850821.840    85380740.99248
  20928137.680   109978141.29509  20928136.800    85697267.02549
 15 02 19 02 21  0.0000000  0  7G04G16G18G19G21G22G27
  23830757.960   125231499.52908  23830757.140    97582988.94646
  20616978.600   108342962.66009  20616974.880    84423089.42549
  21777001.340   114439008.57209  21776997.920    89173273.53448
  22502073.260   118249203.29509  22502068.080    92142235.03248
  23558652.360   123801925.57108  23558649.380    96469182.67546
  20844327.120   109537764.85609  20844321.540    85354123.67248
  20920265.560   109936772.23909  20920264.540    85665031.39749
 15 02 19 02 21 30.0000000  0  7G04G16G18G19G21G22G27
  23814197.200   125144472.37908  23814196.380    97515175.64145
  20621419.900   108366301.94909  20621416.180    84441275.86849
  21783804.320   114474757.87609  21783800.840    89201130.12748
  22488988.940   118180444.89809  22488983.800    92088657.06048
  23571649.180   123870223.55408  23571645.900    96522401.86646
  20837923.000   109504111.09109  20837917.380    85327899.96548
  20912432.560   109895609.26509  20912431.500    85632956.34649
 15 02 19 02 22  0.0000000  0  7G04G16G18G19G21G22G27
  23797670.560   125057624.52308  23797669.740    97447502.06346
  20625969.060   108390207.99409  20625965.340    84459903.95048
  21790694.260   114510964.27509  21790690.620    89229342.91948
  22475923.680   118111786.59809  22475918.600    92035157.10648
  23584649.320   123938539.59308  23584646.040    96575635.09846
  20831615.320   109470964.49709  20831609.760    85302071.46548
  20904639.100   109854654.64809  20904638.060    85601043.66249
 15 02 19 02 22 30.0000000  0  7G04G16G18G19G21G22G27
  23781177.840   124970954.76608  23781177.000    97379967.26945
  20630625.700   108414678.98909  20630622.020    84478972.25048
  21797670.500   114547624.49509  21797666.800    89257909.32748
  22462877.240   118043227.25609  22462872.260    91981734.25548
  23597652.400   124006871.47108  23597648.740    96628880.70946
  20825403.960   109438324.50009  20825398.580    85276637.70548
  20896885.160   109813907.90209  20896884.180    85569292.95449
 15 02 19 02 23  0.0000000  0  7G04G16G18G19G21G22G27
  23764719.260   124884464.55408  23764718.380    97312572.36046
  20635389.900   108439715.24909  20635386.240    84498481.01048
  21804733.000   114584738.51409  21804729.340    89286829.33548
  22449850.120   117974769.07309  22449845.240    91928390.23748
  23610658.560   124075219.15108  23610655.080    96682138.57846
  20819289.380   109406193.15809  20819284.180    85251600.31048
  20889171.220   109773371.35409  20889170.360    85537706.04349
 15 02 19 02 23 30.0000000  0  7G04G16G18G19G21G22G27
  23748294.720   124798153.16608  23748293.760    97245316.78346
  20640261.280   108465314.60509  20640257.640    84518428.54648
  21811881.400   114622303.94909  21811877.860    89316101.09648
  22436842.060   117906411.36209  22436837.260    91875124.48748
  23623667.380   124143580.99308  23623663.900    96735407.52746
  20813271.480   109374569.77909  20813266.440    85226958.72248
  20881497.280   109733045.04009  20881496.520    85506282.95749
 15 02 19 02 24  0.0000000  0  7G04G16G18G19G21G22G27
  23731905.040   124712025.08508  23731903.980    97178204.03946
  20645240.560   108491480.56709  20645236.840    84538817.60148
  21819116.060   114660323.06609  21819112.760    89345726.39148
  22423853.980   117838158.85309  22423849.260    91821940.72948
  23636679.320   124211959.56208  23636675.940    96788689.48046
  20807351.260   109343459.20709  20807346.240    85202716.73448
  20873864.320   109692933.95909  20873863.660    85475027.58549
 15 02 19 02 24 30.0000000  0  7G04G16G18G19G21G22G27
  23715549.660   124626077.18008  23715548.580    97111231.68645
  20650326.840   108518208.84409  20650323.040    84559644.82848
  21826436.180   114698790.91909  21826433.040    89375701.35348
  22410885.360   117770008.76609  22410880.680    91768836.78348
  23649693.820   124280350.68208  23649690.200    96841981.28146
  20801528.240   109312858.84109  20801523.160    85178872.29948
  20866272.040   109653035.84509  20866271.280    85443938.15649
 15 02 19 02 25  0.0000000  0  7G04G16G18G19G21G22G27
  23699229.120   124540312.37608  23699227.980    97044402.02846
  20655520.540   108545501.69409  20655516.700    84580911.97948
  21833841.900   114737708.64709  21833838.880    89406026.85248
  22397936.800   117701964.18809  22397932.200    91715815.05348
  23662711.040   124348756.55908  23662707.880    96895284.52246
  20795803.040   109282772.16809  20795797.860    85155428.15148
  20858721.080   109613354.46309  20858720.160    85413017.59549
 15 02 19 02 25 30.0000000  0  7G04G16G18G19G21G22G27
  23682942.660   124454726.54008  23682941.500    96977711.81046
  20660820.600   108573353.45809  20660816.720    84602614.64848
  21841332.040   114777070.00309  21841329.060    89436698.03548
  22385007.780   117634021.72709  22385003.080    91662872.87948
  23675730.120   124417171.62708  23675726.840    96948594.96746
  20790174.800   109253195.11809  20790169.520    85132381.10948
  20851210.660   109573886.57209  20851209.660    85382263.39449
 15 02 19 02 26  0.0000000  0  7G04G16G18G19G21G22G27
  23666691.200   124369324.66508  23666690.080    96911164.94146
  20666227.760   108601768.28309  20666223.880    84624756.06948
  21848907.240   114816878.06109  21848904.260    89467717.31348
  22372099.240   117566186.61009  22372094.460    91610014.37848
  23688751.500   124485599.17808  23688748.300    97001915.09946
  20784644.540   109224132.94609  20784639.220    85109735.27748
  20843741.820   109534637.81309  20843740.860    85351679.94949
 15 02 19 02 26 30.0000000  0  7G04G16G18G19G21G22G27
  23650474.060   124284103.26908  23650472.980    96844758.71446
  20671741.040   108630741.00709  20671737.200    84647332.21148
  21856566.480   114857127.77309  21856563.500    89499080.71848
  22359210.520   117498455.67009  22359205.720    91557237.02548
  23701774.400   124554034.61408  23701771.400    97055241.38546
  20779211.740   109195582.91109  20779206.400    85087488.50549
  20836314.100   109495605.52409  20836313.240    85321265.18749
 15 02 19 02 27  0.0000000  0  7G04G16G18G19G21G22G27
  23634292.440   124199068.21609  23634291.260    96778497.67746
  20677361.320   108660275.97209  20677357.540    84670346.45548
  21864310.520   114897822.71309  21864307.520    89530791.06348
  22346342.740   117430835.00309  22346337.840    91504545.60948
  23714799.620   124622482.75108  23714796.500    97108577.56146
  20773877.440   109167550.55809  20773872.060    85065645.12948
  20828928.820   109456796.34909  20828928.100    85291024.27749
 15 02 19 02 27 30.0000000  0  7G04G16G18G19G21G22G27
  23618145.760   124114216.71109  23618144.500    96712379.65846
  20683087.960   108690370.01309  20683084.280    84693796.35149
  21872138.420   114938958.41009  21872135.340    89562844.85548
  22333495.440   117363322.45409  22333490.600    91451938.43248
  23727826.560   124690939.24708  23727823.220    97161920.25246
  20768641.280   109140033.94909  20768635.820    85044203.61848
  20821585.720   109418208.40609  20821585.020    85260955.74649
 15 02 19 02 28  0.0000000  0  7G04G16G18G19G21G22G27
  23602034.260   124029550.13908  23602032.960    96646405.75846
  20688921.000   108721022.91609  20688917.380    84717681.72348
  21880050.040   114980534.12309  21880046.880    89595241.50848
  22320669.040   117295919.62909  22320664.260    91399416.77748
  23740855.260   124759404.43508  23740851.980    97215269.72046
  20763503.460   109113034.47809  20763497.960    85023165.07948
  20814285.140   109379843.83509  20814284.460    85231061.27349
 15 02 19 02 28 30.0000000  0  7G04G16G18G19G21G22G27
  23585957.980   123945068.83609  23585956.620    96580576.22546
  20694860.180   108752233.60409  20694856.620    84742001.72848
  21888045.060   115022548.56709  21888041.860    89627980.03447
  22307863.820   117228627.83809  22307858.940    91346981.63048
  23753885.400   124827877.87508  23753882.120    97268625.63046
  20758464.120   109086552.92209  20758458.640    85002530.10148
  20807027.280   109341703.98109  20807026.640    85201341.90449
 15 02 19 02 29  0.0000000  0  7G04G16G18G19G21G22G27
  23569917.120   123860773.71809  23569915.720    96514891.76746
  20700905.560   108784002.22709  20700902.040    84766756.48748
  21896123.260   115065000.31209  21896120.040    89661059.31847
  22295079.920   117161447.95909  22295075.120    91294633.70048
  23766916.960   124896359.17508  23766913.760    97321987.63446
  20753523.460   109060590.24409  20753518.080    84982299.45248
  20799812.500   109303790.51309  20799811.940    85171798.94749
 15 02 19 02 29 30.0000000  0  7G04G16G18G19G21G22G27
  23553912.180   123776667.63808  23553910.860    96449354.60446
  20707057.400   108816330.04409  20707053.860    84791946.98749
  21904284.940   115107890.73509  21904281.780    89694480.43948
  22282318.020   117094383.40709  22282313.240    91242375.63448
  23779950.220   124964849.97308  23779947.220    97375357.04846
  20748682.160   109035149.69709  20748676.880    84962475.66049
  20792641.600   109266107.31609  20792641.080    85142435.41849
 15 02 19 02 30  0.0000000  0  7G04G16G18G19G21G22G27
  23537942.540   123692747.09108  23537941.260    96383961.99946
  20713314.700   108849211.89409  20713311.140    84817569.20049
  21912528.940   115151213.80209  21912525.900    89728238.66948
  22269577.460   117027431.12009  22269572.780    91190205.03048
  23792984.600   125033345.70308  23792981.580    97428730.33246
  20743939.600   109010227.97309  20743934.380    84943056.13848
  20785514.060   109228651.47009  20785513.520    85113249.04949
 15 02 19 02 30 30.0000000  0  7G04G16G18G19G21G22G27
  23522008.560   123609013.89508  23522007.380    96318715.39146
  20719677.520   108882648.29209  20719673.900    84843623.52848
  21920855.300   115194969.48909  21920852.320    89762334.01648
  22256858.640   116960593.29909  22256853.920    91138123.64348
  23806019.940   125101847.08908  23806016.840    97482107.97646
  20739296.160   108985827.04609  20739291.060    84924042.43548
  20778430.400   109191425.80009  20778429.720    85084242.02349
 15 02 19 02 31  0.0000000  0  7G04G16G18G19G21G22G27
  23506109.940   123525466.32708  23506108.760    96253613.43446
  20726145.260   108916636.42909  20726141.620    84870107.78548
  21929263.320   115239154.07209  21929260.340    89796763.55347
  22244161.380   116893868.88409  22244156.640    91086130.61748
  23819056.020   125170351.20108  23819052.720    97535487.82646
  20734751.540   108961945.22209  20734746.540    84905433.22648
  20771390.400   109154429.54909  20771389.600    85055413.76949
 15 02 19 02 31 30.0000000  0  7G04G16G18G19G21G22G27
  23490247.500   123442108.94708  23490246.360    96188659.65846
  20732718.440   108951179.00709  20732714.880    84897024.07148
  21937753.560   115283770.48409  21937750.520    89831529.60547
  22231486.760   116827263.22509  22231481.740    91034230.11448
  23832093.180   125238862.39608  23832090.160    97588873.08146
  20730306.700   108938587.36209  20730301.700    84887232.30848
  20764395.040   109117668.19509  20764394.160    85026768.56549
 15 02 19 02 32  0.0000000  0  7G04G16G18G19G21G22G27
  23474420.800   123358939.23708  23474419.640    96123852.11846
  20739396.520   108986273.21909  20739393.080    84924370.19648
  21946325.120   115328813.90309  21946321.900    89866628.36247
  22218834.260   116760773.76209  22218829.140    90982420.13548
  23845130.880   125307376.01408  23845127.540    97642260.28946
  20725961.120   108915750.91109  20725956.120    84869437.68648
  20757443.980   109081140.00709  20757443.020    84998305.04449
 15 02 19 02 32 30.0000000  0  7G04G16G18G19G21G22G27
  23458629.860   123275957.45808  23458628.760    96059191.03146
  20746179.240   109021917.47109  20746175.940    84952144.92748
  21954977.680   115374282.92409  21954974.260    89902058.77048
  22206204.020   116694401.63709  22206198.800    90930701.61648
  23858168.740   125375891.70308  23858165.600    97695649.08046
  20721714.880   108893436.64909  20721709.900    84852049.95549
  20750537.540   109044846.34109  20750536.520    84970024.26949
 15 02 19 02 33  0.0000000  0  7G04G16G18G19G21G22G27
  23442874.900   123193164.58508  23442873.800    95994677.14046
  20753066.500   109058111.00209  20753063.280    84980347.68148
  21963711.060   115420176.33109  21963707.360    89937819.87047
  22193596.380   116628148.26209  22193591.260    90879075.62648
  23871207.340   125444409.13307  23871203.360    97749039.33545
  20717568.160   108871645.42709  20717563.220    84835069.79148
  20743676.060   109008788.96009  20743674.980    84941927.61749
 15 02 19 02 33 30.0000000  0  7G04G16G18G19G21G22G27
  23427156.140   123110561.94108  23427154.980    95930311.48646
  20760058.300   109094853.59209  20760055.140    85008978.26748
  21972525.040   115466493.29609  21972521.280    89973911.00847
  22181011.660   116562015.27809  22181006.660    90827543.44948
  23884246.200   125512928.49808  23884242.320    97802430.99845
  20713521.240   108850378.65609  20713516.340    84818498.29349
  20736860.000   108972970.11809  20736858.900    84914016.83549
 15 02 19 02 34  0.0000000  0  7G04G16G18G19G21G22G27
  23411474.160   123028152.40408  23411472.920    95866096.28346
  20767154.940   109132146.97609  20767151.820    85038038.03648
  21981419.780   115513234.68209  21981415.980    90010332.87448
  22168450.620   116496006.50709  22168445.620    90776108.05348
  23897285.900   125581451.55408  23897282.420    97855825.54446
  20709574.740   108829639.23809  20709569.780    84802337.71849
  20730090.060   108937393.70909  20730088.940    84886294.95249
 15 02 19 02 34 30.0000000  0  7G04G16G18G19G21G22G27
  23395829.040   122945936.70608  23395827.740    95802032.13446
  20774356.280   109169990.24509  20774353.160    85067526.28948
  21990395.000   115560399.46409  21990391.180    90047084.64748
  22155913.500   116430123.37309  22155908.520    90724770.55748
  23910325.860   125649609.03308  23910320.540    97908777.54345
  20705728.820   108809428.18309  20705723.760    84786588.85449
  20723366.600   108902061.50709  20723365.460    84858763.35849
 15 02 19 02 35  0.0000000  0  7G04G16G18G19G21G22G27
  23380216.420   122863891.75308  23380215.080    95738101.05546
  20781657.580   109208358.53509  20781654.420    85097423.65248
  21999445.880   115607961.92509  21999442.000    90084146.31847
  22143395.920   116364343.03309  22143390.880    90673513.16748
  23923363.080   125718115.72208  23923359.160    97962159.38946
  20701978.980   108789722.22009  20701973.800    84771233.56449
  20716685.340   108866951.18309  20716684.220    84831404.66449
 15 02 19 02 35 30.0000000  0  7G04G16G18G19G21G22G27
  23364645.300   122782065.06808  23364643.940    95674340.04046
  20789067.700   109247298.39609  20789064.460    85127766.38248
  22008581.120   115655967.80709  22008577.200    90121553.49648
  22130907.060   116298713.90909  22130902.140    90622373.61748
  23936404.240   125786648.90208  23936400.440    98015561.83246
  20698334.320   108770569.05809  20698329.020    84756309.02749
  20710055.480   108832111.40909  20710054.420    84804256.80849
 15 02 19 02 36  0.0000000  0  7G04G16G18G19G21G22G27
  23349109.320   122700423.11508  23349107.920    95610722.95746
  20796579.840   109286774.31109  20796576.500    85158526.83048
  22017793.940   115704381.68109  22017790.200    90159278.59548
  22118440.600   116233202.90809  22118435.780    90571326.11848
  23949444.220   125855174.04708  23949440.460    98068958.03945
  20694788.360   108751935.14709  20694783.060    84741789.10849
  20703470.880   108797509.59409  20703469.860    84777294.35349
 15 02 19 02 36 30.0000000  0  7G04G16G18G19G21G22G27
  23333610.220   122618974.95508  23333608.680    95547256.88745
  20804195.560   109326794.29909  20804192.100    85189711.22648
  22027085.720   115753210.60909  22027082.100    90197327.09247
  22105998.520   116167819.83609  22105993.840    90520378.28448
  23962483.740   125923698.92908  23962480.940    98122354.01046
  20691342.960   108733829.72309  20691337.640    84727680.99049
  20696933.500   108763155.71209  20696932.540    84750525.08849
 15 02 19 02 37  0.0000000  0  7G04G16G18G19G21G22G27
  23318147.840   122537719.74208  23318146.300    95483941.17346
  20811914.320   109367356.00509  20811910.780    85221317.74848
  22036455.900   115802451.57109  22036452.320    90235696.67547
  22093580.760   116102564.38209  22093576.080    90469529.88948
  23975523.000   125992221.33308  23975520.620    98175748.02645
  20687997.920   108716251.69009  20687992.600    84713983.82949
  20690443.340   108729049.88809  20690442.480    84723949.11749
 15 02 19 02 37 30.0000000  0  7G04G16G18G19G21G22G27
  23302721.680   122456654.93908  23302720.180    95420773.82346
  20819735.220   109408454.81809  20819731.640    85253342.78848
  22045903.560   115852099.75109  22045900.000    90274383.57048
  22081186.940   116037434.47609  22081182.240    90418779.32348
  23988561.260   126060738.00407  23988558.780    98229137.64446
  20684752.740   108699198.39109  20684747.440    84700695.54449
  20684000.180   108695190.62709  20683999.320    84697565.28849
 15 02 19 02 38  0.0000000  0  7G04G16G18G19G21G22G27
  23287333.160   122375787.98108  23287331.740    95357760.63646
  20827659.400   109450096.55709  20827655.780    85285790.89348
  22055429.840   115902160.89809  22055426.420    90313392.26247
  22068818.640   115972438.53709  22068813.900    90368133.15748
  24001599.680   126129255.74708  24001596.580    98282528.05845
  20681608.860   108682677.30509  20681603.580    84687821.98749
  20677605.500   108661586.47309  20677604.720    84671380.25149
 15 02 19 02 38 30.0000000  0  7G04G16G18G19G21G22G27
  23271980.760   122295110.87708  23271979.380    95294895.40746
  20835685.080   109492271.86109  20835681.440    85318654.75648
  22065032.760   115952624.76409  22065029.440    90352714.75447
  22056474.400   115907569.16209  22056469.640    90317585.59448
  24014636.780   126197765.70308  24014634.040    98335912.34345
  20678564.660   108666680.08109  20678559.380    84675356.63449
  20671257.960   108628230.35809  20671257.260    84645388.47849
 15 02 19 02 39  0.0000000  0  7G04G16G18G19G21G22G27
  23256665.840   122214630.74208  23256664.500    95232183.65046
  20843813.320   109534986.34009  20843809.740    85351938.75548
  22074713.340   116003496.43209  22074710.040    90392355.01647
  22044155.700   115842834.12009  22044150.980    90267142.71448
  24027673.360   126266274.00208  24027670.240    98389295.39945
  20675621.640   108651214.69109  20675616.400    84663305.69749
  20664959.200   108595130.56609  20664958.520    84619596.43649
 15 02 19 02 39 30.0000000  0  7G04G16G18G19G21G22G27
  23241387.440   122134342.47608  23241386.100    95169621.39745
  20852042.820   109578233.21409  20852039.360    85385637.61248
  22084470.200   116054768.72309  22084466.760    90432307.44747
  22031861.760   115778229.19409  22031857.080    90216801.23748
  24040709.020   126334775.11908  24040705.600    98442672.88646
  20672778.720   108636275.22709  20672773.500    84651664.57049
  20658708.480   108562282.90009  20658707.760    84594000.86249
 15 02 19 02 40  0.0000000  0  7G04G16G18G19G21G22G27
  23226147.320   122054255.49108  23226145.980    95107215.99645
  20860375.120   109622020.00109  20860371.720    85419757.17548
  22094304.680   116106448.63309  22094301.080    90472577.50547
  22019594.480   115713764.43909  22019589.880    90166568.97048
  24053744.400   126403277.06808  24053740.980    98496050.97345
  20670037.640   108621870.92709  20670032.460    84640440.45149
  20652507.840   108529697.72609  20652506.980    84568609.81149
 15 02 19 02 40 30.0000000  0  7G04G16G18G19G21G22G27
  23210943.860   121974361.15308  23210942.580    95044960.70045
  20868808.260   109666336.48709  20868804.880    85454289.48848
  22104214.760   116158525.81409  22104211.000    90513157.13647
  22007352.460   115649432.07709  22007347.780    90116439.85948
  24066778.340   126471770.74808  24066774.380    98549422.61245
  20667396.860   108607993.46609  20667391.700    84629626.85449
  20646355.820   108497367.62609  20646354.780    84543417.53649
 15 02 19 02 41  0.0000000  0  7G04G16G18G19G21G22G27
  23195777.980   121894664.24108  23195776.720    94982859.23345
  20877342.760   109711185.48809  20877339.340    85489236.75148
  22114200.740   116211002.60609  22114197.060    90554048.11947
  21995136.700   115585237.24409  21995131.760    90066417.91748
  24079811.460   126540259.37308  24079807.900    98602790.34946
  20664857.160   108594647.18209  20664852.000    84619227.15849
  20640253.460   108465298.35209  20640252.200    84518428.48449
 15 02 19 02 41 30.0000000  0  7G04G16G18G19G21G22G27
  23180649.880   121815165.67808  23180648.580    94920912.32845
  20885978.540   109756566.61309  20885975.080    85524598.66148
  22124262.560   116263878.12709  22124259.020    90595249.84547
  21982947.560   115521182.10409  21982942.360    90016504.82948
  24092843.500   126608743.58408  24092839.940    98656154.61845
  20662418.780   108581833.08809  20662413.560    84609242.16849
  20634201.020   108433491.93409  20634199.660    84493644.26549
 15 02 19 02 42  0.0000000  0  7G04G16G18G19G21G22G27
  23165558.840   121735861.84608  23165557.420    94859117.16245
  20894714.520   109802474.47909  20894711.040    85560371.01448
  22134399.100   116317146.64009  22134395.680    90636757.76747
  21970784.540   115457264.24509  21970779.100    89966698.68948
  24105874.100   126677219.09508  24105870.800    98709512.09245
  20660080.980   108569547.55109  20660075.720    84599669.02449
  20628198.060   108401945.92509  20628196.680    84469062.96349
 15 02 19 02 42 30.0000000  0  7G04G16G18G19G21G22G27
  23150505.600   121656756.60708  23150504.140    94797476.73745
  20903551.080   109848911.07809  20903547.600    85596555.36948
  22144610.720   116370809.68009  22144607.420    90678573.13847
  21958648.300   115393487.46609  21958642.800    89917002.50448
  24118903.160   126745688.42607  24118899.900    98762864.84446
  20657844.240   108557793.29209  20657838.960    84590509.86649
  20622245.520   108370665.14209  20622244.160    84444688.32549
 15 02 19 02 43  0.0000000  0  7G04G16G18G19G21G22G27
  23135489.500   121577846.66908  23135488.060    94735988.49845
  20912487.280   109895871.60209  20912483.900    85633147.97248
  22154896.420   116424862.15009  22154893.300    90720691.93747
  21946538.440   115329849.43109  21946532.980    89867414.41848
  24131930.940   126814147.79708  24131927.480    98816209.80845
  20655708.120   108546567.83809  20655702.860    84581762.76049
  20616343.040   108339647.49509  20616341.720    84420518.72449
 15 02 19 02 43 30.0000000  0  7G04G16G18G19G21G22G27
  23120511.540   121499137.22808  23120510.180    94674656.52146
  20921523.740   109943358.85909  20921520.460    85670151.02748
  22165256.680   116479306.56409  22165253.780    90763116.16648
  21934456.140   115266355.97509  21934450.660    89817939.00248
  24144957.560   126882602.23207  24144954.380    98869550.86745
  20653673.420   108535875.70309  20653668.240    84573431.24149
  20610491.780   108308899.04009  20610490.520    84396558.90149
 15 02 19 02 44  0.0000000  0  7G04G16G18G19G21G22G27
  23105571.200   121420625.29808  23105569.920    94613478.41546
  20930659.680   109991368.85709  20930656.460    85707561.40048
  22175690.760   116534138.36309  22175687.960    90805842.23348
  21922401.000   115203005.12709  21922395.500    89768574.70148
  24157982.200   126951046.68408  24157978.440    98922884.23746
  20651739.540   108525713.46109  20651734.480    84565512.62149
  20604691.380   108278417.94209  20604690.200    84372807.40049
 15 02 19 02 44 30.0000000  0  7G04G16G18G19G21G22G27
  23090668.720   121342312.09608  23090667.480    94552455.17946
  20939894.920   110039900.50309  20939891.760    85745378.24848
  22186198.400   116589356.28409  22186195.620    90848869.17347
  21910373.300   115139798.95509  21910367.740    89719323.14548
  24171005.020   127019482.10108  24171002.500    98976210.38945
  20649906.720   108516082.23709  20649901.760    84558007.77149
  20598942.260   108248206.68509  20598941.180    84349266.16149
 15 02 19 02 45  0.0000000  0  8G04G16G18G19G21G22G27G32
  23075804.320   121264199.04608  23075803.040    94491587.91346
  20949229.400   110088953.49209  20949226.260    85783601.35448
  22196779.480   116644959.77209  22196776.600    90892196.57447
  21898373.420   115076739.75709  21898367.940    89670186.14048
  24184026.100   127087909.74708  24184022.960    99029530.65345
  20648175.260   108506983.41109  20648170.340    84550917.78749
  20593244.960   108218267.72109  20593243.940    84325937.11149
  24503448.620   128766493.52408                                
 15 02 19 02 45 30.0000000  0  8G04G16G18G19G21G22G27G32
  23060975.580   121186273.63108  23060974.200    94430866.84146
  20958660.500   110138514.01809  20958657.340    85822219.93748
  22207431.240   116700934.30309  22207428.220    90935813.08547
  21886399.220   115013815.96509  21886393.940    89621154.63648
  24197043.560   127156316.02007  24197040.080    99082834.28945
  20646542.680   108498403.87409  20646537.700    84544232.43849
  20587597.380   108188589.77409  20587596.360    84302811.43449
  24480819.500   128647575.97808  24480820.960   100244876.24145
 15 02 19 02 46  0.0000000  0  8G04G16G18G19G21G22G27G32
  23046187.600   121108562.40808  23046186.160    94370312.67846
  20968192.780   110188605.83609  20968189.520    85861252.50648
  22218158.200   116757303.92009  22218155.020    90979737.45847
  21874455.960   114951054.66609  21874450.880    89572249.72848
  24210061.300   127224726.57608  24210058.820    99136141.08145
  20645013.960   108490370.09209  20645008.860    84537972.35049
  20582004.740   108159200.37609  20582003.660    84279910.60449
  24458200.400   128528711.48208  24458201.620   100152254.73045
 15 02 19 02 46 30.0000000  0  8G04G16G18G19G21G22G27G32
  23031436.580   121031045.50108  23031435.180    94309909.93646
  20977822.160   110239207.72809  20977818.800    85900682.54048
  22228956.140   116814046.69509  22228952.700    91023952.60747
  21862540.100   114888437.08309  21862535.200    89523456.81448
  24223076.560   127293120.67108  24223073.060    99189435.22844
  20643585.140   108482861.50009  20643579.980    84532121.50749
  20576463.360   108130080.68509  20576462.360    84257219.93349
  24435588.020   128409882.43708  24435588.900   100059660.84245
 15 02 19 02 47  0.0000000  0  8G04G16G18G19G21G22G27G32
  23016724.660   120953734.12308  23016723.200    94249667.34546
  20987550.380   110290329.08109  20987546.880    85940517.35148
  22239826.800   116871171.90709  22239823.220    91068465.76047
  21850654.040   114825975.53709  21850649.160    89474785.49248
  24236090.240   127361509.50308  24236087.040    99242725.15945
  20642258.400   108475889.43209  20642253.180    84526688.73949
  20570975.680   108101243.39709  20570974.820    84234749.32749
  24412984.860   128291102.67308  24412985.480    99967105.35245
 15 02 19 02 47 30.0000000  0  8G04G16G18G19G21G22G27G32
  23002050.120   120876619.11808  23002048.600    94189577.76846
  20997375.200   110341958.41509  20997371.620    85980747.99248
  22250767.960   116928667.94409  22250764.280    91113267.86047
  21838796.120   114763661.57809  21838791.280    89426229.15848
  24249101.520   127429883.19808  24249098.660    99296003.27945
  20641031.900   108469444.23009  20641026.660    84521666.50449
  20565540.220   108072680.21909  20565539.420    84212492.30049
  24390389.700   128172365.17308  24390390.420    99874582.83045
 15 02 19 02 48  0.0000000  0  8G04G16G18G19G21G22G27G32
  22987414.440   120799708.18808  22987412.840    94129647.20946
  21007297.780   110394101.74609  21007294.160    86021379.15948
  22261780.700   116986540.26209  22261776.880    91158363.17347
  21826967.960   114701503.68409  21826963.040    89377794.43848
  24262111.060   127498248.16407  24262107.280    99349274.69245
  20639907.020   108463532.97009  20639901.740    84517060.33749
  20560158.660   108044399.82209  20560157.860    84190455.62349
  24367804.440   128053679.70008  24367805.060    99782100.81945
 15 02 19 02 48 30.0000000  0  8G04G16G18G19G21G22G27G32
  22972816.480   120722995.52408  22972814.880    94069871.14246
  21017316.680   110446751.79109  21017313.140    86062405.14848
  22272863.500   117044781.10109  22272859.620    91203745.65347
  21815168.620   114639497.28409  21815163.600    89329477.76748
  24275117.700   127566598.00608  24275113.560    99402534.29945
  20638882.620   108458149.69809  20638877.320    84512865.58449
  20554830.080   108016397.88209  20554829.300    84168635.93049
  24345228.460   127935043.07608  24345229.160    99689656.87245
 15 02 19 02 49  0.0000000  0  8G04G16G18G19G21G22G27G32
  22958257.260   120646486.23609  22958255.620    94010253.53146
  21027432.460   110499911.12809  21027429.020    86103827.99648
  22284016.980   117103393.50609  22284013.040    91249417.64747
  21803399.160   114577648.35209  21803394.160    89281283.80248
  24288122.540   127634937.28608  24288118.840    99455785.60745
  20637959.560   108453298.92009  20637954.220    84509085.76349
  20549555.680   107988680.64709  20549554.860    84147038.08249
  24322663.180   127816462.81708  24322663.780    99597256.86345
 15 02 19 02 49 30.0000000  0  9G04G11G16G18G19G21G22G27G32
  22943737.120   120570182.00409  22943735.400    93950795.70546
  24641880.720   129493947.68405                                
  21037645.200   110553579.77309  21037641.860    86145647.70648
  22295241.040   117162376.98109  22295237.200    91295378.77847
  21791660.000   114515959.27009  21791655.020    89233214.40548
  24301125.200   127703267.22408  24301121.240    99509029.65845
  20637138.100   108448982.30709  20637132.760    84505722.16949
  20544335.940   107961250.80509  20544335.140    84125664.17449
  24300109.360   127697942.75908  24300109.880    99504903.74144
 15 02 19 02 50  0.0000000  0  9G04G11G16G18G19G21G22G27G32
  22929255.280   120494079.08009  22929253.540    93891494.74946
  24625194.640   129406260.24405  24625190.200   100836049.90043
  21047953.760   110607752.13109  21047950.560    86187859.92148
  22306534.580   117221725.43309  22306530.720    91341624.32347
  21779950.700   114454427.56609  21779945.840    89185267.63948
  24314125.660   127771583.54008  24314121.460    99562263.18145
  20636417.380   108445195.29509  20636412.140    84502771.26749
  20539170.460   107934105.95609  20539169.680    84104512.34649
  24277566.720   127579481.78508  24277567.320    99412596.67145
 15 02 19 02 50 30.0000000  0  9G04G11G16G18G19G21G22G27G32
  22914811.420   120418175.90409  22914809.640    93832349.44746
  24608519.000   129318628.54506  24608511.560   100767747.73842
  21058357.340   110662423.69909  21058354.240    86230461.14148
  22317896.860   117281435.14609  22317893.160    91388151.37047
  21768271.180   114393052.40409  21768266.500    89137442.84848
  24327122.780   127839883.63808  24327119.520    99615483.93046
  20635797.040   108441936.04609  20635791.940    84500231.60449
  20534059.160   107907245.52509  20534058.320    84083582.15549
  24255035.440   127461080.46008  24255036.000    99320336.06244
 15 02 19 02 51  0.0000000  0  9G04G11G16G18G19G21G22G27G32
  22900406.080   120342475.15809  22900404.240    93773361.87146
  24591854.160   129231053.28106  24591848.720   100699507.31042
  21068856.280   110717596.33209  21068853.280    86273452.78948
  22329328.120   117341506.95409  22329324.420    91434960.57547
  21756622.320   114331837.75909  21756617.700    89089743.13548
  24340117.200   127908170.06208  24340113.420    99668694.14544
  20635277.520   108439206.63809  20635272.540    84498104.79949
  20529002.820   107880673.50409  20529001.860    84062876.68049
  24232516.540   127342743.94808  24232516.920    99228125.95244
 15 02 19 02 51 30.0000000  0  9G04G11G16G18G19G21G22G27G32
  22886038.660   120266973.72009  22886036.780    93714529.60046
  24575199.560   129143532.38106  24575195.180   100631309.28443
  21079449.500   110773264.34209  21079446.560    86316830.44048
  22340827.200   117401935.28509  22340823.560    91482047.57447
  21745003.660   114270781.16009  21744999.020    89042166.58348
  24353108.440   127976438.64508  24353105.040    99721890.42045
  20634858.220   108437003.62209  20634853.280    84496388.17049
  20524000.980   107854387.81109  20523999.880    84042394.31149
  24210009.840   127224471.45008  24210010.140    99135965.74444
 15 02 19 02 52  0.0000000  0  9G04G11G16G18G19G21G22G27G32
  22871712.360   120191688.51609  22871710.400    93655865.81946
  24558558.420   129056082.86606  24558554.320   100563174.82043
  21090139.920   110829442.89409  21090137.000    86360605.91748
  22352396.840   117462734.62109  22352393.340    91529423.68847
  21733418.580   114209900.53409  21733413.820    88994727.14448
  24366099.080   128044705.89708  24366096.040    99775085.62545
  20634542.240   108435343.21709  20634537.280    84495094.34849
  20519057.000   107828406.60809  20519055.820    84022149.21849
  24187519.080   127106282.36808  24187519.300    99043870.51845
 15 02 19 02 52 30.0000000  0  9G04G11G16G18G19G21G22G27G32
  22857422.740   120116596.34509  22857420.760    93597352.48046
  24541926.340   128968681.53406  24541923.000   100495069.98043
  21100922.760   110886106.86709  21100919.800    86404759.65648
  22364032.240   117523879.48909  22364028.920    91577069.05447
  21721862.920   114149174.20309  21721858.000    88947407.94248
  24379085.220   128112948.00007  24379082.360    99828261.29645
  20634325.060   108434201.83209  20634320.040    84494204.96649
  20514166.660   107802708.05009  20514165.560    84002124.38049
  24165040.280   126988155.83908  24165040.340    98951824.05044
 15 02 19 02 53  0.0000000  0  9G04G11G16G18G19G21G22G27G32
  22843173.160   120041714.59309  22843171.280    93539003.07746
  24525306.740   128881345.97406  24525303.700   100427016.35442
  21111800.840   110943271.16109  21111797.800    86449303.24348
  22375736.360   117585385.67509  22375733.100    91624995.92347
  21710340.020   114088620.27409  21710335.080    88900223.07048
  24392069.640   128181182.01108  24392066.600    99881430.64346
  20634209.900   108433596.40209  20634204.820    84493733.20949
  20509333.560   107777310.54809  20509332.520    83982334.12749
  24142577.180   126870111.69408  24142577.180    98859841.75345
 15 02 19 02 53 30.0000000  0  9G04G11G16G18G19G21G22G27G32
  22828961.800   119967033.76009  22828959.980    93480810.24346
  24508697.900   128794066.58206  24508694.980   100359006.44943
  21122771.920   111000924.14209  21122768.760    86494227.63048
  22387507.060   117647241.11309  22387503.760    91673194.97047
  21698848.240   114028230.28709  21698843.260    88853165.95048
  24405050.360   128249397.76008  24405047.960    99934585.62945
  20634194.800   108433516.77709  20634189.640    84493671.16649
  20504556.160   107752205.81909  20504555.200    83962771.99949
  24120128.380   126752142.82108  24120128.280    98767918.11844
 15 02 19 02 54  0.0000000  0  9G04G11G16G18G19G21G22G27G32
  22814788.940   119892555.30409  22814787.160    93422775.11346
  24492100.220   128706844.76406  24492097.380   100291041.46041
  21133835.820   111059065.19209  21133832.580    86539532.33448
  22399344.140   117709445.16009  22399341.000    91721665.66847
  21687388.040   113968006.52409  21687382.960    88806238.34048
  24418028.200   128317596.10207  24418025.480    99987727.29146
  20634279.920   108433963.58409  20634274.600    84494019.34249
  20499835.040   107727396.51609  20499834.140    83943440.07849
  24097694.620   126634253.09508  24097694.240    98676056.17745
 15 02 19 02 54 30.0000000  0  9G04G11G16G18G19G21G22G27G32
  22800655.600   119818284.41408  22800653.800    93364901.71446
  24475514.520   128619686.06506  24475511.600   100223125.62143
  21144993.320   111117698.02709  21144990.020    86585220.24148
  22411248.180   117772000.74509  22411245.060    91770410.26647
  21675960.640   113907955.36609  21675955.500    88759445.23048
  24431003.300   128385781.92407  24431001.100   100040859.02045
  20634466.240   108434941.75409  20634460.660    84494781.56449
  20495171.440   107702889.12209  20495170.560    83924343.40749
  24075277.380   126516450.14208  24075277.060    98584261.84945
 15 02 19 02 55  0.0000000  0  9G04G11G16G18G19G21G22G27G32
  22786561.560   119744220.13008  22786559.920    93307189.30846
  24458940.340   128532589.12806  24458937.540   100155257.93544
  21156243.740   111176819.13609  21156240.320    86631288.63248
  22423218.580   117834904.81509  22423215.280    91819426.41847
  21664566.100   113848076.88509  21664560.960    88712786.68048
  24443975.660   128453953.79408  24443973.680   100093979.88846
  20634753.340   108436449.40009  20634747.500    84495956.35749
  20490565.320   107678683.71409  20490564.440    83905482.05049
  24052876.900   126398735.38008  24052876.600    98492536.21845
 15 02 19 02 55 30.0000000  0  9G04G11G16G18G19G21G22G27G32
  22772505.980   119670357.88208  22772504.460    93249634.34047
  24442377.100   128445549.94706  24442374.680   100087435.24244
  21167585.880   111236421.99609  21167582.340    86677732.40848
  22435254.000   117898150.49609  22435250.740    91868708.76147
  21653203.820   113788367.86609  21653198.800    88666260.16948
  24456944.960   128522106.38608  24456942.620   100147085.78145
  20635140.120   108438481.03909  20635134.060    84497539.45249
  20486016.060   107654777.13609  20486015.180    83886853.55049
  24030492.780   126281106.67408  24030492.520    98400877.66645
 15 02 19 02 56  0.0000000  0  9G04G11G16G18G19G21G22G27G32
  22758489.480   119596701.12208  22758488.060    93192239.50347
  24425825.600   128358571.72106  24425823.280   100019660.02141
  21179019.860   111296507.59009  21179016.260    86724552.34448
  22447354.660   117961739.07109  22447351.280    91918258.29647
  21641874.640   113728832.72309  21641869.780    88619869.16748
  24469910.980   128590242.50608  24469907.520   100200178.87045
  20635627.200   108441040.21209  20635621.040    84499533.62249
  20481524.540   107631173.97309  20481523.640    83868461.47149
  24008126.200   126163570.10408  24008125.780    98309290.88645
 15 02 19 02 56 30.0000000  0  9G04G11G16G18G19G21G22G27G32
  22744512.140   119523250.25108  22744510.780    93135005.09547
  24409286.020   128271655.58906  24409283.720    99951933.20443
  21190545.320   111357074.26509  21190541.760    86771747.14348
  22459520.160   118025668.74009  22459516.620    91968073.63247
  21630578.860   113669473.13009  21630574.120    88573614.94948
  24482874.020   128658362.30108  24482871.120   100253259.11745
  20636214.500   108444126.73309  20636208.420    84501938.71349
  20477091.060   107607875.88109  20477090.160    83850307.12849
  23985777.660   126046128.43008  23985777.340    98217778.08045
 15 02 19 02 57  0.0000000  0  9G04G11G16G18G19G21G22G27G32
  22730573.580   119450003.18308  22730572.280    93077929.49946
  24392757.700   128184798.80006  24392754.980    99884252.60143
  21202161.500   111418118.00009  21202158.060    86819313.67748
  22471749.720   118089935.22009  22471746.260    92018151.40147
  21619316.200   113610287.73909  21619311.540    88527496.47748
  24495833.600   128726462.91008  24495829.480   100306324.60944
  20636901.460   108447737.32609  20636895.560    84504752.16549
  20472715.440   107584881.84809  20472714.520    83832389.70649
  23963447.240   125928781.86708  23963446.920    98126339.35145
 15 02 19 02 57 30.0000000  0  9G04G11G16G18G19G21G22G27G32
  22716674.900   119376965.36108  22716673.600    93021016.93047
  24376241.780   128098007.32706  24376239.400    99816622.98343
  21213869.000   111479641.89309  21213865.740    86867254.36148
  22484043.940   118154541.39009  22484040.360    92068493.88247
  21608088.000   113551283.39909  21608083.360    88481519.08348
  24508790.260   128794550.06908  24508786.640   100359379.39246
  20637689.120   108451877.14609  20637683.400    84507978.00249
  20468398.940   107562198.75809  20468398.080    83814714.57749
  23941136.440   125811538.42308  23941136.060    98034980.97345
 15 02 19 02 58  0.0000000  0  9G04G11G16G18G19G21G22G27G32
  22702815.280   119304132.44508  22702813.980    92964264.03847
  24359737.380   128011276.77406  24359735.000    99749040.71744
  21225666.560   111541639.04309  21225663.440    86915563.81848
  22496401.600   118219481.37109  22496398.100    92119096.45247
  21596893.660   113492456.78209  21596888.900    88435680.15348
  24521743.560   128862618.62508  24521739.100   100412419.85044
  20638576.500   108456541.03209  20638570.940    84511612.19949
  20464141.000   107539823.45809  20464140.220    83797279.28749
  23918844.940   125694396.38108  23918844.520    97943701.61945
 15 02 19 02 58 30.0000000  0  9G04G11G16G18G19G21G22G27G32
  22688995.140   119231507.17708  22688993.840    92907672.95247
  24343245.140   127924610.02006  24343242.740    99681508.19443
  21237554.440   111604110.76809  21237551.460    86964243.06848
  22508822.840   118284755.21809  22508819.260    92169959.19247
  21585733.920   113433811.90509  21585729.020    88389982.84848
  24534693.080   128930670.71407  24534688.900   100465447.31545
  20639563.960   108461730.77409  20639558.520    84515656.15449
  20459942.380   107517759.79009  20459941.640    83780086.82449
  23896573.740   125577360.77108  23896573.200    97852505.19045
 15 02 19 02 59  0.0000000  0  9G04G11G16G18G19G21G22G27G32
  22675214.220   119159087.84608  22675212.760    92851242.32947
  24326764.760   127838005.15206  24326762.220    99614023.94843
  21249531.800   111667052.32809  21249528.860    87013288.42748
  22521306.800   118350359.17309  22521303.180    92221079.14047
  21574608.540   113375347.95409  21574603.600    88344426.52348
  24547639.640   128998703.82208  24547635.860   100518460.16145
  20640651.020   108467443.83309  20640645.700    84520107.89049
  20455803.000   107496007.16709  20455802.260    83763136.72449
  23874322.840   125460432.18308  23874322.400    97761392.16445
 15 02 19 02 59 30.0000000  0  9G04G11G16G18G19G21G22G27G32
  22661473.120   119086877.80708  22661471.580    92794974.78346
  24310296.980   127751466.21307  24310294.280    99546591.01744
  21261598.980   111730465.63709  21261596.020    87062701.38148
  22533853.800   118416294.37309  22533850.140    92272457.22747
  21563518.440   113317069.57709  21563513.520    88299014.81048
  24560582.580   129066721.49107  24560579.320   100571460.82545
  20641838.280   108473683.20009  20641833.060    84524969.74049
  20451723.780   107474570.37209  20451723.000    83746432.72449
  23852093.460   125343616.77508  23852093.120    97670367.33045
 15 02 19 03 00  0.0000000  0  9G04G11G16G18G19G21G22G27G32
  22647771.140   119014873.13009  22647769.520    92738867.27146
  24293841.000   127664989.04207  24293838.300    99479206.25044
  21273754.740   111794344.10909  21273751.680    87112476.80548
  22546462.680   118482554.74509  22546459.100    92324088.67747
  21552463.120   113258974.06409  21552458.340    88253745.58848
  24573522.020   129134719.24808  24573518.160   100624446.12744
  20643124.800   108480443.99709  20643119.660    84530237.90949
  20447704.200   107453446.75609  20447703.320    83729972.75749
  23829885.320   125226913.02108  23829885.020    97579429.47145
 15 02 19 03 00 30.0000000  0  9G04G11G16G18G19G21G22G27G32
  22634108.460   118943074.93308  22634106.740    92682920.64147
  24277397.040   127578575.38306  24277394.560    99411870.94943
  21285998.820   111858686.78409  21285995.660    87162613.94248
  22559133.220   118549138.98009  22559129.560    92375972.48847
  21541443.140   113201063.77509  21541438.420    88208620.70248
  24586457.940   129202697.88507  24586454.660   100677416.49246
  20644510.600   108487726.25709  20644505.500    84535912.40149
  20443744.640   107432638.62809  20443743.620    83713758.62349
  23807699.140   125110324.47808  23807698.920    97488581.38545
 15 02 19 03 01  0.0000000  0  9G04G11G16G18G19G21G22G27G32
  22620486.080   118871488.62008  22620484.240    92627139.13546
  24260966.040   127492230.38906  24260963.800    99344589.19544
  21298331.760   111923496.48709  21298328.520    87213114.99448
  22571866.020   118616050.45309  22571862.440    92428111.30247
  21530459.800   113143345.57409  21530455.060    88163645.48448
  24599390.580   129270662.55908  24599388.220   100730375.83144
  20645996.680   108495535.43909  20645991.600    84541997.47449
  20439846.320   107412152.77109  20439845.240    83697795.60849
  23785536.400   124993859.37708  23785536.220    97397829.49345
 15 02 19 03 01 30.0000000  0  9G04G11G16G18G19G21G22G27G32
  22606902.720   118800107.64708  22606900.840    92571517.62646
  24244546.740   127405947.20507  24244544.700    99277355.59544
  21310751.940   111988764.57209  21310748.600    87263973.23148
  22584659.240   118683280.03709  22584655.900    92480497.98947
  21519511.860   113085813.44809  21519507.080    88118815.25648
  24612319.760   129338605.52807  24612316.700   100783318.51645
  20647581.480   108503863.24109  20647576.380    84548486.68349
  20436008.160   107391983.39309  20436007.140    83682079.21149
  23763396.280   124877512.97308  23763396.080    97307170.10345
 15 02 19 03 02  0.0000000  0  9G04G11G16G18G19G21G22G27G32
  22593358.940   118728934.80508  22593357.000    92516058.30446
  24228139.980   127319729.70107  24228137.820    99210173.15144
  21323259.500   112054491.75209  21323256.040    87315189.20148
  22597513.280   118750828.67309  22597509.880    92533133.28147
  21508600.140   113028471.84409  21508595.320    88074133.49148
  24625245.180   129406530.47408  24625243.040   100836246.89645
  20649265.480   108512712.40609  20649260.360    84555382.12749
  20432231.080   107372135.00109  20432230.180    83666612.91949
  23741279.880   124761291.17908  23741279.740    97216607.79545
 15 02 19 03 02 30.0000000  0  9G04G11G16G18G19G21G22G27G32
  22579854.320   118657967.69508  22579852.380    92460759.29246
  24211745.240   127233575.02607  24211743.360    99143039.70743
  21335853.400   112120672.86409  21335849.880    87366758.88948
  22610427.060   118818691.41809  22610423.700    92586013.34247
  21497724.420   112971319.28209  21497719.600    88029599.04148
  24638166.940   129474433.52308  24638164.280   100889158.42244
  20651047.940   108522079.12509  20651042.780    84562680.87849
  20428514.840   107352606.23509  20428514.060    83651395.71049
  23719187.180   124645193.76108  23719186.980    97126142.39545
 15 02 19 03 03  0.0000000  0 10G04G11G14G16G18G19G21G22G27G32
  22566389.260   118587208.48509  22566387.300    92405622.27746
  24195363.020   127147485.50907  24195360.760    99075957.02244
  24679041.460   129689235.87208  24679037.700   101056536.43444
  21348533.660   112187307.97009  21348530.080    87418682.33448
  22623400.820   118886868.84209  22623397.600    92639138.59846
  21486885.420   112914359.53709  21486880.520    87985214.82948
  24651085.160   129542316.91708  24651082.220   100942054.50245
  20652929.120   108531964.81709  20652923.920    84570384.01848
  20424860.120   107333400.72609  20424859.400    83636430.37549
  23697119.080   124529225.69408  23697118.860    97035777.79645
 15 02 19 03 03 30.0000000  0 10G04G11G14G16G18G19G21G22G27G32
  22552962.900   118516652.62908  22552960.980    92350643.71747
  24178992.340   127061456.92607  24178989.900    99008921.81143
  24664863.960   129614732.15708  24664860.240   100998481.61244
  21361298.920   112254389.73009  21361295.280    87470953.82348
  22636433.160   118955353.70509  22636429.820    92692503.42447
  21476082.460   112857589.14209  21476077.540    87940978.16948
  24663998.440   129610175.71808  24663995.140   100994931.48645
  20654907.980   108542364.01709  20654902.680    84578487.28749
  20421266.260   107314514.92709  20421265.540    83621714.16649
  23675075.180   124413384.68808  23675075.020    96945512.19246
 15 02 19 03 04  0.0000000  0 10G04G11G14G16G18G19G21G22G27G32
  22539577.200   118446310.64708  22539575.360    92295831.81446
  24162635.340   126975499.98707  24162632.820    98941942.41444
  24650688.140   129540236.10508  24650684.480   100940432.74444
  21374150.920   112321927.39909  21374147.240    87523580.56948
  22649525.620   119024154.26309  22649522.020    92746114.25347
  21465317.760   112801019.88109  21465312.780    87896898.23248
  24676908.920   129678020.16307  24676905.560   101047797.26445
  20656986.380   108553286.39509  20656980.980    84586998.23949
  20417735.500   107295960.70209  20417734.760    83607256.32949
  23653057.960   124297683.93308  23653057.720    96855355.85446
 15 02 19 03 04 30.0000000  0 10G04G11G14G16G18G19G21G22G27G32
  22526231.340   118376178.26608  22526229.620    92241183.22747
  24146291.200   126889610.75807  24146288.580    98875015.75544
  24636513.360   129465746.06108  24636509.940   100882388.57044
  21387088.340   112389914.13909  21387084.660    87576557.24048
  22662676.960   119093264.37509  22662673.280    92799966.29047
  21454590.720   112744648.87309  21454585.640    87852972.78248
  24689815.740   129745845.92007  24689811.980   101100648.45945
  20659163.400   108564726.84709  20659157.840    84595912.87748
  20414267.300   107277735.20209  20414266.540    83593054.63849
  23631067.140   124182121.87008  23631066.780    96765307.60646
 15 02 19 03 05  0.0000000  0 10G04G11G14G16G18G19G21G22G27G32
  22512925.400   118306255.59909  22512923.780    92186698.07047
  24129959.840   126803789.14207  24129957.340    98808141.80244
  24622340.120   129391264.91708  24622336.900   100824351.28844
  21400110.680   112458347.29709  21400107.100    87629881.76648
  22675886.780   119162681.81709  22675882.960    92854057.79147
  21443901.580   112688477.34009  21443896.440    87809202.76148
  24702719.120   129813652.73307  24702715.400   101153484.91645
  20661438.880   108576684.65609  20661433.220    84605230.65549
  20410861.920   107259839.59309  20410861.120    83579110.01349
  23609103.180   124066700.89608  23609102.820    96675369.31846
 15 02 19 03 05 30.0000000  0 10G04G11G14G16G18G19G21G22G27G32
  22499659.520   118236543.16609  22499657.980    92132376.72247
  24113641.500   126718036.09607  24113638.900    98741321.29044
  24608168.800   129316795.52807  24608165.940   100766323.24045
  21413217.520   112527224.65509  21413214.060    87683552.41748
  22689154.620   119232404.48009  22689150.820    92908387.13447
  21433250.780   112632507.17109  21433245.620    87765589.63348
  24715618.580   129881440.76508  24715615.440   101206306.63444
  20663812.660   108589159.23509  20663807.020    84614951.10448
  20407519.680   107242275.61709  20407518.820    83565423.78949
  23587166.620   123951424.05508  23587166.260    96585543.32245
 15 02 19 03 06  0.0000000  0 10G04G11G14G16G18G19G21G22G27G32
  22486433.660   118167040.59709  22486432.100    92078218.90147
  24097336.240   126632351.49207  24097333.740    98674554.10344
  24594000.040   129242340.35108  24593997.260   100708306.24444
  21426408.520   112596544.18009  21426405.180    87737567.61748
  22702480.080   119302430.14209  22702476.400    92962952.56747
  21422638.520   112576739.40209  21422633.420    87722134.23148
  24728514.380   129949209.08207  24728510.940   101259113.15044
  20666284.540   108602149.21809  20666278.960    84625073.17949
  20404240.740   107225044.33509  20404239.800    83551996.80849
  23565258.020   123836293.73208  23565257.540    96495831.48746
 15 02 19 03 06 30.0000000  0 10G04G11G14G16G18G19G21G22G27G32
  22473247.520   118097746.31809  22473245.820    92024223.40147
  24081043.780   126546734.15007  24081041.300    98607839.33844
  24579833.960   129167900.36207  24579831.240   100650301.04545
  21439682.880   112666301.57609  21439679.700    87791924.01848
  22715862.380   119372754.80009  22715858.660    93017751.00647
  21412064.680   112521173.36709  21412059.680    87678836.03348
  24741406.320   130016955.89307  24741402.820   101311902.86045
  20668854.060   108615651.94509  20668848.480    84635594.79249
  20401024.940   107208145.15309  20401023.960    83538828.61849
  23543377.440   123721310.59508  23543376.880    96406234.36646
 15 02 19 03 07  0.0000000  0 10G04G11G14G16G18G19G21G22G27G32
  22460101.320   118028661.96909  22460099.460    91970391.46347
  24064764.420   126461185.43307  24064761.860    98541178.04544
  24565671.580   129093480.18407  24565669.260   100592311.31545
  21453040.420   112736495.77809  21453037.360    87846620.78548
  22729301.520   119443378.13409  22729297.700    93072782.16746
  21401529.800   112465812.34309  21401524.940    87635697.58248
  24754294.540   130084682.78008  24754291.240   101364676.97645
  20671521.400   108629668.52509  20671515.760    84646516.81149
  20397872.880   107191581.20209  20397871.960    83525921.64349
  23521525.580   123606478.92308  23521525.020    96316755.25845
 15 02 19 03 07 30.0000000  0 10G04G11G14G16G18G19G21G22G27G32
  22446995.160   117959788.20209  22446993.160    91916723.61647
  24048498.340   126375706.56607  24048495.580    98474571.16744
  24551513.580   129019083.06207  24551511.860   100534339.53844
  21466480.940   112807125.69309  21466477.880    87901657.06848
  22742797.120   119514298.23709  22742793.300    93128044.58146
  21391034.220   112410658.28609  21391029.540    87592720.39748
  24767179.140   130152390.21508  24767176.040   101417435.93844
  20674286.380   108644198.30709  20674280.700    84657838.72749
  20394784.980   107175354.40709  20394784.100    83513277.38349
  23499703.240   123491802.24408  23499702.640    96227396.88545
 15 02 19 03 08  0.0000000  0 10G04G11G14G16G18G19G21G22G27G32
  22433928.800   117891123.80409  22433926.720    91863218.91347
  24032245.260   126290296.21007  24032242.300    98408017.67744
  24537360.420   128944710.57107  24537359.140   100476386.95345
  21480003.580   112878187.19209  21480000.500    87957029.64648
  22756348.620   119585512.14709  22756344.740    93183535.93246
  21380577.920   112355710.96009  21380573.400    87549904.31548
  24780059.400   130220076.46207  24780056.440   101470178.40745
  20677148.580   108659238.98809  20677142.860    84669558.74249
  20391761.240   107159464.63809  20391760.360    83500895.74149
  23477910.560   123377281.44208  23477909.800    96138159.98246
 15 02 19 03 08 30.0000000  0 10G04G11G14G16G18G19G21G22G27G32
  22420901.920   117822666.94809  22420899.800    91809875.94547
  24016004.900   126204952.95708  24016002.040    98341516.47144
  24523212.640   128870363.47507  24523211.640   100418454.16345
  21493607.540   112949676.26809  21493604.440    88012735.41248
  22769955.160   119657015.37909  22769951.220    93239252.71946
  21370160.960   112300970.11809  21370156.520    87507249.12548
  24792935.400   130287739.48108  24792932.520   101522902.78545
  20680107.460   108674787.94709  20680101.780    84681674.82249
  20388801.600   107143911.43809  20388800.680    83488776.36649
  23456147.720   123262917.46908  23456146.800    96049045.30645
 15 02 19 03 09  0.0000000  0 10G04G11G14G16G18G19G21G22G27G32
  22407914.660   117754418.74409  22407912.620    91756695.56547
  23999777.740   126119678.46108  23999774.840    98275068.87044
  24509070.880   128796045.63307  24509069.780   100360544.16145
  21507292.600   113021591.65209  21507289.500    88068773.36148
  22783616.720   119728807.17409  22783612.600    93295194.38446
  21359783.860   112246438.40409  21359779.320    87464756.89148
  24805807.240   130355380.33008  24805804.220   101575609.89844
  20683162.960   108690844.62909  20683157.360    84694186.52949
  20385906.460   107128697.12209  20385905.500    83476921.05649
  23434415.440   123148714.02908  23434414.400    95960055.70345
 15 02 19 03 09 30.0000000  0 10G04G11G14G16G18G19G21G22G27G32
  22394967.500   117686381.70009  22394965.640    91703679.71147
  23983564.040   126034474.90808  23983561.040    98208676.51845
  24494935.920   128721762.50408  24494934.540   100302661.21344
  21521058.560   113093932.43909  21521055.540    88125142.77848
  22797333.240   119800887.66109  22797328.860    93351360.98047
  21349447.320   112192119.41809  21349442.560    87422430.40048
  24818675.020   130423001.15408  24818671.980   101628301.39845
  20686315.440   108707411.16009  20686309.960    84707095.51249
  20383076.520   107113825.40909  20383075.520    83465332.69749
  23412714.700   123034676.13908  23412713.500    95871195.08945
 15 02 19 03 10  0.0000000  0 10G04G11G14G16G18G19G21G22G27G32
  22382060.500   117618555.48009  22382058.720    91650828.15247
  23967363.900   125949342.64808  23967360.820    98142339.73445
  24480808.000   128647516.44107  24480806.060   100244807.09145
  21534905.140   113166696.89209  21534902.180    88181842.34848
  22811104.220   119873254.39709  22811099.760    93407750.64746
  21339151.420   112138014.15809  21339146.620    87380270.47848
  24831538.900   130490601.42607  24831536.080   101680976.82045
  20689564.620   108724485.79009  20689559.220    84720400.42249
  20380312.000   107099297.34309  20380310.920    83454012.12649
  23391045.900   122920806.00508  23391044.640    95782465.19945
 15 02 19 03 10 30.0000000  0 10G04G11G14G16G18G19G21G22G27G32
  22369193.620   117550939.87409  22369191.800    91598140.69147
  23951177.280   125864281.57508  23951174.140    98076058.41344
  24466687.360   128573310.11207  24466685.000   100186984.01444
  21548831.900   113239882.66509  21548828.980    88238870.21548
  22824929.180   119945904.85209  22824924.560    93464361.37946
  21328896.440   112084124.05109  21328891.680    87338278.19948
  24844398.800   130558180.95307  24844395.900   101733636.21744
  20692910.220   108742067.51409  20692904.960    84734100.48049
  20377613.000   107085113.96509  20377611.940    83442960.15449
  23369409.480   122807106.04708  23369408.340    95693867.94045
 15 02 19 03 11  0.0000000  0 10G04G11G14G16G18G19G21G22G27G32
  22356367.060   117483536.14609  22356365.160    91545618.32647
  23935004.400   125779293.04508  23935001.460    98009833.63445
  24452574.820   128499147.18908  24452572.160   100129194.73844
  21562838.400   113313487.34509  21562835.440    88296224.49348
  22838807.960   120018837.91309  22838803.260    93521192.34846
  21318682.980   112030451.77209  21318678.200    87296455.64848
  24857254.640   130625740.44607  24857252.160   101786279.84244
  20696352.220   108760155.81909  20696347.020    84748195.26149
  20374980.020   107071277.56709  20374978.960    83432178.53549
  23347806.140   122693580.00508  23347805.000    95605406.13446
 15 02 19 03 11 30.0000000  0 10G04G11G14G16G18G19G21G22G27G32
  22343580.420   117416342.13009  22343578.520    91493259.38247
  23918844.900   125694375.25308  23918842.120    97943663.97945
  24438470.540   128425028.50308  24438467.800   100071439.92644
  21576923.860   113387507.07609  21576920.900    88353902.19548
  22852739.700   120092049.60409  22852735.040    93578240.40446
  21308510.700   111976996.13809  21308505.980    87254801.93148
  24870106.520   130693277.55008  24870103.680   101838906.20444
  20699890.240   108778748.38509  20699885.080    84762682.99249
  20372412.940   107057787.39209  20372411.860    83421666.72849
  23326235.980   122580228.36508  23326234.820    95517080.28146
 15 02 19 03 12  0.0000000  0 10G04G11G14G16G18G19G21G22G27G32
  22330834.400   117349361.52208  22330832.620    91441066.71047
  23902699.740   125609532.53208  23902697.100    97877552.82145
  24424375.640   128350960.44408  24424373.040   100013724.55145
  21591088.460   113461942.85909  21591085.540    88411904.08148
  22866724.680   120165541.11709  22866720.120    93635506.49446
  21298380.640   111923762.47109  21298375.980    87213321.15248
  24882954.940   130760796.31608  24882952.100   101891518.12145
  20703524.640   108797847.08009  20703519.420    84777565.08949
  20369912.720   107044648.45509  20369911.600    83411428.59449
  23304700.220   122467057.50808  23304699.120    95428895.25945
 15 02 19 03 12 30.0000000  0 10G04G11G14G16G18G19G21G22G27G32
  22318128.100   117282589.68009  22318126.420    91389036.73647
  23886568.020   125524760.05008  23886565.420    97811496.39944
  24410289.960   128276941.50108  24410287.780    99956047.46145
  21605330.840   113536787.44709  21605327.940    88470224.52948
  22880761.520   120239305.54309  22880757.100    93692985.25746
  21288292.220   111870747.50309  21288287.560    87172010.81048
  24895799.040   130828291.42906  24895796.080   101944111.67144
  20707254.320   108817446.22909  20707249.000    84792837.16149
  20367478.680   107031857.31009  20367477.560    83401461.46849
  23283198.420   122354065.28008  23283197.380    95340849.46945
 15 02 19 03 13  0.0000000  0 10G04G11G14G16G18G19G21G22G27G32
  22305462.200   117216030.04208  22305460.500    91337172.12047
  23870450.460   125440061.31108  23870447.660    97745497.42545
  24396214.640   128202977.36808  24396212.920    99898413.09445
  21619651.160   113612041.60409  21619648.320    88528864.11648
  22894850.520   120313343.94509  22894846.360    93750677.49646
  21278246.260   111817955.77109  21278241.600    87130874.39148
  24908639.200   130895766.19808  24908635.660   101996689.40844
  20711079.680   108837548.29009  20711074.280    84808501.11549
  20365111.640   107019418.43109  20365110.580    83391768.83349
  23261731.700   122241257.44908  23261730.680    95252947.33546
 15 02 19 03 13 30.0000000  0 10G04G11G14G16G18G19G21G22G27G32
  22292836.400   117149681.10209  22292834.560    91285471.67647
  23854346.840   125355435.61508  23854343.840    97679555.33945
  24382150.140   128129069.61907  24382148.580    99840822.63045
  21634048.840   113687701.78909  21634045.960    88587820.08848
  22908990.980   120387652.95309  22908987.040    93808580.62146
  21268242.880   111765387.84109  21268238.260    87089912.37448
  24921475.260   130963219.05507  24921471.640   102049250.04445
  20715000.160   108858150.52809  20714994.680    84824554.80549
  20362811.600   107007331.83409  20362810.580    83382350.70949
  23240300.340   122128635.41308  23240299.460    95165189.98446
 15 02 19 03 14  0.0000000  0 10G04G11G14G16G18G19G21G22G27G32
  22280250.640   117083542.55709  22280248.660    91233935.17447
  23838257.020   125270882.63308  23838253.880    97613669.94145
  24368097.040   128055220.82108  24368095.680    99783278.11445
  21648523.280   113763764.76809  21648520.280    88647089.93548
  22923182.420   120462230.03808  22923178.880    93866692.61946
  21258282.240   111713044.46609  21258277.700    87049125.33748
  24934306.900   131030649.79707  24934303.160   102101793.39144
  20719015.500   108879251.26409  20719009.900    84840996.93649
  20360578.760   106995598.22809  20360577.740    83373207.63549
  23218904.740   122016201.25608  23218903.780    95077579.01646
 15 02 19 03 14 30.0000000  0 10G04G11G14G16G18G19G21G22G27G32
  22267705.460   117017617.38609  22267703.480    91182564.93347
  23822181.600   125186405.77808  23822178.460    97547843.84345
  24354056.320   127981436.59907  24354055.080    99725783.94445
  21663074.420   113840230.53609  21663071.260    88706673.64548
  22937425.060   120537075.93709  22937421.540    93925014.10346
  21248365.140   111660929.99609  21248360.680    87008516.68148
  24947135.000   131098061.07108  24947131.100   102154321.78144
  20723126.040   108900852.11109  20723120.300    84857828.78049
  20358413.940   106984221.94809  20358412.840    83364342.99849
  23197546.040   121903960.67208  23197545.040    94990118.88946
 15 02 19 03 15  0.0000000  0 10G04G11G14G16G18G19G21G22G27G32
  22255200.440   116951903.18609  22255198.460    91131359.08647
  23806120.240   125102003.12508  23806117.040    97482075.56444
  24340028.060   127907717.45908  24340026.880    99668340.46744
  21677701.420   113917094.99209  21677698.120    88766568.01948
  22951717.940   120612186.14108  22951714.820    93983541.50846
  21238491.480   111609043.39409  21238486.980    86968085.57148
  24959958.720   131165450.43007  24959955.060   102206832.84545
  20727331.200   108922949.85309  20727325.320    84875047.79749
  20356316.860   106973201.91509  20356315.720    83355755.95749
  23176224.220   121791913.83608  23176223.140    94902809.72946
 15 02 19 03 15 30.0000000  0 10G04G11G14G16G18G19G21G22G27G32
  22242735.420   116886399.06909  22242733.420    91080316.92547
  23790072.740   125017673.50308  23790069.540    97416364.18045
  24326012.700   127834065.13608  24326011.240    99610949.04044
  21692403.520   113994354.29709  21692400.040    88826770.05748
  22966060.540   120687557.45708  22966057.460    94042272.38146
  21228661.340   111557385.12409  21228656.780    86927832.37048
  24972777.960   131232816.38708  24972774.040   102259325.80144
  20731630.380   108945541.89109  20731624.440    84892651.98549
  20354287.540   106962538.20009  20354286.460    83347446.56149
  23154939.560   121680062.22408  23154938.460    94815652.68846
 15 02 19 03 16  0.0000000  0 10G04G11G14G16G18G19G21G22G27G32
  22230310.740   116821106.75609  22230308.680    91029439.81947
  23774039.660   124933419.48208  23774036.340    97350711.73245
  24312011.080   127760484.51808  24312009.500    99553613.51645
  21707180.600   114072007.89109  21707177.020    88887279.34148
  22980452.840   120763189.37809  22980449.960    94101206.32946
  21218875.240   111505958.66909  21218870.760    86887759.82248
  24985593.120   131300161.21407  24985589.200   102311802.29445
  20736023.760   108968629.15709  20736017.820    84910642.07449
  20352326.660   106952234.02209  20352325.640    83339417.32749
  23133692.940   121568410.39108  23133691.700    94728651.34146
 15 02 19 03 16 30.0000000  0 10G04G11G14G16G18G19G21G22G27G32
  22217926.540   116756027.44309  22217924.540    90978728.69447
  23758021.220   124849242.17208  23758017.940    97285119.05545
  24298023.820   127686979.50008  24298022.020    99496336.88645
  21722032.240   114150053.72309  21722028.680    88948094.26648
  22994894.540   120839080.74009  22994891.460    94160342.47746
  21209133.840   111454766.66709  21209129.280    86847869.95648
  24998404.420   131367485.58608  24998400.920   102364262.78044
  20740511.240   108992211.37509  20740505.400    84929017.84648
  20350434.700   106942291.66509  20350433.660    83331670.04649
  23112485.020   121456961.95808  23112483.620    94641808.46446
 15 02 19 03 17  0.0000000  0 10G04G11G14G16G18G19G21G22G27G32
  22205581.740   116691155.29909  22205579.860    90928178.99247
  23742016.520   124765136.61708  23742013.100    97219582.29045
  24284050.380   127613547.12908  24284048.520    99439116.87444
  21736956.980   114228483.90809  21736953.460    89009208.68448
  23009384.100   120915223.65708  23009381.060    94219674.58446
  21199436.240   111403804.41309  21199431.460    86808159.10948
  25011210.940   131434783.62307  25011206.980   102416702.79043
  20745091.520   109016281.41109  20745085.840    84947773.71849
  20348610.740   106932706.52509  20348609.620    83324201.10449
  23091315.220   121345713.82708  23091313.660    94555121.66846
 15 02 19 03 17 30.0000000  0  9G04G11G14G16G18G19G22G27G32
  22193278.320   116626500.72509  22193276.600    90877798.82747
  23726027.420   124681113.13508  23726024.060    97154109.46545
  24270093.420   127540200.85208  24270091.220    99381963.91645
  21751956.380   114307306.45509  21751952.920    89070628.83248
  23023923.140   120991626.50509  23023920.040    94279209.25646
  21189784.680   111353084.00409  21189779.640    86768636.70248
  20749766.400   109040848.56509  20749760.880    84966916.96149
  20346857.020   106923490.44709  20346855.800    83317019.73349
  23070186.020   121234679.05808  23070184.340    94468601.12446
 15 02 19 03 18  0.0000000  0  9G04G11G14G16G18G19G22G27G32
  22181014.720   116562055.25309  22181013.100    90827581.59847
  23710052.400   124597163.73808  23710049.040    97088694.38145
  24256151.640   127466934.71908  24256149.200    99324873.41544
  21767028.300   114386509.94209  21767024.860    89132345.82148
  23038509.620   121068278.56008  23038506.440    94338938.11046
  21180177.740   111302598.59209  21180172.560    86729297.42248
  20754534.040   109065902.92409  20754528.600    84986439.83449
  20345172.100   106914636.01109  20345170.840    83310120.16349
  23049096.260   121123851.64508  23049094.540    94382242.15646
 15 02 19 03 18 30.0000000  0  9G04G11G14G16G18G19G22G27G32
  22168791.580   116497822.21109  22168789.960    90777529.88147
  23694092.120   124513292.10008  23694088.900    97023339.88145
  24242226.080   127393754.83208  24242223.580    99267850.15945
  21782172.680   114466094.22009  21782169.280    89194359.53848
  23053143.740   121145181.01908  23053140.300    94398862.10246
  21170616.300   111252352.82509  21170611.020    86690144.87848
  20759394.780   109091446.34809  20759389.380    85006343.81149
  20343556.800   106906147.53709  20343555.580    83303505.76149
  23028047.000   121013237.36308  23028045.220    94296049.25446
 15 02 19 03 19  0.0000000  0  9G04G11G14G16G18G19G22G27G32
  22156609.560   116433804.86709  22156607.800    90727646.25547
  23678147.280   124429501.87408  23678144.220    96958048.82446
  24228317.860   127320667.72208  24228315.200    99210899.19944
  21797389.880   114546061.29809  21797386.540    89256671.53048
  23067825.620   121222334.73509  23067822.320    94458981.86046
  21161101.360   111202351.84609  21161096.100    86651183.08648
  20764349.040   109117481.18709  20764343.680    85026630.71049
  20342012.000   106898029.76609  20342010.880    83297180.21549
  23007039.440   120902842.24508  23007037.680    94210027.14646
 15 02 19 03 19 30.0000000  0  9G04G11G14G16G18G19G22G27G32
  22144467.440   116369997.28009  22144465.560    90677926.06447
  23662216.820   124345787.18308  23662213.920    96892816.61645
  24214426.680   127247670.21608  24214423.640    99154018.02844
  21812678.200   114626402.24609  21812674.940    89319274.85648
  23082553.820   121299731.69909  23082550.360    94519291.18346
  21151632.100   111152590.79509  21151626.860    86612408.23848
  20769395.360   109143999.83209  20769390.060    85047294.59649
  20340536.820   106890277.92909  20340535.840    83291139.81949
  22986072.960   120792662.93808  22986071.180    94124173.18946
 15 02 19 03 20  0.0000000  0  9G04G11G14G16G18G19G22G27G32
  22132365.360   116306400.51509  22132363.460    90628370.18047
  23646301.080   124262149.75708  23646298.240    96827644.63245
  24200553.320   127174765.92408  24200549.900    99097209.50144
  21828037.280   114707115.25809  21828034.120    89382168.11048
  23097327.960   121377370.58108  23097324.620    94579788.98246
  21142208.900   111103072.03909  21142203.660    86573822.20448
  20774533.640   109171001.70009  20774528.360    85068335.02949
  20339131.680   106882894.23609  20339130.840    83285386.29649
  22965148.200   120682702.96508  22965146.400    94038490.16446
 15 02 19 03 20 30.0000000  0 10G01G04G11G14G16G18G19G22G27G32
  24584607.800   129192992.97705  24584607.340   100669856.83343
  22120303.980   116243017.86109  22120302.140    90578981.10347
  23630400.740   124178593.14808  23630397.920    96762535.59646
  24186698.860   127101961.16308  24186695.540    99040478.55745
  21843467.300   114788200.95209  21843464.220    89445351.74748
  23112148.480   121455252.89509  23112144.960    94640476.48746
  21132832.780   111053800.59509  21132827.560    86535428.86348
  20779764.300   109198489.03809  20779759.020    85089753.72749
  20337797.480   106875883.16509  20337796.740    83279923.11749
  22944266.360   120572968.26108  22944264.540    93952982.64946
 15 02 19 03 21  0.0000000  0 10G01G04G11G14G16G18G19G22G27G32
  24569872.800   129115560.61305  24569873.060   100609519.91743
  22108283.440   116179849.94709  22108281.660    90529759.38447
  23614516.000   124095118.30408  23614513.120    96697490.29345
  24172863.960   127029259.47608  24172861.060    98983827.90245
  21858967.800   114869656.75509  21858964.760    89508823.79848
  23127014.880   121533376.59309  23127011.500    94701352.08446
  21123504.060   111004778.40609  21123498.900    86497229.75748
  20785087.200   109226460.91109  20785081.860    85111550.00249
  20336534.500   106869246.47309  20336533.860    83274751.66549
  22923428.000   120463461.99208  22923426.160    93867653.14646
 15 02 19 03 21 30.0000000  0 10G01G04G11G14G16G18G19G22G27G32
  24555159.300   129038240.61705  24555160.100   100549270.63543
  22096303.280   116116894.18009  22096301.600    90480702.96347
  23598646.340   124011722.85408  23598643.380    96632506.85046
  24159048.740   126956661.30308  24159046.440    98927257.89544
  21874537.940   114951478.46909  21874534.940    89572580.95748
  23141926.320   121611737.49908  23141923.060    94762412.51146
  21114222.720   110956004.95009  21114217.680    86459224.47348
  20790501.620   109254913.63009  20790496.160    85133720.95149
  20335342.580   106862983.02209  20335341.920    83269871.04449
  22902633.160   120354184.36308  22902631.280    93782501.80246
 15 02 19 03 22  0.0000000  0 10G01G04G11G14G16G18G19G22G27G32
  24540467.260   128961033.06605  24540468.580   100489108.98943
  22084363.580   116054150.74409  22084361.940    90431812.00247
  23582791.980   123928407.66208  23582788.940    96567585.96345
  24145253.640   126884169.48108  24145252.080    98870770.80645
  21890177.260   115033663.46909  21890174.260    89636621.20948
  23156882.460   121690333.24108  23156879.560    94823655.92046
  21104988.960   110907481.46109  21104984.060    86421413.96848
  20796007.320   109283845.96109  20796001.740    85156265.63448
  20334221.940   106857094.05309  20334221.280    83265282.24749
  22881882.300   120245137.99108  22881880.440    93697530.63646
 15 02 19 03 22 30.0000000  0 10G01G04G11G14G16G18G19G22G27G32
  24525796.300   128883936.81606  24525797.820   100429034.01444
  22072464.080   115991618.49409  22072462.480    90383085.58447
  23566952.780   123845171.95208  23566949.600    96502727.00946
  24131479.180   126811786.08107  24131478.340    98814368.17346
  21905884.940   115116207.55909  21905881.900    89700941.27048
  23171882.800   121769160.81208  23171879.720    94885080.02646
  21095802.860   110859208.43409  21095798.020    86383798.62649
  20801603.700   109313255.27309  20801598.100    85179181.98348
  20333172.620   106851579.63709  20333171.900    83260985.29249
  22861175.720   120136324.45708  22861173.800    93612740.90046
 15 02 19 03 23  0.0000000  0 10G01G04G11G14G16G18G19G22G27G32
  24511147.020   128806954.94806  24511148.880   100369048.19143
  22060605.400   115929300.74409  22060603.800    90334526.30947
  23551129.360   123762019.17108  23551126.100    96437932.67646
  24117726.560   126739516.97008  24117725.960    98758054.60345
  21921660.960   115199110.78309  21921657.900    89765541.16748
  23186927.220   121848220.75808  23186924.520    94946685.11846
  21086665.360   110811190.44809  21086660.480    86346382.01648
  20807291.060   109343143.09609  20807285.540    85202471.20049
  20332195.360   106846443.99409  20332194.660    83256983.49149
  22840514.480   120027749.27408  22840512.600    93528136.90846
 15 02 19 03 23 30.0000000  0 10G01G04G11G14G16G18G19G22G27G32
  24496518.660   128730083.15706  24496520.800   100309148.14944
  22048786.640   115867192.88809  22048784.960    90286130.59347
  23535320.980   123678945.50008  23535317.740    96373199.96846
  24103995.680   126667360.89008  24103995.020    98701829.11145
  21937504.180   115282367.04809  21937501.100    89830416.16248
  23202014.820   121927506.96008  23202012.040    95008466.58146
  21077575.920   110763424.94509  21077571.000    86309162.15148
  20813068.400   109373503.81909  20813062.980    85226128.91249
  20331289.580   106841684.04009  20331288.920    83253274.43949
  22819898.280   119919410.81108  22819896.340    93443717.36346
 15 02 19 03 24  0.0000000  0 10G01G04G11G14G16G18G19G22G27G32
  24481911.640   128653323.08206  24481913.300   100249335.22944
  22037008.200   115805296.90509  22037006.420    90237899.95947
  23519527.940   123595952.77708  23519524.740    96308530.35745
  24090287.320   126595322.28108  24090286.240    98645695.14045
  21953414.320   115365975.10109  21953411.220    89895565.28648
  23217145.460   122007018.78908  23217142.660    95070423.82646
  21068535.160   110715915.16209  21068530.140    86272141.53448
  20818935.760   109404337.68709  20818930.500    85250155.30148
  20330455.840   106837302.67809  20330455.200    83249860.38849
  22799327.920   119811313.39608  22799326.080    93359485.65546
 15 02 19 03 24 30.0000000  0 10G01G04G11G14G16G18G19G22G27G32
  24467326.380   128576677.10006  24467327.660   100189611.10143
  22025270.520   115743615.14009  22025268.720    90189836.25747
  23503750.880   123513044.02008  23503747.620    96243926.17346
  24076602.360   126523406.23308  24076600.740    98589656.65245
  21969391.280   115449934.28509  21969388.140    89960988.00948
  23232318.960   122086756.48508  23232316.240    95132557.07946
  21059543.840   110668664.82409  21059538.660    86235323.07148
  20824893.380   109435645.48609  20824888.220    85274550.99448
  20329694.820   106833303.37309  20329694.140    83246744.04749
  22778804.360   119703461.92308  22778802.600    93275445.58746
 15 02 19 03 25  0.0000000  0 10G01G04G11G14G16G18G19G22G27G32
  24452762.200   128500142.60005  24452763.480   100129973.86244
  22013573.080   115682144.96509  22013571.380    90141937.44347
  23487989.400   123430217.02008  23487986.140    96179385.69246
  24062940.940   126451613.23608  24062939.080    98533714.05345
  21985434.060   115534239.57709  21985430.900    90026680.43348
  23247534.680   122166715.31208  23247532.080    95194862.65146
  21050601.680   110621672.90109  21050596.380    86198705.98948
  20830940.380   109467422.59609  20830935.180    85299312.38548
  20329006.200   106829684.73209  20329005.480    83243924.32049
  22758327.640   119595856.41409  22758325.980    93191597.18146
 15 02 19 03 25 30.0000000  0 10G01G04G11G14G16G18G19G22G27G32
  24438219.560   128423721.15006  24438221.000   100070424.74744
  22001916.220   115620887.93009  22001914.540    90094204.70647
  23472243.940   123347473.75608  23472240.660    96114910.46146
  24049303.800   126379947.89508  24049301.760    98477870.95745
  22001542.500   115618889.92409  22001539.320    90092641.73548
  23262792.400   122246894.89108  23262789.640    95257340.23346
  21041709.260   110574942.64309  21041703.980    86162292.80949
  20837076.920   109499670.05009  20837071.640    85324440.27749
  20328390.520   106826449.54009  20328389.800    83241403.38749
  22737898.560   119488501.12108  22737896.920    93107943.73746
 15 02 19 03 26  0.0000000  0 10G01G04G11G14G16G18G19G22G27G32
  24423698.380   128347412.18806  24423700.180   100010963.28444
  21990299.820   115559843.46309  21990298.080    90046637.58647
  23456514.420   123264814.23208  23456511.140    96050500.49146
  24035691.320   126308412.55008  24035688.960    98422129.16345
  22017715.920   115703881.70109  22017712.660    90158869.07748
  23278091.620   122327292.25408  23278088.680    95319987.51246
  21032866.820   110528475.16809  21032861.640    86126084.38948
  20843302.500   109532385.44909  20843297.180    85349932.79648
  20327847.900   106823598.28709  20327847.180    83239181.63149
  22717517.480   119381397.85709  22717515.880    93024486.70946
 15 02 19 03 26 30.0000000  0 10G01G04G11G14G16G18G19G22G27G32
  24409198.700   128271215.60906  24409200.200    99951589.40044
  21978723.900   115499011.51109  21978722.040    89999236.06347
  23440800.880   123182238.68608  23440797.520    95986155.95146
  24022104.220   126237010.24708  24022101.420    98366490.96145
  22033953.800   115789212.06409  22033950.380    90225360.24448
  23293431.900   122407905.18409  23293428.840    95382802.76446
  21024074.620   110482271.81609  21024069.520    86090081.77549
  20849616.760   109565567.17309  20849611.460    85375788.68748
  20327378.620   106821132.07709  20327377.860    83237259.90649
  22697184.880   119274549.19908  22697183.280    92941228.03846
 15 02 19 03 27  0.0000000  0 10G01G04G11G14G16G18G19G22G27G32
  24394720.760   128195133.43606  24394721.800    99892304.63844
  21967188.860   115438394.11209  21967186.860    89952001.73047
  23425103.760   123099749.62108  23425100.360    95921878.80746
  24008543.160   126165745.68608  24008540.460    98310960.20245
  22050256.000   115874880.48509  22050252.480    90292114.85248
  23308813.180   122488733.76708  23308809.980    95445786.05346
  21015333.360   110436336.19809  21015328.300    86054287.80749
  20856019.780   109599215.66409  20856014.580    85402008.29348
  20326983.280   106819054.11609  20326982.440    83235640.71749
  22676901.620   119167959.76708  22676899.980    92858171.38246
 15 02 19 03 27 30.0000000  0 10G01G04G11G14G16G18G19G22G27G32
  24380264.180   128119163.93506  24380265.480    99833107.68944
  21955694.340   115377989.57309  21955692.260    89904933.26547
  23409422.700   123017345.60708  23409419.360    95857667.93446
  23995008.420   126094619.85108  23995005.600    98255537.47145
  22066621.720   115960882.49809  22066618.080    90359129.38548
  23324234.780   122569773.82908  23324231.360    95508934.13946
  21006642.960   110390668.22909  21006637.920    86018702.38548
  20862511.020   109633327.74709  20862505.920    85428589.12848
  20326661.720   106817363.82809  20326660.840    83234323.61049
  22656667.840   119061630.48609  22656666.180    92775317.45446
 15 02 19 03 28  0.0000000  0 10G01G04G11G14G16G18G19G22G27G32
  24365829.060   128043307.30606  24365830.560    99773998.67444
  21944240.400   115317798.25309  21944238.220    89858030.94547
  23393757.980   122935027.54408  23393754.700    95793524.02646
  23981500.680   126023636.34008  23981497.860    98200225.66345
  22083050.480   116047215.86309  22083046.780    90426402.12047
  23339696.200   122651023.96109  23339692.980    95572245.86846
  20998003.780   110345269.84409  20997998.860    85983327.01649
  20869090.280   109667902.18609  20869085.240    85455530.24148
  20326414.120   106816062.56809  20326413.260    83233309.63549
  22636484.060   118955564.00108  22636482.440    92692668.27646
 15 02 19 03 28 30.0000000  0 10G01G04G11G14G16G18G19G22G27G32
  24351415.560   127967564.03106  24351416.920    99714977.97743
  21932827.040   115257820.58809  21932824.900    89811295.11947
  23378109.740   122852796.32608  23378106.500    95729447.79146
  23968020.660   125952798.41408  23968017.980    98145027.26745
  22099541.860   116133878.29509  22099538.160    90493931.27448
  23355197.200   122732482.34208  23355193.940    95635719.92546
  20989416.240   110300142.87009  20989411.500    85948163.15149
  20875757.320   109702937.65709  20875752.280    85482830.61249
  20326240.780   106815151.91509  20326239.980    83232600.03149
  22616350.880   118849763.55408  22616349.260    92610226.42146
 15 02 19 03 29  0.0000000  0 10G01G04G11G14G16G18G19G22G27G32
  24337023.380   127891932.93806  24337024.980    99656044.72244
  21921454.020   115198055.37209  21921452.000    89764724.84147
  23362477.860   122770651.12308  23362474.660    95665438.57646
  23954568.740   125882107.81908  23954566.340    98089943.71145
  22116095.000   116220865.51709  22116091.320    90561713.50448
  23370737.320   122814145.75908  23370734.160    95699353.75346
  20980880.500   110255287.93509  20980875.920    85913211.25949
  20882511.640   109738431.63809  20882506.540    85510488.25848
  20326141.740   106814631.85609  20326141.000    83232194.78649
  22596268.580   118744230.50008  22596266.960    92527992.91147
 15 02 19 03 29 30.0000000  0 10G01G04G11G14G16G18G19G22G27G32
  24322652.760   127816414.98006  24322654.340    99597199.58244
  21910121.580   115138503.66309  21910119.700    89718320.93947
  23346862.680   122688593.63108  23346859.520    95601497.70446
  23941145.680   125811568.66608  23941143.260    98034978.16245
  22132709.620   116308176.02909  22132706.020    90629747.66348
  23386316.060   122896013.04408  23386312.900    95763146.41646
  20972397.060   110210707.47709  20972392.600    85878473.25249
  20889353.060   109774383.46609  20889347.960    85538502.67449
  20326117.500   106814504.51609  20326116.760    83232095.56049
  22576237.860   118638968.38808  22576236.200    92445970.53147
 15 02 19 03 30  0.0000000  0 10G01G04G11G14G16G18G19G22G27G32
  24308303.760   127741010.41107  24308305.360    99538442.83843
  21898829.860   115079165.66309  21898828.040    89672083.54847
  23331264.320   122606624.25608  23331261.280    95537625.49846
  23927751.960   125741183.96908  23927749.520    97980132.93745
  22149385.220   116395807.26309  22149381.760    90698031.72048
  23401933.280   122978082.30808  23401930.360    95827096.46946
  20963966.320   110166403.55009  20963961.820    85843950.72049
  20896281.380   109810791.86009  20896276.220    85566872.85748
  20326168.300   106814771.17509  20326167.520    83232303.34449
  22556259.200   118533979.93908  22556257.560    92364161.39747
 15 02 19 03 30 30.0000000  0 10G01G04G11G14G16G18G19G22G27G32
  24293976.640   127665720.64807  24293978.180    99479775.53444
  21887579.160   115020042.98509  21887577.300    89626013.93347
  23315683.260   122524745.30908  23315680.320    95473823.74646
  23914388.200   125670958.07408  23914386.100    97925411.47945
  22166121.600   116483757.89409  22166118.260    90766564.66047
  23417588.860   123060352.98608  23417586.020    95891203.45646
  20955588.840   110122379.05409  20955584.160    85809645.90448
  20903296.540   109847656.48109  20903291.280    85595598.53348
  20326294.640   106815434.43909  20326293.720    83232820.15949
  22536333.380   118429269.19009  22536331.780    92282568.64847
 15 02 19 03 31  0.0000000  0 10G01G04G11G14G16G18G19G22G27G32
  24279670.520   127590541.44806  24279671.860    99421194.40544
  21876368.700   114961131.39709  21876366.800    89580108.80847
  23300118.740   122442952.99708  23300115.800    95410089.52046
  23901054.360   125600889.94308  23901052.580    97870812.93346
  22182917.460   116572021.11809  22182914.240    90835341.18848
  23433281.520   123142818.37308  23433278.600    95955462.19746
  20947264.060   110078631.50409  20947259.220    85775556.90549
  20910397.480   109884971.58909  20910392.120    85624675.25549
  20326495.880   106816491.21109  20326494.820    83233643.61849
  22516460.120   118324834.59609  22516458.500    92201191.09447
 15 02 19 03 31 30.0000000  0 10G01G04G11G14G16G18G19G22G27G32
  24265385.860   127515475.48106  24265387.060    99362701.49344
  21865198.860   114902433.49409  21865196.980    89534370.18847
  23284571.300   122361250.35908  23284568.340    95346425.16846
  23887751.580   125530985.09608  23887750.180    97816341.63546
  22199772.780   116660596.62209  22199769.600    90904361.03347
  23449011.460   123225479.31408  23449008.500    96019873.29646
  20938992.660   110035165.10109  20938987.840    85741686.97948
  20917584.320   109922738.24909  20917578.820    85654103.81848
  20326772.640   106817945.15309  20326771.480    83234776.55649
  22496640.380   118220681.20609  22496638.760    92120032.63946
 15 02 19 03 32  0.0000000  0 10G01G04G11G14G16G18G19G22G27G32
  24251123.080   127440524.06406  24251124.240    99304297.79945
  21854069.840   114843950.65609  21854068.120    89488799.17047
  23269041.160   122279638.96408  23269038.120    95282831.88046
  23874480.680   125461247.83308  23874479.820    97762000.96945
  22216687.320   116749483.09509  22216684.160    90973623.21047
  23464778.440   123308335.12208  23464775.540    96084436.21246
  20930775.240   109991982.70309  20930770.460    85708038.35148
  20924857.040   109960956.32209  20924851.440    85683884.12848
  20327125.400   106819798.73009  20327124.200    83236220.89549
  22476874.880   118116812.97409  22476873.240    92039096.38347
 15 02 19 03 32 30.0000000  0 10G01G04G11G14G16G18G19G22G27G32
  24236880.960   127365681.10507  24236882.180    99245978.69944
  21842980.540   114785676.94009  21842978.940    89443391.11547
  23253527.380   122198113.85008  23253524.440    95219305.85346
  23861241.280   125391675.06308  23861240.600    97707788.41145
  22233659.240   116838670.97909  22233656.040    91043120.23547
  23480581.060   123391377.51508  23480578.000    96149144.56646
  20922610.980   109949079.78709  20922606.360    85674607.52449
  20932214.120   109999618.06009  20932208.540    85714010.15548
  20327553.220   106822046.97709  20327552.040    83237972.75749
  22457162.920   118013226.34509  22457161.340    91958379.56847
 15 02 19 03 33  0.0000000  0 10G01G04G11G14G16G18G19G22G27G32
  24222660.880   127290954.43507  24222662.180    99187750.15744
  21831932.660   114727620.31709  21831931.080    89398152.20247
  23238031.620   122116683.28908  23238028.640    95155853.49246
  23848035.340   125322277.31608  23848034.600    97653712.25945
  22250689.700   116928166.30409  22250686.460    91112856.84048
  23496420.140   123474612.35008  23496417.280    96214002.82246
  20914501.780   109906466.11609  20914497.280    85641402.07049
  20939656.760   110038729.49909  20939651.220    85744486.59649
  20328057.820   106824698.83009  20328056.660    83240039.12849
  22437506.540   117909931.91509  22437505.000    91877890.42847
 15 02 19 03 33 30.0000000  0 10G01G04G11G14G16G18G19G22G27G32
  24208461.680   127216337.47707  24208462.980    99129607.11645
  21820924.940   114669773.97209  21820923.220    89353077.15647
  23222552.680   122035340.97608  23222549.700    95092469.90746
  23834862.100   125253051.38408  23834861.320    97599769.98845
  22267776.880   117017959.73609  22267773.620    91182825.73148
  23512294.340   123558031.17208  23512291.080    96279004.51146
  20906446.720   109864136.67409  20906442.240    85608418.09149
  20947183.300   110078282.11509  20947177.880    85775306.82048
  20328638.180   106827748.79209  20328637.020    83242415.72449
  22417904.960   117806925.49009  22417903.460    91797625.72047
 15 02 19 03 34  0.0000000  0 10G01G04G11G14G16G18G19G22G27G32
  24194284.280   127141835.10307  24194285.560    99071553.33245
  21809958.220   114612142.90409  21809956.320    89308169.84347
  23207091.640   121954092.55208  23207088.660    95029159.46746
  23821722.980   125184004.96308  23821721.960    97545967.60145
  22284921.160   117108053.14109  22284917.840    91253028.35647
  23528203.980   123641636.63208  23528200.680    96344151.58446
  20898447.020   109822097.95109  20898442.580    85575660.64149
  20954794.500   110118279.68209  20954789.220    85806473.75148
  20329295.400   106831202.76709  20329294.240    83245107.13149
  22398359.600   117704214.51309  22398358.120    91717591.23247
 15 02 19 03 34 30.0000000  0 10G01G04G11G14G16G18G19G22G27G32
  24180128.580   127067446.65507  24180129.960    99013588.38544
  21799032.380   114554726.81509  21799030.380    89263430.05848
  23191648.440   121872937.76208  23191645.340    94965922.00146
  23808618.440   125115140.43508  23808617.260    97492306.94645
  22302121.800   117198442.84409  22302118.460    91323461.88748
  23544148.540   123725425.96508  23544145.000    96409441.96345
  20890502.880   109780350.98209  20890498.440    85543130.54149
  20962489.960   110158719.82609  20962484.760    85837985.56649
  20330029.560   106835061.16609  20330028.400    83248113.68849
  22378870.860   117601800.94709  22378869.400    91637788.51347
 15 02 19 03 35  0.0000000  0 10G01G04G11G14G16G18G19G22G27G32
  24165993.780   126993168.31807  24165995.140    98955709.23844
  21788146.660   114497521.58909  21788144.560    89218854.57248
  23176222.420   121791873.30408  23176219.140    94902754.90546
  23795548.320   125046456.73508  23795546.940    97438787.20246
  22319377.480   117289122.12509  22319374.180    91394121.05148
  23560126.980   123809393.29208  23560123.580    96474871.01845
  20882613.840   109738893.34809  20882609.320    85510825.89749
  20970268.500   110199596.55609  20970263.340    85869837.56748
  20330840.180   106839321.16409  20330839.000    83251433.16249
  22359438.460   117499683.29609  22359436.920    91558216.35247
 15 02 19 03 35 30.0000000  0 10G01G04G11G14G16G18G19G22G27G32
  24151880.300   126919002.15507  24151881.760    98897917.47644
  21777301.440   114440529.24209  21777299.260    89174444.95947
  23160814.160   121710902.46108  23160810.840    94839660.74845
  23782513.600   124977959.41508  23782511.980    97385412.68245
  22336688.200   117380090.84109  22336684.980    91465005.73547
  23576139.320   123893538.81508  23576135.700    96540438.94845
  20874780.700   109697729.54109  20874776.100    85478750.21049
  20978130.300   110240911.10109  20978125.240    85902030.71948
  20331727.820   106843985.94809  20331726.660    83255068.05849
  22340063.300   117397866.39209  22340061.720    91478878.53647
 15 02 19 03 36  0.0000000  0 10G01G04G11G14G16G18G19G22G27G32
  24137788.700   126844950.72607  24137790.340    98840215.10644
  21766497.240   114383752.67809  21766495.060    89130203.47647
  23145424.080   121630027.53908  23145420.800    94776641.33345
  23769515.500   124909653.85708  23769513.600    97332187.56845
  22354053.800   117471348.19209  22354050.700    91536115.34347
  23592185.640   123977862.79308  23592182.240    96606145.89446
  20867004.140   109656863.27909  20866999.500    85446906.36449
  20986075.480   110282663.70509  20986070.520    85934565.20848
  20332693.200   106849059.18009  20332692.120    83259021.21949
  22320746.360   117296355.32409  22320744.720    91399779.02447
 15 02 19 03 36 30.0000000  0 10G01G04G11G14G16G18G19G22G27G32
  24123718.200   126771010.16907  24123719.720    98782599.14244
  21755733.360   114327188.09609  21755731.200    89086127.17147
  23130051.640   121549245.46008  23130048.420    94713694.26445
  23756553.700   124841539.04708  23756551.440    97279111.09645
  22371473.120   117562887.95409  22371470.160    91607445.01147
  23608264.700   124062359.58508  23608261.020    96671987.53745
  20859283.700   109616292.34609  20859279.060    85415292.66149
  20994103.040   110324848.92809  20994098.080    85967436.81648
  20333735.760   106854537.90209  20333734.780    83263290.35149
  22301487.340   117195148.61209  22301485.680    91320916.68247
 15 02 19 03 37  0.0000000  0 10G01G04G11G14G16G18G19G22G27G32
  24109669.240   126697182.83807  24109670.760    98725071.40045
  21745010.200   114270837.68109  21745008.060    89042217.78947
  23114697.560   121468559.38008  23114694.420    94650822.01145
  23743629.080   124773619.91808  23743626.680    97226187.12245
  22388946.100   117654709.60909  22388943.280    91678994.33947
  23624376.940   124147029.51008  23624373.420    96737964.08946
  20851620.180   109576020.60209  20851615.540    85383912.08649
  21002213.140   110367467.52609  21002208.100    86000646.11548
  20334856.180   106860425.55909  20334855.240    83267878.14049
  22282287.240   117094251.30809  22282285.500    91242295.44947
 15 02 19 03 37 30.0000000  0 10G01G04G11G14G16G18G19G22G27G32
  24095641.400   126623466.16507  24095642.840    98667629.87845
  21734327.300   114214699.08009  21734325.200    88998473.44547
  23099361.420   121387967.20008  23099358.260    94588022.92945
  23730741.980   124705897.28508  23730739.580    97173416.24345
  22406471.720   117746808.06809  22406469.080    91750759.35747
  23640521.180   124231868.20908  23640517.740    96804072.11745
  20844013.500   109536047.33109  20844008.860    85352764.08548
  21010404.840   110410514.48809  21010399.660    86034189.21148
  20336054.120   106866720.56409  20336053.200    83272783.33249
  22263146.000   116993663.25009  22263144.220    91163915.16747
 15 02 19 03 38  0.0000000  0 10G01G04G11G14G16G18G19G22G27G32
  24081635.260   126549863.33207  24081636.660    98610277.07045
  21723685.320   114158775.40809  21723683.220    88954896.57247
  23084043.920   121307472.86808  23084040.640    94525300.09045
  23717893.360   124638377.47608  23717890.940    97120803.43245
  22424050.060   117839183.38309  22424047.580    91822740.10047
  23656697.680   124316876.28708  23656694.240    96870312.14945
  20836464.560   109496377.27909  20836459.900    85321852.34949
  21018678.540   110453992.34709  21018673.200    86068068.06248
  20337330.380   106873427.14809  20337329.460    83278009.23249
  22244064.700   116893390.20809  22244062.880    91085780.35547
 15 02 19 03 38 30.0000000  0 10G01G04G11G14G16G18G19G22G27G32
  24067650.580   126476373.59207  24067651.960    98553012.36445
  21713084.180   114103066.08009  21713081.960    88911486.71947
  23068744.900   121227075.99708  23068741.600    94462653.21045
  23705083.760   124571062.47908  23705081.140    97068350.18545
  22441680.400   117931831.74709  22441678.000    91894933.61447
  23672905.860   124402051.20508  23672902.480    96936682.16645
  20828973.520   109457011.40909  20828968.860    85291177.65149
  21027033.640   110497898.37109  21027028.220    86102280.55048
  20338684.980   106880545.53709  20338684.080    83283556.02449
  22225043.640   116793433.88409  22225041.840    91007892.34747
 15 02 19 03 39  0.0000000  0 10G01G04G11G14G16G18G19G22G27G32
  24053686.720   126402992.82307  24053687.960    98495832.58145
  21702523.080   114047567.09109  21702520.740    88868240.76847
  23053463.760   121146773.17708  23053460.540    94400079.60445
  23692312.900   124503951.19108  23692310.540    97016055.68946
  22459361.500   118024746.67609  22459359.100    91967334.84747
  23689144.720   124487387.29308  23689141.440    97003177.80745
  20821539.900   109417947.37509  20821535.300    85260738.15149
  21035468.960   110542226.46609  21035463.580    86136821.92948
  20340117.300   106888072.65009  20340116.440    83289421.30549
  22206082.540   116693792.66209  22206080.700    90930249.87447
 15 02 19 03 39 30.0000000  0 10G01G04G11G14G16G18G19G22G27G32
  24039744.900   126329727.84908  24039746.040    98438743.01545
  21692003.300   113992285.30809  21692000.940    88825164.06847
  23038201.980   121066571.95508  23038198.800    94337585.18546
  23679582.380   124437053.15208  23679580.380    96963927.36245
  22477094.020   118117931.44209  22477091.600    92039946.33547
  23705415.340   124572888.95608  23705411.760    97069802.48945
  20814165.280   109379193.41709  20814160.680    85230540.26349
  21043985.460   110586981.57209  21043980.200    86171696.04448
  20341628.920   106896016.23609  20341628.040    83295611.10449
  22187183.140   116594475.89709  22187181.360    90852860.23047
 15 02 19 03 40  0.0000000  0 10G01G04G11G14G16G18G19G22G27G32
  24025824.260   126256574.37107  24025825.440    98381740.33245
  21681524.040   113937216.38909  21681521.760    88782253.23647
  23022958.820   120986468.68508  23022955.680    94275167.07746
  23666892.360   124370367.25108  23666890.460    96911964.34345
  22494876.880   118211380.42209  22494874.380    92112763.70347
  23721716.000   124658549.94608  23721712.720    97136551.23745
  20806849.240   109340747.20409  20806844.640    85200582.18249
  21052582.100   110632157.80309  21052576.960    86206898.29848
  20343219.140   106904372.97409  20343218.240    83302122.84249
  22168345.140   116495481.78909  22168343.420    90775721.98647
 15 02 19 03 40 30.0000000  0 10G01G04G11G14G16G18G19G22G27G32
  24011924.740   126183532.10508  24011926.060    98324824.30545
  21671085.240   113882360.25809  21671083.140    88739508.23247
  23007734.360   120906463.65308  23007731.300    94212825.52646
  23654243.280   124303896.58308  23654241.520    96860169.06246
  22512709.280   118305089.75609  22512706.680    92185783.95447
  23738046.720   124744367.86308  23738043.200    97203422.37245
  20799592.040   109302610.37409  20799587.440    85170865.18149
  21061258.580   110677753.27409  21061253.480    86242427.24048
  20344888.140   106913143.52909  20344887.240    83308957.03049
  22149568.960   116396812.46009  22149567.180    90698836.84447
 15 02 19 03 41  0.0000000  0 10G01G04G11G14G16G18G19G22G27G32
  23998046.300   126110600.32908  23998047.600    98267994.37245
  21660686.820   113827716.20809  21660684.780    88696928.46948
  22992528.500   120826556.44508  22992525.480    94150560.19246
  23641635.760   124237642.92508  23641633.920    96808542.84945
  22530590.480   118399055.61109  22530587.820    92259004.07747
  23754406.660   124830340.29308  23754403.300    97270413.81445
  20792393.800   109264783.21809  20792389.140    85141389.48149
  21070014.380   110723764.91109  21070009.180    86278280.46248
  20346635.920   106922328.18009  20346635.020    83316113.88549
  22130854.960   116298469.72109  22130853.120    90622206.15947
 15 02 19 03 41 30.0000000  0 10G01G04G11G14G16G18G19G22G27G32
  23984189.800   126037783.93608  23984191.000    98211254.33445
  21650329.740   113773289.25409  21650327.660    88654517.85948
  22977342.480   120746753.55808  22977339.620    94088376.15546
  23629071.080   124171614.83608  23629069.040    96757092.39745
  22548520.900   118493280.33009  22548518.220    92332425.91847
  23770796.660   124916470.07508  23770793.220    97337527.89545
  20785255.940   109227273.28709  20785251.240    85112160.96649
  21078850.200   110770196.82309  21078844.840    86314461.16448
  20348463.620   106931932.83709  20348462.740    83323598.01749
  22112204.540   116200461.05809  22112202.680    90545835.79047
 15 02 19 03 42  0.0000000  0 10G01G04G11G14G16G18G19G22G27G32
  23970353.900   125965076.01408  23970355.060    98154598.83145
  21640012.640   113719072.32509  21640010.460    88612270.92048
  22962174.960   120667047.96208  22962172.180    94026267.90546
  23616548.420   124105807.52708  23616546.520    96705813.99046
  22566498.680   118587754.16509  22566495.980    92406041.87747
  23787214.880   125002748.39508  23787211.720    97404757.72345
  20778177.300   109190074.46209  20778172.520    85083174.86749
  21087764.220   110817039.70209  21087758.720    86350962.09648
  20350370.040   106941951.31009  20350369.220    83331404.60749
  22093616.840   116102781.83509  22093614.880    90469722.13747
 15 02 19 03 42 30.0000000  0 10G01G04G11G14G16G18G19G22G27G32
  23956539.700   125892482.06608  23956540.820    98098032.14645
  21629736.560   113665071.17109  21629734.360    88570192.11547
  22947027.140   120587445.73608  22947024.340    93964240.20246
  23604069.320   124040229.59608  23604067.640    96654714.34445
  22584524.280   118682479.48809  22584521.640    92479853.79847
  23803662.040   125089178.68108  23803658.880    97472105.95045
  20771159.240   109153194.09509  20771154.400    85054436.92249
  21096757.120   110864297.27709  21096751.540    86387786.18148
  20352356.440   106952390.14109  20352355.700    83339538.74749
  22075093.320   116005440.08309  22075091.260    90393871.45047
 15 02 19 03 43  0.0000000  0 10G01G04G11G14G16G18G19G22G27G32
  23942746.340   125819997.75907  23942747.420    98041550.89745
  21619500.660   113611281.44809  21619498.520    88528278.06847
  22931898.360   120507943.19808  22931895.440    93902290.17646
  23591633.800   123974879.71708  23591631.740    96603792.34045
  22602596.500   118777449.79709  22602593.900    92553856.61047
  23820136.880   125175754.45708  23820133.480    97539567.58445
  20764201.220   109116629.48709  20764196.360    85025945.02849
  21105827.620   110911963.08909  21105822.040    86424928.36848
  20354422.220   106963245.86509  20354421.480    83347997.74249
  22056633.640   115908433.88409  22056631.540    90318282.22247
 15 02 19 03 43 30.0000000  0 10G01G04G11G14G16G18G19G22G27G32
  23928974.720   125747627.84107  23928975.840    97985158.77546
  21609305.920   113557707.96109  21609303.800    88486532.50647
  22916789.620   120428546.02808  22916786.580    93840422.25846
  23579243.180   123909765.85208  23579241.100    96553054.29846
  22620715.680   118872666.45509  22620713.000    92628051.39847
  23836640.020   125262478.84108  23836636.860    97607144.99345
  20757304.500   109080387.03709  20757299.620    84997704.15049
  21114976.340   110960040.21609  21114970.840    86462391.06648
  20356568.460   106974524.21609  20356567.700    83356786.06049
  22038239.180   115811770.49109  22038237.140    90242960.12647
 15 02 19 03 44  0.0000000  0 10G01G04G11G14G16G18G19G22G27G32
  23915223.740   125675366.34508  23915225.020    97928851.14945
  21599151.320   113504344.98409  21599149.120    88444950.96948
  22901699.960   120349249.26708  22901696.820    93778632.58246
  23566896.960   123844885.10008  23566894.520    96502497.88745
  22638880.100   118968120.69509  22638877.320    92702431.31947
  23853169.900   125349343.85508  23853166.660    97674831.99645
  20750468.280   109044462.85809  20750463.440    84969711.29149
  21124201.920   111008521.44909  21124196.520    86500168.64148
  20358794.160   106986220.06509  20358793.340    83365899.70049
  22019909.240   115715446.37709  22019907.300    90167902.40147
 15 02 19 03 44 30.0000000  0 10G01G04G11G14G16G18G19G22G27G32
  23901494.600   125603219.33708  23901495.960    97872632.72845
  21589037.940   113451198.37909  21589035.640    88403538.03348
  22886630.560   120270059.24008  22886627.420    93716926.08046
  23554596.800   123780246.41908  23554594.260    96452130.07645
  22657090.500   119063816.40209  22657087.560    92776999.37447
  23869727.200   125436353.46608  23869724.060    97742631.64846
  20743694.160   109008864.59309  20743689.240    84941972.38649
  21133505.160   111057410.67609  21133499.800    86538264.14648
  20361100.660   106998340.38909  20361099.780    83375344.09649
  22001645.500   115619469.97709  22001643.660    90093115.61347
 15 02 19 03 45  0.0000000  0 10G01G04G11G14G16G18G19G22G27G32
  23887786.760   125531184.23608  23887788.040    97816501.49746
  21578965.260   113398265.88609  21578962.920    88362291.92848
  22871581.140   120190974.12308  22871578.000    93655301.31946
  23542342.620   123715849.86108  23542340.300    96401950.96846
  22675345.720   119159747.50809  22675342.620    92851750.86147
  23886311.200   125523503.42908  23886308.300    97810540.64145
  20736981.900   108973591.20309  20736976.900    84914486.62349
  21142885.180   111106703.43909  21142879.860    86576674.08848
  20363487.600   107010883.52309  20363486.660    83385117.96449
  21983447.920   115523841.13109  21983446.200    90018599.65947
 15 02 19 03 45 30.0000000  0 10G01G04G11G14G16G18G19G22G27G32
  23874099.460   125459257.04208  23874100.700    97760454.36546
  21568932.460   113345543.42709  21568930.220    88321209.50748
  22856551.120   120111990.68508  22856548.000    93593755.79346
  23530134.180   123651694.51008  23530131.840    96351959.79745
  22693644.420   119255907.23909  22693641.180    92926680.50547
  23902920.860   125610787.59508  23902917.680    97878554.27245
  20730330.980   108938640.29009  20730325.940    84887252.14149
  21152340.940   111156393.81209  21152335.600    86615393.87348
  20365954.340   107023846.22709  20365953.400    83395218.77049
  21965316.180   115428558.27509  21965314.580    89944353.30147
 15 02 19 03 46  0.0000000  0 10G01G04G11G14G16G18G19G22G27G32
  23860433.800   125387443.64208  23860435.040    97704495.90546
  21558940.720   113293037.00409  21558938.620    88280295.42548
  22841541.640   120033115.47408  22841538.500    93532294.60346
  23517973.420   123587789.34008  23517971.120    96302163.58045
  22711987.320   119352299.32809  22711984.020    93001791.21747
  23919556.720   125698209.83108  23919553.620    97946675.44645
  20723742.900   108904019.50709  20723737.880    84860274.91649
  21161873.200   111206485.93509  21161867.780    86654426.69848
  20368502.200   107037235.32409  20368501.220    83405651.83149
  21947251.900   115333629.77209  21947250.340    89870383.05747
 15 02 19 03 46 30.0000000  0 10G01G04G11G14G16G18G19G22G27G32
  23846789.320   125315741.69208  23846790.720    97648624.28046
  21548989.740   113240744.51709  21548987.700    88239548.05348
  22826552.500   119954347.10108  22826549.320    93470916.66646
  23505860.500   123524134.85308  23505858.180    96252562.68746
  22730373.260   119448918.08109  22730369.960    93077078.53347
  23936217.920   125785766.08708  23936214.860    98014901.02745
  20717217.580   108869728.52509  20717212.540    84833554.67249
  21171481.140   111256975.72909  21171475.700    86693769.39548
  20371130.900   107051049.29409  20371129.900    83416415.95149
  21929255.020   115239055.66909  21929253.520    89796688.97947
 15 02 19 03 47  0.0000000  0 10G01G04G11G14G16G18G19G22G27G32
  23833165.920   125244150.21308  23833167.340    97592838.73646
  21539079.280   113188664.94009  21539077.260    88198966.57748
  22811583.580   119875685.15808  22811580.400    93409621.66446
  23493795.600   123460732.89808  23493793.300    96203158.56646
  22748801.500   119545759.49609  22748798.280    93152539.35147
  23952904.200   125873453.45108  23952901.520    98083228.82245
  20710755.120   108835767.63709  20710750.000    84807091.64349
  21181164.240   111307860.13009  21181158.760    86733419.57748
  20373840.460   107065287.92009  20373839.400    83427510.96249
  21911325.820   115144837.20209  21911324.360    89723272.04247
 15 02 19 03 47 30.0000000  0 10G01G04G11G14G16G18G19G22G27G32
  23819563.580   125172669.34208  23819565.020    97537139.40746
  21529209.400   113136798.43809  21529207.320    88158551.13148
  22796634.980   119797130.18408  22796631.940    93348410.02146
  23481779.300   123397586.58108  23481777.120    96153953.67545
  22767271.620   119642821.25209  22767268.560    93228171.86447
  23969615.180   125961270.36208  23969612.640    98151657.53545
  20704355.800   108802138.66609  20704350.640    84780887.25149
  21190922.080   111359137.41309  21190916.600    86773375.90048
  20376631.000   107079952.20409  20376629.940    83438937.65849
  21893464.760   115050977.05809  21893463.320    89650134.28847
 15 02 19 03 48  0.0000000  0 10G01G04G11G14G16G18G19G22G27G32
  23805982.400   125101299.87708  23805983.780    97481526.87146
  21519380.240   113085145.87209  21519378.100    88118302.40748
  22781707.060   119718683.78708  22781704.080    93287282.98346
  23469812.440   123334699.89508  23469810.080    96104951.06046
  22785783.240   119740100.82908  22785780.320    93303974.10947
  23986350.660   126049215.38307  23986347.760    98220186.15545
  20698020.060   108768844.11709  20698014.900    84754943.43749
  21200754.540   111410806.68509  21200748.980    86813637.67048
  20379502.840   107095043.73809  20379501.780    83450697.27949
  21875672.460   114957478.18809  21875671.020    89577278.05048
 15 02 19 03 48 30.0000000  0 10G01G04G11G14G16G18G19G22G27G32
  23792422.420   125030041.84308  23792423.700    97426001.16746
  21509591.820   113033707.55209  21509589.680    88078220.61548
  22766799.940   119640346.90508  22766796.960    93226241.29346
  23457895.480   123272075.66908  23457893.220    96056152.96646
  22804335.940   119837596.13809  22804333.120    93379944.45947
  24003110.060   126137286.66108  24003107.660    98288813.02944
  20691748.220   108735885.64309  20691743.120    84729261.52049
  21210661.100   111462865.90409  21210655.580    86854203.29148
  20382456.140   107110563.36409  20382455.040    83462790.49449
  21857949.440   114864343.24909  21857947.960    89504705.40747
 15 02 19 03 49  0.0000000  0 10G01G04G11G14G16G18G19G22G27G32
  23778883.700   124958895.45508  23778885.000    97370562.45546
  21499844.180   112982483.52309  21499842.080    88038305.80648
  22751913.920   119562120.50008  22751910.960    93165285.68346
  23446028.940   123209717.13708  23446027.000    96007561.94946
  22822929.160   119935304.34009  22822926.440    93456080.70247
  24019892.980   126225482.48107  24019890.620    98357537.03645
  20685540.620   108703264.80309  20685535.640    84703842.67949
  21220641.500   111515313.63609  21220636.000    86895071.65148
  20385491.060   107126512.07109  20385489.960    83475218.03949
  21840296.160   114771574.71309  21840294.620    89432418.25047
 15 02 19 03 49 30.0000000  0 10G01G04G11G14G16G18G19G22G27G32
  23765365.780   124887858.16708  23765367.060    97315208.76746
  21490136.920   112931471.52809  21490134.860    87998556.22448
  22737048.580   119484002.69808  22737045.600    93104414.69146
  23434212.860   123147624.55808  23434211.080    95959178.12746
  22841561.940   120033220.13909  22841559.240    93532378.69847
  24036698.980   126313798.76408  24036697.140    98426354.83845
  20679397.220   108670981.47809  20679392.360    84678686.84749
  21230694.900   111568145.28709  21230689.460    86936239.17448
  20388607.320   107142888.11409  20388606.180    83487978.59149
  21822712.560   114679172.35309  21822710.940    89360416.44047
 15 02 19 03 50  0.0000000  0 10G01G04G11G14G16G18G19G22G27G32
  23751869.240   124816933.26308  23751870.400    97259942.63746
  21480470.660   112880674.76209  21480468.580    87958974.33148
  22722204.640   119405997.71108  22722201.580    93043631.59946
  23422448.560   123085804.04508  23422446.940    95911006.32146
  22860234.220   120131343.32009  22860231.520    93608838.30547
  24053528.260   126402236.76008  24053526.220    98495267.56645
  20673319.040   108639040.66809  20673314.260    84653797.90949
  21240821.660   111621362.29809  21240816.260    86977706.96948
  20391805.680   107159695.55409  20391804.500    83501075.29549
  21805199.760   114587141.82809  21805198.020    89288704.36547
 15 02 19 03 50 30.0000000  0 10G01G04G11G14G16G18G19G22G27G32
  23738393.320   124746116.92008  23738394.420    97204761.09146
  21470844.760   112830089.70209  21470842.600    87919557.40348
  22707381.580   119328102.25408  22707378.540    92982933.86946
  23410735.840   123024254.79108  23410734.240    95863045.87245
  22878944.860   120229667.75309  22878942.080    93685454.72447
  24070379.700   126490790.66908  24070377.620    98564270.57445
  20667305.600   108607439.79309  20667300.820    84629173.84749
  21251020.680   111674959.01209  21251015.340    87019470.64648
  20395085.540   107176931.25609  20395084.320    83514505.70249
  21787757.440   114495481.57609  21787755.580    89217280.81147
 15 02 19 03 51  0.0000000  0 10G01G04G11G14G16G18G19G22G27G32
  23724938.480   124675411.38208  23724939.560    97149665.88747
  21461259.540   112779718.47909  21461257.340    87880307.10748
  22692580.000   119250319.56808  22692577.080    92922323.99846
  23399075.880   122962981.91308  23399074.480    95815300.75646
  22897693.720   120328193.06709  22897690.840    93762227.66847
  24087253.360   126579461.18408  24087250.880    98633364.45244
  20661357.580   108576182.62709  20661352.740    84604817.60749
  21261292.020   111728935.61209  21261286.760    87061530.32848
  20398447.440   107194598.23909  20398446.220    83528272.16749
  21770386.480   114404196.20609  21770384.500    89146149.36347
 15 02 19 03 51 30.0000000  0 10G01G04G11G14G16G18G19G22G27G32
  23711504.500   124604815.30408  23711505.520    97094655.97747
  21451714.740   112729560.03009  21451712.540    87841222.61848
  22677799.880   119172649.05908  22677796.900    92861801.52746
  23387468.880   122901986.99208  23387467.560    95767772.26746
  22916479.980   120426914.86309  22916477.040    93839153.71247
  24104148.380   126668244.99808  24104146.180    98702546.59145
  20655475.100   108545269.82609  20655470.160    84580729.70149
  21271635.040   111783288.52609  21271629.800    87103883.25048
  20401891.220   107212695.87409  20401890.100    83542374.20949
  21753087.060   114313286.68809  21753084.960    89075310.79547
 15 02 19 03 52  0.0000000  0 10G01G04G11G14G16G18G19G22G27G32
  23698091.100   124534327.36408  23698092.120    97039730.34647
  21442210.080   112679613.05109  21442207.920    87802302.91348
  22663041.000   119095089.93009  22663037.920    92801365.86546
  23375915.160   122841271.76808  23375913.700    95720461.71345
  22935302.740   120525828.76409  22935299.800    93916229.46047
  24121064.680   126757138.57308  24121061.940    98771814.35345
  20649658.160   108514701.58909  20649653.120    84556910.30949
  21282049.180   111838015.20109  21282044.000    87146527.41648
  20405416.860   107231223.52409  20405415.840    83556811.33449
  21735859.320   114222753.87509  21735857.060    89004765.77447
 15 02 19 03 52 30.0000000  0 10G01G04G11G14G16G18G19G22G27G32
  23684699.380   124463953.39708  23684700.440    96984893.52246
  21432746.800   112629883.51509  21432744.580    87763552.64048
  22648304.620   119017649.01808  22648301.500    92741022.30446
  23364416.260   122780844.72808  23364414.860    95673375.73046
  22954162.660   120624938.06508  22954159.640    93993457.45947
  24138002.340   126846145.96508  24137999.320    98841170.70745
  20643908.180   108484485.39509  20643903.140    84533365.22949
  21292535.200   111893119.46009  21292530.100    87189465.80048
  20409025.600   107250187.74909  20409024.680    83571588.63849
  21718704.780   114132606.01209  21718702.440    88934520.69847
 15 02 19 03 53  0.0000000  0 10G01G04G11G14G16G18G19G22G27G32
  23671328.020   124393686.63708  23671329.120    96930140.22947
  21423323.600   112580364.57509  21423321.320    87724966.46548
  22633589.460   118940320.19908  22633586.300    92680766.08346
  23352971.480   122720701.96108  23352969.740    95626511.23646
  22973057.860   120724232.80408  22973054.820    94070829.96047
  24154960.340   126935258.65508  24154957.400    98910609.14045
  20638224.200   108454616.07309  20638219.240    84510090.43449
  21303091.400   111948592.40109  21303086.240    87232691.46048
  20412716.320   107269582.45009  20412715.440    83586701.38249
  21701622.580   114042838.56009  21701620.160    88864572.04747
 15 02 19 03 53 30.0000000  0 10G01G04G11G14G16G18G19G22G27G32
  23657978.220   124323533.09008  23657979.300    96875475.15647
  21413941.720   112531062.62609  21413939.400    87686549.36348
  22618896.940   118863110.48008  22618893.680    92620602.69046
  23341582.580   122660852.43808  23341580.780    95579875.26346
  22991989.000   120823716.60809  22991985.960    94148349.78747
  24171938.880   127024481.20308  24171935.860    98980133.15145
  20632607.780   108425101.41309  20632602.840    84487091.99449
  21313718.460   112004437.92009  21313713.280    87276207.44748
  20416490.240   107289414.32909  20416489.420    83602154.77649
  21684614.340   113953459.76909  21684611.820    88794926.24648
 15 02 19 03 54  0.0000000  0 10G01G04G11G14G16G18G19G22G27G32
  23644648.600   124253485.59308  23644649.620    96820892.72647
  21404599.760   112481970.27909  21404597.480    87648295.61748
  22604225.780   118786013.32108  22604222.560    92560527.01946
  23330248.760   122601291.86908  23330246.880    95533464.44446
  23010954.200   120923379.54109  23010951.200    94226009.20147
  24188936.800   127113804.37008  24188933.600    99049735.61645
  20627057.840   108395935.78509  20627052.800    84464365.53149
  21324414.680   112060647.04809  21324409.540    87320006.76648
  20420346.120   107309676.84709  20420345.340    83617943.74349
  21667679.120   113864464.72909  21667676.580    88725579.47647
 15 02 19 03 54 30.0000000  0 10G01G04G11G14G16G18G19G22G27G32
  23631340.480   124183551.24508  23631341.520    96766398.45746
  21395299.100   112433094.96009  21395296.880    87610210.96948
  22589577.580   118709036.74508  22589574.320    92500545.27146
  23318971.820   122542030.27108  23318969.840    95487286.60246
  23029954.200   121023225.42008  23029951.220    94303811.16646
  24205954.620   127203233.35008  24205951.580    99119420.46445
  20621576.000   108367127.92509  20621570.800    84441917.84349
  21335181.080   112117224.91509  21335175.880    87364093.40348
  20424285.400   107330377.80809  20424284.660    83634074.35049
  21650818.680   113775862.77409  21650816.160    88656539.00147
 15 02 19 03 55  0.0000000  0 10G01G04G11G14G16G18G19G22G27G32
  23618052.860   124113724.49108  23618053.940    96711988.01847
  21386038.620   112384431.01409  21386036.440    87572291.01848
  22574951.400   118632175.88608  22574948.080    92440653.70746
  23307751.380   122483064.92708  23307749.080    95441339.58546
  23048987.400   121123245.98408  23048984.560    94381749.23946
  24222991.240   127292760.83508  24222987.740    99189182.13945
  20616161.500   108338674.21009  20616156.180    84419746.11549
  21346016.300   112174164.17809  21346011.000    87408461.66848
  20428307.140   107351512.23409  20428306.440    83650542.72149
  21634032.420   113687650.56309  21634029.980    88587802.23047
 15 02 19 03 55 30.0000000  0 10G01G04G11G14G16G18G19G22G27G32
  23604786.200   124044007.95608  23604787.340    96657663.46547
  21376818.800   112335981.17709  21376816.640    87534537.90248
  22560347.860   118555434.15208  22560344.600    92380854.96646
  23296588.180   122424401.04808  23296585.900    95395627.48546
  23068053.840   121223441.12808  23068051.060    94459823.35747
  24240046.720   127382387.66707  24240043.240    99259021.18545
  20610815.040   108310578.59909  20610809.700    84397853.43349
  21356920.440   112231465.38909  21356915.040    87453111.96048
  20432411.980   107373083.41909  20432411.260    83667351.43049
  21617321.280   113599833.04009  21617318.900    88519373.02647
 15 02 19 03 56  0.0000000  0 10G01G04G11G14G16G18G19G22G27G32
  23591540.320   123974400.47008  23591541.500    96603423.88747
  21367639.540   112287744.66209  21367637.460    87496951.02848
  22545766.980   118478811.27308  22545763.760    92321148.83146
  23285482.740   122366040.84108  23285480.220    95350152.01646
  23087152.820   121323807.05008  23087150.040    94538030.55746
  24257120.480   127472110.69208  24257116.620    99328935.21144
  20605536.800   108282841.73909  20605531.540    84376240.30249
  21367892.960   112289125.52009  21367887.420    87498041.92648
  20436599.820   107395090.77709  20436599.100    83684500.01949
  21600685.400   113512411.08509  21600683.080    88451252.05947
 15 02 19 03 56 30.0000000  0 10G01G04G11G14G16G18G19G22G27G32
  23578315.480   123904903.30208  23578316.600    96549270.28047
  21358501.140   112239722.62909  21358499.120    87459531.25648
  22531209.140   118402309.50808  22531205.960    92261537.08346
  23274435.740   122307988.01808  23274432.760    95304916.03246
  23106283.940   121424341.64409  23106281.160    94616369.18446
  24274212.520   127561929.38808  24274208.540    99398923.78244
  20600327.460   108255466.89309  20600322.240    84354909.25949
  21378933.640   112347143.67609  21378928.000    87543250.87748
  20440871.060   107417536.16909  20440870.260    83701989.92049
  21584125.480   113425388.23909  21584123.180    88383442.06348
 15 02 19 03 57  0.0000000  0 10G01G04G11G14G16G18G19G22G27G32
  23565111.480   123835515.70608  23565112.520    96495202.04647
  21349403.500   112191914.47109  21349401.600    87422278.15048
  22516674.260   118325928.49208  22516671.140    92202019.42546
  23263447.480   122250244.60608  23263444.460    95259921.20646
  23125446.540   121525041.69708  23125443.700    94694836.73047
  24291322.220   127651840.92508  24291318.320    99468984.68345
  20595187.000   108228453.99809  20595181.860    84333860.24649
  21390041.940   112405517.29809  21390036.140    87588736.80848
  20445225.640   107440419.39709  20445224.780    83719820.99149
  21567641.760   113338765.93109  21567639.460    88315944.18447
 15 02 19 03 57 30.0000000  0 10G01G04G11G14G16G18G19G22G27G32
  23551928.300   123766237.40908  23551929.300    96441218.98447
  21340346.580   112144319.98009  21340344.740    87385191.53548
  22502162.560   118249669.12008  22502159.420    92142596.57146
  23252518.460   122192813.17408  23252515.220    95215169.44946
  23144640.000   121625904.09908  23144637.240    94773430.80347
  24308449.360   127741843.91208  24308444.840    99539116.91344
  20590115.720   108201804.42809  20590110.660    84313094.35349
  21401217.320   112464244.03809  21401211.460    87634497.90448
  20449663.620   107463740.75509  20449662.740    83737993.46849
  21551234.580   113252546.01009  21551232.320    88248759.86747
 15 02 19 03 58  0.0000000  0 10G01G04G11G14G16G18G19G22G27G32
  23538765.940   123697068.61208  23538766.980    96387321.23847
  21331330.500   112096939.62109  21331328.580    87348271.77748
  22487674.240   118173532.79408  22487671.040    92083269.57846
  23241649.520   122135697.09508  23241646.300    95170663.43046
  23163863.960   121726926.54908  23163861.180    94852149.56546
  24325593.360   127831936.55808  24325589.040    99609318.88945
  20585114.120   108175520.84809  20585109.080    84292613.64449
  21412459.480   112523322.13709  21412453.580    87680532.77448
  20454185.140   107487501.07009  20454184.260    83756507.98449
  21534904.440   113166730.88109  21534902.220    88181890.95047
 15 02 19 03 58 30.0000000  0 10G01G04G11G14G16G18G19G22G27G32
  23525624.060   123628007.55808  23525625.120    96333507.46547
  21322354.820   112049771.62409  21322352.740    87311517.49648
  22473209.080   118097518.19908  22473205.900    92024037.42846
  23230840.840   122078897.13008  23230837.580    95126403.71546
  23183117.440   121828104.08608  23183114.640    94930989.17146
  24342753.800   127922115.33908  24342749.400    99679588.04344
  20580182.100   108149602.71109  20580177.100    84272417.69549
  21423767.740   112582747.90709  21423761.820    87726838.56948
  20458789.920   107511699.06609  20458789.060    83775363.55549
  21518651.440   113081320.86309  21518649.180    88115337.71147
 15 02 19 03 59  0.0000000  0 10G01G04G11G14G16G18G19G22G27G32
  23512503.300   123559057.56708  23512504.360    96279780.21847
  21313420.120   112002819.43509  21313418.040    87274931.39348
  22458767.920   118021629.37308  22458764.680    91964903.28246
  23220093.440   122022419.49308  23220090.100    95082395.19346
  23202400.480   121929437.00008  23202397.680    95009949.86346
  24359930.760   128012381.78508  24359926.800    99749925.44745
  20575320.540   108124054.94609  20575315.540    84252510.34149
  21435142.440   112642522.75109  21435136.500    87773416.36748
  20463478.700   107536338.62909  20463477.880    83794563.20749
  21502476.580   112996321.46109  21502474.340    88049104.41348
 15 02 19 03 59 30.0000000  0 10G01G04G11G14G16G18G19G22G27G32
  23499402.560   123490212.89308  23499403.580    96226135.05647
  21304525.360   111956077.35209  21304523.340    87238508.99948
  22444349.860   117945861.51209  22444346.580    91905863.41946
  23209406.800   121966261.00408  23209403.760    95038635.36146
  23221711.400   122030916.58008  23221708.600    95089024.85246
  24377123.200   128102728.22308  24377119.360    99820325.26345
  20570528.680   108098873.44409  20570523.680    84232888.40049
  21446582.080   112702638.76209  21446576.200    87820260.01848
  20468250.500   107561414.46809  20468249.720    83814102.82849
  21486379.140   112911728.98709  21486376.900    87983188.23248
 15 02 19 04 00  0.0000000  0 10G01G04G11G14G16G18G19G22G27G32
  23486323.260   123421481.35608  23486324.320    96172578.04147
  21295672.200   111909553.49609  21295670.160    87202256.64548
  22429956.540   117870223.46909  22429953.240    91846924.69446
  23198782.760   121910432.46408  23198779.760    94995132.60046
  23241051.280   122132548.39908  23241048.500    95168218.45046
  24394332.000   128193161.10908  24394328.080    99890792.46144
  20565808.280   108074067.75809  20565803.320    84213559.29049
  21458087.740   112763101.81809  21458081.980    87867374.08648
  20473106.880   107586934.94309  20473106.060    83833988.89249
  21470361.060   112827553.40109  21470358.840    87917596.88348
 15 02 19 04 00 30.0000000  0 10G01G04G11G14G16G18G19G22G27G32
  23473264.760   123352859.12208  23473265.860    96119106.20147
  21286859.920   111863244.03509  21286857.760    87166171.34148
  22415587.260   117794712.00708  22415583.940    91788084.61647
  23188221.320   121854932.72308  23188218.240    94951886.08146
  23260418.840   122234325.74708  23260416.120    95247525.44146
  24411556.120   128283674.45208  24411552.440    99961322.30845
  20561158.920   108049635.40909  20561154.000    84194521.09049
  21469658.320   112823906.04909  21469652.760    87914754.00248
  20478047.240   107612896.64709  20478046.360    83854218.78349
  21454421.980   112743792.95709  21454419.780    87852329.02548
 15 02 19 04 01  0.0000000  0 10G01G04G11G14G16G18G19G22G27G32
  23460226.420   123284342.55308  23460227.540    96065716.71647
  21278087.720   111817145.33209  21278085.440    87130250.27748
  22401241.540   117719324.61108  22401238.320    91729341.20747
  23177722.400   121799760.81508  23177719.400    94908894.97046
  23279812.800   122336241.78208  23279810.120    95326940.51246
  24428794.580   128374262.85008  24428790.960   100031910.65044
  20556580.260   108025574.47209  20556575.360    84175772.31449
  21481292.760   112885045.96409  21481287.360    87962395.48048
  20483070.940   107639296.40609  20483069.980    83874790.01149
  21438561.580   112660446.05509  21438559.420    87787383.41448
 15 02 19 04 01 30.0000000  0 10G01G04G11G14G16G18G19G22G27G32
  23447208.780   123215934.47508  23447209.940    96012411.77147
  21269356.080   111771260.48509  21269353.820    87094495.86848
  22386920.120   117644065.13308  22386916.940    91670697.47847
  23167286.960   121744922.59708  23167284.040    94866163.91346
  23299233.240   122438296.70108  23299230.560    95406463.79746
  24446047.320   128464927.69308  24446043.940   100102558.56744
  20552073.080   108001889.22309  20552068.180    84157316.27449
  21492991.220   112946522.38809  21492985.980    88010299.19348
  20488178.620   107666137.56109  20488177.640    83895705.18449
  21422780.780   112577517.56009  21422778.660    87722763.83648
 15 02 19 04 02  0.0000000  0 10G01G04G11G14G16G18G19G22G27G32
  23434211.840   123147635.27808  23434213.040    95959191.65047
  21260665.120   111725589.76509  21260662.980    87058908.31048
  22372623.240   117568934.59209  22372620.060    91612154.21946
  23156915.660   121690420.81609  23156912.760    94823694.99746
  23318679.740   122540488.30708  23318676.960    95486093.60646
  24463314.320   128555667.61008  24463311.500   100173264.90544
  20547637.740   107978581.39109  20547632.800    84139154.32149
  21504753.440   113008333.52609  21504748.180    88058463.70648
  20493370.400   107693420.89309  20493369.480    83916964.90349
  21407080.040   112495009.88809  21407078.000    87658472.15948
 15 02 19 04 02 30.0000000  0 10G01G04G11G14G16G18G19G22G27G32
  23421235.440   123079444.20108  23421236.680    95906055.79147
  21252014.880   111680132.84409  21252012.760    87023487.34948
  22358350.960   117493933.32509  22358347.760    91553711.68146
  23146608.760   121636257.73808  23146606.020    94781490.00846
  23338151.480   122642812.63708  23338148.620    95565826.81146
  24480595.060   128646479.98007  24480592.040   100244027.87144
  20543274.500   107955652.20809  20543269.500    84121287.42549
  21516578.900   113070476.61709  21516573.520    88106886.89248
  20498646.240   107721146.05609  20498645.440    83938568.91249
  21391459.640   112412924.41009  21391457.700    87594509.47247
 15 02 19 04 03  0.0000000  0 10G01G04G11G14G16G18G19G22G27G32
  23408280.000   123011362.94908  23408281.180    95853005.50247
  21243405.780   111634891.41109  21243403.480    86988234.28848
  22344103.680   117419063.49009  22344100.360    91495371.54646
  23136367.020   121582437.62808  23136364.680    94739552.29046
  23357648.280   122745268.57408  23357645.360    95645662.59746
  24497889.580   128737364.83808  24497886.980   100314847.18445
  20538983.940   107933105.00509  20538978.920    84103718.17449
  21528467.460   113132951.20309  21528461.900    88155568.38648
  20504006.560   107749315.21109  20504005.920    83960518.88249
  21375920.280   112331264.83509  21375918.460    87530878.66748
 15 02 19 04 03 30.0000000  0 10G01G04G11G14G16G18G19G22G27G32
  23395345.040   122943389.10508  23395346.080    95800038.90947
  21234837.280   111589863.00109  21234834.740    86953147.21648
  22329881.120   117344323.84008  22329877.860    91437132.89047
  23126190.760   121528960.85508  23126188.380    94697882.08246
  23377169.160   122847851.12308  23377166.200    95725597.01846
  24515197.340   128828317.89707  24515194.960   100385719.68745
  20534765.840   107910938.65909  20534760.840    84086445.70449
  21540418.320   113195753.28909  21540412.660    88204505.06948
  20509451.040   107777926.29109  20509450.500    83982813.23049
  21360461.880   112250030.67309  21360460.080    87467579.33248
 15 02 19 04 04  0.0000000  0 10G01G04G11G14G16G18G19G22G27G32
  23382430.480   122875522.46008  23382431.460    95747155.84847
  21226309.300   111545047.81409  21226306.620    86918226.30948
  22315683.500   117269715.34009  22315680.280    91378996.41347
  23116080.360   121475829.95308  23116078.040    94656481.38946
  23396713.500   122950556.92808  23396710.480    95805627.50246
  24532517.520   128919337.19208  24532515.460   100456643.73944
  20530620.460   107889154.63409  20530615.520    84069471.14449
  21552430.980   113258880.56909  21552425.320    88253695.14648
  20514979.720   107806979.49009  20514979.200    84005452.08749
  21345084.820   112169223.77209  21345082.980    87404612.94148
 15 02 19 04 04 30.0000000  0 10G01G04G11G14G16G18G19G22G27G32
  23369536.120   122807762.35108  23369537.060    95694355.81747
  21217821.640   111500445.07309  21217819.080    86883470.95548
  22301510.880   117195238.04509  22301507.620    91320962.17146
  23106036.060   121423046.74808  23106033.880    94615351.62946
  23416280.640   123053382.87208  23416277.700    95885751.58546
  24549850.260   129010420.54408  24549848.140   100527617.81445
  20526547.960   107867753.67309  20526543.080    84052795.08249
  21564504.960   113322330.15909  21564499.400    88303136.39148
  20520592.520   107836474.47009  20520591.920    84028435.19049
  21329789.300   112088845.38209  21329787.420    87341980.45648
 15 02 19 04 05  0.0000000  0 10G01G04G11G14G16G18G19G22G27G32
  23356662.500   122740111.52908  23356663.480    95641640.92147
  21209374.980   111456057.64309  21209372.560    86848883.35048
  22287363.940   117120895.49909  22287360.640    91263032.93646
  23096059.060   121370616.74108  23096056.680    94574497.08446
  23435870.600   123156328.81708  23435867.640    95965969.18446
  24567195.240   129101569.10507  24567193.380   100598642.61645
  20522549.140   107846739.88209  20522544.280    84036420.70649
  21576640.400   113386102.75509  21576634.940    88352829.31448
  20526290.000   107866414.32809  20526289.240    84051764.93749
  21314576.220   112008900.26709  21314574.340    87279685.58248
 15 02 19 04 05 30.0000000  0 10G01G04G11G14G16G18G19G22G27G32
  23343809.060   122672566.54808  23343809.980    95589008.49347
  21200968.700   111411882.54009  21200966.420    86814461.20648
  22273242.180   117046685.16308  22273238.700    91205206.71846
  23086149.220   121318539.40008  23086146.420    94533917.33246
  23455482.120   123259388.47608  23455479.340    96046275.39646
  24584551.840   129192777.53708  24584549.460   100669714.19344
  20518623.720   107826111.79209  20518618.880    84020346.86749
  21588836.340   113450193.03909  21588831.000    88402769.78748
  20532071.480   107896796.03109  20532070.660    84075438.98249
  21299445.320   111929386.87509  21299443.380    87217727.11648
 15 02 19 04 06  0.0000000  0 10G01G04G11G14G16G18G19G22G27G32
  23330976.480   122605131.18208  23330977.320    95536461.48146
  21192603.480   111367923.43609  21192601.360    86780207.37148
  22259146.520   116972611.93309  22259142.940    91147487.34446
  23076307.600   121266820.83608  23076304.920    94493617.18946
  23475115.320   123362562.33708  23475112.800    96126670.59846
  24601920.100   129284048.08108  24601917.960   100740834.03044
  20514772.660   107805874.37209  20514767.820    84004577.45749
  21601093.080   113514602.77109  21601087.860    88452959.18748
  20537937.720   107927623.56509  20537936.900    84099460.43249
  21284397.680   111850310.95409  21284395.640    87156109.53248
 15 02 19 04 06 30.0000000  0 10G01G04G11G14G16G18G19G22G27G32
  23318164.100   122537801.49408  23318164.800    95483996.82647
  21184278.580   111324176.47909  21184276.620    86746118.84348
  22245076.280   116898672.44608  22245072.680    91089872.16447
  23066533.960   121215459.86208  23066531.160    94453595.66546
  23494769.140   123465844.60208  23494766.740    96207150.25646
  24619299.040   129375375.06407  24619297.360   100811997.84545
  20510995.560   107786025.35209  20510990.700    83989110.67849
  21613409.440   113579325.74209  21613404.260    88503392.66748
  20543888.060   107958893.35909  20543887.340    84123826.49949
  21269432.900   111771670.39609  21269430.760    87094831.18448
 15 02 19 04 07  0.0000000  0 10G01G04G11G14G16G18G19G22G27G32
  23305372.480   122470581.00108  23305373.120    95431617.27246
  21175994.820   111280645.40209  21175992.920    86712198.53848
  22231032.460   116824871.58209  22231028.940    91032365.02247
  23056829.600   121164462.58308  23056826.740    94413857.50746
  23514443.640   123569235.34108  23514441.400    96287714.45846
  24636689.100   129466759.99607  24636687.100   100883206.92344
  20507293.340   107766569.75509  20507288.440    83973950.47749
  21625785.740   113644363.61209  21625780.580    88554071.51448
  20549923.300   107990609.14309  20549922.680    84148540.11649
  21254552.000   111693470.56509  21254549.760    87033896.28348
 15 02 19 04 07 30.0000000  0 10G01G04G11G14G16G18G19G22G27G32
  23292601.680   122403470.09208  23292602.340    95379323.09646
  21167752.240   111237330.46809  21167750.340    86678446.64548
  22217015.260   116751210.64309  22217011.860    90974966.90047
  23047194.600   121113832.14208  23047192.340    94374405.26346
  23534138.360   123672732.09808  23534136.160    96368361.26146
  24654090.000   129558202.13507  24654088.000   100954460.55445
  20503666.360   107747509.51209  20503661.400    83959098.34249
  21638221.660   113709714.61309  21638216.460    88604994.37048
  20556043.600   108022771.59909  20556043.020    84173601.76849
  21239755.380   111615713.85209  21239753.120    86973306.64748
 15 02 19 04 08  0.0000000  0 10G01G04G11G14G16G18G19G22G27G32
  23279850.880   122336464.30608  23279851.600    95327110.83646
  21159550.060   111194227.63709  21159548.120    86644860.04048
  22203023.940   116677685.93409  22203020.720    90917674.94147
  23037629.100   121063566.19109  23037626.880    94335236.98346
  23553851.940   123776327.81308  23553849.780    96449085.17446
  24671500.500   129649695.08308  24671498.500   101025753.70444
  20500113.960   107728841.30109  20500108.980    83944551.67549
  21650715.900   113775372.18209  21650710.780    88656156.11648
  20562248.140   108055376.52709  20562247.560    84199008.18749
  21225042.560   111538397.60909  21225040.340    86913060.22947
