     2.11           OBSERVATION DATA    G                   RINEX VERSION / TYPE
SPIDER V4,0,0,3554                      2015 04 16 04:16    PGM / RUN BY / DATE 
CABS                                                        MARKER NAME         
CABS                                                        MARKER NUMBER       
                                                            OBSERVER / AGENCY   
462287              LEICA GRX1200PRO    8.10/2.127          REC # / TYPE / VERS 
103298              LEIAT504                                ANT # / TYPE        
  5116912.3402   671231.6412  3737143.4301                  APPROX POSITION XYZ 
        0.0600        0.0000        0.0000                  ANTENNA: DELTA H/E/N
     1     1                                                WAVELENGTH FACT L1/2
     4    C1    L1    P2    L2                              # / TYPES OF OBSERV 
    30.000                                                  INTERVAL            
  2015    02    10    00    00    0.0000000     GPS         TIME OF FIRST OBS   
  2015    02    10    23    59   30.0000000     GPS         TIME OF LAST OBS    
    16                                                      LEAP SECONDS        
    30                                                      # OF SATELLITES     
   G 1   802   802   802   802                              PRN / # OF OBS      
   G 2   940   940   940   940                              PRN / # OF OBS      
   G 3   847   847   847   847                              PRN / # OF OBS      
   G 4   832   832   831   831                              PRN / # OF OBS      
   G 5   641   641   641   641                              PRN / # OF OBS      
   G 6   811   811   811   811                              PRN / # OF OBS      
   G 7   672   672   672   672                              PRN / # OF OBS      
   G 9   807   807   807   807                              PRN / # OF OBS      
   G10   752   752   752   752                              PRN / # OF OBS      
   G11   769   769   769   769                              PRN / # OF OBS      
   G12   815   815   815   815                              PRN / # OF OBS      
   G13   791   791   791   791                              PRN / # OF OBS      
   G14   940   940   940   940                              PRN / # OF OBS      
   G15   683   683   683   683                              PRN / # OF OBS      
   G16   666   666   666   666                              PRN / # OF OBS      
   G17   942   942   942   942                              PRN / # OF OBS      
   G18   894   894   893   893                              PRN / # OF OBS      
   G19   750   750   750   750                              PRN / # OF OBS      
   G20   796   796   796   796                              PRN / # OF OBS      
   G21   740   740   740   740                              PRN / # OF OBS      
   G22   657   657   657   657                              PRN / # OF OBS      
   G23   755   755   755   755                              PRN / # OF OBS      
   G24   818   818   818   818                              PRN / # OF OBS      
   G25   855   855   855   855                              PRN / # OF OBS      
   G27   793   793   793   793                              PRN / # OF OBS      
   G28   877   877   877   877                              PRN / # OF OBS      
   G29   765   765   765   765                              PRN / # OF OBS      
   G30   718   718   718   718                              PRN / # OF OBS      
   G31   870   870   870   870                              PRN / # OF OBS      
   G32   769   769   769   769                              PRN / # OF OBS      
BIT 2 OF LLI FLAGS DATA COLLECTED UNDER A/S CONDITION       COMMENT             
SNR is mapped to RINEX snr flag value [2-9]                 COMMENT             
Lx:     = 25dBHz -> 1; 26-27dBHz -> 2; 28-31dBHz -> 3       COMMENT             
       32-35dBHz -> 4; 36-38dBHz -> 5; 39-41dBHz -> 6       COMMENT             
       42-44dBHz -> 7; 45-48dBHz -> 8; >=49dBHz -> 9        COMMENT             
                                                            END OF HEADER       
 15 02 10 00 00  0.0000000  0  5G16G21G25G29G31
  24084839.580   126566685.15706  24084841.200    98623403.11345
  21043274.820   110583314.99408  21043275.860    86168900.05949
  22421521.800   117826064.08408  22421525.900    91812604.03147
  21720584.600   114142870.10708  21720586.380    88942699.05648
  21213978.200   111480215.90009  21213979.420    86867706.41649
 15 02 10 00 00 30.0000000  0  5G16G21G25G29G31
  24067477.900   126475449.43606  24067479.660    98552310.38344
  21038224.760   110556776.81308  21038225.760    86148220.97149
  22435501.940   117899529.78808  22435506.100    91869850.00747
  21732474.760   114205353.27008  21732476.580    88991387.22648
  21221253.640   111518448.72909  21221254.880    86897498.21249
 15 02 10 00 01  0.0000000  0  5G16G21G25G29G31
  24050118.220   126384223.78606  24050120.080    98481225.49545
  21033260.360   110530688.56508  21033261.300    86127892.47749
  22449534.420   117973270.32108  22449538.720    91927310.14547
  21744385.760   114267945.84808  21744387.560    89040160.65748
  21228627.800   111557200.20709  21228629.080    86927694.14649
 15 02 10 00 01 30.0000000  0  5G16G21G25G29G31
  24032761.600   126293014.20306  24032763.440    98410153.12044
  21028382.560   110505055.19108  21028383.420    86107918.43149
  22463619.960   118047289.67408  22463624.400    91984987.53647
  21756318.280   114330651.30608  21756320.020    89089022.04348
  21236101.220   111596473.29909  21236102.500    86958296.53449
 15 02 10 00 02  0.0000000  0  5G16G21G25G29G31
  24015408.700   126201824.17406  24015410.580    98339095.97745
  21023591.760   110479879.11408  21023592.580    86088300.72149
  22477758.820   118121589.50708  22477763.360    92042883.48747
  21768272.600   114393471.42408  21768274.320    89137972.77048
  21243674.080   111636268.87909  21243675.360    86989306.05249
 15 02 10 00 02 30.0000000  0  5G16G21G25G29G31
  23998058.220   126110646.85806  23998060.100    98268048.74445
  21018886.360   110455152.03908  21018887.200    86069032.88349
  22491949.280   118196161.05307  22491953.860    92100991.16347
  21780246.940   114456396.71708  21780248.580    89187005.45148
  21251344.560   111676577.10809  21251345.780    87020715.03549
 15 02 10 00 03  0.0000000  0  5G16G21G25G29G31
  23980711.340   126019488.12006  23980713.120    98197015.98245
  21014267.280   110430878.57608  21014268.160    86050118.50249
  22506192.140   118271008.21907  22506196.720    92159313.61747
  21792241.980   114519430.64408  21792243.540    89236122.78148
  21259113.160   111717400.97009  21259114.340    87052525.81149
 15 02 10 00 03 30.0000000  0  6G16G18G21G25G29G31
  23963368.460   125928350.56806  23963370.080    98125999.72845
  24453053.140   128501658.08405                                
  21009734.800   110407060.41608  21009735.720    86031558.90749
  22520487.600   118346131.69107  22520492.140    92217851.36947
  21804257.800   114582573.59208  21804259.260    89285325.06848
  21266979.840   111758740.47909  21266981.040    87084738.39349
 15 02 10 00 04  0.0000000  0  6G16G18G21G25G29G31
  23946029.240   125837232.42006  23946030.820    98054998.59445
  24437930.660   128422188.98606  24437942.220   100069267.63545
  21005288.280   110383694.02508  21005289.240    86013351.34049
  22534835.040   118421527.98407  22534839.480    92276601.69747
  21816293.620   114645821.90608  21816295.060    89334609.45648
  21274943.700   111800590.97909  21274944.960    87117349.15049
 15 02 10 00 04 30.0000000  0  6G16G18G21G25G29G31
  23928695.380   125746142.43406  23928696.880    97984019.39245
  24422798.040   128342664.21905  24422807.940   100007299.32444
  21000929.300   110360787.59808  21000930.260    85995502.18449
  22549235.780   118497203.89508  22549240.080    92335569.90647
  21828350.600   114709181.87108  21828352.100    89383980.85048
  21283005.900   111842958.16809  21283007.180    87150362.52649
 15 02 10 00 05  0.0000000  0  6G16G18G21G25G29G31
  23911363.500   125655062.56406  23911364.860    97913048.09845
  24407654.920   128263077.17206  24407658.540    99945275.80044
  20996654.160   110338321.66508  20996655.100    85977996.27249
  22563685.940   118573139.28907  22563690.120    92394740.31447
  21840424.840   114772632.99808  21840426.460    89433423.27448
  21291162.440   111885821.09409  21291163.760    87183762.18448
 15 02 10 00 05 30.0000000  0  6G16G18G21G25G29G31
  23894038.300   125564017.73406  23894039.560    97842104.07545
  24392501.820   128183455.43704  24392506.380    99883260.63444
  20992467.360   110316319.91108  20992468.240    85960852.05949
  22578189.820   118649357.33307  22578194.020    92454130.96547
  21852520.860   114836198.57708  21852522.540    89482954.88848
  21299417.560   111929201.74309  21299418.820    87217565.26248
 15 02 10 00 06  0.0000000  0  6G16G18G21G25G29G31
  23876718.440   125473001.24306  23876719.620    97771182.16244
  24377337.420   128103777.52506  24377349.020    99821163.61244
  20988367.240   110294773.72708  20988368.080    85944062.84349
  22592745.700   118725849.15307  22592750.080    92513734.95747
  21864636.860   114899868.88708  21864638.600    89532568.11048
  21307769.320   111973090.30109  21307770.540    87251764.11449
 15 02 10 00 06 30.0000000  0  6G16G18G21G25G29G31
  23859402.000   125382003.22506  23859403.180    97700274.62045
  24362167.920   128024046.52105  24362173.300    99759029.26042
  20984351.640   110273671.82508  20984352.480    85927619.81349
  22607351.300   118802602.76207  22607355.960    92573542.93947
  21876770.660   114963632.27108  21876772.380    89582253.84948
  21316215.240   112017473.73409  21316216.420    87286348.58348
 15 02 10 00 07  0.0000000  0  6G16G18G21G25G29G31
  23842092.520   125291041.53506  23842093.740    97629395.37945
  24346988.920   127944282.17406  24346995.780    99696875.34846
  20980423.900   110253031.40908  20980424.700    85911536.38449
  22622009.760   118879634.25607  22622014.560    92633567.48647
  21888925.220   115027504.46508  21888926.820    89632024.38048
  21324758.160   112062367.12409  21324759.320    87321330.41848
 15 02 10 00 07 30.0000000  0  6G16G18G21G25G29G31
  23824788.520   125200108.78806  23824789.860    97558538.69345
  24331802.180   127864475.99505  24331809.380    99634688.94642
  20976582.240   110232843.28108  20976583.000    85895805.38849
  22636719.180   118956933.89707  22636724.120    92693800.96047
  21901098.560   115091475.29708  21901100.060    89681871.76948
  21333396.040   112107759.66809  21333397.220    87356701.21048
 15 02 10 00 08  0.0000000  0  6G16G18G21G25G29G31
  23807490.440   125109207.04806  23807491.860    97487706.16845
  24316608.140   127784632.25006  24316615.320    99572473.51444
  20972826.800   110213108.38408  20972827.580    85880427.55449
  22651479.800   119034502.20107  22651484.820    92754243.76147
  21913290.760   115155545.24608  21913292.160    89731796.39348
  21342128.800   112153650.63708  21342130.000    87392460.38248
 15 02 10 00 08 30.0000000  0  6G16G18G21G25G29G31
  23790198.780   125018338.99006  23790200.280    97416899.89145
  24301407.500   127704753.45906  24301414.640    99510230.69744
  20969157.860   110193828.01908  20969158.640    85865403.90349
  22666291.820   119112339.63407  22666296.640    92814896.28047
  21925501.780   115219714.63908  21925503.240    89781798.49948
  21350956.400   112200039.84909  21350957.600    87428607.79748
 15 02 10 00 09  0.0000000  0  6G16G18G21G25G29G31
  23772913.760   124927505.55707  23772915.260    97346120.60545
  24286200.600   127624842.13905  24286207.720    99447962.41944
  20965575.220   110175001.21608  20965576.000    85850733.67949
  22681154.960   119190444.95807  22681159.460    92875757.53747
  21937731.400   115283981.93408  21937732.940    89831876.88948
  21359878.320   112246924.65309  21359879.540    87465141.38649
 15 02 10 00 09 30.0000000  0  6G16G18G21G25G29G31
  23755635.580   124836707.90907  23755637.100    97275369.18446
  24270987.840   127544900.68206  24270995.060    99385671.02844
  20962078.800   110156627.33708  20962079.580    85836416.38349
  22696068.900   119268816.92307  22696073.040    92936826.57846
  21949979.440   115348346.00508  21949981.040    89882030.68948
  21368894.080   112294302.56009  21368895.320    87502059.21349
 15 02 10 00 10  0.0000000  0  6G16G18G21G25G29G31
  23738365.100   124745950.62707  23738366.580    97204649.23145
  24255770.120   127464934.26105  24255777.540    99323360.21244
  20958669.500   110138711.26808  20958670.260    85822455.81849
  22711033.980   119347458.22407  22711038.000    92998105.48946
  21962246.240   115412808.69208  21962247.900    89932261.34648
  21378004.040   112342175.63109  21378005.320    87539362.88448
 15 02 10 00 10 30.0000000  0  6G16G18G21G25G29G31
  23721101.880   124655231.55707  23721103.420    97133959.07345
  24240547.440   127384942.70206  24240555.300    99261030.02444
  20955346.100   110121246.79108  20955346.880    85808847.14149
  22726049.420   119426364.81707  22726053.540    93059591.12246
  21974531.200   115477366.59008  21974532.880    89982566.18748
  21387207.160   112390538.34308  21387208.460    87577048.08948
 15 02 10 00 11  0.0000000  0  6G16G18G21G25G29G31
  23703845.920   124564550.68306  23703847.540    97063298.66445
  24225320.160   127304926.33705  24225328.180    99198680.50144
  20952108.320   110104232.14008  20952109.120    85795588.98349
  22741114.800   119505534.39607  22741119.220    93121281.68447
  21986833.680   115542016.89008  21986835.440    90032943.03848
  21396502.800   112439387.37308  21396504.140    87615112.24748
 15 02 10 00 11 30.0000000  0  6G16G18G21G25G29G31
  23686598.280   124473913.66606  23686599.940    96992672.43545
  24210089.380   127224892.02106  24210097.540    99136317.03644
  20948957.420   110087674.08808  20948958.240    85782686.61349
  22756230.900   119584970.14807  22756235.560    93183179.65447
  21999154.460   115606763.12308  21999156.260    90083394.64048
  21405891.400   112488724.90208  21405892.760    87653557.05048
 15 02 10 00 12  0.0000000  0  6G16G18G21G25G29G31
  23669358.700   124383319.31306  23669360.340    96922079.44245
  24194855.100   127144839.34905  24194863.540    99073939.19945
  20945892.520   110071567.97208  20945893.360    85770136.40149
  22771397.100   119664668.71807  22771401.880    93245282.41747
  22011492.900   115671601.79508  22011494.660    90133918.26848
  21415372.080   112538546.20608  21415373.440    87692378.81548
 15 02 10 00 12 30.0000000  0  6G16G18G21G25G29G31
  23652127.840   124292771.14306  23652129.440    96851522.45045
  24179618.280   127064773.53906  24179626.720    99011551.13243
  20942914.020   110055915.63808  20942914.820    85757939.78649
  22786613.760   119744631.93107  22786618.440    93307591.38647
  22023849.180   115736534.25308  22023850.940    90184514.96848
  21424945.000   112588851.85408  21424946.300    87731577.99448
 15 02 10 00 13  0.0000000  0  6G16G18G21G25G29G31
  23634905.860   124202269.54706  23634907.320    96781001.73845
  24164378.980   126984695.31705  24164387.560    98949153.30245
  20940021.740   110040716.39108  20940022.500    85746096.22749
  22801880.440   119824857.63307  22801884.860    93370104.89146
  22036222.920   115801558.34608  22036224.600    90235183.07848
  21434609.520   112639638.71909  21434610.740    87771152.14848
 15 02 10 00 13 30.0000000  0  6G16G18G21G25G29G31
  23617692.760   124111814.52706  23617694.160    96710517.34245
  24149137.700   126904606.18305  24149145.640    98886747.04043
  20937215.340   110025968.49708  20937216.040    85734604.37249
  22817196.600   119905343.60607  22817200.720    93432821.20246
  22048613.840   115866672.66808  22048615.460    90285921.49547
  21444364.960   112690903.42908  21444366.120    87811098.64648
 15 02 10 00 14  0.0000000  0  6G16G18G21G25G29G31
  23600489.440   124021410.80406  23600490.820    96640072.88945
  24133895.220   126824511.69105  24133903.160    98824336.48144
  20934495.320   110011674.84508  20934496.000    85723466.47449
  22832562.540   119986092.25507  22832566.500    93495742.18446
  22061022.200   115931878.80608  22061023.800    90336731.45248
  21454211.520   112742647.29408  21454212.700    87851418.51248
 15 02 10 00 14 30.0000000  0  6G16G18G21G25G29G31
  23583295.300   123931055.15106  23583296.660    96569665.90544
  24118651.580   126744409.37705  24118659.880    98761919.84144
  20931860.640   109997829.81808  20931861.360    85712678.14549
  22847977.220   120067097.92007  22847981.220    93558863.45946
  22073446.940   115997171.26908  22073448.500    90387608.68548
  21464147.900   112794863.23908  21464149.100    87892106.23548
 15 02 10 00 15  0.0000000  0  6G16G18G21G25G29G31
  23566111.280   123840752.57406  23566112.660    96499300.28145
  24103407.700   126664305.56305  24103415.100    98699502.05444
  20929311.940   109984436.67008  20929312.680    85702241.93349
  22863441.280   120148363.39707  22863445.420    93622187.18246
  22085888.680   116062553.10108  22085890.200    90438555.56048
  21474174.420   112847552.98908  21474175.660    87933163.15448
 15 02 10 00 15 30.0000000  0  6G16G18G21G25G29G31
  23548937.300   123750502.70606  23548938.700    96428975.73946
  24088163.960   126584201.15706  24088171.420    98637083.71945
  20926849.020   109971494.31908  20926849.820    85692156.99349
  22878954.360   120229886.16507  22878958.700    93685711.39746
  22098346.940   116128021.61808  22098348.480    90489569.97848
  21484290.420   112900712.82508  21484291.680    87974586.37948
 15 02 10 00 16  0.0000000  0  6G16G18G21G25G29G31
  23531774.080   123660309.30706  23531775.560    96358695.18545
  24072920.960   126504100.51506  24072927.880    98574668.34045
  20924472.120   109959003.75908  20924472.940    85682424.09749
  22894516.720   120311667.29707  22894521.240    93749436.93046
  22110821.820   116193577.68608  22110823.440    90540652.61847
  21494495.760   112954342.50908  21494497.120    88016375.71248
 15 02 10 00 16 30.0000000  0  6G16G18G21G25G29G31
  23514621.260   123570170.40406  23514622.680    96288457.08545
  24057678.880   126424003.09306  24057685.100    98512255.38144
  20922180.580   109946961.39808  20922181.360    85673040.45049
  22910127.640   120393702.81007  22910132.240    93813360.67946
  22123312.720   116259218.05808  22123314.380    90591800.94848
  21504789.580   113008436.98708  21504790.960    88058527.22348
 15 02 10 00 17  0.0000000  0  6G16G18G21G25G29G31
  23497479.860   123480091.53106  23497481.200    96218265.78445
  24042438.520   126343915.28106  24042444.640    98449849.94045
  20919975.080   109935371.01308  20919975.780    85664008.98749
  22925787.640   120475995.76707  22925792.240    93877485.04046
  22135820.240   116324945.60408  22135821.900    90643017.20747
  21515172.200   113062997.97908  21515173.600    88101042.24948
 15 02 10 00 17 30.0000000  0  7G16G18G21G25G27G29G31
  23480353.300   123390090.89906  23480354.620    96148135.44745
  24027203.720   126263856.35806  24027209.420    98387466.94744
  20917858.680   109924248.88008  20917859.320    85655342.39649
  22941499.600   120558562.09607  22941504.260    93941822.41746
  24625803.260   129409464.38905  24625809.620   100838570.15544
  22148347.380   116390776.06108  22148349.000    90694313.65947
  21525646.380   113118040.11608  21525647.800    88143932.20448
 15 02 10 00 18  0.0000000  0  7G16G18G21G25G27G29G31
  23463232.460   123300120.86606  23463233.980    96078028.97145
  24011965.360   126183779.50206  24011970.680    98325069.95044
  20915821.740   109913544.55908  20915822.380    85647001.37749
  22957253.940   120641351.47707  22957258.660    94006333.59546
  24611012.060   129331735.89605  24611017.780   100778002.61245
  22160884.720   116456660.03308  22160886.340    90745651.80648
  21536202.360   113173511.85608  21536203.740    88187156.90748
 15 02 10 00 18 30.0000000  0  7G16G18G21G25G27G29G31
  23446125.920   123210225.75606  23446127.520    96007980.85545
  23996732.160   126103729.76706  23996737.180    98262694.05445
  20913872.480   109903301.23408  20913873.140    85639019.56949
  22973058.640   120724405.69207  22973063.360    94071051.14246
  24596239.340   129254104.34705  24596244.340   100717510.57945
  22173440.140   116522638.94808  22173441.700    90797063.92747
  21546847.800   113229453.65008  21546849.140    88230747.88748
 15 02 10 00 19  0.0000000  0  7G16G18G21G25G27G29G31
  23429032.400   123120398.81006  23429034.040    95937985.85445
  23981502.920   126023702.16206  23981507.700    98200335.38044
  20912009.360   109893510.70608  20912010.060    85631390.59549
  22988912.080   120807716.09407  22988916.740    94135968.30446
  24581483.440   129176561.89805  24581488.280   100657087.96744
  22186011.940   116588703.96108  22186013.420    90848543.14447
  21557580.840   113285855.79808  21557582.140    88274697.58248
 15 02 10 00 19 30.0000000  0  7G16G18G21G25G27G29G31
  23411951.180   123030636.11207  23411952.700    95868040.90945
  23966277.280   125943693.71106  23966281.940    98137991.60744
  20910231.080   109884166.15008  20910231.800    85624109.12649
  23004813.120   120891276.11707  23004817.560    94201079.96346
  24566743.100   129099112.85705  24566748.580   100596734.32444
  22198599.040   116654849.36308  22198600.440    90900084.99347
  21568399.940   113342710.33708  21568401.220    88318999.79148
 15 02 10 00 20  0.0000000  0  7G16G18G21G25G27G29G31
  23394883.720   122940945.81307  23394885.140    95798152.39545
  23951056.800   125863712.98006  23951061.320    98075669.41144
  20908538.740   109875273.22108  20908539.480    85617179.57849
  23020762.660   120975091.13107  23020766.840    94266390.33346
  24552020.080   129021743.40305  24552025.720   100536446.52045
  22211202.400   116721080.50308  22211203.780    90951693.66047
  21579305.920   113400021.48608  21579307.200    88363657.79348
 15 02 10 00 20 30.0000000  0  7G16G18G21G25G27G29G31
  23377829.360   122851324.34107  23377830.640    95728317.49445
  23935841.120   125783757.45506  23935845.840    98013366.83244
  20906931.420   109866827.03908  20906932.180    85610598.14549
  23036759.580   121059154.92507  23036763.480    94331894.55546
  24537313.220   128944453.16905  24537318.460   100476218.33245
  22223820.880   116787391.08208  22223822.260    91003364.22647
  21590297.280   113457781.42508  21590298.560    88408665.50948
 15 02 10 00 21  0.0000000  0  7G16G18G21G25G27G29G31
  23360788.460   122761773.76507  23360789.660    95658537.84546
  23920630.880   125703830.35206  23920635.460    97951086.35944
  20905409.200   109858827.65608  20905409.900    85604364.87049
  23052803.860   121143467.56007  23052807.660    94397592.69446
  24522622.440   128867253.18205  24522627.820   100416062.57845
  22236454.560   116853781.52108  22236455.920    91055097.03047
  21601373.820   113515988.95208  21601375.120    88454021.99648
 15 02 10 00 21 30.0000000  0  7G16G18G21G25G27G29G31
  23343761.460   122672296.18707  23343762.640    95588815.06945
  23905426.800   125623934.90505  23905431.360    97888830.56844
  20903972.060   109851275.29308  20903972.720    85598479.91849
  23068895.320   121228028.67407  23068899.260    94463484.43046
  24507948.020   128790139.02605  24507953.560   100355973.69945
  22249103.320   116920251.51908  22249104.700    91106891.82747
  21612535.260   113574642.61308  21612536.580    88499726.11748
 15 02 10 00 22  0.0000000  0  7G16G18G21G25G27G29G31
  23326748.440   122582892.32407  23326749.680    95519149.72745
  23890229.140   125544072.77506  23890233.460    97826600.74544
  20902619.580   109844167.89608  20902620.220    85592941.69749
  23085033.660   121312836.14707  23085037.840    94529568.15546
  24493289.760   128713109.38705  24493295.340   100295950.67346
  22261766.900   116986799.41708  22261768.360    91158747.31847
  21623780.940   113633739.06508  21623782.300    88545775.27448
 15 02 10 00 22 30.0000000  0  7G16G18G21G25G27G29G31
  23309749.920   122493564.81907  23309751.180    95449543.90245
  23875038.640   125464247.49706  23875042.820    97764399.58144
  20901351.800   109837505.72008  20901352.420    85587750.39549
  23101218.860   121397889.96807  23101223.240    94595843.83546
  24478647.720   128636165.20205  24478653.320   100235994.23945
  22274445.380   117053425.58708  22274446.980    91210663.80347
  21635110.580   113693276.73608  21635111.960    88592168.23548
 15 02 10 00 23  0.0000000  0  7G16G18G21G25G27G29G31
  23292766.260   122404315.52707  23292767.580    95379999.03045
  23859855.760   125384461.65106  23859859.880    97702229.16144
  20900168.760   109831289.01808  20900169.420    85582906.22249
  23117450.840   121483189.43107  23117455.340    94662310.94046
  24464022.000   128559306.63205  24464027.560   100176104.48245
  22287138.740   117120129.78308  22287140.400    91262641.08147
  21646523.820   113753253.66908  21646525.200    88638903.47848
 15 02 10 00 23 30.0000000  0  7G16G18G21G25G27G29G31
  23275797.880   122315146.28507  23275799.240    95310516.52645
  23844680.840   125304718.26706  23844684.980    97640091.77044
  20899070.440   109825517.38708  20899071.100    85578408.85149
  23133729.420   121568734.03507  23133733.980    94728969.04346
  24449412.640   128482534.14805  24449418.040   100116281.83045
  22299846.920   117186911.57508  22299848.560    91314678.82647
  21658020.300   113813668.08508  21658021.660    88685979.61748
 15 02 10 00 24  0.0000000  0  7G16G18G21G25G27G29G31
  23258844.860   122226057.52707  23258846.200    95241096.73145
  23829514.300   125225018.84605  23829518.480    97577988.59046
  20898056.400   109820188.78108  20898057.080    85574256.69649
  23150054.200   121654521.47507  23150058.780    94795816.36646
  24434819.360   128405846.35405  24434824.740   100056525.18745
  22312569.440   117253768.61408  22312571.100    91366775.20447
  21669599.340   113874516.24308  21669600.660    88733393.73148
 15 02 10 00 24 30.0000000  0  7G16G18G21G25G27G29G31
  23241907.820   122137053.07307  23241909.300    95171742.63145
  23814357.020   125145367.63306  23814361.080    97515922.99944
  20897126.920   109815304.42008  20897127.600    85570450.70749
  23166425.360   121740552.92707  23166429.900    94862853.82246
  24420242.540   128329245.34405  24420247.900    99996836.15045
  22325306.640   117320702.97008  22325308.300    91418931.81947
  21681260.900   113935797.96808  21681262.160    88781145.69448
 15 02 10 00 25  0.0000000  0  7G16G18G21G25G27G29G31
  23224986.920   122048133.52707  23224988.480    95102454.70645
  23799209.280   125065766.83806  23799213.380    97453896.67944
  20896281.800   109810863.42308  20896282.520    85566990.20149
  23182842.480   121826826.25007  23182847.080    94930079.73946
  24405682.100   128252729.90505  24405687.440    99937213.79344
  22338058.280   117387712.95408  22338059.860    91471147.37647
  21693004.360   113997510.15908  21693005.640    88829233.08148
 15 02 10 00 25 30.0000000  0  7G16G18G21G25G27G29G31
  23208082.300   121959299.35407  23208083.800    95033233.29345
  23784071.420   124986217.50106  23784075.480    97391910.45345
  20895520.640   109806863.61408  20895521.400    85563873.47249
  23199305.300   121913339.27607  23199309.860    94997492.43846
  24391137.740   128176298.90605  24391142.900    99877657.24444
  22350823.900   117454796.34108  22350825.360    91523420.13147
  21704828.960   114059648.76508  21704830.300    88877652.74548
 15 02 10 00 26  0.0000000  0  7G16G18G21G25G27G29G31
  23191194.560   121870553.68107  23191195.960    94964080.84645
  23768944.080   124906723.67106  23768948.160    97329967.47845
  20894843.560   109803305.49208  20894844.320    85561100.92249
  23215813.880   122000092.41607  23215818.320    95065092.26446
  24376609.740   128099953.62705  24376614.720    99818167.49744
  22363603.600   117521953.91008  22363605.000    91575750.69247
  21716734.600   114122213.10208  21716735.960    88926404.15248
 15 02 10 00 26 30.0000000  0  7G16G18G21G25G27G29G31
  23174323.880   121781897.72007  23174325.180    94894998.29745
  23753827.940   124827287.51406  23753831.660    97268069.40245
  20894250.300   109800188.03208  20894251.080    85558671.74049
  23232367.920   122087084.02007  23232372.240    95132877.88945
  24362097.840   128023693.42705  24362102.680    99758744.01644
  22376397.060   117589184.27508  22376398.520    91628137.97747
  21728720.660   114185200.32708  21728722.120    88975485.07848
 15 02 10 00 27  0.0000000  0  7G16G18G21G25G27G29G31
  23157470.840   121693334.28107  23157472.060    94825987.84645
  23738723.480   124747913.12206  23738727.000    97206219.49145
  20893741.120   109797512.03608  20893741.880    85556586.55749
  23248967.520   122174314.71407  23248971.700    95200849.84645
  24347602.360   127947519.84405  24347607.040    99699388.03044
  22389204.660   117656488.82708  22389206.200    91680583.07247
  21740786.960   114248609.17508  21740788.460    89024894.54148
 15 02 10 00 27 30.0000000  0  7G16G18G21G25G27G29G31
  23140635.540   121604864.08607  23140636.740    94757050.05545
  23723630.720   124668600.91906  23723634.120    97144418.01545
  20893315.460   109795275.13608  20893316.200    85554843.52249
  23265612.080   122261781.74707  23265616.220    95269005.95545
  24333123.140   127871431.19505  24333127.880    99640098.23244
  22402025.880   117723865.13208  22402027.560    91733084.07747
  21752932.740   114312435.67408  21752934.220    89074629.43748
 15 02 10 00 28  0.0000000  0  7G16G18G21G25G27G29G31
  23123818.520   121516490.35107  23123819.740    94688187.41545
  23708550.740   124589356.31606  23708554.220    97082669.21244
  20892973.640   109793478.80408  20892974.360    85553443.78949
  23282301.820   122349486.37107  23282305.980    95337347.17946
  24318660.420   127795429.66105  24318665.340    99580876.33645
  22414861.100   117791314.92608  22414862.940    91785642.34547
  21765158.040   114376680.00208  21765159.500    89124689.92348
 15 02 10 00 28 30.0000000  0  7G16G18G21G25G27G29G31
  23107019.720   121428212.16407  23107020.920    94619399.22845
  23693483.480   124510178.71006  23693486.960    97020972.59345
  20892714.960   109792119.45308  20892715.680    85552384.55849
  23299035.960   122437424.43107  23299040.120    95405870.32146
  24304213.720   127719512.10505  24304218.760    99521719.86045
  22427709.660   117858834.84608  22427711.600    91838255.25147
  21777461.740   114441336.27108  21777463.160    89175071.39748
 15 02 10 00 29  0.0000000  0  7G16G18G21G25G27G29G31
  23090239.960   121340033.86207  23090241.080    94550688.88145
  23678429.900   124431073.71506  23678433.460    96959332.54044
  20892539.780   109791198.89208  20892540.480    85551667.24649
  23315814.780   122525597.67007  23315819.080    95474576.69846
  24289783.520   127643681.25205  24289788.700    99462630.96845
  22440572.020   117926426.63808  22440573.960    91890924.17547
  21789843.960   114506404.88808  21789845.340    89225774.17848
 15 02 10 00 29 30.0000000  0  7G16G18G21G25G27G29G31
  23073479.540   121251957.20507  23073480.620    94482057.73646
  23663390.480   124352043.61506  23663394.280    96897750.84644
  20892447.980   109790716.34308  20892448.640    85551291.24249
  23332638.020   122614004.96106  23332642.560    95543465.46146
  24275369.860   127567936.95505  24275375.180    99403609.48345
  22453447.920   117994089.79708  22453449.860    91943648.70047
  21802304.140   114571883.29708  21802305.540    89276796.28948
 15 02 10 00 30  0.0000000  0  7G16G18G21G25G27G29G31
  23056738.520   121163982.68007  23056739.640    94413506.17645
  23648365.660   124273089.68406  23648369.560    96836228.49344
  20892439.180   109790669.94108  20892439.760    85551255.09349
  23349505.300   122702643.93306  23349510.080    95612534.74446
  24260972.260   127492277.83905  24260977.760    99344654.38546
  22466336.960   118061822.29108  22466338.880    91996427.24847
  21814841.640   114637767.91508  21814843.060    89328134.91548
 15 02 10 00 30 30.0000000  0  7G16G18G21G25G27G29G31
  23040017.240   121076111.99407  23040018.440    94345035.53146
  23633355.860   124194214.17106  23633359.600    96774767.20844
  20892513.120   109791058.45108  20892513.680    85551557.83649
  23366416.400   122791513.45306  23366421.400    95681783.66646
  24246590.880   127416703.90305  24246596.420    99285765.64845
  22479239.120   118129623.49708  22479241.000    92049259.33847
  21827455.900   114704056.18108  21827457.400    89379788.07948
 15 02 10 00 31  0.0000000  0  7G16G18G21G25G27G29G31
  23023315.980   120988346.67707  23023317.320    94276646.99546
  23618361.560   124115419.97306  23618365.280    96713369.32344
  20892669.740   109791881.21608  20892670.240    85552198.95849
  23383371.240   122880612.25606  23383376.360    95751211.26246
  24232225.660   127341214.80605  24232231.160    99226943.02745
  22492154.300   118197493.03908  22492156.180    92102144.67547
  21840146.480   114770745.28508  21840147.980    89431753.57948
 15 02 10 00 31 30.0000000  0  7G16G18G21G25G27G29G31
  23006635.080   120900688.15307  23006636.520    94208341.67046
  23603383.340   124036709.74106  23603386.880    96652036.84043
  20892908.720   109793137.03808  20892909.220    85553177.52549
  23400369.580   122969938.87106  23400374.520    95820816.38746
  24217876.560   127265810.16305  24217882.040    99168186.21945
  22505082.300   118265429.72508  22505084.080    92155082.33447
  21852912.740   114837832.41008  21852914.220    89484029.22448
 15 02 10 00 32  0.0000000  0  7G16G18G21G25G27G29G31
  22989975.000   120813138.68107  22989976.480    94140121.31846
  23588421.720   123958086.16306  23588425.040    96590771.89045
  20893229.980   109794825.37308  20893230.500    85554493.11949
  23417411.240   123059492.53106  23417415.880    95890598.42045
  24203543.600   127190490.19405  24203548.920    99109495.38345
  22518023.140   118333433.38908  22518024.660    92208072.19247
  21865754.300   114905315.43708  21865755.820    89536613.36648
 15 02 10 00 32 30.0000000  0  7G16G18G21G25G27G29G31
  22973336.140   120725700.53807  22973337.560    94071987.72146
  23573477.260   123879552.33506  23573480.540    96529576.86744
  20893633.540   109796946.02708  20893634.060    85556145.57849
  23434496.100   123149272.88607  23434500.440    95960557.10945
  24189226.880   127115255.63005  24189232.120    99050871.10345
  22530976.800   118401504.41008  22530978.100    92261114.52147
  21878670.860   114973192.62308  21878672.400    89589504.63948
 15 02 10 00 33  0.0000000  0  7G16G18G21G25G27G29G31
  22956718.700   120638374.74907  22956720.020    94003941.66246
  23558550.240   123801109.99306  23558553.400    96468453.11545
  20894118.960   109799496.99508  20894119.480    85558133.35249
  23451623.680   123239277.83407  23451627.820    96030690.79445
  24174926.340   127040105.43005  24174931.380    98992312.55345
  22543942.980   118469641.12608  22543944.140    92314208.04647
  21891661.720   115041460.20208  21891663.300    89642700.12148
 15 02 10 00 33 30.0000000  0  7G16G18G21G25G27G29G31
  22940123.480   120551166.05407  22940124.780    93935986.85346
  23543641.640   123722764.77906  23543644.700    96407405.05644
  20894686.740   109802480.83508  20894687.260    85560458.42849
  23468794.280   123329509.11807  23468798.340    96101000.84445
  24160642.420   126965042.40906  24160647.280    98933821.94945
  22556921.960   118537845.61908  22556923.080    92367354.38247
  21904726.980   115110118.70208  21904728.640    89696200.21148
 15 02 10 00 34  0.0000000  0  7G16G18G21G25G27G29G31
  22923550.540   120464074.76307  22923551.820    93868123.52646
  23528751.760   123644517.57907  23528754.660    96346433.35244
  20895336.360   109805894.75608  20895336.900    85563118.63449
  23486007.320   123419964.16406  23486011.440    96171485.26946
  24146374.740   126890065.04206  24146379.520    98875398.10645
  22569913.520   118606116.70408  22569914.680    92420552.60547
  21917865.900   115179164.02708  21917867.560    89750001.72948
 15 02 10 00 34 30.0000000  0  7G16G18G21G25G27G29G31
  22907000.100   120377102.01107  22907001.400    93800352.55646
  23513880.940   123566371.09207  23513883.800    96285540.12444
  20896067.600   109809737.70008  20896068.200    85566113.14749
  23503262.500   123510641.31506  23503266.860    96242142.74646
  24132123.280   126815172.74406  24132128.020    98817040.53345
  22582917.460   118674452.87808  22582918.660    92473801.54947
  21931077.760   115248592.76208  21931079.480    89804102.00148
 15 02 10 00 35  0.0000000  0  7G16G18G21G25G27G29G31
  22890473.000   120290251.99507  22890474.340    93732677.24146
  23499029.980   123488329.45907  23499032.920    96224728.59545
  20896880.680   109814010.55108  20896881.300    85569442.64549
  23520560.080   123601541.59706  23520564.800    96312974.08646
  24117888.360   126740367.66905  24117893.220    98758750.91346
  22595934.040   118742855.68008  22595935.340    92527102.41847
  21944362.640   115318404.90408  21944364.340    89858501.03248
 15 02 10 00 35 30.0000000  0  7G16G18G21G25G27G29G31
  22873969.140   120203524.03307  22873970.500    93665097.02946
  23484198.980   123410392.96306  23484201.980    96163999.00445
  20897774.880   109818709.66408  20897775.500    85573104.30049
  23537899.340   123692661.25006  23537904.420    96383976.36645
  24103669.440   126665647.10805  24103674.360    98700527.16145
  22608962.640   118811321.91108  22608964.060    92580452.70347
  21957719.540   115388595.23108  21957721.140    89913194.75048
 15 02 10 00 36  0.0000000  0  7G16G18G21G25G27G29G31
  22857489.120   120116920.73007  22857490.360    93597613.94546
  23469388.680   123332565.16606  23469391.780    96103354.08345
  20898750.300   109823835.61508  20898750.960    85577098.55149
  23555280.440   123784000.29606  23555285.840    96455149.59146
  24089466.780   126591012.23005  24089471.880    98642370.16445
  22622003.600   118879852.96008  22622005.080    92633853.49647
  21971148.100   115459162.10708  21971149.560    89968181.88148
 15 02 10 00 36 30.0000000  0  7G16G18G21G25G27G29G31
  22841032.960   120030442.99207  22841034.180    93530228.70246
  23454599.400   123254848.13606  23454602.580    96042795.46745
  20899806.620   109829386.61208  20899807.300    85581424.01149
  23572703.020   123875556.51106  23572708.560    96526492.04746
  24075280.060   126516461.86605  24075285.460    98584278.99445
  22635056.560   118948446.69107  22635058.040    92687303.13847
  21984647.580   115530101.77508  21984648.920    90023459.49948
 15 02 10 00 37  0.0000000  0  7G16G18G21G25G27G29G31
  22824601.120   119944093.21607  22824602.360    93462943.18146
  23439831.660   123177244.62006  23439834.960    95982325.30845
  20900943.620   109835361.66608  20900944.320    85586079.90049
  23590166.920   123967328.97206  23590172.400    96598002.99446
  24061109.520   126441996.28205  24061115.160    98526253.92145
  22648121.460   119017103.14608  22648122.940    92740801.63547
  21998217.520   115601412.11508  21998218.860    90079025.95348
 15 02 10 00 37 30.0000000  0  7G16G18G21G25G27G29G31
  22808194.120   119857873.75207  22808195.320    93395759.18746
  23425086.140   123099757.94506  23425089.520    95921946.20245
  20902161.240   109841760.42308  20902161.980    85591065.94849
  23607672.000   124059317.19007  23607677.220    96669682.07245
  24046955.300   126367616.05605  24046961.000    98468295.35845
  22661198.300   119085822.27808  22661199.740    92794348.98047
  22011857.500   115673091.14008  22011859.020    90134879.69248
 15 02 10 00 38  0.0000000  0  7G16G18G21G25G27G29G31
  22791812.020   119771785.49807  22791813.260    93328677.45146
  23410363.200   123022389.38006  23410366.540    95861659.13545
  20903459.100   109848580.75208  20903459.860    85596380.49749
  23625217.620   124151518.75606  23625222.580    96741527.39446
  24032817.160   126293319.88105  24032822.740    98410402.28846
  22674286.760   119154602.47908  22674288.260    92847943.91147
  22025566.880   115745134.98108  22025568.600    90191017.71248
 15 02 10 00 38 30.0000000  0  7G16G18G21G25G27G29G31
  22775455.560   119685831.69107  22775456.820    93261700.47846
  23395663.620   122945142.88606  23395666.880    95801467.18445
  20904837.240   109855822.99208  20904838.000    85602023.80549
  23642803.680   124243933.74406  23642808.480    96813539.02445
  24018695.340   126219109.02705  24018700.720    98352575.69446
  22687387.080   119223444.84908  22687388.620    92901587.28447
  22039345.400   115817542.18008  22039347.360    90247438.86848
 15 02 10 00 39  0.0000000  0  7G16G18G21G25G27G29G31
  22759125.100   119600014.41607  22759126.340    93194829.87846
  23380987.960   122868021.36007  23380991.000    95741372.59745
  20906295.620   109863486.68108  20906296.360    85607995.52149
  23660430.100   124336561.31106  23660434.680    96885716.31544
  24004589.840   126144983.76905  24004595.140    98294815.82446
  22700499.200   119292349.32108  22700500.740    92955279.05547
  22053192.720   115890310.33008  22053194.780    90304141.28648
 15 02 10 00 39 30.0000000  0  7G16G18G21G25G27G29G31
  22742820.940   119514335.45907  22742822.140    93128067.06646
  23366336.760   122791027.56507  23366339.400    95681377.53744
  20907833.820   109871570.11108  20907834.560    85614294.29949
  23678096.640   124429400.34606  23678101.240    96958058.36945
  23990500.600   126070944.14806  23990505.860    98237122.66845
  22713623.020   119361315.40508  22713624.580    93009018.82647
  22067108.320   115963436.87108  22067110.320    90361122.96948
 15 02 10 00 40  0.0000000  0  7G16G18G21G25G27G29G31
  22726543.260   119428795.90907  22726544.480    93061412.88047
  23351710.200   122714163.64606  23351712.460    95621483.66245
  20909451.680   109880072.20908  20909452.420    85620919.31749
  23695803.040   124522448.76306  23695807.580    97030563.59244
  23976427.500   125996989.20106  23976432.660    98179495.51245
  22726758.260   119430341.60707  22726759.880    93062805.44747
  22081091.540   116036918.38408  22081093.360    90418381.24248
 15 02 10 00 40 30.0000000  0  7G16G18G21G25G27G29G31
  22710292.560   119343398.72407  22710293.920    92994869.63346
  23337108.780   122637432.68406  23337110.780    95561693.38844
  20911149.140   109888992.37908  20911149.860    85627870.10149
  23713549.300   124615706.02306  23713553.720    97103231.53644
  23962370.700   125923119.66605  23962375.780    98121934.90845
  22739905.000   119499428.45007  22739906.740    93116639.30947
  22095141.860   116110752.72008  22095143.500    90475914.44548
 15 02 10 00 41  0.0000000  0  7G16G18G21G25G27G29G31
  22694069.160   119258144.89907  22694070.660    92928438.10047
  23322532.920   122560836.61107  23322534.860    95502008.21045
  20912925.620   109898327.82408  20912926.320    85635144.47349
  23731334.940   124709170.22906  23731339.340    97176060.72544
  23948330.020   125849334.71205  23948334.900    98064440.20846
  22753063.120   119568574.86307  22753064.880    93170519.60547
  22109258.640   116184936.55808  22109260.120    90533719.98448
 15 02 10 00 41 30.0000000  0  7G16G18G21G25G27G29G31
  22677873.800   119173037.73707  22677875.320    92862120.84047
  23307983.300   122484379.27406  23307985.340    95442431.15945
  20914781.460   109908080.30308  20914782.160    85642743.81249
  23749160.000   124802841.19106  23749164.240    97249051.03545
  23934305.580   125775635.40905  23934310.240    98007012.24345
  22766232.640   119637781.27907  22766234.460    93224446.64947
  22123441.580   116259468.29008  22123442.980    90591796.61448
 15 02 10 00 42  0.0000000  0  7G16G18G21G25G27G29G31
  22661706.540   119088077.89407  22661708.020    92795918.37646
  23293460.440   122408062.29106  23293462.620    95382963.45145
  20916716.140   109918247.19308  20916716.860    85650666.07049
  23767024.040   124896716.68306  23767028.260    97322200.70945
  23920297.120   125702020.66005  23920301.540    97949650.14845
  22779413.340   119707046.55107  22779415.220    93278419.55347
  22137689.980   116334344.16408  22137691.420    90650141.41148
 15 02 10 00 42 30.0000000  0  7G16G18G21G25G27G29G31
  22645567.820   119003267.98607  22645569.220    92729832.73347
  23278964.860   122331888.71507  23278967.240    95323607.50045
  20918729.560   109928827.87408  20918730.320    85658910.76049
  23784926.840   124990796.09006  23784931.180    97395509.28545
  23906304.800   125628491.05305  23906309.220    97892354.42245
  22792605.300   119776370.94707  22792607.300    93332438.53547
  22152003.500   116409561.98008  22152005.000    90708752.65448
 15 02 10 00 43  0.0000000  0  7G16G18G21G25G27G29G31
  22629458.200   118918611.35907  22629459.580    92663866.53647
  23264497.460   122255862.50106  23264499.920    95264366.38245
  20920821.740   109939822.35608  20920822.480    85667477.89449
  23802868.400   125085079.33806  23802873.020    97468976.68945
  23892328.820   125555047.78605  23892333.300    97835125.97446
  22805808.660   119845755.01207  22805810.700    93386504.01147
  22166381.900   116485120.34608  22166383.460    90767629.26248
 15 02 10 00 43 30.0000000  0  7G16G18G21G25G27G29G31
  22613377.500   118834106.94607  22613378.940    92598018.95247
  23250058.020   122179982.84507  23250060.560    95205239.46545
  20922991.900   109951226.66108  20922992.640    85676364.36749
  23820848.040   125179562.33506  23820852.760    97542599.73246
  23878368.680   125481687.83205  23878373.380    97777962.42346
  22819022.780   119915195.70507  22819024.780    93440613.61546
  22180823.980   116561013.55008  22180825.660    90826766.77448
 15 02 10 00 44  0.0000000  0  7G16G18G21G25G27G29G31
  22597326.400   118749757.63908  22597327.800    92532292.22547
  23235647.440   122104254.18907  23235649.900    95146230.19945
  20925239.960   109963040.30908  20925240.680    85685569.81349
  23838865.660   125274244.45606  23838870.500    97616377.95446
  23864424.640   125408411.94305  23864429.520    97720864.38346
  22832247.800   119984693.36507  22832249.780    93494767.61247
  22195329.300   116637239.40808  22195331.100    90886163.49948
 15 02 10 00 44 30.0000000  0  7G16G18G21G25G27G29G31
  22581305.420   118665566.62907  22581306.780    92466688.84747
  23221266.300   122028680.04807  23221268.640    95087341.34245
  20927565.980   109975263.54508  20927566.680    85695094.41349
  23856921.260   125369125.73206  23856926.080    97690311.32845
  23850496.840   125335221.36005  23850501.820    97663832.80446
  22845483.900   120054248.69907  22845485.740    93548966.54947
  22209897.600   116713796.47808  22209899.540    90945818.31248
 15 02 10 00 45  0.0000000  0  7G16G18G21G25G27G29G31
  22565314.900   118581535.71408  22565316.200    92401210.21247
  23206915.000   121953262.95307  23206917.300    95028574.85246
  20929969.780   109987895.46308  20929970.440    85704937.47049
  23875014.380   125464205.03606  23875019.180    97764399.02245
  23836585.320   125262116.12305  23836590.400    97606867.73446
  22858730.880   120123861.61007  22858732.660    93603210.34746
  22224528.440   116790682.40308  22224530.480    91005729.37747
 15 02 10 00 45 30.0000000  0  7G16G18G21G25G27G29G31
  22549355.320   118497667.62608  22549356.640    92335858.46947
  23192594.260   121878006.72507  23192596.600    94969933.70545
  20932451.320   110000935.81808  20932451.940    85715098.78949
  23893145.080   125559481.88506  23893149.820    97838640.65145
  23822690.220   125189097.03405  23822695.360    97549969.78846
  22871988.820   120193532.76307  22871990.720    93657499.53047
  22239221.480   116867895.11208  22239223.540    91065895.07347
 15 02 10 00 46  0.0000000  0  7G16G18G21G25G27G29G31
  22533426.820   118413963.16908  22533428.240    92270634.22547
  23178304.020   121802911.35407  23178306.440    94911417.89946
  20935009.820   110014380.75208  20935010.420    85725575.36649
  23911312.640   125654952.93106  23911317.320    97913033.59845
  23808811.160   125116161.96606  23808816.200    97493137.32546
  22885257.280   120263259.46607  22885259.340    93711832.00847
  22253975.860   116945429.77308  22253977.880    91126311.63348
 15 02 10 00 46 30.0000000  0  7G16G18G21G25G27G29G31
  22517530.200   118330425.81708  22517531.600    92205540.19947
  23164045.240   121727981.82607  23164047.760    94853031.33645
  20937645.540   110028231.67008  20937646.160    85736368.29549
  23929516.980   125750618.78406  23929521.920    97987578.34945
  23794948.520   125043312.73406  23794953.440    97436371.73646
  22898536.660   120333043.32107  22898538.800    93766209.01547
  22268791.360   117023285.23308  22268793.280    91186978.17047
 15 02 10 00 47  0.0000000  0  7G16G18G21G25G27G29G31
  22501665.380   118247055.63008  22501666.740    92140576.43447
  23149818.220   121653219.16407  23149820.760    94794774.77845
  20940357.900   110042485.45508  20940358.560    85747475.14249
  23947757.840   125846476.29006  23947762.840    98062272.43444
  23781101.880   124970547.57406  23781106.680    97379671.64946
  22911826.540   120402882.41607  22911828.780    93820629.06747
  22283667.080   117101457.12308  22283668.940    91247891.27447
 15 02 10 00 47 30.0000000  0  7G16G18G21G25G27G29G31
  22485833.000   118163855.91208  22485834.360    92075745.49547
  23135623.660   121578626.90007  23135626.060    94736651.00145
  20943146.920   110057142.15308  20943147.640    85758895.95249
  23966035.220   125942525.39005  23966040.400    98137115.81945
  23767271.380   124897867.65606  23767276.060    97323037.99846
  22925126.980   120472777.38307  22925129.400    93875092.64947
  22298602.700   117179943.86608  22298604.540    91309049.71347
 15 02 10 00 48  0.0000000  0  7G16G18G21G25G27G29G31
  22470033.340   118080828.12208  22470034.660    92011048.53047
  23121461.940   121504206.94807  23121464.180    94678661.49545
  20946012.220   110072199.65308  20946012.960    85770629.07349
  23984348.840   126038764.19206  23984353.900    98212107.02145
  23753456.860   124825272.31806  23753461.520    97266470.24545
  22938437.920   120542727.34707  22938440.460    93929599.08747
  22313597.520   117258741.84308  22313599.380    91370450.67747
 15 02 10 00 48 30.0000000  0  7G16G18G21G25G27G29G31
  22454266.760   117997974.50308  22454268.060    91946487.28747
  23107333.580   121429962.35307  23107335.660    94620808.63645
  20948953.660   110087657.09308  20948954.420    85782673.83849
  24002698.540   126135191.40206  24002703.500    98287245.02144
  23739658.440   124752761.64406  23739663.080    97209968.46845
  22951759.440   120612732.16807  22951761.940    93984148.27647
  22328651.080   117337848.49808  22328652.940    91432092.17547
 15 02 10 00 49  0.0000000  0  7G16G18G21G25G27G29G31
  22438533.580   117915296.18408  22438534.800    91882062.64347
  23093238.880   121355894.62807  23093240.920    94563093.59145
  20951970.740   110103511.99508  20951971.500    85795028.31149
  24021083.780   126231804.77206  24021088.540    98362528.07645
  23725875.900   124680334.60106  23725880.500    97153531.85245
  22965091.180   120682790.73807  22965093.620    94038739.34047
  22343762.600   117417259.83508  22343764.420    91493971.08047
 15 02 10 00 49 30.0000000  0  7G16G18G21G25G27G29G31
  22422834.400   117832796.54708  22422835.560    91817777.22847
  23079178.720   121282007.93107  23079180.700    94505519.60345
  20955063.600   110119764.96308  20955064.360    85807692.97149
  24039504.540   126328604.39606  24039509.140    98437956.29544
  23712109.540   124607992.63006  23712114.100    97097161.50945
  22978433.360   120752904.06407  22978435.640    94093373.07546
  22358931.900   117496974.68808  22358933.620    91556086.47547
 15 02 10 00 50  0.0000000  0  7G16G18G21G25G27G29G31
  22407169.720   117750477.98708  22407170.820    91753632.91247
  23065153.520   121208304.97007  23065155.480    94448088.77645
  20958232.000   110136414.88108  20958232.720    85820666.93949
  24057960.480   126425589.24206  24057965.000    98513528.79645
  23698359.480   124535736.02105  23698364.020    97040857.68646
  22991785.960   120823072.14107  22991788.120    94148049.47246
  22374158.500   117576990.72408  22374160.140    91618436.57347
 15 02 10 00 50 30.0000000  0  7G16G18G21G25G27G29G31
  22391539.700   117668341.74608  22391540.840    91689630.65747
  23051163.600   121134787.72107  23051165.740    94390802.67545
  20961475.480   110153459.39108  20961476.160    85833948.38049
  24076451.060   126522757.03906  24076455.640    98589243.86445
  23684625.500   124463563.79706  23684629.980    96984619.62545
  23005148.760   120893293.67407  23005150.800    94202767.52546
  22389441.580   117657303.71508  22389443.220    91681018.05447
 15 02 10 00 51  0.0000000  0  7G16G18G21G25G27G29G31
  22375944.920   117586390.51708  22375946.060    91625772.57647
  23037209.640   121061459.46507  23037211.900    94333663.82645
  20964793.960   110170897.97208  20964794.580    85847536.88849
  24094976.180   126620107.05706  24094981.040    98665100.95245
  23670907.720   124391476.61006  23670912.240    96928447.82646
  23018521.840   120963569.06107  23018523.780    94257527.53646
  22404780.820   117737911.88708  22404782.520    91743829.54547
 15 02 10 00 51 30.0000000  0  7G16G18G21G25G27G29G31
  22360385.840   117504627.17308  22360387.020    91562060.89847
  23023292.380   120988323.79907  23023294.720    94276675.04645
  20968187.300   110188729.93308  20968187.880    85861431.93249
  24113535.600   126717638.69206  24113541.040    98741099.51645
  23657206.360   124319475.12606  23657210.820    96872342.82445
  23031905.280   121033898.99607  23031907.160    94312330.05446
  22420175.780   117818812.80308  22420177.580    91806869.16047
 15 02 10 00 52  0.0000000  0  7G16G18G21G25G27G29G31
  22344862.780   117423053.23108  22344864.020    91498496.80847
  23009412.040   120915382.29607  23009414.480    94219837.56145
  20971655.280   110206954.21208  20971655.820    85875632.67949
  24132129.060   126815350.19305  24132135.120    98817238.25645
  23643521.200   124247558.94606  23643525.740    96816304.27945
  23045298.940   121104282.36107  23045300.700    94367174.20346
  22435625.880   117900003.34308  22435627.800    91870134.44247
 15 02 10 00 52 30.0000000  0  7G16G18G21G25G27G29G31
  22329376.000   117341669.60508  22329377.180    91435081.01447
  22995569.080   120842636.88807  22995571.480    94163152.87646
  20975197.360   110225568.04208  20975197.900    85890136.96449
  24150756.380   126913238.97305  24150762.820    98893515.11745
  23629852.100   124175726.85706  23629856.660    96760331.26246
  23058702.440   121174717.78407  23058704.160    94422058.92946
  22451130.320   117981479.29108  22451132.320    91933622.13947
 15 02 10 00 53  0.0000000  0  7G16G18G21G25G27G29G31
  22313925.920   117260478.81908  22313927.040    91371815.48147
  22981763.860   120770090.05607  22981766.260    94106622.92645
  20978813.320   110244570.22108  20978813.900    85904943.85949
  24169417.460   127011303.86006  24169423.860    98969929.22045
  23616198.960   124103979.09806  23616203.600    96704423.95046
  23072115.880   121245205.74307  23072117.660    94476984.58847
  22466688.620   118063238.22108  22466690.660    91997330.32647
 15 02 10 00 53 30.0000000  0  7G16G18G21G25G27G29G31
  22298512.820   117179482.40508  22298513.960    91308701.40947
  22967996.880   120697744.08507  22967999.180    94050249.48845
  20982502.740   110263958.61408  20982503.380    85920051.70449
  24188111.880   127109543.04106  24188118.100    99046479.07444
  23602561.700   124032315.14706  23602566.420    96648581.94946
  23085539.100   121315745.34307  23085541.020    94531950.48846
  22482300.120   118145276.80208  22482302.180    92061256.42647
 15 02 10 00 54  0.0000000  0  7G16G18G21G25G27G29G31
  22283137.300   117098683.56008  22283138.480    91245741.29047
  22954268.780   120625602.72507  22954271.000    93994035.48546
  20986265.680   110283733.35508  20986266.400    85935460.60549
  24206839.600   127207956.03706  24206845.380    99123164.40245
  23588940.620   123960735.93806  23588945.320    96592805.96946
  23098972.200   121386337.18507  23098974.260    94586957.07746
  22497964.380   118227592.86608  22497966.460    92125398.74047
 15 02 10 00 54 30.0000000  0  7G16G18G21G25G27G29G31
  22267799.760   117018084.21208  22267800.960    91182936.61947
  22940579.840   120553667.70607  22940582.040    93937982.28145
  20990101.860   110303893.02908  20990102.680    85951169.44449
  24225600.100   127306541.44106  24225605.520    99199984.04445
  23575335.660   123889241.39606  23575340.320    96537095.98846
  23112415.240   121456980.81107  23112417.300    94642004.03846
  22513680.860   118310183.52508  22513682.920    92189755.02447
 15 02 10 00 55  0.0000000  0  7G16G18G21G25G27G29G31
  22252500.720   116937687.21908  22252501.900    91120289.62047
  22926931.020   120481943.51107  22926933.180    93882093.34945
  20994011.220   110324436.94908  20994012.060    85967177.69549
  24244393.300   127405298.52306  24244398.100    99276937.52944
  23561746.880   123817832.22706  23561751.560    96481452.51246
  23125868.240   121527676.72407  23125870.280    94697091.73246
  22529449.180   118393046.63308  22529451.200    92254323.60347
 15 02 10 00 55 30.0000000  0  7G16G18G21G25G27G29G31
  22237240.660   116857495.09708  22237241.800    91057802.25847
  22913322.840   120410432.67007  22913324.920    93826370.67746
  20997993.500   110345363.88508  20997994.320    85983484.40349
  24263218.920   127504226.01706  24263223.280    99354023.75444
  23548174.400   123746508.62406  23548179.020    96425875.70946
  23139331.180   121598425.12207  23139333.240    94752220.32546
  22545268.920   118476179.69908  22545270.900    92319102.54247
 15 02 10 00 56  0.0000000  0  7G16G18G21G25G27G29G31
  22222019.840   116777509.08208  22222020.860    90995475.50646
  22899755.440   120339136.30007  22899757.500    93770815.12245
  21002048.260   110366671.65108  21002049.040    86000087.86349
  24282076.480   127603321.76305  24282080.740    99431241.07544
  23534617.920   123675269.70206  23534622.580    96370364.90245
  23152803.920   121669224.93807  23152805.960    94807388.97446
  22561139.280   118559578.76708  22561141.240    92384088.74747
 15 02 10 00 56 30.0000000  0  8G16G18G21G22G25G27G29G31
  22206839.260   116697734.79008  22206840.260    90933313.72847
  22886230.180   120268060.77407  22886232.200    93715431.64445
  21006175.900   110388362.42708  21006176.660    86016989.77349
  24553755.100   129030864.54705  24553763.960   100543556.11845
  24300966.240   127702587.74805  24300970.720    99508591.00345
  23521078.300   123604118.95506  23521082.860    96314922.80646
  23166287.160   121740079.37507  23166289.100    94862600.20746
  22577060.340   118643244.33408  22577062.340    92449282.61847
 15 02 10 00 57  0.0000000  0  8G16G18G21G22G25G27G29G31
  22191695.940   116618156.17008  22191696.900    90871304.42047
  22872744.100   120197190.85107  22872746.060    93660208.37245
  21010372.720   110410416.73708  21010373.440    86034174.94949
  24535656.100   128935751.75806  24535663.980   100469442.84645
  24319884.660   127802004.41205  24319889.500    99586058.37345
  23507552.080   123533038.20306  23507556.520    96259535.28345
  23179777.240   121810969.94507  23179779.060    94917839.58846
  22593028.140   118727155.56008  22593030.220    92514667.91547
 15 02 10 00 57 30.0000000  0  8G16G18G21G22G25G27G29G31
  22176595.180   116538801.21608  22176596.160    90809469.39747
  22859302.580   120126554.93707  22859304.540    93605167.45046
  21014643.340   110432858.94608  21014644.020    86051662.39149
  24517545.000   128840576.85105  24517552.500   100395281.17744
  24338836.380   127901596.35705  24338841.420    99663662.31045
  23494044.160   123462053.52506  23494048.400    96204222.59446
  23193279.000   121881922.46507  23193280.800    94973127.24946
  22609047.080   118811335.46108  22609049.240    92580262.55947
 15 02 10 00 58  0.0000000  0  8G16G18G21G22G25G27G29G31
  22161535.140   116459660.19608  22161536.160    90747801.08047
  22845903.820   120056143.30207  22845905.780    93550301.28246
  21018985.180   110455675.39108  21018985.860    86069441.43849
  24499419.900   128745330.21406  24499427.460   100321063.63844
  24357818.880   128001350.06005  24357823.980    99741392.30146
  23480552.200   123391152.66306  23480556.280    96148975.21246
  23206790.220   121952924.50507  23206792.000    95028453.49746
  22625114.300   118895768.94408  22625116.540    92646054.80347
 15 02 10 00 58 30.0000000  0  8G16G18G21G22G25G27G29G31
  22146516.780   116380738.21008  22146517.840    90686303.43347
  22832548.840   119985961.87507  22832550.840    93495614.48446
  21023398.640   110478868.24508  21023399.300    86087513.80349
  24481281.900   128650017.42305  24481289.560   100246794.56245
  24376832.520   128101267.11805  24376837.860    99819249.59346
  23467076.800   123320338.80306  23467080.780    96093795.62646
  23220311.460   122023978.90307  23220313.240    95083820.55346
  22641229.840   118980456.04208  22641232.060    92712044.67347
 15 02 10 00 59  0.0000000  0  8G16G18G21G22G25G27G29G31
  22131540.600   116302038.08408  22131541.720    90624978.67047
  22819238.180   119916013.63507  22819240.240    93441109.40146
  21027883.500   110502436.45908  21027884.180    86105878.65149
  24463131.780   128554641.48006  24463139.920   100172476.28045
  24395877.220   128201346.59406  24395882.620    99897233.43644
  23453618.040   123249612.43906  23453621.960    96038684.23145
  23233842.740   122095086.08607  23233844.620    95139228.71146
  22657393.260   119065394.59908  22657395.360    92778230.47747
 15 02 10 00 59 30.0000000  0  8G16G18G21G22G25G27G29G31
  22116605.500   116223553.79608  22116606.640    90563822.08547
  22805970.660   119846292.51307  22805972.760    93386781.27645
  21032437.940   110526370.18708  21032438.600    86124528.31149
  24444968.300   128459196.34406  24444976.660   100098104.11845
  24414951.000   128301578.85905  24414956.460    99975336.38045
  23440174.320   123178965.36606  23440178.260    95983634.61946
  23247382.580   122166238.05307  23247384.500    95194671.78146
  22673602.400   119150573.42708  22673604.340    92844603.49847
 15 02 10 01 00  0.0000000  0  8G16G18G21G22G25G27G29G31
  22101713.360   116145295.42108  22101714.560    90502841.54847
  22792748.440   119776809.74307  22792750.560    93332638.88146
  21037063.360   110550676.86508  21037063.980    86143468.58648
  24426793.820   128363692.79005  24426802.700   100023686.40345
  24434055.100   128401970.45505  24434060.620   100053563.45044
  23426747.220   123108405.68906  23426751.200    95928653.08746
  23260932.400   122237442.51407  23260934.320    95250155.76746
  22689858.160   119235997.47908  22689860.000    92911167.60047
 15 02 10 01 00 30.0000000  0  8G16G18G21G22G25G27G29G31
  22086864.460   116067263.99108  22086865.660    90442037.84247
  22779571.800   119707566.66507  22779573.840    93278683.27746
  21041759.040   110575352.69308  21041759.640    86162696.50849
  24408608.480   128268131.88306  24408617.480    99949224.02844
  24453188.760   128502518.59605  24453194.540   100131912.41344
  23413336.460   123037932.17406  23413340.620    95873738.70146
  23274491.860   122308697.80507  23274493.840    95305679.35846
  22706159.760   119321662.70008  22706161.600    92977919.63046
 15 02 10 01 01  0.0000000  0  8G16G18G21G22G25G27G29G31
  22072058.640   115989458.99208  22072059.900    90381410.58547
  22766440.680   119638562.69507  22766442.560    93224913.98845
  21046524.240   110600394.09108  21046524.840    86182209.28549
  24390412.220   128172513.13605  24390421.400    99874716.57745
  24472351.480   128603218.94405  24472357.420   100210380.05545
  23399941.520   122967541.84706  23399945.840    95818889.13846
  23288060.440   122380000.96107  23288062.500    95361240.23845
  22722506.040   119407563.39108  22722508.100    93044855.14147
 15 02 10 01 01 30.0000000  0  8G16G18G21G22G25G27G29G31
  22057296.660   115911884.12708  22057297.940    90320962.64847
  22753355.880   119569801.91407  22753357.580    93171334.22945
  21051358.940   110625800.67708  21051359.540    86202006.62949
  24372205.980   128076840.90606  24372214.920    99800167.43345
  24491543.240   128704071.77105  24491549.260   100288966.49344
  23386562.780   122897236.32706  23386567.160    95764105.64746
  23301638.340   122451353.59607  23301640.420    95416839.67246
  22738896.800   119493697.94108  22738899.060    93111972.88047
 15 02 10 01 02  0.0000000  0  8G16G18G21G22G25G27G29G31
  22042579.060   115834542.55108  22042580.360    90260696.50047
  22740318.160   119501287.96508  22740319.640    93117946.78745
  21056263.060   110651572.28508  21056263.680    86222088.40649
  24353990.140   127981118.31506  24353998.980    99725579.09245
  24510764.000   128805076.52506  24510769.920   100367671.34344
  23373200.360   122827016.71506  23373204.740    95709389.09246
  23315225.640   122522756.17807  23315227.820    95472478.02246
  22755331.820   119580064.56008  22755334.240    93179271.45247
 15 02 10 01 02 30.0000000  0  8G16G18G21G22G25G27G29G31
  22027906.100   115757435.58708  22027907.380    90200613.16347
  22727327.800   119433022.80008  22727329.140    93064753.20146
  21061236.240   110677706.73508  21061236.900    86242452.91049
  24335765.080   127885347.15605  24335773.680    99650952.89145
  24530013.360   128906230.88106  24530018.980   100446492.74744
  23359854.140   122756882.22806  23359858.540    95654738.86646
  23328822.280   122594207.79706  23328824.580    95528154.60446
  22771810.400   119666659.53008  22771812.840    93246747.95446
 15 02 10 01 03  0.0000000  0  8G16G18G21G22G25G27G29G31
  22013278.180   115680565.34808  22013279.440    90140714.28847
  22714385.040   119365008.32907  22714386.340    93011754.94545
  21066278.180   110704202.47108  21066278.880    86263098.93949
  24317531.280   127789529.83806  24317539.400    99576290.65545
  24549290.900   129007533.26406  24549296.340   100525429.49745
  23346524.080   122686832.67606  23346528.480    95600154.84046
  23342428.140   122665708.29606  23342430.640    95583869.25246
  22788331.940   119753479.70508  22788334.240    93314399.94446
 15 02 10 01 03 30.0000000  0  8G16G18G21G22G25G27G29G31
  21998695.960   115603934.98608  21998697.100    90081002.33047
  22701490.580   119297248.15907  22701491.920    92958954.83546
  21071388.840   110731059.25008  21071389.560    86284026.30548
  24299289.160   127693669.76906  24299297.200    99501595.17444
  24568596.480   129108983.34005  24568601.660   100604481.33645
  23333210.460   122616869.26506  23333214.800    95545637.92746
  23356043.500   122737258.62006  23356046.180    95639622.70946
  22804896.040   119840523.38808  22804898.200    93382226.07846
 15 02 10 01 04  0.0000000  0  8G16G18G21G22G25G27G29G31
  21984159.520   115527545.56308  21984160.640    90021478.12047
  22688644.860   119229744.04707  22688646.320    92906354.24246
  21076567.620   110758274.04108  21076568.360    86305232.63549
  24281039.000   127597767.87306  24281047.100    99426867.07545
  24587929.520   129210578.00505  24587934.660   100683645.78945
  23319912.940   122546990.54706  23319917.280    95491187.01546
  23369668.220   122808857.26206  23369670.920    95695413.84246
  22821501.780   119927785.97408  22821503.860    93450222.78346
 15 02 10 01 04 30.0000000  0  8G16G18G21G22G25G27G29G31
  21969669.320   115451399.15808  21969670.460    89962143.27247
  22675848.240   119162498.00107  22675849.920    92853954.75546
  21081814.220   110785844.94408  21081814.960    86326716.45848
  24262781.140   127501826.71406  24262789.280    99352108.39245
  24607289.720   129312315.50005  24607294.780   100762921.55444
  23306631.560   122477196.28207  23306635.820    95436801.91446
  23383302.180   122880504.01306  23383304.940    95751242.44646
  22838148.440   120015264.29708  22838150.520    93518387.59847
 15 02 10 01 05  0.0000000  0  8G16G18G21G22G25G27G29G31
  21955225.840   115375498.50808  21955227.020    89902999.91447
  22663101.360   119095513.32307  22663103.320    92801758.93646
  21087128.380   110813771.02508  21087129.120    86348477.04348
  24244516.620   127405849.69305  24244525.060    99277321.74745
  24626676.880   129414195.21905  24626681.940   100842308.13846
  23293366.380   122407487.31707  23293370.600    95382483.27946
  23396945.460   122952199.11606  23396948.280    95807108.73046
  22854835.600   120102956.05708  22854837.780    93586718.73146
 15 02 10 01 05 30.0000000  0  8G16G18G21G22G25G27G29G31
  21940829.660   115299846.38708  21940830.900    89844050.22647
  22650404.720   119028792.13208  22650406.800    92749768.43346
  21092509.940   110842051.29508  21092510.680    86370513.61948
  24226245.840   127309839.61106  24226254.340    99202509.33745
  24646090.780   129516215.81305  24646096.060   100921804.45645
  23280117.500   122337863.94607  23280121.720    95328231.34646
  23410598.040   123023942.97107  23410600.920    95863013.00346
  22871562.860   120190858.86908  22871565.240    93655214.31446
 15 02 10 01 06  0.0000000  0  8G16G18G21G22G25G27G29G31
  21926481.240   115224444.99908  21926482.440    89785295.91047
  22637758.920   118962337.76808  22637760.920    92697985.84646
  21097958.700   110870684.66508  21097959.420    86392825.33949
  24207969.360   127213798.94606  24207977.900    99127673.13145
  24665531.180   129618375.86205  24665536.760   101001409.43844
  23266884.960   122268326.38907  23266889.240    95274046.28746
  23424259.780   123095735.26606  23424262.600    95918955.04746
  22888329.780   120278969.74408  22888332.340    93723872.03047
 15 02 10 01 06 30.0000000  0  8G16G18G21G22G25G27G29G31
  21912180.940   115149296.59108  21912182.160    89726738.71947
  22625164.460   118896152.75608  22625166.160    92646413.14046
  21103474.320   110899669.39108  21103475.020    86415410.84249
  24189687.780   127117730.13706  24189696.000    99052814.93546
  24684997.740   129720674.05305  24685003.700   101081122.08345
  23253668.760   122198874.69707  23253673.040    95219928.13046
  23437930.720   123167576.21406  23437933.600    95974934.99346
  22905135.800   120367285.73908  22905138.460    93792689.56847
 15 02 10 01 07  0.0000000  0  8G16G18G21G22G25G27G29G31
  21897929.160   115074402.95608  21897930.360    89668380.04847
  22612621.540   118830239.00408  22612623.040    92595051.81646
  21109056.400   110929003.36908  21109057.100    86438268.48849
  24171401.240   127021635.25706  24171409.160    98977936.44945
  24704490.140   129823108.19504  24704496.500   101160940.63045
  23240468.780   122129508.44507  23240473.140    95165876.54646
  23451610.800   123239465.51506  23451613.840    96030952.60546
  22921980.280   120455803.35608  22921982.860    93861664.21246
 15 02 10 01 07 30.0000000  0  8G16G18G21G22G25G27G29G31
  21883726.440   114999767.24008  21883727.660    89610222.35847
  22600130.820   118764599.76408  22600132.140    92543904.39346
  21114704.920   110958686.34308  21114705.560    86461398.08048
  24153110.360   126925517.83706  24153118.040    98903040.38045
  24724008.340   129925677.67705  24724014.960   101240864.59345
  23227285.220   122060228.54507  23227289.700    95111892.25447
  23465300.120   123311403.41406  23465303.180    96087008.10046
  22938862.760   120544520.65708  22938865.260    93930794.45147
 15 02 10 01 08  0.0000000  0  8G16G18G21G22G25G27G29G31
  21869572.780   114925388.98908  21869573.980    89552265.28547
  22587692.140   118699234.74508  22587693.560    92492970.65946
  21120419.040   110988713.99408  21120419.640    86484796.25148
  24134815.260   126829377.70606  24134822.520    98828126.59245
  24743551.760   130028378.41205  24743558.420   101320890.82445
  23214117.560   121991032.41407  23214122.200    95057973.21147
  23478998.140   123383386.98106  23479001.020    96143099.16845
  22955782.200   120633432.14908  22955784.580    94000075.99446
 15 02 10 01 08 30.0000000  0  8G16G18G21G22G25G27G29G31
  21855468.800   114851272.01308  21855470.000    89494511.80647
  22575306.440   118634148.30407  22575308.040    92442253.97846
  21126198.700   111019086.21508  21126199.280    86508462.91348
  24116516.540   126733218.83406  24116523.560    98753198.19744
  24763120.320   130131210.34605  24763126.880   101401019.34044
  23200966.120   121921921.66907  23200970.860    95004120.70946
  23492705.380   123455418.45706  23492707.880    96199227.58445
  22972738.340   120722536.44708  22972740.620    94069507.78346
 15 02 10 01 09  0.0000000  0  8G16G18G21G22G25G27G29G31
  21841414.860   114777418.05808  21841416.020    89436963.27147
  22562974.060   118569341.98408  22562975.860    92391755.57246
  21132043.400   111049800.36208  21132044.000    86532396.01948
  24098214.540   126637043.29306  24098221.480    98678256.81445
  24782713.560   130234171.18705  24782720.040   101481248.27444
  23187830.800   121852895.65907  23187835.520    94950334.23046
  23506421.640   123527496.64907  23506423.700    96255392.38346
  22989730.340   120811829.35308  22989732.580    94139086.54446
 15 02 10 01 09 30.0000000  0  8G16G18G21G22G25G27G29G31
  21827411.760   114703831.54608  21827412.960    89379623.13747
  22550696.000   118504820.68308  22550697.960    92341479.25446
  21137953.480   111080858.09008  21137954.060    86556596.84648
  24079910.280   126540856.02006  24079916.880    98603306.22745
  24802331.500   130337261.77405  24802337.600   101561578.27044
  23174712.100   121783956.80807  23174716.740    94896615.66246
  23520147.160   123599623.64307  23520148.900    96311595.19645
  23006758.120   120901310.57007  23006760.440    94208812.03746
 15 02 10 01 10  0.0000000  0  7G16G18G21G22G27G29G31
  21813458.140   114630504.83908  21813459.360    89322485.44647
  22538470.960   118440577.23008  22538472.920    92291419.44346
  21143926.680   111112247.61208  21143927.260    86581056.21648
  24061602.260   126444649.35806  24061608.760    98528340.54845
  23161608.160   121715095.22607  23161612.660    94842957.30646
  23533880.060   123671789.67607  23533881.560    96367828.43845
  23023819.280   120990967.30007  23023821.780    94278674.28746
 15 02 10 01 10 30.0000000  0  7G16G18G21G22G27G29G31
  21799559.760   114557468.39008  21799560.980    89265573.92847
  22526304.580   118376641.57608  22526306.440    92241599.47746
  21149968.040   111143995.20008  21149968.620    86605794.59448
  24043296.460   126348454.06306  24043302.800    98453383.68145
  23148524.320   121646339.09307  23148528.660    94789381.12746
  23547625.660   123744022.60807  23547627.080    96424113.81946
  23040918.660   121080824.56508  23040921.280    94348692.79646
 15 02 10 01 11  0.0000000  0  7G16G18G21G22G27G29G31
  21785711.340   114484694.24508  21785712.520    89208866.80447
  22514191.620   118312986.41408  22514193.280    92191998.07146
  21156071.540   111176069.28708  21156072.140    86630787.38948
  24024987.720   126252242.92906  24024993.740    98378414.49045
  23135454.880   121577658.49907  23135459.060    94735863.80846
  23561378.140   123816292.29206  23561379.740    96480427.82146
  23058050.000   121170849.43508  23058052.660    94418841.90746
 15 02 10 01 11 30.0000000  0  7G16G18G21G22G27G29G31
  21771915.700   114412197.75108  21771916.900    89152376.03047
  22502134.860   118249627.12208  22502136.360    92142627.23146
  21162239.360   111208481.34008  21162239.960    86656043.53648
  24006678.840   126156031.17006  24006684.640    98303444.80846
  23122402.240   121509066.36607  23122406.340    94682415.43346
  23575139.860   123888611.48806  23575141.860    96536780.41546
  23075215.120   121261051.69307  23075217.760    94489129.23246
 15 02 10 01 12  0.0000000  0  7G16G18G21G22G27G29G31
  21758172.740   114339977.91208  21758173.940    89096100.82847
  22490134.100   118186562.76308  22490135.500    92093486.20045
  21168470.600   111241226.58808  21168471.200    86681559.31848
  23988369.860   126059818.30206  23988375.220    98228474.23645
  23109365.860   121440559.58707  23109369.840    94629033.56746
  23588910.380   123960977.15206  23588912.700    96593169.23046
  23092412.840   121351425.30207  23092415.440    94559550.08146
 15 02 10 01 12 30.0000000  0  7G16G18G21G22G27G29G31
  21744482.820   114268036.73108  21744483.980    89040042.77147
  22478189.720   118123795.44208  22478191.140    92044576.63046
  21174764.940   111274303.58608  21174765.560    86707333.60448
  23970061.120   125963606.47506  23970066.160    98153504.48245
  23096345.700   121372138.01107  23096349.620    94575718.08846
  23602689.720   124033388.92106  23602692.280    96649593.98946
  23109642.520   121441967.10107  23109644.980    94630101.98246
 15 02 10 01 13  0.0000000  0  7G16G18G21G22G27G29G31
  21730846.720   114196378.43708  21730847.840    88984205.13747
  22466302.560   118061329.35308  22466304.140    91995901.78946
  21181122.360   111307711.91708  21181122.960    86733366.07448
  23951753.540   125867400.50106  23951758.100    98078539.26845
  23083342.080   121303803.53207  23083346.000    94522470.48546
  23616478.120   124105848.28506  23616480.980    96706055.80146
  23126903.940   121532675.90207  23126906.380    94700784.00246
 15 02 10 01 13 30.0000000  0  7G16G18G21G22G27G29G31
  21717264.680   114125004.42908  21717265.820    88928589.02648
  22454473.220   117999166.70508  22454474.860    91947463.38746
  21187542.440   111341449.64208  21187543.020    86759655.21248
  23933447.200   125771201.94607  23933451.520    98003579.84045
  23070354.880   121235555.51707  23070358.820    94469290.25246
  23630275.720   124178355.09706  23630278.700    96762554.58646
  23144196.380   121623547.88607  23144198.820    94771593.17646
 15 02 10 01 14  0.0000000  0  7G16G18G21G22G27G29G31
  21703737.020   114053916.19408  21703738.180    88873195.59748
  22442701.940   117937308.58208  22442703.620    91899262.27046
  21194024.780   111375514.45308  21194025.300    86786199.22548
  23915142.560   125675012.56506  23915146.740    97928627.53245
  23057384.000   121167393.11407  23057387.880    94416176.73646
  23644082.220   124250908.10107  23644085.100    96819089.37446
  23161519.040   121714578.99207  23161521.600    94842526.33746
 15 02 10 01 14 30.0000000  0  7G16G18G21G22G27G29G31
  21690264.460   113983117.38108  21690265.620    88818027.70047
  22430989.440   117875758.80008  22430991.160    91851301.43046
  21200569.240   111409905.73008  21200569.700    86812997.62348
  23896840.320   125578836.46106  23896844.460    97853685.58145
  23044429.660   121099318.03107  23044433.620    94363131.25046
  23657897.840   124323508.55707  23657900.460    96875661.13946
  23178871.740   121805768.13007  23178874.440    94913582.63046
 15 02 10 01 15  0.0000000  0  7G16G18G21G22G27G29G31
  21676847.600   113912611.14308  21676848.740    88763087.77848
  22419336.360   117814520.78208  22419338.080    91803583.52046
  21207175.780   111444623.02708  21207176.160    86840050.06848
  23878541.100   125482677.01106  23878545.280    97778756.57945
  23031492.100   121031331.06207  23031496.140    94310154.43046
  23671722.580   124396156.96007  23671725.000    96932270.25246
  23196254.140   121897113.02207  23196257.020    94984760.29046
 15 02 10 01 15 30.0000000  0  7G16G18G21G22G27G29G31
  21663486.680   113842398.99008  21663487.800    88708377.01847
  22407742.880   117753595.83408  22407744.620    91756109.56646
  21213843.880   111479663.91708  21213844.200    86867354.66348
  23860245.360   125386536.05006  23860249.740    97703841.99145
  23018571.180   120963431.60807  23018575.260    94257245.79746
  23685556.320   124468852.76407  23685558.580    96988916.30446
  23213665.440   121988609.66907  23213668.500    95056056.09646
 15 02 10 01 16  0.0000000  0  7G16G18G21G22G27G29G31
  21650181.940   113772482.18008  21650183.060    88653896.39148
  22396209.120   117692985.14308  22396210.920    91708880.47646
  21220572.980   111515025.64908  21220573.320    86894909.26548
  23841953.360   125290415.00606  23841957.920    97628942.88446
  23005666.680   120895618.50707  23005670.800    94204404.45546
  23699398.800   124541594.69407  23699400.940    97045598.28946
  23231104.960   122080254.00107  23231108.140    95127467.02446
 15 02 10 01 16 30.0000000  0  7G16G18G21G22G27G29G31
  21636933.900   113702863.47608  21636935.060    88599648.06248
  22384735.680   117632691.83808  22384737.400    91661898.70246
  21227362.960   111550707.11408  21227363.300    86922713.00348
  23823665.900   125194317.06406  23823670.560    97554061.78945
  22992778.820   120827892.54307  22992782.960    94151631.01146
  23713250.100   124614383.32806  23713252.080    97102316.67646
  23248572.300   122172044.01607  23248575.500    95198991.48146
 15 02 10 01 17  0.0000000  0  7G16G18G21G22G27G29G31
  21623743.080   113633545.34308  21623744.260    88545633.94348
  22373323.120   117572718.92708  22373324.780    91615166.58446
  21234213.660   111586707.71708  21234214.020    86950765.42648
  23805383.780   125098245.63806  23805388.180    97479201.33745
  22979907.680   120760254.40907  22979911.820    94098926.00846
  23727110.320   124687219.76206  23727112.400    97159072.36346
  23266066.840   122263977.00607  23266070.060    95270627.35546
 15 02 10 01 17 30.0000000  0  7G16G18G21G22G27G29G31
  21610609.740   113564529.45408  21610610.980    88491855.34048
  22361971.640   117513067.28808  22361973.240    91568684.80046
  21241124.380   111623024.01908  21241124.780    86979063.84148
  23787107.120   125002202.12406  23787111.420    97404362.63145
  22967053.100   120692702.93507  22967057.220    94046288.53746
  23740979.200   124760102.34006  23740981.580    97215863.93045
  23283587.800   122356049.01407  23283591.040    95342371.54946
 15 02 10 01 18  0.0000000  0  7G16G18G21G22G27G29G31
  21597534.780   113495820.13108  21597536.040    88438315.62848
  22350682.200   117453741.35308  22350683.680    91522456.83046
  21248095.280   111659656.64808  21248095.760    87007608.74848
  23768836.780   124906191.08906  23768840.720    97329549.21445
  22954215.480   120625240.49207  22954219.560    93993720.43747
  23754857.060   124833032.93106  23754859.860    97272692.95946
  23301135.020   122448259.03007  23301138.300    95414223.26646
 15 02 10 01 18 30.0000000  0  7G16G18G21G22G27G29G31
  21584518.220   113427417.50708  21584519.440    88385014.90148
  22339454.920   117394741.49908  22339456.260    91476482.94046
  21255125.700   111696602.27808  21255126.280    87036397.55248
  23750572.860   124810213.14407  23750576.340    97254761.58045
  22941394.380   120557865.16007  22941398.460    93941220.21547
  23768743.760   124906009.57706  23768746.860    97329557.87845
  23318707.520   122540602.29707  23318710.860    95486178.77046
 15 02 10 01 19  0.0000000  0  7G16G18G21G22G27G29G31
  21571560.060   113359321.90608  21571561.260    88331953.41048
  22328289.900   117336068.44708  22328291.100    91430763.70346
  21262215.040   111733857.29208  21262215.660    87065427.43848
  23732315.380   124714269.51606  23732318.640    97180000.67345
  22928589.540   120490575.27107  22928593.560    93888786.57247
  23782639.240   124979030.55706  23782642.240    97386457.28845
  23336304.400   122633073.52207  23336307.720    95558233.85246
 15 02 10 01 19 30.0000000  0  7G16G18G21G22G27G29G31
  21558661.400   113291539.11908  21558662.600    88279135.67048
  22317188.020   117277727.06708  22317189.140    91385302.90846
  21269363.520   111771423.13108  21269364.180    87094699.51848
  23714065.440   124618365.61507  23714068.560    97105270.71345
  22915801.580   120423373.98307  22915805.540    93836421.96947
  23796543.900   125052098.91706  23796546.700    97443393.67245
  23353925.720   122725673.03807  23353928.980    95630388.87546
 15 02 10 01 20  0.0000000  0  7G16G18G21G22G27G29G31
  21545822.360   113224069.56408  21545823.520    88226562.00348
  22306149.440   117219718.71408  22306150.620    91340101.62146
  21276570.560   111809296.42408  21276571.220    87124211.17748
  23695823.160   124522502.66907  23695826.360    97030572.65045
  22903030.220   120356260.00407  22903034.120    93784125.39147
  23810457.440   125125213.19206  23810459.960    97500365.79245
  23371570.720   122818396.80407  23371573.960    95702640.80046
 15 02 10 01 20 30.0000000  0  7G16G18G21G22G27G29G31
  21533043.880   113156918.13008  21533044.980    88174236.22148
  22295174.960   117162047.84008  22295176.300    91295163.29546
  21283836.360   111847478.58708  21283837.040    87153963.51248
  23677589.520   124426685.57107  23677592.880    96955910.31245
  22890275.940   120289235.97307  22890279.840    93731898.90247
  23824380.140   125198375.94307  23824382.300    97557375.69745
  23389239.200   122911243.96307  23389242.480    95774988.88046
 15 02 10 01 21  0.0000000  0  7G16G18G21G22G27G29G31
  21520326.160   113090085.98908  21520327.200    88122159.23848
  22284264.840   117104715.63908  22284266.420    91250488.86847
  21291160.420   111885966.64308  21291161.100    87183954.20048
  23659365.000   124330916.02106  23659368.360    96881285.01446
  22877538.520   120222300.81807  22877542.460    93679741.65947
  23838311.640   125271585.83606  23838313.540    97614422.34646
  23406930.400   123004210.28107  23406933.700    95847429.70546
 15 02 10 01 21 30.0000000  0  7G16G18G21G22G27G29G31
  21507670.000   113023577.35408  21507671.040    88070334.34248
  22273419.900   117047726.36708  22273421.740    91206081.66346
  21298542.740   111924760.83008  21298543.400    87214183.43848
  23641150.460   124235198.95206  23641153.840    96806700.60046
  22864818.460   120155456.75907  22864822.420    93627655.40347
  23852252.280   125344844.81106  23852254.320    97671507.21545
  23424644.200   123097295.23107  23424647.580    95919962.94746
 15 02 10 01 22  0.0000000  0  7G16G18G21G22G27G29G31
  21495075.340   112957392.09808  21495076.420    88018761.42948
  22262640.160   116991079.33308  22262642.100    91161941.14846
  21305982.460   111963856.62808  21305983.100    87244647.69848
  23622945.900   124139534.26107  23622949.240    96732157.00046
  22852115.240   120088701.31607  22852119.240    93575638.20147
  23866201.560   125418150.42006  23866204.060    97728628.41345
  23442379.520   123190493.27707  23442383.060    95992584.50646
 15 02 10 01 22 30.0000000  0  7G16G18G21G22G27G29G31
  21482542.640   112891532.31208  21482543.740    87967442.12448
  22251926.160   116934777.12508  22251928.020    91118069.31846
  21313479.260   112003252.40508  21313479.900    87275345.70248
  23604751.700   124043924.20907  23604754.980    96657655.97446
  22839428.960   120022034.69107  22839432.920    93523690.20847
  23880159.720   125491502.16006  23880162.460    97785785.64845
  23460135.820   123283801.55307  23460139.520    96065291.97946
 15 02 10 01 23  0.0000000  0  7G16G18G21G22G27G29G31
  21470072.040   112825998.87708  21470073.180    87916377.11848
  22241278.080   116878820.59308  22241279.660    91074466.84846
  21321032.680   112042945.66608  21321033.300    87306275.51448
  23586568.200   123948370.30107  23586571.360    96583198.68946
  22826759.320   119955455.54607  22826763.240    93471810.39247
  23894126.660   125564899.27406  23894129.440    97842978.16046
  23477912.220   123377215.28107  23477916.000    96138081.62146
 15 02 10 01 23 30.0000000  0  7G16G18G21G22G27G29G31
  21457664.040   112760794.23708  21457665.160    87865568.31848
  22230696.200   116823211.55608  22230697.480    91031135.15546
  21328642.340   112082934.54708  21328642.980    87337435.68148
  23568395.960   123852875.63407  23568398.960    96508787.55245
  22814106.400   119888964.16007  22814110.280    93419998.95147
  23908102.520   125638341.79506  23908105.140    97900206.06946
  23495708.060   123470731.49607  23495711.980    96210951.07846
 15 02 10 01 24  0.0000000  0  7G16G18G21G22G27G29G31
  21445319.280   112695921.97008  21445320.380    87815018.50148
  22220181.160   116767953.70708  22220182.180    90988077.11646
  21336308.220   112123218.73508  21336308.820    87368825.95048
  23550235.600   123757443.74806  23550238.520    96434425.33746
  22801470.400   119822561.87607  22801474.320    93368256.94047
  23922087.460   125711830.73107  23922089.780    97957470.12446
  23513523.020   123564348.34207  23513527.040    96283898.86846
 15 02 10 01 24 30.0000000  0  7G16G18G21G22G27G29G31
  21433038.380   112631385.41508  21433039.460    87764730.28148
  22209733.500   116713050.64908  22209734.480    90945295.53146
  21344030.140   112163797.32808  21344030.700    87400445.62948
  23532087.760   123662078.33606  23532090.740    96360114.89245
  22788851.600   119756250.02907  22788855.540    93316585.40447
  23936081.480   125785367.11407  23936083.420    98014771.15746
  23531356.860   123658064.41907  23531360.960    96356924.01046
 15 02 10 01 25  0.0000000  0  7G16G18G21G22G27G29G31
  21420821.740   112567186.73608  21420822.840    87714705.34248
  22199353.600   116658504.14008  22199354.700    90902791.77247
  21351807.760   112204668.84208  21351808.300    87432293.56248
  23513953.140   123566782.48006  23513956.080    96285858.64145
  22776250.120   119690028.85707  22776254.060    93264984.51347
  23950084.360   125858951.10306  23950086.000    98072109.31646
  23549208.920   123751876.51607  23549213.100    96430023.85246
 15 02 10 01 25 30.0000000  0  7G16G18G21G22G27G29G31
  21408669.860   112503328.29608  21408670.960    87664945.52148
  22189041.860   116604316.36908  22189043.200    90860567.55747
  21359640.840   112245831.86008  21359641.380    87464368.63748
  23495832.220   123471558.56006  23495835.120    96211658.44045
  22763665.880   119623898.47407  22763669.860    93213454.37347
  23964096.180   125932582.72107  23964097.620    98129484.55345
  23567078.800   123845782.26107  23567083.020    96503196.84046
 15 02 10 01 26  0.0000000  0  7G16G18G21G22G27G29G31
  21396583.180   112439812.12709  21396584.200    87615452.39648
  22178798.820   116550489.44308  22178800.340    90818624.52247
  21367528.920   112287284.09808  21367529.460    87496669.08048
  23477725.640   123376409.26906  23477728.340    96137516.40145
  22751099.040   119557859.01307  22751102.980    93161995.07647
  23978116.820   126006261.61607  23978118.380    98186896.63445
  23584965.800   123939778.27606  23584970.120    96576440.16346
 15 02 10 01 26 30.0000000  0  7G16G18G21G22G27G29G31
  21384562.200   112376641.17509  21384563.180    87566228.27848
  22168625.100   116497026.28808  22168626.640    90776964.94047
  21375471.900   112329024.99908  21375472.460    87529194.45448
  23459634.020   123281337.84007  23459636.360    96063435.01846
  22738549.620   119491911.25507  22738553.580    93110607.23147
  23992146.420   126079988.86206  23992148.380    98244346.43446
  23602869.600   124033862.26606  23602874.020    96649752.07646
 15 02 10 01 27  0.0000000  0  7G16G18G21G22G27G29G31
  21372606.960   112313815.79209  21372607.880    87517273.43148
  22158520.760   116443927.10008  22158522.200    90735588.97247
  21383469.080   112371050.77108  21383469.700    87561941.80348
  23441557.540   123186345.09607  23441559.500    95989414.94245
  22726017.340   119426053.49307  22726021.260    93059289.51947
  24006184.760   126153762.30606  24006187.020    98301832.17746
  23620789.300   124128029.36506  23620793.720    96723128.73546
 15 02 10 01 27 30.0000000  0  7G16G18G21G22G27G29G31
  21360717.980   112251338.91409  21360718.900    87468590.15248
  22148486.180   116391194.58308  22148487.480    90694498.71947
  21391520.260   112413360.35208  21391520.920    87594910.30548
  23423496.680   123091434.33707  23423498.260    95915458.75445
  22713502.360   119360286.53807  22713506.220    93008042.55747
  24020232.020   126227582.50107  24020234.420    98359354.40745
  23638724.440   124222277.12807  23638728.780    96796568.31545
 15 02 10 01 28  0.0000000  0  7G16G18G21G22G27G29G31
  21348895.720   112189212.73909  21348896.660    87420180.14248
  22138521.640   116338830.42408  22138522.860    90653695.49547
  21399625.080   112455951.95508  21399625.840    87628098.56348
  23405451.820   122996607.93407  23405453.180    95841568.27546
  22701004.640   119294610.37307  22701008.500    92956866.34747
  24034288.140   126301449.36505  24034290.740    98416913.01945
  23656674.320   124316602.24007  23656678.540    96870068.07146
 15 02 10 01 28 30.0000000  0  7G16G18G21G22G27G29G31
  21337140.820   112127440.53609  21337141.800    87372045.95948
  22128627.760   116286837.93908  22128628.980    90613181.89047
  21407783.500   112498825.01208  21407784.300    87661506.13648
  23387423.640   122901869.76307  23387424.940    95767746.56446
  22688524.400   119229026.23307  22688528.280    92905761.83747
  24048353.280   126375363.92805  24048356.200    98474508.71245
  23674638.480   124411002.73506  23674642.680    96943626.58145
 15 02 10 01 29  0.0000000  0  7G16G18G21G22G27G29G31
  21325453.480   112066023.24409  21325454.480    87324188.32548
  22118804.720   116235218.06408  22118806.000    90572958.63047
  21415994.980   112541976.75908  21415995.800    87695130.87248
  23369412.400   122807221.43007  23369413.720    95693994.84346
  22676061.540   119163533.45107  22676065.400    92854728.52347
  24062427.500   126449325.50106  24062430.620    98532141.03444
  23692616.320   124505475.42407  23692620.680    97017241.40845
 15 02 10 01 29 30.0000000  0  7G16G18G21G22G27G29G31
  21313833.840   112004961.72609  21313834.880    87276607.92248
  22109052.680   116183971.17108  22109054.060    90533026.00047
  21424258.840   112585403.74408  21424259.660    87728970.07548
  23351418.420   122712664.12607  23351419.840    95620314.04246
  22663615.720   119098130.41707  22663619.600    92803765.13847
  24076510.620   126523332.14206  24076513.580    98589808.56845
  23710606.760   124600015.14706  23710611.380    97090908.46046
 15 02 10 01 30  0.0000000  0  7G16G18G21G22G27G29G31
  21302282.580   111944259.45309  21302283.640    87229307.44948
  22099372.300   116133100.64708  22099373.720    90493386.65547
  21432575.040   112629105.66208  21432575.860    87763023.52048
  23333442.560   122618201.74007  23333444.040    95546707.20346
  22651187.300   119032818.72107  22651191.160    92752872.92647
  24090602.680   126597385.37405  24090605.100    98647512.41045
  23728609.680   124694620.50506  23728614.440    97164626.62545
 15 02 10 01 30 30.0000000  0  7G16G18G21G22G27G29G31
  21290800.620   111883921.46709  21290801.700    87182290.83448
  22089764.520   116082611.28308  22089765.900    90454044.31247
  21440943.760   112673083.55908  21440944.560    87797292.00948
  23315485.880   122523839.98707  23315487.440    95473178.75346
  22638776.780   118967601.35307  22638780.640    92702054.22447
  24104703.980   126671487.56506  24104706.060    98705254.28344
  23746625.020   124789291.29507  23746629.920    97238395.79646
 15 02 10 01 31  0.0000000  0  7G16G18G21G22G27G29G31
  21279388.020   111823948.06709  21279389.160    87135558.31948
  22080229.380   116032503.60808  22080230.680    90414999.39147
  21449364.400   112717334.21908  21449365.180    87831773.03848
  23297548.500   122429579.44107  23297550.120    95399729.16946
  22626383.920   118902476.82107  22626387.780    92651307.85247
  24118814.380   126745637.09507  24118816.540    98763033.08045
  23764651.940   124884022.74207  23764657.000    97312212.19146
 15 02 10 01 31 30.0000000  0  7G16G18G21G22G27G29G31
  21268044.980   111764339.95009  21268046.100    87089110.43448
  22070766.960   115982777.92708  22070768.160    90376252.12947
  21457836.220   112761854.02008  21457837.040    87866463.79448
  23279630.620   122335421.00007  23279632.220    95326359.14446
  22614008.540   118837443.71807  22614012.340    92600632.73347
  24132933.520   126819832.47107  24132935.680    98820847.66345
  23782689.500   124978810.32406  23782694.720    97386072.37846
 15 02 10 01 32  0.0000000  0  7G16G18G21G22G27G29G31
  21256772.620   111705103.28809  21256773.720    87042952.00448
  22061378.120   115933439.37908  22061379.340    90337806.53047
  21466359.600   112806644.67108  21466360.420    87901365.59848
  23261733.420   122241371.48907  23261735.060    95253073.98246
  22601651.280   118772505.76207  22601655.060    92550031.75847
  24147061.940   126894077.28807  24147064.120    98878700.75544
  23800737.820   125073654.51506  23800743.280    97459976.64846
 15 02 10 01 32 30.0000000  0  7G16G18G21G22G27G29G31
  21245570.920   111646237.99708  21245572.020    86997082.95048
  22052062.880   115884487.98208  22052064.240    90299662.60547
  21474933.900   112851702.90608  21474934.700    87936475.90948
  23243856.920   122147431.30507  23243858.760    95179874.03246
  22589311.780   118707661.12908  22589315.520    92499503.49247
  24161199.240   126968369.55306  24161201.600    98936590.85445
  23818796.120   125168550.91306  23818801.760    97533921.61846
 15 02 10 01 33  0.0000000  0  7G16G18G21G22G27G29G31
  21234440.160   111587745.44509  21234441.260    86951504.34048
  22042821.540   115835924.99308  22042823.020    90261821.33447
  21483558.560   112897025.75008  21483559.340    87971792.41948
  23226001.520   122053602.27707  23226003.600    95106760.67946
  22576989.920   118642909.30708  22576993.640    92449047.55047
  24175345.440   127042708.52806  24175348.320    98994517.28145
  23836863.620   125263495.33606  23836869.360    97607903.98345
 15 02 10 01 33 30.0000000  0  7G16G18G21G22G27G29G31
  21223380.720   111529627.76609  21223381.820    86906217.84648
  22033654.600   115787752.81408  22033656.160    90224284.58947
  21492233.360   112942612.10008  21492234.140    88007314.24848
  23208167.840   121959887.11106  23208170.140    95033736.03946
  22564685.780   118578250.66208  22564689.500    92398664.21747
  24189500.500   127117094.43806  24189503.540    99052480.32346
  23854939.880   125358485.36506  23854945.660    97681921.98846
 15 02 10 01 34  0.0000000  0  7G16G18G21G22G27G29G31
  21212393.040   111471887.05808  21212394.140    86861225.08848
  22024562.420   115739972.94108  22024563.960    90187053.52947
  21500957.960   112988460.22708  21500958.720    88043040.06248
  23190356.480   121866288.58407  23190358.800    94960802.29146
  22552399.380   118513685.21308  22552403.100    92348353.49547
  24203664.580   127191526.96506  24203667.780    99110479.61145
  23873024.220   125453517.52106  23873029.960    97755972.89046
 15 02 10 01 34 30.0000000  0  7G16G18G21G22G27G29G31
  21201477.680   111414526.42508  21201478.780    86816528.50148
  22015545.460   115692588.25208  22015546.980    90150130.41347
  21509732.140   113034568.70508  21509732.880    88078968.74948
  23172568.200   121772810.12707  23172570.240    94887962.10346
  22540130.940   118449214.20408  22540134.640    92298116.37247
  24217837.740   127266007.12105  24217840.660    99168516.11946
  23891116.260   125548590.08006  23891121.860    97830055.24645
 15 02 10 01 35  0.0000000  0  7G16G18G21G22G27G29G31
  21190635.340   111357549.64608  21190636.460    86772131.01548
  22006604.240   115645601.61308  22006605.720    90113517.46547
  21518555.860   113080937.53208  21518556.560    88115100.30548
  23154803.580   121679455.58607  23154805.240    94815218.45446
  22527880.680   118384838.92708  22527884.360    92247953.82747
  24232020.180   127340535.82405  24232023.120    99226590.30646
  23909215.680   125643701.32407  23909221.080    97904167.84146
 15 02 10 01 35 30.0000000  0  7G16G18G21G22G27G29G31
  21179865.940   111300956.21708  21179867.100    86728032.24948
  21997738.700   115599012.60808  21997740.100    90077214.35847
  21527428.200   113127561.92508  21527428.880    88151431.00348
  23137062.640   121586225.54407  23137063.940    94742571.83046
  22515648.300   118320557.48008  22515651.960    92197864.40447
  24246211.660   127415111.12005  24246214.100    99284701.05546
  23927321.360   125738845.92806  23927326.580    97978306.41946
 15 02 10 01 36  0.0000000  0  7G16G18G21G22G27G29G31
  21169170.740   111244752.66408  21169171.900    86684237.28548
  21988949.880   115552827.12308  21988951.220    90041225.68347
  21536349.760   113174445.17608  21536350.480    88187963.40948
  23119346.680   121493126.91307  23119347.700    94670027.58746
  22503434.580   118256374.29508  22503438.280    92147851.53947
  24260412.580   127489737.05305  24260414.940    99342850.96645
  23945433.440   125834025.15906  23945438.760    98052472.00245
 15 02 10 01 36 30.0000000  0  6G16G18G21G22G27G31
  21158549.020   111188935.19108  21158550.180    86640743.16148
  21980237.120   115507041.50708  21980238.440    90005548.59847
  21545319.100   113221579.48408  21545319.820    88224691.44048
  23101654.920   121400155.97607  23101655.780    94597582.85146
  22491238.460   118192283.47808  22491242.160    92097910.65147
  23963550.240   125929230.40006  23963555.860    98126657.87446
 15 02 10 01 37  0.0000000  0  7G16G18G21G22G27G29G31
  21148004.040   111133520.85808  21148005.180    86597563.17348
  21971603.640   115461672.57908  21971605.000    89970196.20947
  21554338.740   113268977.93008  21554339.460    88261625.29748
  23083990.760   121307330.86407  23083991.660    94525251.74846
  22479062.860   118128300.64708  22479066.600    92048053.91147
  24288842.480   127638722.81104  24288842.620    99458756.26345
  23981674.060   126024473.08606  23981680.080    98200872.88846
 15 02 10 01 37 30.0000000  0  7G16G18G21G22G27G29G31
  21137528.340   111078470.55409  21137529.480    86554666.84048
  21963041.960   115416680.96208  21963043.340    89935137.82947
  21563400.500   113316597.48008  21563401.160    88298731.43848
  23066346.960   121214613.32807  23066347.940    94453004.46746
  22466900.080   118064384.80108  22466903.780    91998249.36947
  24303070.920   127713461.28907  24303073.500    99516980.49545
  23999796.880   126119710.22806  23999803.240    98275083.71446
 15 02 10 01 38  0.0000000  0  7G16G18G21G22G27G29G31
  21127137.400   111023865.76909  21127138.520    86512117.66648
  21954567.420   115372147.30908  21954568.800    89900436.30347
  21572519.140   113364515.91508  21572519.760    88336070.47648
  23048739.020   121122084.62607  23048740.080    94380904.30946
  22454765.160   118000615.05608  22454768.820    91948558.67347
  24317306.560   127788315.59906  24317314.620    99575319.86344
  24017933.040   126215016.97206  24017939.560    98349348.68146
 15 02 10 01 38 30.0000000  0  7G16G18G21G22G27G29G31
  21116814.700   110969619.55709  21116815.780    86469847.89248
  21946163.520   115327984.54208  21946164.860    89866023.77647
  21581677.420   113412642.73108  21581678.000    88373571.89548
  23031150.700   121029658.64707  23031151.720    94308884.18846
  22442641.200   117936902.96908  22442644.860    91898912.90747
  24331551.800   127863171.28305  24331557.680    99633649.12944
  24036065.180   126310302.11406  24036071.840    98423596.80246
 15 02 10 01 39  0.0000000  0  7G16G18G21G22G27G29G31
  21106569.440   110915780.45709  21106570.540    86427895.35148
  21937839.420   115284241.04408  21937840.780    89831937.94547
  21590883.780   113461022.30008  21590884.360    88411270.25748
  23013591.340   120937384.44407  23013592.260    94236982.34146
  22430537.080   117873295.22908  22430540.740    91849348.45547
  24345807.560   127938082.43307  24345812.300    99692021.39945
  24054201.520   126405608.83506  24054208.160    98497861.67746
 15 02 10 01 39 30.0000000  0  7G16G18G21G22G27G29G31
  21096400.520   110862342.47409  21096401.640    86386255.36948
  21929593.760   115240909.69208  21929595.140    89798173.27747
  21600136.260   113509644.32408  21600136.840    88449157.55048
  22996059.800   120845256.30007  22996060.600    94165194.30546
  22418451.200   117809783.49308  22418454.860    91799858.80047
  24360072.040   128013040.13805  24360076.180    99750429.98245
  24072339.780   126500925.91606  24072346.460    98572134.65446
 15 02 10 01 40  0.0000000  0  7G16G18G21G22G27G29G31
  21086309.220   110809312.46609  21086310.380    86344933.28448
  21921427.780   115197997.45108  21921429.240    89764735.17747
  21609435.360   113558511.37208  21609435.920    88487235.77348
  22978557.540   120753282.07507  22978558.280    94093526.21246
  22406384.580   117746373.24008  22406388.260    91750448.22647
  24374346.400   128088049.82606  24374349.840    99808879.05844
  24090480.480   126596255.38906  24090487.140    98646417.21645
 15 02 10 01 40 30.0000000  0  7G16G18G21G22G27G29G31
  21076294.620   110756685.56709  21076295.780    86303925.31148
  21913340.600   115155499.20708  21913342.120    89731619.68047
  21618779.740   113607616.37808  21618780.260    88525499.41248
  22961083.780   120661457.23007  22961084.500    94021974.49346
  22394336.000   117683057.84808  22394339.720    91701111.57547
  24388629.140   128163104.59206  24388632.160    99867363.25244
  24108621.800   126691587.66506  24108628.400    98720701.93745
 15 02 10 01 41  0.0000000  0  7G16G18G21G22G27G29G31
  21066357.840   110704467.46409  21066359.000    86263235.88248
  21905333.180   115113420.16508  21905334.780    89698830.82447
  21628169.780   113656961.22408  21628170.260    88563949.94248
  22943639.680   120569788.26007  22943640.480    93950544.23147
  22382306.260   117619841.34508  22382309.980    91651851.97347
  24402921.240   128238208.03506  24402923.780    99925885.46544
  24126763.900   126786923.69906  24126770.360    98794989.61646
 15 02 10 01 41 30.0000000  0  7G16G18G21G22G27G29G31
  21056500.020   110652664.16809  21056501.180    86222869.67348
  21897406.580   115071765.93208  21897408.260    89666373.00147
  21637605.560   113706546.60908  21637606.040    88602587.90248
  22926226.460   120478281.61307  22926227.420    93879240.46147
  22370296.060   117556727.57308  22370299.780    91602672.42247
  24417223.060   128313363.86506  24417225.420    99984448.40045
  24144906.880   126882264.13606  24144913.160    98869280.64145
 15 02 10 01 42  0.0000000  0  7G16G18G21G22G27G29G31
  21046720.620   110601273.03209  21046721.800    86182824.63248
  21889560.280   115030533.49908  21889562.000    89634243.84947
  21647086.040   113756366.84408  21647086.520    88641408.86448
  22908843.720   120386935.22007  22908844.900    93808061.55047
  22358304.560   117493712.07308  22358308.300    91553569.45147
  24431533.800   128388567.30906  24431536.180   100043048.42544
  24163049.220   126977601.09206  24163055.280    98943568.89246
 15 02 10 01 42 30.0000000  0  7G16G18G21G22G27G29G31
  21037020.340   110550297.61409  21037021.520    86143103.52748
  21881794.920   114989726.17308  21881796.580    89602445.94947
  21656611.140   113806421.71908  21656611.660    88680412.66148
  22891492.320   120295753.51507  22891493.680    93737010.96947
  22346332.180   117430796.98808  22346335.920    91504544.72347
  24445853.800   128463820.11006  24445856.420   100101686.92945
  24181190.600   127072933.48406  24181196.540    99017853.60045
 15 02 10 01 43  0.0000000  0  7G16G18G21G22G27G29G31
  21027399.340   110499738.78209  21027400.480    86103707.02648
  21874110.440   114949343.77708  21874112.000    89570979.16547
  21666180.400   113856708.62208  21666180.940    88719597.25948
  22874172.520   120204737.63607  22874173.920    93666089.60747
  22334378.680   117367981.14507  22334382.460    91455597.33147
  24460183.080   128539120.67505  24460185.720   100160362.76144
  24199330.220   127168257.21606  24199336.080    99092131.54245
 15 02 10 01 43 30.0000000  0  8G16G18G19G21G22G27G29G31
  21017859.560   110449606.98309  21017860.680    86064643.27948
  21866508.780   114909396.80708  21866510.300    89539851.67347
  24539176.820   128954242.91605  24539178.000   100483829.86945
  21675795.000   113907233.63908  21675795.540    88758967.39348
  22856886.460   120113898.78007  22856887.740    93595306.18347
  22322445.760   117305273.42408  22322449.560    91406734.18447
  24474522.860   128614478.06706  24474525.740   100219082.71945
  24217469.280   127263578.31806  24217475.180    99166407.43646
 15 02 10 01 44  0.0000000  0  8G16G18G19G21G22G27G29G31
  21008395.860   110399875.08809  21008396.980    86025891.14748
  21858984.680   114869857.50508  21858986.180    89509041.84747
  24523855.980   128873731.27705  24523856.920   100421093.59245
  21685449.060   113957966.14808  21685449.640    88798499.22148
  22839629.020   120023210.42107  22839630.080    93524640.03546
  22310527.940   117242644.98608  22310531.740    91357932.82048
  24488868.160   128689862.74904  24488871.200   100277824.03645
  24235601.720   127358864.59706  24235607.680    99240656.21045
 15 02 10 01 44 30.0000000  0  8G16G18G19G21G22G27G29G31
  20999015.660   110350581.74909  20999016.760    85987480.75148
  21851545.360   114830763.90608  21851546.860    89478579.32147
  24508547.220   128793283.21105  24508548.320   100358406.83945
  21695149.220   114008940.76008  21695149.820    88838219.69548
  22822407.580   119932711.53407  22822408.360    93454121.51746
  22298632.200   117180132.38508  22298635.980    91309221.73148
  24503225.560   128765311.01506  24503228.600   100336614.77545
  24253733.880   127454149.23106  24253739.880    99314903.74246
 15 02 10 01 45  0.0000000  0  8G16G18G19G21G22G27G29G31
  20989715.720   110301710.24009  20989716.840    85949399.04748
  21844187.680   114792099.13408  21844189.200    89448450.93847
  24493247.160   128712880.38505  24493248.220   100295755.32945
  21704891.640   114060137.48808  21704892.260    88878113.24248
  22805219.140   119842386.61807  22805219.680    93383738.55346
  22286755.080   117117717.69508  22286758.860    91260586.92248
  24517591.700   128840804.53405  24517594.560   100395440.89045
  24271861.780   127549411.32606  24271867.900    99389133.67845
 15 02 10 01 45 30.0000000  0  8G16G18G19G21G22G27G29G31
  20980497.740   110253269.31509  20980498.840    85911652.87248
  21836913.240   114753871.45808  21836914.720    89418663.15847
  24477957.000   128632529.73705  24477958.100   100233144.48345
  21714677.260   114111561.32908  21714677.920    88918183.76748
  22788065.500   119752244.95607  22788065.900    93313498.38746
  22274897.920   117055407.95708  22274901.740    91212033.90648
  24531967.680   128916349.90706  24531970.440   100454307.41645
  24289986.220   127644654.74806  24289992.420    99463349.10845
 15 02 10 01 46  0.0000000  0  8G16G18G19G21G22G27G29G31
  20971361.600   110205258.43109  20971362.680    85874241.79148
  21829721.760   114716079.54208  21829723.180    89389214.92847
  24462676.080   128552228.05205  24462677.040   100170571.77946
  21724505.220   114163207.84608  21724505.940    88958427.80448
  22770946.620   119662286.14507  22770947.080    93243400.70047
  22263060.260   116993200.49708  22263064.080    91163560.58348
  24546352.920   128991944.32506  24546355.760   100513212.09245
  24308105.960   127739873.51806  24308112.340    99537545.36245
 15 02 10 01 46 30.0000000  0  7G16G18G19G21G22G27G31
  20962303.300   110157656.43809  20962304.320    85837149.32948
  21822609.040   114678701.65108  21822610.420    89360089.31847
  24447400.060   128471952.69005  24447401.020   100108019.57744
  21734370.760   114215051.78508  21734371.540    88998825.67448
  22753858.740   119572489.77507  22753859.280    93173429.58946
  22251237.740   116931072.55608  22251241.520    91115149.22548
  24326216.160   127835041.91806  24326222.640    99611702.38546
 15 02 10 01 47  0.0000000  0  7G16G18G19G21G22G27G31
  20953333.880   110110521.62909  20953334.860    85800420.90748
  21815586.080   114641795.84508  21815587.520    89331331.56747
  24432139.780   128391759.91906  24432140.720   100045531.75944
  21744284.400   114267148.38608  21744285.220    89039420.42448
  22736813.160   119482914.99707  22736813.780    93103631.14947
  22239441.140   116869081.00508  22239444.880    91066844.14548
  24344326.960   127930213.49606  24344333.600    99685861.89045
 15 02 10 01 47 30.0000000  0  7G16G18G19G21G22G27G31
  20944445.800   110063814.27709  20944446.740    85764025.56548
  21808645.340   114605322.27508  21808646.860    89302910.61247
  24416887.280   128311608.03906  24416888.260    99983075.80044
  21754237.740   114319453.38008  21754238.540    89080177.56348
  22719802.500   119393522.63207  22719803.080    93033974.83647
  22227662.600   116807184.50408  22227666.340    91018613.13248
  24362429.940   128025343.70606  24362436.680    99759989.12345
 15 02 10 01 48  0.0000000  0  7G16G18G19G21G22G27G31
  20935640.760   110017543.42209  20935641.720    85727970.36048
  21801788.380   114569289.15908  21801790.000    89274832.86947
  24401644.040   128231504.48006  24401645.060    99920657.50645
  21764231.860   114371972.62208  21764232.640    89121101.64648
  22702828.480   119304322.73308  22702828.980    92964468.50347
  22215903.600   116745390.60508  22215907.340    90970462.06848
  24380525.860   128120436.97006  24380532.640    99834087.63346
 15 02 10 01 48 30.0000000  0  7G16G18G19G21G22G27G31
  20926919.300   109971711.94809  20926920.300    85692257.52349
  21795015.500   114533698.16508  21795017.260    89247099.64047
  24386410.300   128151450.22106  24386411.120    99858277.60945
  21774266.660   114424705.66008  21774267.440    89162192.32148
  22685891.640   119215318.52008  22685892.120    92895114.63747
  22204164.320   116683700.34108  22204168.060    90922391.76148
  24398614.380   128215491.19206  24398621.080    99908155.69946
 15 02 10 01 49  0.0000000  0  7G16G18G19G21G22G27G31
  20918281.760   109926321.62609  20918282.820    85656888.44748
  21788327.260   114498551.66808  21788329.100    89219712.77347
  24371185.960   128071445.30706  24371186.540    99795936.18445
  21784341.740   114477650.35308  21784342.480    89203447.92748
  22668992.500   119126512.75308  22668993.040    92825915.39947
  22192444.880   116622114.21208  22192448.620    90874402.59148
  24416694.920   128310503.72307  24416701.560    99982191.24545
 15 02 10 01 49 30.0000000  0  7G16G18G19G21G22G27G31
  20909729.080   109881377.17109  20909730.160    85621866.79648
  21781724.400   114463853.48308  21781726.160    89192675.24747
  24355971.440   127991492.36706  24355971.880    99733635.24445
  21794457.200   114530807.47808  21794457.960    89244869.05948
  22652132.080   119037910.86607  22652132.700    92756875.03747
  22180745.840   116560635.17708  22180749.560    90826496.87548
  24434767.460   128405474.22906  24434774.020   100056194.06346
 15 02 10 01 50  0.0000000  0  7G16G18G19G21G22G27G31
  20901261.380   109836879.23309  20901262.460    85587193.08448
  21775206.940   114429603.62408  21775208.520    89165987.06447
  24340766.600   127911590.23906  24340766.980    99671373.88645
  21804612.640   114584174.97708  21804613.460    89286454.12448
  22635310.580   118949513.93908  22635311.300    92687994.38647
  22169067.020   116499262.41608  22169070.700    90778673.96348
  24452831.160   128500398.75206  24452837.720   100130161.04546
 15 02 10 01 50 30.0000000  0  7G16G18G19G21G22G27G31
  20892879.040   109792829.69709  20892880.100    85552868.77748
  21768775.000   114395803.09408  21768776.400    89139648.99647
  24325571.360   127831738.92606  24325571.780    99609152.13944
  21814807.600   114637749.95908  21814808.440    89328200.86148
  22618528.560   118861324.51208  22618529.280    92619275.42247
  22157408.440   116437996.09708  22157412.100    90730933.99448
  24470885.520   128595274.70206  24470892.220   100204090.13545
 15 02 10 01 51  0.0000000  0  7G16G18G19G21G22G27G31
  20884582.100   109749228.93309  20884583.140    85518894.15948
  21762428.640   114362452.24808  21762429.860    89113661.34547
  24310385.580   127751937.16406  24310386.080    99546969.01944
  21825041.640   114691530.20708  21825042.480    89370107.55048
  22601786.300   118773344.11708  22601786.980    92550719.33347
  22145769.920   116376835.28008  22145773.560    90683276.23348
  24488929.660   128690097.35306  24488936.520   100277977.68846
 15 02 10 01 51 30.0000000  0  7G16G18G19G21G22G27G31
  20876371.460   109706081.89409  20876372.500    85485273.09848
  21756168.580   114329555.21108  21756169.740    89088027.30647
  24295209.740   127672187.95206  24295210.400    99484826.81545
  21835314.860   114745516.34508  21835315.700    89412174.66848
  22585084.860   118685578.02208  22585085.400    92482330.23447
  22134152.040   116315783.19508  22134155.720    90635703.19448
  24506963.660   128784866.95106  24506970.640   100351823.85245
 15 02 10 01 52  0.0000000  0  7G16G18G19G21G22G27G31
  20868247.440   109663390.00209  20868248.480    85452006.69549
  21749995.000   114297112.76908  21749996.140    89062747.48947
  24280043.700   127592490.72206  24280044.540    99422725.11346
  21845626.900   114799706.39708  21845627.720    89454400.67948
  22568424.620   118598028.34008  22568424.980    92414109.76447
  22122554.840   116254839.86508  22122558.540    90588214.90648
  24524986.900   128879580.24006  24524994.200   100425626.12445
 15 02 10 01 52 30.0000000  0  7G16G18G19G21G22G27G31
  20860210.180   109621154.03409  20860211.240    85419095.55949
  21743907.920   114265125.28108  21743909.100    89037822.18247
  24264887.480   127512845.09706  24264888.460    99360663.62146
  21855977.300   114854098.01408  21855978.100    89496783.75748
  22551806.020   118510697.15208  22551806.200    92346059.54946
  22110978.280   116194004.87308  22110981.980    90540811.02948
  24542998.700   128974233.70206  24543006.400   100499381.76345
 15 02 10 01 53  0.0000000  0  7G16G18G19G21G22G27G31
  20852259.880   109579375.04909  20852260.980    85386540.51049
  21737907.420   114233592.75308  21737908.680    89013251.38847
  24249740.880   127433249.74206  24249741.980    99298641.30646
  21866365.400   114908687.74008  21866366.160    89539321.20848
  22535229.240   118423585.72508  22535229.340    92278180.58347
  22099422.180   116133277.41008  22099425.860    90493490.94248
  24560998.600   129068823.67006  24561006.500   100573087.88445
 15 02 10 01 53 30.0000000  0  7G16G18G19G21G22G27G31
  20844397.140   109538056.18409  20844398.260    85354344.00049
  21731994.160   114202518.54108  21731995.500    88989037.72447
  24234604.200   127353706.28306  24234605.280    99236659.42046
  21876791.260   114963475.75508  21876791.940    89582013.16948
  22518695.120   118336698.23008  22518695.220    92210476.10347
  22087886.920   116072659.34408  22087890.620    90446256.10448
  24578986.280   129163348.66306  24578994.180   100646743.37145
 15 02 10 01 54  0.0000000  0  7G16G18G19G21G22G27G31
  20836621.940   109497197.32409  20836623.060    85322505.93449
  21726167.940   114171901.42208  21726169.280    88965180.24148
  24219477.180   127274213.00906  24219478.100    99174716.64446
  21887254.200   115018458.72808  21887254.840    89624857.04048
  22502203.820   118250035.16208  22502203.860    92142946.49947
  22076372.200   116012149.23908  22076375.920    90399105.38748
  24596960.880   129257803.96106  24596968.480   100720344.53545
 15 02 10 01 54 30.0000000  0  7G16G18G19G21G22G27G31
  20828935.040   109456802.41109  20828936.140    85291029.37849
  21720429.260   114141744.32608  21720430.600    88941681.21848
  24204360.040   127194771.72306  24204360.820    99112814.38745
  21897754.200   115073636.44308  21897754.800    89667852.66448
  22485756.020   118163601.00108  22485756.100    92075595.26447
  22064878.480   115951749.30708  22064882.200    90352040.51948
  24614922.300   129352188.96206  24614929.480   100793890.91245
 15 02 10 01 55  0.0000000  0  7G16G18G19G21G22G27G31
  20821337.160   109416875.16609  20821338.240    85259917.24349
  21714778.780   114112051.06108  21714780.180    88918543.62148
  24189253.180   127115384.66506  24189253.880    99050954.39045
  21908291.300   115129009.46108  21908291.920    89711000.46348
  22469352.560   118077400.52808  22469352.780    92008426.11747
  22053406.220   115891462.05808  22053409.880    90305063.45448
  24632870.200   129446502.45206  24632877.020   100867381.54845
 15 02 10 01 55 30.0000000  0  7G16G18G19G21G22G27G31
  20813828.140   109377414.78709  20813829.200    85229168.89649
  21709216.240   114082819.79808  21709217.680    88895766.03147
  24174156.180   127036049.51206  24174156.740    98989134.85645
  21918864.800   115184573.50008  21918865.380    89754297.11848
  22452993.500   117991433.89208  22452993.940    91941439.18347
  22041955.060   115831285.59608  22041958.620    90258172.71348
  24650803.580   129540740.00206  24650810.160   100940813.04745
 15 02 10 01 56  0.0000000  0  7G16G18G19G21G22G27G31
  20806408.480   109338424.06309  20806409.500    85198786.51449
  21703742.140   114054053.22408  21703743.600    88873350.53547
  24159069.240   126956767.39406  24159069.720    98927356.63445
  21929474.520   115240327.98908  21929475.080    89797742.16648
  22436679.540   117905704.24208  22436680.140    91874636.90147
  22030525.180   115771221.19508  22030528.720    90211369.29648
  24668721.900   129634899.36806  24668728.360   101014183.58845
 15 02 10 01 56 30.0000000  0  7G16G18G19G21G22G27G31
  20799078.480   109299904.61909  20799079.460    85168771.36449
  21698356.500   114025751.74408  21698358.000    88851297.44947
  24143992.400   126877538.20406  24143992.860    98865619.65045
  21940120.140   115296271.08408  21940120.700    89841334.18848
  22420411.280   117820214.62008  22420411.880    91808021.65147
  22019116.700   115711269.17308  22019120.220    90164653.44648
  24686624.680   129728977.80006  24686631.200   101087491.11245
 15 02 10 01 57  0.0000000  0  6G16G18G19G21G22G27
  20791836.480   109261847.53709  20791837.420    85139116.48949
  21693057.600   113997906.30208  21693059.160    88829599.71647
  24128923.540   126798350.96806  24128924.020    98803915.38246
  21950799.200   115352389.86808  21950799.740    89885063.11348
  22404187.080   117734956.16308  22404187.560    91741586.53247
  22007727.620   115651419.06408  22007731.120    90118017.00848
 15 02 10 01 57 30.0000000  0  6G16G18G19G21G22G27
  20784688.340   109224283.77109  20784689.280    85109846.02449
  21687851.220   113970546.76408  21687852.760    88808280.60348
  24113868.340   126719235.49706  24113868.860    98742267.01845
  21961517.020   115408712.46008  21961517.560    89928950.83948
  22388013.060   117649961.02008  22388013.360    91675356.60647
  21996363.580   115591700.65408  21996367.120    90071483.18948
 15 02 10 01 58  0.0000000  0  6G16G18G19G21G22G27
  20777629.560   109187189.62908  20777630.520    85080941.50049
  21682732.740   113943649.09108  21682734.260    88787321.38848
  24098822.040   126640167.02206  24098822.680    98680655.27146
  21972268.540   115465212.05608  21972269.100    89972976.49848
  22371884.980   117565206.83308  22371885.000    91609314.43847
  21985019.940   115532089.33208  21985023.480    90025032.81848
 15 02 10 01 58 30.0000000  0  6G16G18G19G21G22G27
  20770661.520   109150572.52308  20770662.560    85052408.68449
  21677703.500   113917220.40808  21677705.020    88766727.62847
  24083785.680   126561151.10606  24083786.460    98619084.47146
  21983054.500   115521892.84508  21983055.120    90017143.34048
  22355804.480   117480702.30208  22355804.120    91543466.81147
  21973697.880   115472591.66208  21973701.460    89978671.00248
 15 02 10 01 59  0.0000000  0  6G16G18G19G21G22G27
  20763785.220   109114437.43109  20763786.280    85024251.46549
  21672764.160   113891263.96208  21672765.640    88746501.83847
  24068759.780   126482189.96006  24068760.640    98557556.35146
  21993874.960   115578755.06408  21993875.660    90061451.55748
  22339772.160   117396451.59508  22339771.600    91477816.96247
  21962397.840   115413209.92208  21962401.480    89932399.52448
 15 02 10 01 59 30.0000000  0  6G16G18G19G21G22G27
  20757000.780   109078784.95809  20757001.860    84996470.31549
  21667914.740   113865780.01208  21667916.180    88726644.22948
  24053744.260   126403283.25006  24053745.140    98496070.63646
  22004729.600   115635796.58408  22004730.280    90105899.49148
  22323788.360   117312456.53008  22323787.800    91412366.30947
  21951119.840   115353943.93708  21951123.500    89886218.24948
 15 02 10 02 00  0.0000000  0  6G16G18G19G21G22G27
  20750308.360   109043615.83509  20750309.420    84969065.79849
  21663155.360   113840769.44008  21663156.800    88707155.47848
  24038739.140   126324431.06806  24038740.020    98434627.40346
  22015618.020   115693015.62008  22015618.700    90150485.74948
  22307853.600   117228719.90908  22307853.340    91347117.02547
  21939863.980   115294794.13208  21939867.620    89840127.49448
 15 02 10 02 00 30.0000000  0  6G16G18G19G21G22G27
  20743708.920   109008935.50709  20743709.980    84942042.16249
  21658486.860   113816236.47008  21658488.300    88688038.89248
  24023745.000   126245636.48006  24023745.860    98373229.07846
  22026540.440   115750413.20408  22026541.080    90195211.13448
  22291969.020   117145247.11808  22291969.140    91282073.33547
  21928630.920   115235764.18008  21928634.580    89794130.13948
 15 02 10 02 01  0.0000000  0  6G16G18G19G21G22G27
  20737201.460   108974738.55309  20737202.520    84915395.18649
  21653907.960   113792174.34908  21653909.380    88669289.20347
  24008760.500   126166892.60306  24008761.380    98311870.27546
  22037495.280   115807981.04008  22037495.860    90240069.18548
  22276133.820   117062033.60008  22276134.280    91217231.66547
  21917419.380   115176847.46008  21917423.100    89748221.01348
 15 02 10 02 01 30.0000000  0  6G16G18G19G21G22G27
  20730787.100   108941030.90309  20730788.140    84889129.48149
  21649419.840   113768588.97708  21649421.180    88650911.00447
  23993786.560   126088203.88906  23993787.380    98250554.44547
  22048483.080   115865722.09808  22048483.580    90285062.21748
  22260349.400   116979086.29708  22260350.020    91152597.43847
  21906230.300   115118048.87908  21906234.060    89702403.94548
 15 02 10 02 02  0.0000000  0  6G16G18G19G21G22G27
  20724466.200   108907814.37309  20724467.240    84863246.46949
  21645022.700   113745481.81908  21645024.000    88632905.44048
  23978823.200   126009570.80106  23978823.980    98189281.95447
  22059503.480   115923634.61008  22059503.940    90330188.84748
  22244616.260   116896407.93608  22244616.880    91088172.77647
  21895063.960   115059369.38408  21895067.680    89656679.68048
 15 02 10 02 02 30.0000000  0  6G16G18G19G21G22G27
  20718239.000   108875090.12209  20718240.020    84837747.04849
  21640716.700   113722853.54908  21640718.000    88615273.03748
  23963870.480   125930993.60906  23963871.240    98128053.00846
  22070556.220   115981717.27108  22070556.680    90375448.06248
  22228934.900   116814001.40208  22228935.340    91023959.93347
  21883920.360   115000809.31108  21883924.040    89611048.46848
 15 02 10 02 03  0.0000000  0  6G16G18G19G21G22G27
  20712105.920   108842860.36109  20712106.920    84812632.94749
  21636501.980   113700704.93608  21636503.280    88598014.38948
  23948928.360   125852472.18106  23948929.060    98066867.54746
  22081640.960   116039968.22008  22081641.460    90420838.40948
  22213305.660   116731868.78108  22213305.820    90959960.53847
  21872799.560   114942369.00208  21872803.220    89565510.57748
 15 02 10 02 03 30.0000000  0  6G16G18G19G21G22G27
  20706067.620   108811128.69708  20706068.600    84787906.97649
  21632379.020   113679038.55308  21632380.340    88581131.50248
  23933997.260   125774008.81206  23933997.940    98005727.31546
  22092757.680   116098387.44808  22092758.300    90466359.88048
  22197729.320   116650014.56508  22197729.200    90896178.07047
  21861702.040   114884051.03008  21861705.700    89520068.01848
 15 02 10 02 04  0.0000000  0  6G16G18G19G21G22G27
  20700123.780   108779893.62808  20700124.780    84763567.95549
  21628347.460   113657852.49408  21628348.800    88564622.89348
  23919076.660   125695600.72506  23919077.380    97944630.14346
  22103905.700   116156970.99108  22103906.420    90512009.38748
  22182205.880   116568438.63108  22182205.600    90832612.44947
  21850627.340   114825853.20508  21850631.080    89474719.07948
 15 02 10 02 04 30.0000000  0  6G16G18G19G21G22G27
  20694274.900   108749157.71108  20694275.940    84739617.89449
  21624407.720   113637149.01308  21624409.080    88548490.31648
  23904166.880   125617249.45706  23904167.500    97883577.24246
  22115084.920   116215718.32308  22115085.680    90557786.52748
  22166736.020   116487144.47308  22166735.740    90769266.39247
  21839575.800   114767777.14108  21839579.620    89429465.02648
 15 02 10 02 05  0.0000000  0  6G16G18G19G21G22G27
  20688521.520   108718923.74408  20688522.600    84716058.96449
  21620560.160   113616930.00108  21620561.560    88532735.25448
  23889268.040   125538955.90806  23889268.680    97822569.32946
  22126295.120   116274628.55208  22126295.960    90603690.59847
  22151320.340   116406135.41808  22151320.280    90706142.49247
  21828547.760   114709824.38908  21828551.580    89384307.05848
 15 02 10 02 05 30.0000000  0  6G16G18G19G21G22G27
  20682863.740   108689192.15408  20682864.860    84692891.49149
  21616804.820   113597195.33308  21616806.200    88517357.60148
  23874380.100   125460719.76206  23874380.760    97761606.15646
  22137535.940   116333699.51808  22137536.840    90649719.91847
  22135959.360   116325413.49608  22135959.540    90643242.33047
  21817543.180   114651994.86508  21817546.920    89339245.11048
 15 02 10 02 06  0.0000000  0  6G16G18G19G21G22G27
  20677301.680   108659963.45008  20677302.800    84670115.87949
  21613141.560   113577944.69008  21613142.880    88502357.11948
  23859502.940   125382539.95906  23859503.540    97700686.85946
  22148806.580   116392927.16208  22148807.520    90695871.32348
  22120653.340   116244980.06008  22120653.680    90580566.95047
  21806561.900   114594287.84108  21806565.580    89294278.61848
 15 02 10 02 06 30.0000000  0  6G16G18G19G21G22G27
  20671836.220   108631242.21408  20671837.320    84647735.69749
  21609571.040   113559181.33908  21609572.280    88487736.33648
  23844637.040   125304419.43706  23844637.600    97639813.74745
  22160107.740   116452315.05708  22160108.700    90742147.59448
  22105403.300   116164840.34908  22105403.720    90518120.45048
  21795604.600   114536706.67808  21795608.220    89249410.19448
 15 02 10 02 07  0.0000000  0  6G16G18G19G21G22G27
  20666467.200   108603027.81308  20666468.320    84625750.45049
  21606093.080   113540904.57308  21606094.240    88473494.71648
  23829782.140   125226356.88306  23829782.660    97578985.80846
  22171438.660   116511859.25908  22171439.580    90788545.67047
  22090209.260   116084994.78808  22090209.700    90455903.16547
  21784671.020   114479250.28808  21784674.620    89204639.00348
 15 02 10 02 07 30.0000000  0  6G16G18G19G21G22G27
  20661194.620   108575320.31208  20661195.780    84604160.18849
  21602707.560   113523113.68408  21602708.680    88459631.69648
  23814938.140   125148351.25506  23814938.640    97518202.25146
  22182798.620   116571556.07608  22182799.460    90835062.67048
  22075071.560   116005445.20908  22075071.920    90393916.51147
  21773761.080   114421918.17408  21773764.680    89159964.64348
 15 02 10 02 08  0.0000000  0  6G16G18G19G21G22G27
  20656019.300   108548123.89808  20656020.480    84582968.17949
  21599415.020   113505811.68208  21599416.140    88446149.62748
  23800105.400   125070404.54106  23800105.860    97457464.57646
  22194187.860   116631406.72608  22194188.660    90881699.53648
  22059990.980   115926195.99508  22059991.220    90332163.91847
  21762875.300   114364712.91408  21762878.860    89115389.13948
 15 02 10 02 08 30.0000000  0  6G16G18G19G21G22G27
  20650941.580   108521440.30808  20650942.760    84562175.76849
  21596215.780   113488999.94408  21596216.940    88433049.56948
  23785284.100   124992518.00806  23785284.500    97396773.78546
  22205606.120   116691409.86108  22205606.880    90928455.21747
  22044967.980   115847249.76008  22044968.080    90270647.40447
  21752013.920   114307635.87708  21752017.460    89070913.54448
 15 02 10 02 09  0.0000000  0  6G16G18G19G21G22G27
  20645961.420   108495269.22508  20645962.560    84541782.71449
  21593109.700   113472677.76708  21593110.940    88420330.99848
  23770473.980   124914690.22306  23770474.320    97336128.77746
  22217052.940   116751562.98308  22217053.640    90975327.77847
  22030002.920   115768608.35708  22030002.940    90209368.42747
  21741176.760   114250686.32208  21741180.360    89026537.28648
 15 02 10 02 09 30.0000000  0  6G16G18G19G21G22G27
  20641079.380   108469613.83908  20641080.520    84521791.50349
  21590097.040   113456846.39208  21590098.380    88407994.86948
  23755675.320   124836922.55106  23755675.660    97275530.62546
  22228528.120   116811865.23208  22228528.800    91022316.53748
  22015096.460   115690274.87008  22015096.380    90148329.37947
  21730364.120   114193865.76008  21730367.780    88982261.53948
 15 02 10 02 10  0.0000000  0  6G16G18G19G21G22G27
  20636295.700   108444475.21308  20636296.800    84502202.96149
  21587178.000   113441506.83308  21587179.420    88396041.97748
  23740888.000   124759214.77306  23740888.420    97214979.15546
  22240031.460   116872315.35608  22240032.060    91069420.53247
  22000249.060   115612251.53508  22000248.940    90087532.00447
  21719576.140   114137174.62908  21719579.800    88938086.65148
 15 02 10 02 10 30.0000000  0  6G16G18G19G21G22G27
  20631610.620   108419854.86208  20631611.680    84483018.27249
  21584352.760   113426659.98308  21584354.220    88384473.01348
  23726112.300   124681568.03406  23726112.720    97154475.21746
  22251562.560   116932911.42508  22251563.140    91116638.24447
  21985461.200   115534540.79308  21985461.100    90026978.20947
  21708813.040   114080614.11008  21708816.660    88894013.52948
 15 02 10 02 11  0.0000000  0  6G16G18G19G21G22G27
  20627024.000   108395752.06408  20627025.080    84464236.86949
  21581620.900   113412303.94408  21581622.380    88373286.49948
  23711347.860   124603980.24206  23711348.240    97094017.22046
  22263120.840   116993650.24708  22263121.380    91163967.19447
  21970733.020   115457143.48208  21970733.000    89966668.64748
  21698074.460   114024182.50708  21698078.040    88850040.86148
 15 02 10 02 11 30.0000000  0  6G16G18G19G21G22G27
  20622537.000   108372172.86708  20622538.120    84445863.47149
  21578983.400   113398443.98508  21578984.900    88362486.54148
  23696595.420   124526455.96206  23696595.880    97033608.70846
  22274706.880   117054535.15608  22274707.420    91211409.97647
  21956065.820   115380066.52608  21956065.860    89906608.70448
  21687361.440   113967885.18808  21687364.940    88806172.82948
 15 02 10 02 12  0.0000000  0  6G16G18G19G21G22G27
  20618149.040   108349113.92608  20618150.160    84427895.46549
  21576439.680   113385076.77208  21576441.160    88352070.54248
  23681854.360   124448991.48106  23681854.900    96973246.80246
  22286319.480   117115559.78608  22286320.060    91258961.63247
  21941459.280   115303308.13308  21941459.300    89846796.99248
  21676673.280   113911718.67008  21676676.780    88762406.71748
 15 02 10 02 12 30.0000000  0  6G16G18G19G21G22G27
  20613860.880   108326579.43308  20613861.980    84410336.11549
  21573990.360   113372205.32708  21573991.760    88342040.85148
  23667125.280   124371589.90906  23667125.880    96912933.92346
  22297958.800   117176725.12008  22297959.440    91306622.92547
  21926914.180   115226872.81208  21926914.140    89787237.03248
  21666010.560   113855685.88708  21666014.100    88718744.82348
 15 02 10 02 13  0.0000000  0  6G16G18G19G21G22G27
  20609672.560   108304569.57108  20609673.620    84393185.56549
  21571635.120   113359828.45508  21571636.500    88332396.54548
  23652407.960   124294250.02306  23652408.520    96852669.09746
  22309624.420   117238028.63708  22309625.140    91354391.88747
  21912430.880   115150762.68808  21912430.780    89727930.46748
  21655373.260   113799786.66908  21655376.820    88675186.99348
 15 02 10 02 13 30.0000000  0  6G16G18G19G21G22G27
  20605584.520   108283086.50508  20605585.520    84376445.50849
  21569374.500   113347948.68308  21569375.840    88323139.58548
  23637702.640   124216973.48006  23637703.300    96792453.63746
  22321316.500   117299471.02708  22321317.260    91402269.07247
  21898010.020   115074980.98108  21898009.840    89668879.81448
  21644761.800   113744023.04208  21644765.340    88631734.82248
 15 02 10 02 14  0.0000000  0  6G16G18G19G21G22G27
  20601596.700   108262130.14108  20601597.680    84360115.86549
  21567208.140   113336564.29708  21567209.480    88314268.64648
  23623009.040   124139758.43606  23623009.760    96732286.10846
  22333034.220   117361048.03708  22333035.000    91450251.14447
  21883651.720   114999528.14108  21883651.460    89610085.42447
  21634175.860   113688393.66508  21634179.420    88588387.25948
 15 02 10 02 14 30.0000000  0  6G16G18G19G21G22G27
  20597709.640   108241703.43708  20597710.600    84344198.94749
  21565136.400   113325677.09108  21565137.720    88305785.11948
  23608327.560   124062606.98206  23608328.280    96672168.13546
  22344777.540   117422759.78208  22344778.320    91498338.20747
  21869356.780   114924408.06008  21869356.440    89551550.32848
  21623615.880   113632900.64308  21623619.440    88545145.94748
 15 02 10 02 15  0.0000000  0  6G16G18G19G21G22G27
  20593923.220   108221805.76008  20593924.200    84328694.25449
  21563159.100   113315286.14408  21563160.400    88297688.28948
  23593657.960   123985517.76906  23593658.580    96612098.65946
  22356545.980   117484603.72208  22356546.820    91546528.27447
  21855125.360   114849621.53808  21855124.980    89493275.14248
  21613081.720   113577543.36608  21613085.300    88502010.41148
 15 02 10 02 15 30.0000000  0  6G16G18G19G21G22G27
  20590237.960   108202439.70108  20590239.000    84313603.81649
  21561276.600   113305393.48708  21561277.900    88289979.73648
  23579000.560   123908492.67506  23579001.040    96552079.15146
  22368339.540   117546579.48708  22368340.380    91594821.07247
  21840958.120   114775172.23708  21840957.760    89435262.73048
  21602573.800   113522323.98908  21602577.420    88458982.33248
 15 02 10 02 16  0.0000000  0  6G16G18G19G21G22G27
  20586654.200   108183607.11208  20586655.320    84298929.06749
  21559489.080   113296000.20008  21559490.420    88282660.30248
  23564355.540   123831532.56206  23564355.920    96492110.25646
  22380158.020   117608686.11108  22380158.840    91643215.82747
  21826855.700   114701063.71408  21826855.400    89377515.85648
  21592092.400   113467243.96808  21592096.060    88416062.84148
 15 02 10 02 16 30.0000000  0  6G16G18G19G21G22G27
  20583172.060   108165308.38808  20583173.200    84284670.31549
  21557796.480   113287105.74308  21557797.880    88275729.56648
  23549722.720   123754636.98406  23549723.200    96432191.67346
  22392001.080   117670921.74508  22392001.900    91691711.12047
  21812818.440   114627297.58608  21812818.220    89320035.77848
  21581637.520   113412303.16608  21581641.200    88373251.83448
 15 02 10 02 17  0.0000000  0  6G16G18G19G21G22G27
  20579791.880   108147545.46208  20579793.060    84270829.07149
  21556199.060   113278711.28108  21556200.440    88269188.43548
  23535102.400   123677806.90406  23535103.020    96372324.15246
  22403868.440   117733285.20108  22403869.280    91740306.00747
  21798846.780   114553876.47108  21798846.700    89262824.54148
  21571209.440   113357503.07308  21571213.100    88330550.47148
 15 02 10 02 17 30.0000000  0  6G16G18G19G21G22G27
  20576513.880   108130319.39708  20576515.040    84257406.15649
  21554696.780   113270816.70208  21554698.140    88263036.82548
  23520494.580   123601042.66306  23520495.280    96312507.89946
  22415759.880   117795775.19808  22415760.740    91788999.50047
  21784941.120   114480802.36508  21784941.200    89205883.70248
  21560808.200   113302844.10908  21560811.860    88287959.07348
 15 02 10 02 18  0.0000000  0  6G16G18G19G21G22G27
  20573337.940   108113629.54108  20573339.060    84244401.06749
  21553289.400   113263420.83808  21553290.720    88257273.82548
  23505899.100   123524342.98206  23505899.760    96252741.96946
  22427674.820   117858388.58008  22427675.720    91837789.13547
  21771101.720   114408076.27908  21771101.840    89149214.04548
  21550433.660   113248325.48608  21550437.280    88245477.03348
 15 02 10 02 18 30.0000000  0  6G16G18G19G21G22G27
  20570264.800   108097479.71408  20570265.860    84231816.78049
  21551977.380   113256526.36808  21551978.720    88251901.52748
  23491316.360   123447710.29207  23491316.960    96193028.23646
  22439613.460   117921126.30208  22439614.300    91886675.66147
  21757329.500   114335702.89808  21757329.540    89092819.23148
  21540086.420   113193950.33608  21540090.040    88203106.79748
 15 02 10 02 19  0.0000000  0  6G16G18G19G21G22G27
  20567293.900   108081867.35808  20567294.920    84219651.30049
  21550760.300   113250130.78008  21550761.700    88246917.96448
  23476746.000   123371142.18907  23476746.460    96133364.83346
  22451574.940   117983984.21408  22451575.720    91935655.84047
  21743624.340   114263681.49408  21743624.180    89036698.69148
  21529766.060   113139716.54708  21529769.700    88160846.71148
 15 02 10 02 19 30.0000000  0  6G16G18G19G21G22G27
  20564426.040   108066796.79708  20564427.080    84207908.00549
  21549638.740   113244237.18108  21549640.180    88242325.56048
  23462188.460   123294641.60007  23462188.820    96073754.03546
  22463559.340   118046962.81608  22463560.100    91984730.06547
  21729987.160   114192017.12008  21729986.760    88980856.35448
  21519473.240   113085627.65108  21519476.920    88118699.53048
 15 02 10 02 20  0.0000000  0  6G16G18G19G21G22G27
  20561661.240   108052267.73208  20561662.300    84196586.65249
  21548612.580   113238844.86908  21548614.040    88238123.76848
  23447643.720   123218208.47607  23447644.040    96014195.79146
  22475566.520   118110061.17008  22475567.320    92033897.60747
  21716418.240   114120711.40408  21716417.660    88925293.48848
  21509208.000   113031683.70608  21509211.700    88076665.29748
 15 02 10 02 20 30.0000000  0  6G16G18G19G21G22G27
  20558999.800   108038282.06008  20559000.920    84185688.72649
  21547681.860   113233954.26508  21547683.340    88234312.92048
  23433111.840   123141843.11007  23433112.120    95954690.35246
  22487596.200   118173277.42308  22487596.960    92083157.01347
  21702917.960   114049766.77808  21702917.360    88870011.99048
  21498970.560   112977885.63508  21498974.260    88034744.73548
 15 02 10 02 21  0.0000000  0  6G16G18G19G21G22G27
  20556442.440   108024843.15308  20556443.580    84175216.84449
  21546847.060   113229567.45808  21546848.520    88230894.63948
  23418593.260   123065547.75907  23418593.520    95895239.47946
  22499648.440   118236612.31408  22499649.180    92132508.86647
  21689487.140   113979187.50008  21689486.620    88815015.17048
  21488761.420   112924236.27608  21488765.100    87992940.05048
 15 02 10 02 21 30.0000000  0  6G16G18G19G21G22G27
  20553988.520   108011947.96608  20553989.740    84165168.64649
  21546107.580   113225681.17808  21546108.980    88227866.37348
  23404087.520   122989319.43907  23404087.700    95835840.81646
  22511722.220   118300060.31408  22511722.980    92181948.85647
  21676125.520   113908972.27008  21676125.200    88760302.02048
  21478580.060   112870732.87908  21478583.720    87951249.09948
 15 02 10 02 22  0.0000000  0  6G16G18G19G21G22G27
  20551638.940   107999601.10508  20551640.200    84155547.71449
  21545464.160   113222299.76508  21545465.540    88225231.51648
  23389595.260   122913162.51607  23389595.440    95776497.78246
  22523818.200   118363624.92408  22523819.000    92231479.71447
  21662834.360   113839127.20808  21662834.200    88705877.31748
  21468427.400   112817380.24908  21468431.040    87909675.63548
 15 02 10 02 22 30.0000000  0  6G16G18G19G21G22G27
  20549393.300   107987800.21308  20549394.580    84146352.21649
  21544916.180   113219419.78508  21544917.520    88222987.38248
  23375116.020   122837074.08807  23375116.220    95717208.13346
  22535935.440   118427301.37408  22535936.300    92281097.71947
  21649613.540   113769651.43508  21649613.440    88651740.37148
  21458302.940   112764175.94408  21458306.580    87868217.74448
 15 02 10 02 23  0.0000000  0  6G16G18G19G21G22G27
  20547252.160   107976548.15808  20547253.360    84137584.37649
  21544463.900   113217042.86908  21544465.220    88221135.24648
  23360650.160   122761055.79107  23360650.300    95657973.12546
  22548073.760   118491088.49508  22548074.640    92330801.95747
  21636463.720   113700548.58808  21636463.620    88597894.01848
  21448207.080   112711122.01808  21448210.700    87826877.03748
 15 02 10 02 23 30.0000000  0  6G16G18G19G21G22G27
  20545215.540   107965845.36108  20545216.660    84129244.53249
  21544107.360   113215169.05008  21544108.640    88219675.13748
  23346197.740   122685108.08207  23346197.780    95598793.10646
  22560233.120   118554986.23108  22560233.980    92380592.38947
  21623385.200   113631820.52308  21623385.080    88544339.71048
  21438140.020   112658219.40208  21438143.640    87785654.22948
 15 02 10 02 24  0.0000000  0  6G16G18G19G21G22G27
  20543283.760   107955693.62008  20543284.860    84121334.07749
  21543846.700   113213799.28608  21543847.980    88218607.79448
  23331758.940   122609232.25907  23331759.060    95539669.10046
  22572413.240   118618993.11208  22572414.100    92430467.87647
  21610378.620   113563470.54408  21610378.400    88491080.01248
  21428102.060   112605469.55308  21428105.660    87744550.45348
 15 02 10 02 24 30.0000000  0  6G16G18G19G21G22G27
  20541456.960   107946093.58508  20541458.040    84113853.52849
  21543681.820   113212933.06908  21543683.100    88217932.82548
  23317333.780   122533428.07307  23317334.000    95480600.92646
  22584613.880   118683107.90008  22584614.760    92480427.44947
  21597444.260   113495500.36208  21597444.000    88438116.25948
  21418093.300   112552873.15708  21418096.920    87703566.26248
 15 02 10 02 25  0.0000000  0  6G16G18G19G21G22G27
  20539734.880   107937043.97508  20539735.960    84106801.88449
  21543612.380   113212568.30108  21543613.660    88217648.60048
  23302922.000   122457694.06207  23302922.340    95421587.44446
  22596834.400   118747327.19808  22596835.300    92530468.46047
  21584582.220   113427910.19808  21584581.960    88385448.62248
  21408113.500   112500428.82808  21408117.100    87662700.55749
 15 02 10 02 25 30.0000000  0  6G16G18G19G21G22G27
  20538117.820   107928546.48308  20538118.960    84100180.46149
  21543638.640   113212706.30608  21543639.920    88217756.14948
  23288523.920   122382031.30507  23288524.220    95362629.47046
  22609074.740   118811650.48208  22609075.620    92580590.49447
  21571793.060   113360702.79808  21571792.800    88333079.24148
  21398162.980   112448138.38708  21398166.540    87621954.77249
 15 02 10 02 26  0.0000000  0  6G16G18G19G21G22G27
  20536606.360   107920603.89108  20536607.560    84093991.42249
  21543760.940   113213348.91608  21543762.200    88218256.89248
  23274139.880   122306442.36507  23274140.160    95303729.01946
  22621334.960   118876078.24408  22621335.840    92630793.94547
  21559077.540   113293882.26608  21559077.280    88281011.31148
  21388242.300   112396004.77008  21388245.820    87581331.18449
 15 02 10 02 26 30.0000000  0  6G16G18G19G21G22G27
  20535200.460   107913216.04408  20535201.720    84088234.66349
  21543979.020   113214495.01308  21543980.300    88219149.96348
  23259769.840   122230927.05107  23259770.080    95244885.93846
  22633614.520   118940608.10108  22633615.440    92681076.94847
  21546435.980   113227450.33608  21546435.700    88229246.18448
  21378351.480   112344027.96808  21378354.940    87540829.78449
 15 02 10 02 27  0.0000000  0  6G16G18G19G21G22G27
  20533900.500   107906384.54508  20533901.740    84082911.41349
  21544293.080   113216145.47208  21544294.380    88220436.04948
  23245413.940   122155486.21907  23245414.120    95186100.90746
  22645913.460   119005240.00607  22645914.460    92731439.46947
  21533868.960   113161409.70308  21533868.580    88177785.97248
  21368490.740   112292209.54508  21368494.220    87500451.80549
 15 02 10 02 27 30.0000000  0  6G16G18G19G21G22G27
  20532706.240   107900108.66108  20532707.500    84078021.10849
  21544702.840   113218298.83608  21544704.160    88222114.00348
  23231072.080   122080119.27507  23231072.260    95127373.44347
  22658231.400   119069971.69307  22658232.440    92781879.74747
  21521376.500   113095761.10708  21521376.080    88126631.24648
  21358660.080   112240549.19608  21358663.580    87460196.99449
 15 02 10 02 28  0.0000000  0  6G16G18G19G21G22G27
  20531618.220   107894390.89908  20531619.440    84073565.70249
  21545208.680   113220957.09108  21545210.040    88224185.37448
  23216744.620   122004827.94907  23216744.760    95068704.90846
  22670568.340   119134802.73507  22670569.360    92832397.43647
  21508959.280   113030508.17008  21508958.860    88075784.81848
  21348859.920   112189049.16008  21348863.440    87420067.10849
 15 02 10 02 28 30.0000000  0  6G16G18G19G21G22G27
  20530636.320   107889230.86908  20530637.520    84069544.89649
  21545810.260   113224118.44908  21545811.640    88226648.78348
  23202431.420   121929611.62507  23202431.560    95010094.82846
  22682923.740   119199730.54008  22682924.720    92882990.53347
  21496617.520   112965651.90708  21496617.080    88025247.49548
  21339090.280   112137709.36908  21339093.780    87380062.08849
 15 02 10 02 29  0.0000000  0  6G16G18G19G21G22G27
  20529760.600   107884628.76708  20529761.740    84065958.83849
  21546507.560   113227782.86908  21546508.960    88229504.18148
  23188132.640   121854470.92407  23188132.780    94951543.66946
  22695297.340   119264753.69208  22695298.220    92933657.92447
  21484351.620   112901194.45708  21484351.160    87975020.93748
  21329351.300   112086530.63608  21329354.780    87340182.56649
 15 02 10 02 29 30.0000000  0  6G16G18G19G21G22G27
  20528991.460   107880586.92408  20528992.600    84062809.35049
  21547300.760   113231951.18708  21547302.100    88232752.23648
  23173848.500   121779407.24607  23173848.620    94893052.51847
  22707689.180   119329872.83308  22707689.980    92984400.10847
  21472162.220   112837139.08708  21472161.760    87925107.68248
  21319643.360   112035514.94609  21319646.800    87300430.09149
 15 02 10 02 30  0.0000000  0  6G16G18G19G21G22G27
  20528328.900   107877105.17708  20528330.080    84060096.29449
  21548189.820   113236623.35508  21548191.140    88236392.89448
  23159578.960   121704420.52807  23159579.100    94834621.33647
  22720098.860   119395085.75308  22720099.620    93035215.35447
  21460049.640   112773487.34408  21460049.200    87875508.94248
  21309966.580   111984662.93809  21309970.000    87260805.15949
 15 02 10 02 30 30.0000000  0  6G16G18G19G21G22G27
  20527773.300   107874185.52408  20527774.500    84057821.23449
  21549174.800   113241799.47608  21549176.100    88240426.24748
  23145324.300   121629512.17807  23145324.440    94776251.22846
  22732526.360   119460392.28108  22732527.100    93086103.55747
  21448014.380   112710242.01508  21448014.020    87826226.88448
  21300321.280   111933976.28109  21300324.620    87221309.07648
 15 02 10 02 31  0.0000000  0  6G16G18G19G21G22G27
  20527324.540   107871827.26408  20527325.740    84055983.62249
  21550255.480   113247478.64808  21550256.760    88244851.58048
  23131084.580   121554682.17307  23131084.660    94717942.17447
  22744971.240   119525790.11408  22744971.940    93137062.89847
  21436056.720   112647404.51308  21436056.460    87777262.61548
  21290707.460   111883455.19008  21290710.760    87181942.00249
 15 02 10 02 31 30.0000000  0  6G16G18G19G21G22G27
  20526982.500   107870029.64008  20526983.660    84054582.87049
  21551431.680   113253659.78108  21551432.940    88249668.06248
  23116859.580   121479929.57407  23116859.640    94659693.41347
  22757433.000   119591276.93408  22757433.660    93188091.57847
  21424176.880   112584975.57208  21424176.660    87728616.70148
  21281125.060   111833099.39108  21281128.360    87142703.72349
 15 02 10 02 32  0.0000000  0  6G16G18G19G21G22G27
  20526747.440   107868794.35208  20526748.600    84053620.30249
  21552703.500   113260343.30808  21552704.760    88254876.01848
  23102649.580   121405256.04907  23102649.660    94601506.27446
  22769911.600   119656852.33608  22769912.260    93239189.28647
  21412375.300   112522957.77708  21412375.060    87680291.16548
  21271574.420   111782910.64909  21271577.760    87103595.62749
 15 02 10 02 32 30.0000000  0  6G16G18G19G21G22G27
  20526619.620   107868122.59808  20526620.760    84053096.85549
  21554071.020   113267529.59508  21554072.240    88260475.73248
  23088454.800   121330662.21307  23088454.900    94543381.24047
  22782406.840   119722515.46507  22782407.520    93290355.35047
  21400652.520   112461353.79708  21400652.200    87632288.08248
  21262055.840   111732890.43408  21262059.220    87064618.84449
 15 02 10 02 33  0.0000000  0  6G16G18G19G21G22G27
  20526599.000   107868014.26308  20526600.140    84053012.42649
  21555534.100   113275218.09108  21555535.320    88266466.77448
  23074275.280   121256148.59207  23074275.440    94485318.70347
  22794918.520   119788265.13108  22794919.240    93341588.85047
  21389008.840   112400165.70208  21389008.440    87584609.06148
  21252569.500   111683039.78008  21252572.920    87025774.18849
 15 02 10 02 33 30.0000000  0  6G16G18G19G21G22G27
  20526685.900   107868471.02808  20526687.060    84053368.34749
  21557092.840   113283409.38808  21557094.080    88272849.61748
  23060111.320   121181716.40407  23060111.440    94427319.61647
  22807446.520   119854100.66007  22807447.320    93392889.25646
  21377444.800   112339396.31108  21377444.360    87537256.31048
  21243115.720   111633360.14108  21243119.160    86987062.78549
 15 02 10 02 34  0.0000000  0  6G16G18G19G21G22G27
  20526880.440   107869493.21108  20526881.580    84054164.84749
  21558747.100   113292102.68008  21558748.340    88279623.61748
  23045962.900   121107366.25407  23045963.080    94369384.47147
  22819990.680   119920020.96207  22819991.500    93444255.71546
  21365960.740   112279047.34708  21365960.280    87490231.16348
  21233694.700   111583852.44608  21233698.140    86948485.36749
 15 02 10 02 34 30.0000000  0  6G16G18G19G21G22G27
  20527182.340   107871079.66908  20527183.500    84055401.04249
  21560496.620   113301296.55408  21560497.860    88286787.68448
  23031829.920   121033096.99607  23031830.120    94311512.35347
  22832550.460   119986023.23307  22832551.280    93495686.05047
  21354556.720   112219119.12508  21354556.280    87443533.86848
  21224306.300   111534516.19708  21224309.780    86910041.54149
 15 02 10 02 35  0.0000000  0  6G16G18G19G21G22G27
  20527592.000   107873232.37908  20527593.140    84057078.46849
  21562341.640   113310992.20408  21562342.880    88294342.74148
  23017712.780   120958910.89807  23017713.020    94253705.02847
  22845125.920   120052107.81307  22845126.740    93547180.52047
  21343233.440   112159615.16608  21343233.000    87397167.16348
  21214951.020   111485354.00108  21214954.520    86871733.34249
 15 02 10 02 35 30.0000000  0  6G16G18G19G21G22G27
  20528109.700   107875952.71908  20528110.800    84059198.21549
  21564282.220   113321190.02408  21564283.480    88302289.10448
  23003611.660   120884809.03907  23003611.960    94195963.34247
  22857717.000   120118274.70907  22857717.840    93598739.13547
  21331991.380   112100538.11208  21331991.000    87351133.10948
  21205629.220   111436367.76108  21205632.740    86833562.25249
 15 02 10 02 36  0.0000000  0  6G16G18G19G21G22G27
  20528734.920   107879238.12208  20528735.980    84061758.26449
  21566317.820   113331887.16908  21566319.120    88310624.55248
  22989526.240   120810789.73107  22989526.620    94138285.98247
  22870323.020   120184519.76207  22870323.860    93650358.64746
  21320830.560   112041887.68608  21320830.180    87305431.49148
  21196340.600   111387555.80408  21196344.100    86795526.96349
 15 02 10 02 36 30.0000000  0  6G16G18G19G21G22G27
  20529468.140   107883091.15608  20529469.200    84064760.62249
  21568448.720   113343085.17408  21568450.060    88319350.28048
  22975456.980   120736855.12807  22975457.380    94080674.62247
  22882944.040   120250843.59907  22882944.860    93702039.53646
  21309751.580   111983667.42408  21309751.260    87260065.07148
  21187085.740   111338921.08909  21187089.200    86757629.79149
 15 02 10 02 37  0.0000000  0  6G16G18G19G21G22G27
  20530309.100   107887510.36008  20530310.180    84068204.15149
  21570674.460   113354781.52908  21570675.820    88328464.33048
  22961403.680   120663004.24407  22961404.040    94023128.49547
  22895579.600   120317243.66207  22895580.400    93753779.83146
  21298754.520   111925877.52808  21298754.220    87215034.00248
  21177864.440   111290462.87808  21177867.920    86719870.15049
 15 02 10 02 37 30.0000000  0  6G16G18G19G21G22G27
  20531258.400   107892498.99708  20531259.480    84072091.39749
  21572995.520   113366978.72408  21572996.800    88337968.64048
  22947366.940   120589240.54107  22947367.240    93965650.29047
  22908229.900   120383721.26907  22908230.720    93805580.54846
  21287840.240   111868522.57908  21287839.900    87170341.84848
  21168677.480   111242185.02209  21168680.940    86682251.04849
 15 02 10 02 38  0.0000000  0  7G04G16G18G19G21G22G27
  24569467.020   129113418.28806                                
  20532317.260   107898063.29408  20532318.340    84076427.21449
  21575412.940   113379682.35508  21575414.160    88347867.58948
  22933348.040   120515570.57407  22933348.260    93908245.13847
  22920895.880   120450281.28307  22920896.680    93857445.48646
  21277010.180   111811610.23208  21277009.800    87125994.58948
  21159526.200   111194094.51109  21159529.620    86644777.93049
 15 02 10 02 38 30.0000000  0  7G04G16G18G19G21G22G27
  24551176.880   129017303.14206  24551181.760   100532984.63144
  20533487.400   107904212.51808  20533488.520    84081218.81649
  21577928.480   113392901.55208  21577929.640    88358168.26648
  22919348.800   120442004.18507  22919349.000    93850920.68347
  22933579.160   120516932.10907  22933579.920    93909381.17646
  21266266.500   111755152.12208  21266266.120    87082001.27848
  21150412.500   111146201.69409  21150415.940    86607458.85949
 15 02 10 02 39  0.0000000  0  7G04G16G18G19G21G22G27
  24532908.060   128921300.56306  24532913.120   100458177.67245
  20534760.320   107910901.91608  20534761.480    84086431.33149
  21580533.360   113406590.25908  21580534.480    88368834.80248
  22905360.780   120368496.77007  22905360.960    93793642.18147
  22946270.800   120583626.95407  22946271.500    93961351.17746
  21255600.980   111699104.59708  21255600.580    87038327.90248
  21141328.000   111098462.40909  21141331.460    86570259.41949
 15 02 10 02 39 30.0000000  0  7G04G16G18G19G21G22G27
  24514667.120   128825444.66906  24514672.280   100383484.98345
  20536142.520   107918165.35708  20536143.680    84092091.15049
  21583233.880   113420781.46208  21583234.960    88379892.89248
  22891390.440   120295082.41907  22891390.660    93736436.20647
  22958977.120   120650398.56207  22958977.700    94013380.99346
  21245020.340   111643502.94208  21245019.880    86995001.95248
  21132279.280   111050911.21409  21132282.800    86533206.54649
 15 02 10 02 40  0.0000000  0  7G04G16G18G19G21G22G27
  24496453.200   128729730.27306  24496458.320   100308902.51944
  20537632.620   107925995.93808  20537633.760    84098192.90149
  21586028.660   113435468.17208  21586029.720    88391337.08548
  22877436.680   120221755.38007  22877436.980    93679298.26247
  22971696.640   120717239.55807  22971697.160    94065464.87346
  21234523.620   111588342.34908  21234523.160    86952019.68748
  21123265.340   111003542.75509  21123268.900    86496296.06949
 15 02 10 02 40 30.0000000  0  7G04G16G18G19G21G22G27
  24478266.900   128634160.38506  24478271.840   100234432.68145
  20539231.360   107934397.23408  20539232.440    84104739.36649
  21588918.080   113450652.35808  21588919.180    88403168.92948
  22863500.160   120148518.69407  22863500.480    93622230.72947
  22984429.500   120784151.10707  22984430.080    94117603.72646
  21224111.660   111533627.19808  21224111.220    86909384.52148
  21114286.860   110956360.58209  21114290.440    86459530.74849
 15 02 10 02 41  0.0000000  0  7G04G16G18G19G21G22G27
  24460108.240   128538735.86706  24460113.100   100160076.10044
  20540938.720   107943369.48208  20540939.760    84111730.72649
  21591902.100   113466333.67208  21591903.260    88415388.13948
  22849581.000   120075373.06907  22849581.280    93565234.14447
  22997175.560   120851132.21707  22997176.220    94169796.79346
  21213784.900   111479359.75008  21213784.500    86867098.21648
  21105344.040   110909365.97409  21105347.620    86422911.58349
 15 02 10 02 41 30.0000000  0  7G04G16G18G19G21G22G27
  24441977.320   128443457.24206  24441982.100   100085833.20245
  20542754.600   107952911.84108  20542755.580    84119166.32649
  21594980.400   113482510.53508  21594981.640    88427993.49548
  22835679.220   120002318.82007  22835679.460    93508308.76947
  23009934.520   120918181.00007  23009935.260    94222042.58946
  21203543.480   111425540.73808  21203543.140    86825161.34248
  21096437.000   110862559.20809  21096440.540    86386438.78449
 15 02 10 02 42  0.0000000  0  7G04G16G18G19G21G22G27
  24423874.200   128348325.06206  24423878.880   100011704.39644
  20544678.960   107963024.33208  20544679.900    84127046.18549
  21598153.000   113499182.79708  21598154.320    88440984.87448
  22821794.860   119929356.20207  22821795.120    93451454.81047
  23022706.240   120985296.76007  23022707.020    94274340.57246
  21193387.680   111372171.81908  21193387.420    86783575.19248
  21087565.960   110815941.49409  21087569.440    86350113.30149
 15 02 10 02 42 30.0000000  0  7G04G16G18G19G21G22G27
  24405799.060   128253340.39306  24405803.740    99937690.53444
  20546711.780   107973707.13008  20546712.760    84135370.43949
  21601419.800   113516349.90508  21601421.160    88454361.84348
  22807928.120   119856486.32007  22807928.400    93394673.10247
  23035490.460   121052478.32107  23035491.240    94326689.83846
  21183317.940   111319255.18608  21183317.720    86742341.46948
  21078731.140   110769514.13109  21078734.560    86313936.14549
 15 02 10 02 43  0.0000000  0  7G04G16G18G19G21G22G27
  24387752.280   128158505.00106  24387757.000    99863792.97445
  20548853.440   107984961.72208  20548854.460    84144140.24649
  21604780.800   113534011.93708  21604782.160    88468124.47048
  22794079.320   119783710.53407  22794079.580    93337964.72747
  23048287.060   121119725.59607  23048287.880    94379090.29846
  21173334.780   111266793.42108  21173334.560    86701462.18948
  21069932.900   110723279.04909  21069936.300    86277908.81749
 15 02 10 02 43 30.0000000  0  7G04G16G18G19G21G22G27
  24369733.720   128063818.31906  24369738.520    99790011.26845
  20551103.700   107996786.97308  20551104.780    84153354.72249
  21608235.720   113552167.49308  21608237.040    88482271.66348
  22780248.400   119711028.50907  22780248.580    93281329.40347
  23061095.760   121187036.29707  23061096.660    94431540.18346
  21163438.280   111214786.93608  21163437.960    86660937.67248
  21061171.280   110677236.26709  21061174.660    86242031.33749
 15 02 10 02 44  0.0000000  0  7G04G16G18G19G21G22G27
  24351743.600   127969281.26106  24351748.440    99716346.18645
  20553462.480   108009182.37508  20553463.580    84163013.47049
  21611784.300   113570815.29908  21611785.560    88496802.43148
  22766435.460   119638440.67307  22766435.500    93224767.47947
  23073916.360   121254409.26207  23073917.340    94484038.58746
  21153628.780   111163237.32608  21153628.340    86620769.16048
  21052446.440   110631386.69509  21052449.780    86206304.40249
 15 02 10 02 44 30.0000000  0  7G04G16G18G19G21G22G27
  24333782.140   127874894.48606  24333786.980    99642798.18544
  20555929.800   108022147.82708  20555930.860    84173116.41249
  21615426.480   113589955.10308  21615427.660    88511716.56748
  22752640.640   119565948.17108  22752640.600    93168279.84447
  23086748.680   121321843.71707  23086749.700    94536584.90346
  21143906.560   111112146.19809  21143906.000    86580957.90948
  21043758.600   110585731.67509  21043761.920    86170729.07149
 15 02 10 02 45  0.0000000  0  7G04G16G18G19G21G22G27
  24315849.180   127780656.92106  24315853.960    99569366.45745
  20558505.280   108035681.93908  20558506.320    84183662.46949
  21619161.780   113609584.28108  21619162.860    88527012.03948
  22738863.620   119493549.32408  22738863.580    93111865.19047
  23099592.180   121389336.38607  23099593.140    94589176.57946
  21134271.520   111061513.41409  21134270.900    86541503.81448
  21035107.560   110540270.20809  21035110.880    86135304.56049
 15 02 10 02 45 30.0000000  0  7G04G16G18G19G21G22G27
  24297945.380   127686572.36006  24297950.160    99496053.95445
  20561189.520   108049787.64508  20561190.580    84194653.92249
  21622990.600   113629704.81108  21622991.600    88542690.38048
  22725105.060   119421247.83708  22725105.080    93055526.40647
  23112447.080   121456889.08207  23112448.020    94641815.03146
  21124724.540   111011343.61908  21124723.900    86502410.48048
  21026494.160   110495006.56209  21026497.480    86100034.19449
 15 02 10 02 46  0.0000000  0  7G04G16G18G19G21G22G27
  24280070.780   127592640.49306  24280075.360    99422860.42845
  20563982.200   108064463.27508  20563983.260    84206089.47249
  21626912.600   113650314.97408  21626913.520    88558750.26048
  22711364.980   119349043.46308  22711365.080    92999263.29747
  23125313.100   121524500.34207  23125314.060    94694499.10946
  21115265.640   110961636.99208  21115265.060    86463678.06248
  21017918.400   110449940.72809  21017921.740    86064917.96749
 15 02 10 02 46 30.0000000  0  7G04G16G18G19G21G22G27
  24262225.320   127498861.84207  24262229.820    99349786.30045
  20566883.280   108079708.87108  20566884.360    84217969.14749
  21630927.580   113671413.69908  21630928.440    88575190.83148
  22697643.440   119276936.67008  22697643.620    92943076.22447
  23138189.980   121592168.58207  23138190.880    94747227.59646
  21105895.180   110912395.38408  21105894.720    86425307.99448
  21009380.440   110405073.59009  21009383.780    86029956.56949
 15 02 10 02 47  0.0000000  0  7G04G16G18G19G21G22G27
  24244409.260   127405237.35207  24244413.720    99276832.28145
  20569892.800   108095524.32008  20569893.920    84230292.86849
  21635035.360   113693000.56808  21635036.300    88592011.77448
  22683940.680   119204928.49508  22683940.880    92886965.99347
  23151077.580   121659893.18007  23151078.480    94800000.00146
  21096613.480   110863620.21308  21096613.080    86387301.38148
  21000880.560   110360406.57109  21000883.940    85995151.11049
 15 02 10 02 47 30.0000000  0  7G04G16G18G19G21G22G27
  24226622.880   127311768.92707  24226627.260    99203999.85645
  20573011.060   108111911.03708  20573012.200    84243061.72949
  21639236.040   113715075.59808  21639237.060    88609213.10248
  22670257.060   119133020.69408  22670257.260    92830933.97347
  23163975.900   121727673.80207  23163976.740    94852816.06046
  21087421.100   110815314.25608  21087420.700    86349660.39048
  20992419.220   110315941.91109  20992422.580    85960503.32949
 15 02 10 02 48  0.0000000  0  7G04G16G18G19G21G22G27
  24208866.440   127218458.18106  24208870.800    99131290.28145
  20576238.180   108128869.49608  20576239.300    84256276.10549
  21643529.680   113737638.96208  21643530.780    88626794.94848
  22656592.820   119061214.73908  22656593.020    92774981.31747
  23176884.720   121795509.84607  23176885.520    94905675.30746
  21078318.460   110767479.48608  21078317.960    86312386.56048
  20983996.720   110271681.59009  20984000.120    85926014.77549
 15 02 10 02 48 30.0000000  0  7G04G16G18G19G21G22G27
  24191139.780   127125304.25606  24191144.200    99058702.91545
  20579573.700   108146397.59908  20579574.780    84269934.35949
  21647915.860   113760688.34108  21647917.000    88644755.51248
  22642947.760   118989509.74607  22642947.980    92719107.32647
  23189803.800   121863400.01207  23189804.620    94958576.72146
  21069305.620   110720116.74508  21069305.100    86275480.54448
  20975613.060   110227625.27809  20975616.500    85891685.19649
 15 02 10 02 49  0.0000000  0  7G04G16G18G19G21G22G27
  24173443.200   127032308.93306  24173447.720    98986239.11845
  20583017.820   108164496.30908  20583018.860    84284037.24549
  21652394.580   113784223.89208  21652395.740    88663094.91148
  22629322.260   118917907.47508  22629322.480    92663313.37747
  23202733.020   121931343.77407  23202733.900    95011519.90446
  21060382.940   110673227.87608  21060382.440    86238943.78248
  20967268.560   110183775.01009  20967272.060    85857516.15849
 15 02 10 02 49 30.0000000  0  7G04G16G18G19G21G22G27
  24155776.720   126939472.58906  24155781.420    98913899.21146
  20586570.400   108183165.00108  20586571.380    84298584.27249
  21656965.560   113808244.44708  21656966.680    88681812.22648
  22615716.440   118846408.67708  22615716.660    92607600.05647
  23215672.240   121999340.12007  23215673.140    95064504.06046
  21051550.740   110626814.47508  21051550.260    86202777.51248
  20958963.500   110140131.84109  20958967.060    85823508.50649
 15 02 10 02 50  0.0000000  0  7G04G16G18G19G21G22G27
  24138140.460   126846795.12506  24138145.200    98841683.09645
  20590231.320   108202403.13408  20590232.280    84313575.01949
  21661628.440   113832748.06808  21661629.520    88700905.96448
  22602130.200   118775012.83507  22602130.400    92551966.95547
  23228621.040   122067386.76807  23228621.920    95117527.41946
  21042809.020   110580876.52408  21042808.580    86166981.71848
  20950697.900   110096695.88809  20950701.480    85789662.31749
 15 02 10 02 50 30.0000000  0  7G04G16G18G19G21G22G27
  24120534.520   126754276.37306  24120539.240    98769590.67745
  20594000.300   108222209.38908  20594001.320    84329008.46249
  21666382.920   113857733.04208  21666383.940    88720374.78648
  22588563.580   118703720.00707  22588563.760    92496414.12547
  23241579.100   122135482.03007  23241580.020    95170588.65846
  21034158.020   110535415.15408  21034157.580    86131557.28848
  20942471.800   110053467.51709  20942475.400    85755977.88049
 15 02 10 02 51  0.0000000  0  7G04G16G18G19G21G22G27
  24102959.220   126661918.27106  24102963.820    98697623.41645
  20597877.520   108242584.36008  20597878.580    84344885.05949
  21671229.120   113883200.20208  21671230.100    88740219.33048
  22575017.040   118632532.60907  22575017.160    92440943.44147
  23254546.520   122203626.45807  23254547.440    95223688.20746
  21025598.220   110490432.93908  21025597.760    86096506.22648
  20934285.780   110010449.46309  20934289.320    85722457.32549
 15 02 10 02 51 30.0000000  0  7G04G16G18G19G21G22G27
  24085414.540   126569720.20606  24085418.940    98625780.86844
  20601862.660   108263526.37508  20601863.740    84361203.51049
  21676166.540   113909146.57508  21676167.440    88760437.29148
  22561490.380   118561449.54407  22561490.460    92385554.04447
  23267522.820   122271817.26507  23267523.660    95276823.89246
  21017129.540   110445929.58309  21017129.060    86061828.29748
  20926139.600   109967641.03509  20926143.140    85689100.11249
 15 02 10 02 52  0.0000000  0  7G04G16G18G19G21G22G27
  24067900.840   126477684.70707  24067905.020    98554065.01445
  20605956.020   108285037.20608  20605957.120    84377965.19349
  21681195.300   113935573.11008  21681196.200    88781029.40348
  22547984.160   118490473.73908  22547984.180    92330248.23547
  23280508.180   122340055.55807  23280509.000    95329996.57646
  21008752.740   110401908.95009  21008752.220    86027526.52548
  20918033.960   109925045.49609  20918037.480    85655908.79749
 15 02 10 02 52 30.0000000  0  7G04G16G18G19G21G22G27
  24050418.140   126385812.26806  24050422.020    98482476.22545
  20610157.380   108307115.51208  20610158.440    84395169.06449
  21686315.220   113962478.52408  21686316.120    88801994.67047
  22534498.380   118419605.43708  22534498.400    92275026.19647
  23293502.360   122408340.03807  23293503.120    95383205.24346
  21000467.860   110358371.52209  21000467.300    85993601.27548
  20909969.000   109882663.79509  20909972.520    85622884.10449
 15 02 10 02 53  0.0000000  0  7G04G16G18G19G21G22G27
  24032966.580   126294103.63506  24032970.280    98411015.07045
  20614466.780   108329761.43808  20614467.800    84412815.24049
  21691526.120   113989862.04108  21691527.040    88823332.48248
  22521033.200   118348845.28108  22521033.200    92219888.42447
  23306505.220   122476670.04807  23306505.880    95436449.38245
  20992275.220   110315318.95308  20992274.600    85960053.83548
  20901944.900   109840497.11209  20901948.440    85590026.95049
 15 02 10 02 53 30.0000000  0  7G04G16G18G19G21G22G27
  24015546.500   126202560.63606  24015550.180    98339682.97345
  20618884.400   108352976.05708  20618885.380    84430904.55149
  21696828.040   114017723.91008  21696829.040    88845043.03848
  22507589.040   118278195.67508  22507589.080    92164836.80147
  23319516.740   122545045.70307  23319517.360    95489729.09946
  20984175.280   110272753.90108  20984174.680    85926886.27948
  20893962.220   109798548.06109  20893965.780    85557339.38649
 15 02 10 02 54  0.0000000  0  7G04G16G18G19G21G22G27
  23998157.920   126111183.57306  23998161.760    98268480.16745
  20623410.080   108376758.45308  20623411.020    84449436.28849
  21702220.720   114046062.66108  21702221.760    88867125.19248
  22494166.000   118207657.07908  22494166.080    92109871.68047
  23332536.720   122613466.07807  23332537.320    95543043.65846
  20976168.280   110230677.10608  20976167.660    85894099.18148
  20886021.120   109756817.34109  20886024.640    85524821.94449
 15 02 10 02 54 30.0000000  0  7G04G16G18G19G21G22G27
  23980800.760   126019972.05906  23980804.880    98197406.37745
  20628043.400   108401106.65308  20628044.360    84468408.90649
  21707703.780   114074876.14908  21707704.840    88889577.26948
  22480764.000   118137229.12508  22480764.100    92054992.77147
  23345564.700   122681928.77207  23345565.360    95596391.19845
  20968254.180   110189088.44509  20968253.580    85861692.44948
  20878121.580   109715304.98609  20878125.080    85492474.66449
 15 02 10 02 55  0.0000000  0  7G04G16G18G19G21G22G27
  23963475.300   125928927.00606  23963479.620    98126462.28845
  20632784.360   108426020.60308  20632785.360    84487822.37149
  21713276.920   114104163.46808  21713278.040    88912398.55848
  22467383.200   118066912.74708  22467383.300    92000200.80847
  23358600.680   122750433.43307  23358601.440    95649771.42646
  20960433.440   110147990.00809  20960432.820    85829667.71249
  20870263.920   109674012.51809  20870267.380    85460298.72349
 15 02 10 02 55 30.0000000  0  7G04G16G18G19G21G22G27
  23946181.960   125838051.13606  23946186.500    98055649.99245
  20637633.240   108451501.92308  20637634.320    84507677.94349
  21718940.420   114133925.85308  21718941.660    88935590.02948
  22454024.280   117996711.07208  22454024.320    91945498.22947
  23371644.820   122818981.20607  23371645.660    95703185.27746
  20952706.640   110107385.05609  20952705.980    85798027.50548
  20862448.760   109632943.43509  20862452.180    85428296.84749
 15 02 10 02 56  0.0000000  0  7G04G16G18G19G21G22G27
  23928920.280   125747341.34106  23928924.940    97984967.13545
  20642589.220   108477545.91108  20642590.340    84527971.95749
  21724693.380   114164158.30108  21724694.740    88959147.78648
  22440686.600   117926621.13208  22440686.600    91890882.71547
  23384696.220   122887567.24907  23384697.180    95756628.93346
  20945073.260   110067271.14709  20945072.540    85766769.92749
  20854675.560   109592095.03009  20854678.960    85396466.92749
 15 02 10 02 56 30.0000000  0  7G04G16G18G19G21G22G27
  23911690.760   125656800.17306  23911695.380    97914415.64545
  20647652.640   108504154.52308  20647653.800    84548705.93849
  21730535.920   114194861.38908  21730537.320    88983072.27348
  22427370.700   117856645.58508  22427370.620    91836356.33047
  23397755.060   122956192.36807  23397756.120    95810103.05046
  20937533.780   110027650.86009  20937533.040    85735896.99648
  20846944.960   109551470.31909  20846948.320    85364811.31449
 15 02 10 02 57  0.0000000  0  7G04G16G18G19G21G22G27
  23894493.360   125566427.13106  23894497.860    97843995.18745
  20652823.160   108531325.78108  20652824.340    84569878.33949
  21736467.680   114226032.78608  21736468.980    89007361.68147
  22414076.480   117786783.97708  22414076.340    91781918.73247
  23410821.120   123024855.00007  23410822.140    95863606.39146
  20930088.240   109988524.52209  20930087.540    85705408.95749
  20839256.920   109511069.47309  20839260.280    85333330.14349
 15 02 10 02 57 30.0000000  0  7G04G16G18G19G21G22G27
  23877328.300   125476223.44907  23877332.600    97773706.67945
  20658100.700   108559059.41208  20658101.860    84591488.96149
  21742488.480   114257671.93608  21742489.640    89032015.56847
  22400804.240   117717037.92408  22400804.100    91727571.17747
  23423894.260   123093554.46507  23423895.200    95917138.43046
  20922737.020   109949894.02109  20922736.380    85675307.28449
  20831611.860   109470894.34309  20831615.220    85302024.85149
 15 02 10 02 58  0.0000000  0  7G04G16G18G19G21G22G27
  23860195.760   125386190.54207  23860199.740    97703551.25645
  20663485.380   108587355.96008  20663486.500    84613538.20849
  21748598.300   114289778.86208  21748599.320    89057033.96148
  22387554.260   117647408.95608  22387554.120    91673314.85347
  23436974.480   123162291.03907  23436975.280    95970699.40046
  20915480.480   109911761.07909  20915479.900    85645593.31448
  20824010.120   109430946.99809  20824013.480    85270897.06049
 15 02 10 02 58 30.0000000  0  7G04G16G18G19G21G22G27
  23843096.060   125296330.55807  23843099.840    97633530.57545
  20668977.160   108616215.49208  20668978.280    84636026.15249
  21754797.140   114322353.68108  21754798.080    89082416.94147
  22374327.080   117577899.68208  22374327.000    91619151.81147
  23450061.760   123231065.06707  23450062.520    96024289.54846
  20908319.260   109874128.86609  20908318.660    85616269.52849
  20816452.260   109391230.12809  20816455.620    85239948.85449
 15 02 10 02 59  0.0000000  0  7G04G16G18G19G21G22G27
  23826028.980   125206642.05807  23826032.520    97563643.52245
  20674575.780   108645636.21808  20674576.860    84658951.38549
  21761084.340   114355393.13008  21761085.260    89108161.97447
  22361122.400   117508508.67108  22361122.340    91565080.90747
  23463155.640   123299873.61906  23463156.360    96077906.60546
  20901253.100   109836995.91609  20901252.460    85587334.77648
  20808938.080   109351742.91109  20808941.440    85209179.60349
 15 02 10 02 59 30.0000000  0  7G04G16G18G19G21G22G27
  23808995.020   125117127.59006  23808998.400    97493892.08245
  20680281.320   108675618.92308  20680282.360    84682314.52949
  21767460.060   114388897.76708  21767461.000    89134269.48647
  22347940.720   117439238.61108  22347940.660    91511104.26047
  23476256.200   123368717.66306  23476256.980    96131551.30345
  20894282.540   109800365.22609  20894281.840    85558791.39349
  20801468.220   109312488.47409  20801471.560    85178591.73449
 15 02 10 03 00  0.0000000  0  7G04G16G18G19G21G22G27
  23791994.140   125027787.82207  23791997.540    97424276.75944
  20686093.660   108706162.88108  20686094.680    84706115.00849
  21773924.080   114422866.54508  21773925.060    89160738.66747
  22334782.300   117370090.65308  22334782.180    91457222.75247
  23489363.460   123437596.80806  23489364.280    96185223.37246
  20887407.780   109764238.01309  20887407.080    85530640.33549
  20794042.860   109273468.13909  20794046.260    85148186.28649
 15 02 10 03 00 30.0000000  0  7G04G16G18G19G21G22G27
  23775026.260   124938622.19606  23775029.840    97354797.11645
  20692012.400   108737265.89908  20692013.380    84730351.12049
  21780475.940   114457296.90708  21780476.940    89187567.52348
  22321647.020   117301064.39308  22321646.900    91403436.07047
  23502477.060   123506509.24406  23502477.960    96238921.35846
  20880628.760   109728614.06509  20880628.080    85502881.42849
  20786662.080   109234681.92009  20786665.500    85117963.26249
 15 02 10 03 01  0.0000000  0  7G04G16G18G19G21G22G27
  23758091.540   124849631.12306  23758095.380    97285453.49745
  20698037.380   108768927.32208  20698038.360    84755022.34849
  21787115.360   114492187.39708  21787116.380    89214754.92147
  22308535.020   117232160.76508  22308534.960    91349744.94847
  23515596.760   123575453.87706  23515597.700    96292644.43046
  20873945.740   109693494.67909  20873945.080    85475515.68749
  20779326.060   109196131.03009  20779329.540    85087923.61149
 15 02 10 03 01 30.0000000  0  7G04G16G18G19G21G22G27
  23741190.140   124760814.49506  23741194.000    97216245.80845
  20704168.380   108801146.00309  20704169.360    84780127.80749
  21793842.020   114527536.36508  21793843.100    89242299.57648
  22295446.420   117163379.83108  22295446.420    91296149.42948
  23528722.280   123644429.28906  23528723.360    96346391.49446
  20867358.760   109658879.91509  20867358.080    85448543.15649
  20772034.980   109157816.10609  20772038.460    85058067.83149
 15 02 10 03 02  0.0000000  0  7G04G16G18G19G21G22G27
  23724322.060   124672172.49906  23724325.820    97147174.20445
  20710405.160   108833920.40809  20710406.140    84805666.30149
  21800655.600   114563342.00108  21800656.700    89270200.07247
  22282381.280   117094722.16708  22282381.320    91242649.96348
  23541853.500   123713433.93207  23541854.580    96400161.33246
  20860867.860   109624769.97109  20860867.120    85421963.98949
  20764788.980   109119738.01109  20764792.420    85028396.59249
 15 02 10 03 02 30.0000000  0  7G04G16G18G19G21G22G27
  23707487.860   124583708.05206  23707491.560    97078240.92045
  20716747.920   108867251.75808  20716748.900    84831638.78049
  21807556.220   114599604.88108  21807557.320    89298456.86548
  22269340.160   117026190.79008  22269340.260    91189248.91547
  23554990.500   123782469.19406  23554991.640    96453955.01845
  20854473.760   109591168.66509  20854473.000    85395781.17049
  20757588.660   109081900.13809  20757592.120    84998912.53949
 15 02 10 03 03  0.0000000  0  7G04G16G18G19G21G22G27
  23690687.340   124495420.72607  23690690.980    97009445.66745
  20723196.300   108901138.25508  20723197.300    84858043.83649
  21814543.460   114636323.05608  21814544.540    89327068.43347
  22256323.140   116957786.18508  22256323.280    91135946.65048
  23568132.980   123851533.16906  23568134.100    96507771.08046
  20848176.400   109558075.81209  20848175.620    85369994.54149
  20750434.140   109044302.90509  20750437.580    84969616.00049
 15 02 10 03 03 30.0000000  0  7G04G16G18G19G21G22G27
  23673920.680   124407311.05707  23673924.180    96940788.86645
  20729750.140   108935578.86409  20729751.140    84884880.67249
  21821617.060   114673495.08308  21821618.160    89356033.64648
  22243330.280   116889508.38108  22243330.400    91082743.18748
  23581280.860   123920625.32206  23581281.880    96561609.10846
  20841975.960   109525492.38009  20841975.200    85344604.86449
  20743325.620   109006947.36709  20743329.060    84940507.79349
 15 02 10 03 04  0.0000000  0  7G04G16G18G19G21G22G27
  23657188.280   124319381.74607  23657191.800    96872272.58145
  20736409.740   108970575.36208  20736410.800    84912150.66649
  21828777.200   114711121.92808  21828778.300    89385353.27047
  22230362.280   116821361.14208  22230362.360    91029641.46748
  23594434.300   123989747.05006  23594435.220    96615470.17145
  20835872.980   109493421.30809  20835872.280    85319614.43349
  20736263.800   108969837.23709  20736267.240    84911590.81249
 15 02 10 03 04 30.0000000  0  7G04G16G18G19G21G22G27
  23640489.860   124231631.40306  23640493.500    96803895.75045
  20743174.420   109006124.11808  20743175.520    84939850.99449
  21836023.240   114749200.00708  21836024.320    89415024.50448
  22217418.860   116753343.01908  22217418.920    90976640.35448
  23607592.840   124058895.67906  23607593.780    96669352.20945
  20829867.280   109461861.40409  20829866.640    85295022.31049
  20729248.500   108932971.56309  20729251.920    84882864.31749
 15 02 10 03 05  0.0000000  0  7G04G16G18G19G21G22G27
  23623825.620   124144061.22206  23623829.440    96735659.31345
  20750044.080   109042224.90608  20750045.300    84967981.47449
  21843355.000   114787728.54508  21843356.060    89445046.74347
  22204500.360   116685455.85908  22204500.400    90923741.29148
  23620756.540   124128071.45706  23620757.600    96723255.39745
  20823959.140   109430814.12709  20823958.580    85270829.64149
  20722280.120   108896352.23709  20722283.480    84854329.78049
 15 02 10 03 05 30.0000000  0  7G04G16G18G19G21G22G27
  23607195.600   124056671.20906  23607199.640    96667563.25046
  20757018.640   109078876.93908  20757019.960    84996541.50049
  21850772.120   114826705.73408  21850773.160    89475418.58747
  22191606.780   116617699.83808  22191606.840    90870944.42248
  23633925.100   124197272.52906  23633926.160    96777178.29745
  20818148.700   109400280.03509  20818148.160    85247036.85649
  20715358.760   108859980.20309  20715362.120    84825987.94149
 15 02 10 03 06  0.0000000  0  7G04G16G18G19G21G22G27
  23590600.080   123969462.23506  23590604.120    96599608.27546
  20764097.940   109116079.09308  20764099.280    85025530.18949
  21858274.320   114866130.34808  21858275.420    89506139.07248
  22178738.480   116550076.37608  22178738.540    90818250.84448
  23647098.320   124266498.19606  23647099.320    96831120.34346
  20812436.040   109370259.91409  20812435.520    85223644.56549
  20708484.700   108823856.92809  20708488.100    84797839.93949
 15 02 10 03 06 30.0000000  0  7G04G16G18G19G21G22G27
  23574039.120   123882434.24106  23574042.980    96531794.29545
  20771281.580   109153829.30008  20771282.900    85054945.93049
  21865861.300   114906000.31208  21865862.420    89537206.58347
  22165895.460   116482585.81308  22165895.480    90765660.81648
  23660276.040   124335747.39306  23660277.060    96885080.74546
  20806821.340   109340754.48009  20806820.780    85200653.32749
  20701658.120   108787983.13509  20701661.560    84769886.34249
 15 02 10 03 07  0.0000000  0  7G04G16G18G19G21G22G27
  23557512.700   123795587.07906  23557516.340    96464121.23946
  20778569.260   109192126.09609  20778570.500    85084787.59049
  21873532.600   114946313.42408  21873533.760    89568619.40747
  22153077.740   116415228.41608  22153077.720    90713174.55748
  23673458.080   124405019.23106  23673459.100    96939058.77946
  20801304.520   109311763.44509  20801303.920    85178062.92149
  20694879.140   108752359.41709  20694882.560    84742127.60949
 15 02 10 03 07 30.0000000  0  7G04G16G18G19G21G22G27
  23541021.060   123708922.30307  23541024.460    96396590.30845
  20785960.980   109230969.52909  20785962.160    85115055.19849
  21881288.240   114987069.69208  21881289.400    89600377.53647
  22140285.740   116348006.24708  22140285.700    90660793.67248
  23686644.380   124474313.30306  23686645.400    96993054.12945
  20795885.940   109283288.79409  20795885.340    85155874.89349
  20688148.220   108716988.18909  20688151.620    84714565.61749
 15 02 10 03 08  0.0000000  0  7G04G16G18G19G21G22G27
  23524564.440   123622441.51107  23524567.640    96329202.71745
  20793456.620   109270359.11809  20793457.740    85145748.38049
  21889128.040   115028268.57108  21889129.260    89632480.56747
  22127519.900   116280921.28708  22127519.800    90608519.69248
  23699835.040   124543630.33706  23699836.080    97047067.39445
  20790565.940   109255331.99709  20790565.320    85134090.39349
  20681465.760   108681871.61109  20681469.120    84687202.05649
 15 02 10 03 08 30.0000000  0  7G04G16G18G19G21G22G27
  23508142.940   123536145.56507  23508146.060    96261959.17845
  20801056.160   109310294.86008  20801057.240    85176867.13349
  21897051.860   115069908.78608  21897053.140    89664927.49247
  22114780.460   116213975.12208  22114780.320    90556353.86448
  23713029.900   124612969.53706  23713030.980    97101097.90646
  20785344.840   109227894.88709  20785344.180    85112710.83849
  20674832.100   108647011.63509  20674835.460    84660038.44649
 15 02 10 03 09  0.0000000  0  7G04G16G18G19G21G22G27
  23491756.500   123450034.02907  23491759.640    96194859.33746
  20808759.080   109350773.95908  20808760.140    85208409.28549
  21905059.260   115111987.95708  21905060.520    89697716.45847
  22102067.400   116147167.57808  22102067.220    90504296.05948
  23726228.780   124682330.09806  23726229.780    97155145.07546
  20780222.480   109200976.74309  20780221.820    85091735.67649
  20668247.300   108612408.48509  20668250.660    84633074.96149
 15 02 10 03 09 30.0000000  0  7G04G16G18G19G21G22G27
  23475405.220   123364107.80407  23475408.520    96127903.88046
  20816565.180   109391795.39608  20816566.260    85240374.03949
  21913149.980   115154504.78608  21913151.180    89730846.45547
  22089381.040   116080500.16708  22089380.820    90452347.44048
  23739431.580   124751710.99406  23739432.520    97209208.09045
  20775199.040   109174578.42409  20775198.400    85071165.57449
  20661711.680   108578063.72509  20661715.040    84606312.81749
 15 02 10 03 10  0.0000000  0  7G04G16G18G19G21G22G27
  23459089.260   123278366.97407  23459092.700    96061092.89046
  20824474.420   109433358.76509  20824475.520    85272761.07549
  21921323.600   115197457.28608  21921324.740    89764315.94247
  22076721.380   116013973.28608  22076721.160    90400508.32448
  23752638.040   124821111.30206  23752638.960    97263286.23445
  20770274.620   109148700.37509  20770273.960    85051000.87449
  20655225.440   108543978.37709  20655228.800    84579752.81449
 15 02 10 03 10 30.0000000  0  7G04G16G18G19G21G22G27
  23442808.840   123192813.03607  23442812.440    95994427.52146
  20832486.620   109475463.13109  20832487.760    85305569.67049
  21929580.020   115240845.00008  21929581.120    89798124.55047
  22064088.840   115947588.93708  22064088.620    90348780.27548
  23765848.120   124890530.76206  23765848.960    97317379.29145
  20765449.480   109123344.16109  20765448.820    85031242.79849
  20648788.980   108510154.55409  20648792.340    84553396.59849
 15 02 10 03 11  0.0000000  0  7G04G16G18G19G21G22G27
  23426563.980   123107446.32507  23426567.680    95927908.04545
  20840601.480   109518106.99809  20840602.620    85338798.65149
  21937918.980   115284666.54408  21937920.080    89832271.21247
  22051483.600   115881348.06408  22051483.400    90297164.02448
  23779061.980   124959969.59506  23779062.720    97371487.44745
  20760723.720   109098510.41109  20760723.080    85011891.84349
  20642402.600   108476593.72509  20642405.920    84527245.31149
 15 02 10 03 11 30.0000000  0  7G04G16G18G19G21G22G27
  23410354.540   123022265.54206  23410358.240    95861533.44445
  20848818.440   109561287.35909  20848819.560    85372445.68249
  21946339.740   115328917.98108  21946340.820    89866752.85147
  22038905.500   115815249.90208  22038905.380    90245658.97948
  23792278.980   125029424.82906  23792279.520    97425608.39645
  20756097.040   109074197.31209  20756096.420    84992946.58349
  20636066.120   108443295.10609  20636069.380    84501298.34349
 15 02 10 03 12  0.0000000  0  7G04G16G18G19G21G22G27
  23394181.200   122937274.90506  23394184.880    95795307.01245
  20857137.960   109605006.77309  20857139.080    85406512.75649
  21954842.860   115373601.93708  21954843.840    89901571.52647
  22026355.500   115749299.33308  22026355.380    90194268.93848
  23805499.560   125098899.19606  23805500.120    97479744.24445
  20751570.420   109050409.94409  20751569.780    84974410.98249
  20629780.520   108410263.92109  20629783.760    84475559.76149
 15 02 10 03 12 30.0000000  0  7G04G16G18G19G21G22G27
  23378043.580   122852471.83307  23378047.200    95729226.75645
  20865559.200   109649260.70108  20865560.300    85440996.33049
  21963427.400   115418713.54408  21963428.260    89936723.42447
  22013833.240   115683494.31308  22013833.080    90142992.31348
  23818723.080   125168389.54906  23818723.640    97533892.55545
  20747143.340   109027145.58509  20747142.660    84956282.92849
  20623545.420   108377498.26709  20623548.680    84450028.08849
 15 02 10 03 13  0.0000000  0  7G04G16G18G19G21G22G27
  23361941.760   122767856.59006  23361945.280    95663292.85345
  20874081.900   109694047.78708  20874082.980    85475895.35449
  21972092.980   115464251.05408  21972093.740    89972207.20847
  22001338.920   115617835.92908  22001338.660    90091829.95548
  23831949.440   125237895.26206  23831950.040    97588052.82345
  20742815.920   109004404.80209  20742815.220    84938562.85449
  20617361.120   108344999.59909  20617364.420    84424704.45849
 15 02 10 03 13 30.0000000  0  7G04G16G18G19G21G22G27
  23345876.060   122683430.82407  23345879.440    95597506.58545
  20882705.920   109739367.45209  20882707.020    85511209.37049
  21980839.440   115510213.90408  21980840.160    90008022.41547
  21988872.820   115552325.90308  21988872.480    90040783.19948
  23845178.780   125307416.20006  23845179.400    97642224.96345
  20738588.400   108982188.75909  20738587.620    84921251.66549
  20611228.000   108312770.01709  20611231.320    84399590.50449
 15 02 10 03 14  0.0000000  0  7G04G16G18G19G21G22G27
  23329846.280   122599193.50107  23329849.460    95531867.16446
  20891430.900   109785217.46009  20891432.000    85546936.64549
  21989666.320   115556599.46908  21989667.060    90044167.02047
  21976434.860   115486963.94508  21976434.500    89989851.81848
  23858410.640   125376950.16906  23858411.280    97696407.26345
  20734460.600   108960496.75009  20734459.760    84904348.82249
  20605146.080   108280809.68509  20605149.480    84374686.35849
 15 02 10 03 14 30.0000000  0  7G04G16G18G19G21G22G27
  23313853.120   122515148.39207  23313856.120    95466377.51645
  20900257.060   109831599.25208  20900258.200    85583078.29749
  21998573.740   115603408.69508  21998574.560    90080641.73947
  21964025.920   115421754.33408  21964025.540    89939039.15048
  23871645.460   125446499.76506  23871646.140    97750601.72245
  20730433.160   108939332.12409  20730432.260    84887856.92049
  20599116.220   108249122.78309  20599119.680    84349995.27149
 15 02 10 03 15  0.0000000  0  7G04G16G18G19G21G22G27
  23297896.100   122431293.27107  23297899.060    95401035.91446
  20909183.740   109878509.26209  20909184.920    85619631.54949
  22007561.080   115650637.95508  22007561.980    90117443.76247
  21951645.700   115356695.79108  21951645.300    89888344.20648
  23884882.780   125516062.06706  23884883.440    97804806.10646
  20726505.700   108918693.16409  20726504.820    84871774.62549
  20593138.280   108217708.51409  20593141.760    84325516.62249
 15 02 10 03 15 30.0000000  0  7G04G16G18G19G21G22G27
  23281975.580   122347630.41807  23281978.620    95335844.13646
  20918210.940   109925947.55209  20918212.140    85656596.44949
  22016628.280   115698286.72308  22016629.240    90154572.67247
  21939294.780   115291791.29008  21939294.340    89837769.29048
  23898122.780   125585638.44306  23898123.540    97859021.42045
  20722678.620   108898581.89309  20722677.780    84856103.51849
  20587212.780   108186569.70209  20587216.220    84301252.61949
 15 02 10 03 16  0.0000000  0  7G04G16G18G19G21G22G27
  23266091.580   122264159.75307  23266094.680    95270802.10046
  20927338.260   109973912.09508  20927339.520    85693971.41749
  22025775.020   115746353.12908  22025776.020    90192027.01947
  21926973.280   115227041.40208  21926972.880    89787314.85348
  23911365.260   125655227.73006  23911366.020    97913246.80445
  20718951.920   108878998.22809  20718951.120    84840843.53249
  20581339.840   108155707.11209  20581343.260    84277203.84849
 15 02 10 03 16 30.0000000  0  7G04G16G18G19G21G22G27
  23250244.120   122180881.18007  23250247.300    95205909.74945
  20936565.360   110022400.95308  20936566.640    85731754.93949
  22035000.920   115794835.24808  22035001.860    90229805.29447
  21914681.240   115162446.69008  21914680.920    89736981.32748
  23924610.020   125724828.83006  23924610.680    97967481.40345
  20715325.620   108859942.18509  20715324.880    84825994.67949
  20575519.660   108125121.82309  20575523.080    84253371.15749
 15 02 10 03 17  0.0000000  0  7G04G16G18G19G21G22G27
  23234433.380   122097795.81607  23234436.720    95141167.95646
  20945892.080   110071413.32609  20945893.380    85769946.39348
  22044305.680   115843731.90308  22044306.580    90267906.58747
  21902418.980   115098008.28308  21902418.660    89686769.60148
  23937856.960   125794441.45206  23937857.560    98021724.98845
  20711799.940   108841414.72709  20711799.200    84811557.71349
  20569752.560   108094815.63209  20569755.980    84229755.94749
 15 02 10 03 17 30.0000000  0  7G04G16G18G19G21G22G27
  23218659.600   122014904.72607  23218663.060    95076577.52546
  20955318.300   110120948.37909  20955319.600    85808545.12949
  22053689.060   115893041.75608  22053689.960    90306329.85547
  21890186.900   115033728.45808  21890186.540    89636681.44248
  23951106.100   125864066.00806  23951106.720    98075977.85645
  20708375.080   108823417.00109  20708374.320    84797533.52149
  20564038.960   108064790.53709  20564042.400    84206359.77649
 15 02 10 03 18  0.0000000  0  7G04G16G18G19G21G22G27
  23202923.080   121932209.12607  23202926.580    95012139.44246
  20964843.800   110171005.04009  20964845.060    85847550.31948
  22063150.800   115942763.79508  22063151.740    90345074.29747
  21877985.420   114969609.37208  21877985.060    89586718.53348
  23964357.320   125933702.54306  23964358.100    98130240.07045
  20705051.220   108805950.04309  20705050.400    84783922.92349
  20558379.220   108035048.60509  20558382.700    84183184.24849
 15 02 10 03 18 30.0000000  0  7G04G16G18G19G21G22G27
  23187223.120   121849705.38707  23187226.580    94947850.85745
  20974467.560   110221578.09109  20974468.760    85886957.88748
  22072690.000   115992892.92908  22072690.960    90384135.96447
  21865813.900   114905647.78108  21865813.520    89536878.34948
  23977609.940   126003346.15106  23977610.760    98184507.80145
  20701827.560   108789009.74309  20701826.680    84770722.70149
  20552772.900   108005587.23709  20552776.400    84160227.34249
 15 02 10 03 19  0.0000000  0  7G04G16G18G19G21G22G27
  23171560.280   121767396.77507  23171563.640    94883714.32446
  20984189.780   110272668.54409  20984190.940    85926768.63248
  22082306.820   116043429.78008  22082307.780    90423515.33347
  21853673.060   114841847.42308  21853672.700    89487163.80148
  23990864.440   126072998.96406  23990865.400    98238782.70545
  20698704.800   108772599.46809  20698703.860    84757935.48849
  20547220.720   107976410.38109  20547224.240    84137492.13449
 15 02 10 03 19 30.0000000  0  7G04G16G18G19G21G22G27
  23155934.680   121685283.56507  23155937.780    94819730.06945
  20994010.100   110324274.47209  20994011.220    85966981.03948
  22092000.840   116094372.30708  22092001.840    90463210.81047
  21841563.140   114778209.38208  21841562.760    89437575.73148
  24004120.660   126142660.94606  24004121.680    98293064.73945
  20695682.880   108756719.26009  20695681.960    84745561.30949
  20541722.920   107947519.39709  20541726.460    84114979.68149
 15 02 10 03 20  0.0000000  0  7G04G16G18G19G21G22G27
  23140346.320   121603365.96207  23140349.200    94755898.21446
  21003928.240   110376394.52809  21003929.320    86007594.07248
  22101771.720   116145718.42008  22101772.720    90503220.77147
  21829484.360   114714735.08508  21829484.000    89388115.25548
  24017378.400   126212331.13206  24017379.520    98347353.15445
  20692761.780   108741368.92009  20692760.900    84733600.02049
  20536279.800   107918915.47209  20536283.320    84092690.92049
 15 02 10 03 20 30.0000000  0  7G04G16G18G19G21G22G27
  23124795.440   121521645.35407  23124798.200    94692219.85946
  21013944.100   110429028.25709  21013945.160    86048607.36148
  22111619.360   116197467.80208  22111620.320    90543544.96247
  21817437.100   114651426.22008  21817436.740    89338783.68848
  24030637.820   126282009.92206  24030638.960    98401648.29145
  20689941.720   108726549.82309  20689940.960    84722052.68349
  20530891.740   107890600.93609  20530895.240    84070627.64949
 15 02 10 03 21  0.0000000  0  7G04G16G18G19G21G22G27
  23109281.800   121440120.93607  23109284.600    94628694.37945
  21024057.080   110482172.35709  21024058.140    86090018.34848
  22121543.060   116249617.10308  22121544.000    90584180.78747
  21805421.320   114588282.80208  21805420.940    89289581.03848
  24043898.660   126351695.70006  24043899.700    98455948.88744
  20687222.660   108712261.30009  20687221.980    84710918.78649
  20525558.740   107862575.75509  20525562.200    84048789.85549
 15 02 10 03 21 30.0000000  0  7G04G16G18G19G21G22G27
  23093805.720   121358794.19107  23093808.660    94565322.93746
  21034267.040   110535826.21909  21034268.160    86131826.55048
  22131542.820   116302166.18908  22131543.780    90625128.12347
  21793437.460   114525307.04808  21793437.000    89240509.03348
  24057160.900   126421388.79506  24057161.840    98510255.15145
  20684604.780   108698504.30609  20684604.160    84700199.06249
  20520281.260   107834842.45309  20520284.700    84027179.49749
 15 02 10 03 22  0.0000000  0  7G04G16G18G19G21G22G27
  23078367.360   121277665.92907  23078370.540    94502106.13246
  21044573.820   110589988.80809  21044575.020    86174031.15948
  22141618.240   116355113.33308  22141619.300    90666385.64447
  21781485.800   114462500.67708  21781485.360    89191569.02648
  24070424.540   126491089.26806  24070425.520    98564567.17345
  20682088.240   108685279.56709  20682087.620    84689894.08349
  20515059.680   107807402.90909  20515063.100    84005798.04149
 15 02 10 03 22 30.0000000  0  7G04G16G18G19G21G22G27
  23062966.540   121196734.74907  23062969.920    94439042.89345
  21054976.760   110644656.45609  21054978.000    86216629.32648
  22151768.680   116408454.82808  22151769.840    90707950.43947
  21769566.220   114399863.00608  21769565.800    89142760.46348
  24083689.040   126560794.55206  24083690.060    98618882.94846
  20679672.600   108672584.98309  20679671.920    84680002.21449
  20509893.820   107780256.25809  20509897.240    83984644.81449
 15 02 10 03 23  0.0000000  0  7G04G16G18G19G21G22G27
  23047603.640   121116002.37507  23047607.060    94376134.56646
  21065475.740   110699828.93709  21065476.980    86259620.87448
  22161994.200   116462190.49808  22161995.340    90749822.39047
  21757679.240   114337396.77208  21757678.860    89094085.49048
  24096954.660   126630505.74506  24096955.740    98673203.36945
  20677358.220   108660422.63509  20677357.480    84670525.07049
  20504784.340   107753405.78309  20504787.760    83963722.37549
 15 02 10 03 23 30.0000000  0  7G04G16G18G19G21G22G27
  23032278.400   121035467.39307  23032281.740    94313380.06346
  21076070.060   110755502.40109  21076071.280    86303002.79048
  22172294.000   116516316.27508  22172295.060    90791998.32247
  21745824.720   114275101.07008  21745824.400    89045543.40348
  24110220.980   126700220.45906  24110222.100    98727526.48445
  20675144.680   108648790.41109  20675143.880    84661461.01449
  20499731.080   107726850.61209  20499734.460    83943030.04049
 15 02 10 03 24  0.0000000  0  7G04G16G18G19G21G22G27
  23016991.300   120955132.73507  23016994.480    94250781.66246
  21086759.880   110811677.90508  21086761.120    86346775.90648
  22182668.220   116570833.15908  22182669.260    90834479.01347
  21734003.420   114212979.92708  21734003.120    88997137.33248
  24123488.320   126769940.54906  24123489.600    98781853.81245
  20673032.500   108637690.96209  20673031.660    84652812.10249
  20494734.760   107700594.67609  20494738.080    83922570.87349
 15 02 10 03 24 30.0000000  0  7G04G16G18G19G21G22G27
  23001742.240   120874998.02107  23001745.320    94188339.07746
  21097544.700   110868352.63808  21097545.940    86390938.03348
  22193116.400   116625738.71008  22193117.380    90877262.55747
  21722215.420   114151033.55308  21722215.100    88948867.44048
  24136756.520   126839665.03506  24136757.880    98836184.55645
  20671021.540   108627123.62709  20671020.720    84644577.83049
  20489795.520   107674638.67109  20489798.760    83902345.42149
 15 02 10 03 25  0.0000000  0  7G04G16G18G19G21G22G27
  22986531.280   120795063.66607  22986534.160    94126052.59545
  21108424.280   110925525.55308  21108425.580    86435488.36148
  22203638.040   116681030.62008  22203639.040    90920347.16647
  21710460.920   114089263.22808  21710460.540    88900734.73848
  24150025.400   126909393.37306  24150026.820    98890518.30945
  20669111.860   108617088.55309  20669111.060    84636758.30249
  20484913.560   107648983.89009  20484916.820    83882354.68849
 15 02 10 03 25 30.0000000  0  8G04G11G16G18G19G21G22G27
  22971358.900   120715332.51307  22971361.700    94063924.45646
  24639490.540   129481401.29505  24639492.560   100894609.92244
  21119398.660   110983196.54309  21119399.980    86480426.78648
  22214233.400   116736709.76508  22214234.380    90963733.51747
  21698740.580   114027672.46208  21698740.160    88852741.94448
  24163295.480   126979127.67506  24163296.960    98944856.70046
  20667303.940   108607588.10609  20667303.160    84629355.37049
  20480089.660   107623634.09309  20480092.940    83862601.60649
 15 02 10 03 26  0.0000000  0  8G04G11G16G18G19G21G22G27
  22956223.940   120635798.43407  22956226.820    94001949.88845
  24622275.440   129390935.19505  24622277.680   100824116.92944
  21130466.360   111041357.54109  21130467.660    86525747.04748
  22224900.960   116792768.05308  22224901.880    91007415.29347
  21687053.500   113966256.50308  21687053.100    88804885.36248
  24176565.200   127048860.88406  24176566.700    98999194.24945
  20665596.600   108598615.93709  20665595.800    84622364.08449
  20475322.840   107598584.35109  20475326.160    83843082.32849
 15 02 10 03 26 30.0000000  0  8G04G11G16G18G19G21G22G27
  22941127.680   120556467.78007  22941130.700    93940133.83946
  24605072.160   129300530.55505  24605074.320   100753671.81044
  21141628.000   111100012.27609  21141629.300    86571452.03548
  22235641.460   116849209.59308  22235642.340    91051395.71847
  21675400.980   113905022.25508  21675400.660    88757170.37848
  24189835.760   127118598.46605  24189837.320    99053535.21445
  20663990.880   108590177.81109  20663990.080    84615788.93349
  20470614.500   107573842.07209  20470617.840    83823802.63749
 15 02 10 03 27  0.0000000  0  9G04G11G16G18G19G21G22G27G32
  22926070.560   120477343.01607  22926073.760    93878478.20146
  24587880.940   129210189.57905  24587883.120   100683276.29243
  21152883.780   111159161.67108  21152885.040    86617542.46848
  22246454.860   116906034.29608  22246455.720    91095674.70247
  21663783.780   113843973.51208  21663783.460    88709599.94848
  24203107.440   127188342.37905  24203109.160    99107881.09645
  20662487.160   108582275.65709  20662486.360    84609631.42749
  20465965.300   107549410.38009  20465968.660    83804764.95849
  24494918.560   128721672.16506  24494922.740   100302608.26544
 15 02 10 03 27 30.0000000  0  9G04G11G16G18G19G21G22G27G32
  22911050.820   120398414.03607  22911054.100    93816975.13746
  24570699.820   129119902.30005  24570702.040   100612922.63944
  21164231.300   111218793.38009  21164232.560    86664008.73548
  22257338.880   116963229.92608  22257339.780    91140242.73147
  21652199.960   113783100.52908  21652199.700    88662166.47148
  24216378.240   127258081.39305  24216380.020    99162223.17244
  20661083.500   108574899.33909  20661082.680    84603883.65749
  20461373.460   107525280.24509  20461376.840    83785962.25849
  24472224.600   128602413.81506  24472228.900   100209679.87145
 15 02 10 03 28  0.0000000  0  9G04G11G16G18G19G21G22G27G32
  22896069.920   120319689.06407  22896073.220    93755631.04446
  24553530.480   129029677.12705  24553532.820   100542617.34544
  21175671.680   111278913.23508  21175672.940    86710855.37648
  22268294.600   117020802.42408  22268295.520    91185104.41447
  21640651.340   113722412.46808  21640651.080    88614877.08948
  24229649.560   127327823.27805  24229651.340    99216567.47643
  20659781.360   108568056.57609  20659780.540    84598551.64649
  20456840.800   107501461.02409  20456844.180    83767401.83249
  24449539.320   128483201.91906  24449543.520   100116787.63644
 15 02 10 03 28 30.0000000  0  9G04G11G16G18G19G21G22G27G32
  22881127.820   120241167.82207  22881131.140    93694445.70646
  24536372.740   128939513.36705  24536375.180   100472359.97844
  21187204.320   111339517.87708  21187205.600    86758079.77248
  22279321.560   117078749.07408  22279322.460    91230257.65447
  21629138.080   113661910.12808  21629137.840    88567732.42748
  24242921.260   127397566.71405  24242922.940    99270913.01245
  20658580.480   108561746.36109  20658579.740    84593634.61049
  20452367.400   107477953.25909  20452370.780    83749084.09949
  24426863.200   128364038.33806  24426867.640   100023933.08445
 15 02 10 03 29  0.0000000  0  9G04G11G16G18G19G21G22G27G32
  22866224.280   120162849.02607  22866227.500    93633418.11546
  24519226.480   128849410.20105  24519228.940   100402149.77043
  21198828.780   111400604.78508  21198830.040    86805679.95648
  22290419.160   117137067.00108  22290420.000    91275700.18647
  21617660.120   113601593.03608  21617659.840    88520732.11648
  24256192.960   127467309.83106  24256194.620    99325258.26843
  20657480.660   108555967.28109  20657480.020    84589131.44949
  20447953.240   107454756.88909  20447956.620    83731009.01249
  24404196.560   128244924.17206  24404200.920    99931117.02544
 15 02 10 03 29 30.0000000  0  9G04G11G16G18G19G21G22G27G32
  22851359.620   120084734.72107  22851362.760    93572549.87246
  24502092.200   128759369.69005  24502094.560   100331988.37643
  21210544.900   111462173.42708  21210546.160    86853655.52548
  22301587.280   117195755.59708  22301588.060    91321431.56447
  21606217.980   113541464.29708  21606217.700    88473878.57048
  24269464.880   127537053.77606  24269466.480    99379604.17045
  20656482.240   108550720.79209  20656481.620    84585043.29149
  20443598.900   107431874.75909  20443602.280    83713178.78549
  24381540.040   128125863.47706  24381544.480    99838342.66644
 15 02 10 03 30  0.0000000  0  9G04G11G16G18G19G21G22G27G32
  22836533.960   120006825.12507  22836537.020    93511841.14446
  24484969.840   128669391.68005  24484972.200   100261875.67544
  21222352.280   111524221.61208  21222353.540    86902004.75848
  22312825.540   117254812.84708  22312826.240    91367450.20246
  21594811.840   113481524.85508  21594811.580    88427172.53448
  24282736.820   127606798.04205  24282738.380    99433950.31545
  20655585.100   108546006.27709  20655584.460    84581369.66049
  20439304.620   107409308.23609  20439308.000    83695594.49049
  24358894.260   128006858.76606  24358898.540    99745611.86244
 15 02 10 03 30 30.0000000  0  9G04G11G16G18G19G21G22G27G32
  22821747.100   119929119.58607  22821750.100    93451291.41646
  24467859.340   128579475.52405  24467861.540   100191811.20844
  21234250.320   111586746.20508  21234251.580    86950725.22548
  22324133.320   117314235.66408  22324133.960    91413753.69247
  21583441.860   113421775.24408  21583441.600    88380614.42248
  24296008.500   127676541.39405  24296010.040    99488295.76144
  20654789.040   108541822.65609  20654788.280    84578109.70749
  20435070.440   107387057.55409  20435073.820    83678256.30449
  24336259.480   127887911.72706  24336263.700    99652926.00945
 15 02 10 03 31  0.0000000  0  9G04G11G16G18G19G21G22G27G32
  22806999.140   119851618.73007  22807002.120    93390901.19646
  24450760.860   128489622.46105  24450762.840   100121795.88144
  21246238.800   111649746.05308  21246240.080    86999816.01348
  22335510.400   117374022.66708  22335511.020    91460340.97346
  21572108.380   113362217.39208  21572108.100    88334205.72848
  24309280.080   127746283.69206  24309281.660    99542640.38844
  20654094.060   108538170.48509  20654093.240    84575263.87449
  20430896.720   107365124.55709  20430900.100    83661165.66149
  24313636.240   127769025.38306  24313640.280    99560287.46744
 15 02 10 03 31 30.0000000  0  9G04G11G16G18G19G21G22G27G32
  22792290.400   119774324.07407  22792293.340    93330671.63946
  24433674.580   128399833.65805  24433676.540   100051830.66644
  21258317.480   111713220.01308  21258318.800    87049276.24648
  22346956.600   117434172.98308  22346957.280    91507211.35147
  21560811.760   113302853.28708  21560811.480    88287948.00548
  24322551.540   127816025.49005  24322553.100    99596984.62444
  20653500.340   108535050.31109  20653499.460    84572832.57749
  20426783.920   107343511.52209  20426787.260    83644324.34749
  24291025.180   127650203.23706  24291028.900    99467698.95444
 15 02 10 03 32  0.0000000  0  9G04G11G16G18G19G21G22G27G32
  22777620.780   119697235.13907  22777623.720    93270602.38846
  24416600.500   128310108.90906  24416602.500    99981915.32544
  21270485.860   111777165.25608  21270487.200    87099103.71048
  22358471.460   117494683.99908  22358472.200    91554362.79247
  21549552.140   113243683.50308  21549551.840    88241841.70048
  24335822.820   127885766.05105  24335824.320    99651327.88845
  20653007.580   108532460.92609  20653006.700    84570814.88949
  20422732.120   107322219.18209  20422735.440    83627732.91849
  24268426.580   127531447.33706  24268430.160    99375162.05545
 15 02 10 03 32 30.0000000  0  9G04G11G16G18G19G21G22G27G32
  22762990.260   119620351.73207  22762993.180    93210693.28545
  24399538.580   128220448.06705  24399540.380    99912049.77045
  21282743.480   111841579.35208  21282744.780    87149296.50848
  22370054.460   117555553.12008  22370055.260    91601793.28046
  21538329.680   113184709.02808  21538329.340    88195887.59048
  24349093.600   127955504.09805  24349095.180    99705669.18044
  20652615.760   108530402.04509  20652614.880    84569210.57849
  20418741.540   107301248.38209  20418744.840    83611392.04549
  24245840.940   127412759.70406  24245844.440    99282678.30445
 15 02 10 03 33  0.0000000  0  9G04G11G16G18G19G21G22G27G32
  22748399.280   119543675.49407  22748402.100    93150945.61246
  24382489.020   128130852.41305  24382490.860    99842235.06744
  21295090.180   111906461.33309  21295091.380    87199853.89448
  22381705.480   117616779.62208  22381706.300    91649502.24546
  21527144.840   113125932.28908  21527144.480    88150087.55048
  24362364.180   128025240.94606  24362365.660    99760009.55644
  20652325.020   108528874.38609  20652324.160    84568020.20649
  20414812.600   107280601.72909  20414815.920    83595303.74849
  24223268.980   127294144.27606  24223272.460    99190250.84545
 15 02 10 03 33 30.0000000  0  9G04G11G16G18G19G21G22G27G32
  22733847.560   119467205.63907  22733850.360    93091358.75346
  24365451.840   128041321.78505  24365453.860    99772470.98644
  21307525.320   111971808.18308  21307526.440    87250773.51548
  22393423.940   117678360.67408  22393424.820    91697487.48446
  21515997.700   113067353.71508  21515997.300    88104441.93348
  24375634.260   128094974.93605  24375635.540    99814347.69744
  20652135.120   108527876.43309  20652134.260    84567242.59649
  20410945.380   107260279.44009  20410948.720    83579468.20849
  24200710.940   127175602.48906  24200714.560    99097880.78544
 15 02 10 03 34  0.0000000  0  9G04G11G16G18G19G21G22G27G32
  22719335.200   119390942.60407  22719337.980    93031933.06046
  24348427.000   127951856.37005  24348429.000    99702757.70842
  21320048.440   112037617.57308  21320049.520    87302053.55948
  22405209.480   117740294.26208  22405210.420    91745747.42346
  21504888.460   113008974.47008  21504888.060    88058951.62848
  24388903.720   128164705.83006  24388904.820    99868683.44744
  20652046.040   108527408.09109  20652045.160    84566877.66449
  20407140.140   107240282.84509  20407143.500    83563886.45649
  24178167.500   127057137.07906  24178171.180    99005570.22344
 15 02 10 03 34 30.0000000  0  9G04G11G16G18G19G21G22G27G32
  22704862.360   119314887.09107  22704865.080    92972669.06346
  24331414.800   127862457.10705  24331416.900    99633096.03445
  21332659.260   112103888.10508  21332660.400    87353692.93348
  22417061.800   117802578.75508  22417062.740    91794280.79946
  21493817.540   112950796.53408  21493817.140    88013618.19248
  24402172.660   128234433.81605  24402173.340    99923016.94244
  20652057.800   108527469.64409  20652056.880    84566925.63549
  20403397.220   107220613.77809  20403400.600    83548559.92049
  24155639.160   126938751.03306  24155642.680    98913321.47745
 15 02 10 03 35  0.0000000  0  9G04G11G16G18G19G21G22G27G32
  22690429.160   119239040.10707  22690431.880    92913567.55246
  24314415.340   127773124.97805  24314417.620    99563486.61145
  21345357.620   112170618.66608  21345358.780    87405690.77248
  22428980.760   117865213.33908  22428981.680    91843086.96846
  21482785.300   112892821.86108  21482784.880    87968443.13748
  24415441.040   128304159.28905  24415441.480    99977348.45444
  20652170.380   108528061.11109  20652169.440    84567386.52949
  20399717.060   107201274.41209  20399720.440    83533490.29549
  24133126.560   126820447.81706  24133130.100    98821137.29045
 15 02 10 03 35 30.0000000  0  8G04G16G18G19G21G22G27G32
  22676035.420   119163400.58007  22676038.180    92854627.69846
  21358142.740   112237805.20908  21358143.940    87458043.92248
  22440965.560   117928194.29808  22440966.540    91892163.04246
  21471791.820   112835050.55508  21471791.320    87923426.54948
  24428708.540   128373880.27505  24428708.940   100031676.48543
  20652383.420   108529180.57509  20652382.480    84568258.85749
  20396099.600   107182264.52109  20396102.980    83518677.40549
  24110630.020   126702228.64406  24110633.740    98729018.62945
 15 02 10 03 36  0.0000000  0  9G04G11G16G18G19G21G22G27G32
  22661681.240   119087969.07807  22661684.060    92795849.93146
  24280454.560   127594648.32905  24280457.240    99424414.34444
  21371014.340   112305446.16808  21371015.600    87510751.16548
  22453015.960   117991519.85108  22453016.940    91941507.63246
  21460837.260   112777484.03508  21460836.740    87878569.53748
  24441975.160   128443596.77905  24441975.580   100086001.02044
  20652696.900   108530828.04709  20652696.000    84569542.61449
  20392545.160   107163585.67809  20392548.520    83504122.46949
  24088149.900   126584096.23506  24088153.500    98636967.58345
 15 02 10 03 36 30.0000000  0  9G04G11G16G18G19G21G22G27G32
  22647366.940   119012747.20807  22647369.820    92737235.51746
  24263493.520   127505518.14005  24263496.260    99354962.28545
  21383972.300   112373540.78608  21383973.580    87563811.90548
  22465131.840   118055189.20908  22465132.800    91991120.12346
  21449922.240   112720125.31808  21449921.720    87833874.44748
  24455241.260   128513310.27905  24455241.520   100140323.22843
  20653111.020   108533004.53609  20653110.180    84571238.59149
  20389054.240   107145240.72509  20389057.580    83489827.71149
  24065687.180   126466054.79106  24065690.860    98544987.41945
 15 02 10 03 37  0.0000000  0  9G04G11G16G18G19G21G22G27G32
  22633092.180   118937733.22907  22633095.120    92678783.09146
  24246545.240   127416454.71405  24246547.920    99285562.24445
  21397015.760   112442084.49908  21397017.060    87617222.59548
  22477312.440   118119198.54708  22477313.400    92040997.53246
  21439046.540   112662973.42308  21439046.100    87789340.51548
  24468506.240   128583017.84905  24468506.400   100194640.79743
  20653625.360   108535707.61609  20653624.540    84573344.89649
  20385626.680   107127228.79409  20385630.020    83475792.44849
  24043241.860   126348104.72406  24043245.360    98453078.45245
 15 02 10 03 37 30.0000000  0  9G04G11G16G18G19G21G22G27G32
  22618857.400   118862929.28907  22618860.320    92620494.34746
  24229610.120   127327460.24405  24229612.660    99216215.96143
  21410144.520   112511076.36808  21410145.800    87670982.48848
  22489557.700   118183547.67508  22489558.640    92091139.71246
  21428210.880   112606031.54508  21428210.440    87744970.23348
  24481770.400   128652721.19405  24481770.620   100248955.03843
  20654240.140   108538938.44309  20654239.300    84575862.43849
  20382263.100   107109553.06009  20382266.440    83462019.15649
  24020814.760   126230250.45105  24020818.220    98361244.09845
 15 02 10 03 38  0.0000000  0  9G04G11G16G18G19G21G22G27G32
  22604662.440   118788334.42107  22604665.220    92562368.50446
  24212688.140   127238534.56605  24212690.480    99146923.28045
  21423358.240   112580514.44908  21423359.460    87725090.08448
  22501867.040   118248233.65208  22501867.980    92141544.37547
  21417415.220   112549300.01108  21417414.780    87700763.85348
  24495033.560   128722419.30706  24495033.740   100303265.26341
  20654955.040   108542695.56009  20654954.220    84578790.07149
  20378963.520   107092213.76809  20378966.880    83448508.02249
  23998406.180   126112493.57705  23998409.680    98269485.64745
 15 02 10 03 38 30.0000000  0  9G04G11G16G18G19G21G22G27G32
  22590507.860   118713951.76408  22590510.540    92504408.02546
  24195779.880   127149680.72106  24195782.060    99077686.58142
  21436656.860   112650398.85908  21436658.040    87779545.47048
  22514240.520   118313256.99308  22514241.520    92192211.91446
  21406660.440   112492783.20808  21406659.980    87656724.79848
  24508296.040   128792114.06605  24508296.240   100357572.84244
  20655770.520   108546981.17809  20655769.720    84582129.52649
  20375728.740   107075214.97609  20375732.080    83435262.21849
  23976017.160   125994839.44206  23976020.700    98177807.23945
 15 02 10 03 39  0.0000000  0  9G04G11G16G18G19G21G22G27G32
  22576392.540   118639775.39807  22576395.120    92446608.28846
  24178884.140   127060892.53006  24178886.160    99008501.02244
  21450038.680   112720720.68208  21450039.860    87834341.69648
  22526676.640   118378609.54208  22526677.740    92243135.97746
  21395945.600   112436476.13908  21395945.160    87612849.17048
  24521556.680   128861799.48306  24521556.920   100411873.16144
  20656685.240   108551788.33709  20656684.480    84585875.37349
  20372557.860   107058551.78409  20372561.160    83422277.91749
  23953647.100   125877284.41606  23953650.600    98086206.01545
 15 02 10 03 39 30.0000000  0  9G04G11G16G18G19G21G22G27G32
  22562317.780   118565812.30307  22562320.360    92388974.74546
  24162002.240   126972177.50706  24162004.140    98939372.48844
  21463504.640   112791484.85308  21463505.820    87889482.61248
  22539176.260   118444295.82208  22539177.480    92294320.09246
  21385272.200   112380386.95908  21385271.780    87569143.32448
  24534816.640   128931481.59206  24534817.060   100466170.87443
  20657700.520   108557123.55409  20657699.740    84590032.69749
  20369452.360   107042232.32909  20369455.640    83409561.46549
  23931297.860   125759838.21506  23931301.200    97994689.60945
 15 02 10 03 40  0.0000000  0  9G04G11G16G18G19G21G22G27G32
  22548282.800   118492058.24307  22548285.340    92331504.08546
  24145133.500   126883531.35106  24145135.180    98870297.64044
  21477053.360   112862683.98308  21477054.540    87944962.45048
  22551738.180   118510309.54308  22551739.520    92345759.35746
  21374639.660   112324512.45808  21374639.240    87525604.76648
  24548075.180   129001155.81105  24548075.700   100520462.44244
  20658815.340   108562981.80709  20658814.500    84594597.58249
  20366411.600   107026253.22509  20366414.900    83397110.21549
  23908968.920   125642498.53906  23908972.080    97903256.20645
 15 02 10 03 40 30.0000000  0  9G04G11G16G18G19G21G22G27G32
  22534288.180   118418516.02108  22534290.720    92274198.48746
  24128278.440   126794957.04806  24128280.000    98801278.73744
  21490685.020   112934318.86308  21490686.180    88000781.83748
  22564362.520   118576651.13408  22564363.940    92397454.10346
  21364048.680   112268856.65608  21364048.260    87482236.61948
  24561332.600   129070824.37505  24561333.160   100574749.57644
  20660030.020   108569364.82009  20660029.120    84599571.36849
  20363436.380   107010618.40709  20363439.660    83384927.24349
  23886661.340   125525270.86306  23886664.320    97811910.07344
 15 02 10 03 41  0.0000000  0  9G04G11G16G18G19G21G22G27G32
  22520334.080   118345186.72808  22520336.580    92217058.81346
  24111437.200   126706455.85306  24111438.860    98732316.83444
  21504399.320   113006388.07808  21504400.460    88056939.66748
  22577049.080   118643319.32308  22577050.480    92449403.35046
  21353499.700   112213421.64208  21353499.260    87439040.52048
  24574588.900   129140487.95505  24574589.620   100629032.88343
  20661344.580   108576272.65609  20661343.620    84604954.11249
  20360527.080   106995330.01609  20360530.380    83373014.21649
  23864375.660   125408158.42706  23864378.520    97720653.74745
 15 02 10 03 41 30.0000000  0  9G04G11G16G18G19G21G22G27G32
  22506420.140   118272068.44808  22506422.700    92160083.56646
  24094609.460   126618025.92906  24094611.100    98663410.44144
  21518195.400   113078887.00708  21518196.540    88113432.33748
  22589797.040   118710310.02908  22589798.320    92501603.89846
  21342992.640   112158206.89508  21342992.200    87396016.05648
  24587843.840   129210144.10205  24587844.700   100683310.40244
  20662758.440   108583702.61909  20662757.480    84610743.71249
  20357683.540   106980387.14109  20357686.860    83361370.42449
  23842112.000   125291161.81006  23842114.780    97629487.66645
 15 02 10 03 42  0.0000000  0  9G04G11G16G18G19G21G22G27G32
  22492546.640   118199162.57208  22492549.220    92103273.81746
  24077795.540   126529668.87105  24077797.340    98594560.84744
  21532072.900   113151813.97208  21532074.120    88170258.54148
  22602606.020   118777621.89408  22602607.300    92554054.70046
  21332527.940   112103214.62008  21332527.520    87353164.94748
  24601097.540   129279793.54305  24601098.520   100737582.70043
  20664271.660   108591654.64209  20664270.720    84616940.10349
  20354906.220   106965792.09209  20354909.540    83349997.66249
  23819871.000   125174284.63706  23819873.700    97538414.64944
 15 02 10 03 42 30.0000000  0  9G04G11G16G18G19G21G22G27G32
  22478713.580   118126469.19608  22478716.160    92046629.65147
  24060995.540   126441385.10306  24060997.640    98525768.33744
  21546031.400   113225166.65808  21546032.720    88227416.48048
  22615475.900   118845253.26808  22615477.060    92606754.47146
  21322105.860   112048446.37208  21322105.440    87310488.40948
  24614349.820   129349436.13004  24614351.180   100791849.62544
  20665884.300   108600129.01209  20665883.340    84623543.52349
  20352195.300   106951546.19509  20352198.660    83338896.96749
  23797653.160   125057529.62806  23797655.880    97447436.82045
 15 02 10 03 43  0.0000000  0  8G04G11G16G18G19G22G27G32
  22464920.340   118053985.04408  22464922.880    91990148.53646
  24044208.900   126353171.49806  24044211.220    98457030.50845
  21560069.900   113298939.62608  21560071.280    88284901.91448
  22628405.420   118913198.13908  22628406.500    92659698.53146
  21311726.020   111993900.06608  21311725.560    87267984.80848
  20667595.460   108609121.11609  20667594.500    84630550.36649
  20349550.400   106937647.08609  20349553.760    83328066.49949
  23775458.400   124940895.78206  23775461.140    97356553.40445
 15 02 10 03 43 30.0000000  0  9G04G11G16G18G19G21G22G27G32
  22451168.380   117981717.72308  22451170.840    91933836.36446
  24027437.180   126265035.68206  24027439.480    98388353.31344
  21574189.460   113373138.14108  21574190.800    88342718.93948
  22641395.600   118981462.09207  22641396.660    92712891.22246
  21301390.100   111939584.51808  21301389.620    87225661.02348
  24640850.440   129488542.31505  24640851.660   100900174.03644
  20669406.320   108618637.30709  20669405.360    84637965.59049
  20346973.140   106924103.41009  20346976.460    83317512.98749
  23753288.540   124824393.11406  23753291.300    97265772.21544
 15 02 10 03 44  0.0000000  0  9G04G11G14G16G18G19G22G27G32
  22437456.880   117909663.42208  22437459.360    91877690.18346
  24010679.660   126176974.31006  24010681.840    98319734.12144
  24679655.820   129692469.69205  24679658.060   101059072.53242
  21588388.640   113447755.00208  21588389.880    88400861.94948
  22654445.320   119050039.17608  22654446.420    92766327.90046
  21291097.540   111885496.87408  21291097.080    87183514.82748
  20671316.000   108628673.09809  20671315.100    84645785.69949
  20344463.000   106910912.55909  20344466.340    83307234.40849
  23731143.400   124708020.28806  23731146.200    97175092.18545
 15 02 10 03 44 30.0000000  0 10G04G11G14G16G18G19G21G22G27G32
  22423785.500   117837820.11908  22423788.000    91821708.43146
  23993935.860   126088985.18606  23993937.960    98251171.21044
  24665041.540   129615671.15105  24665044.140   100999229.48444
  21602666.700   113522786.27208  21602667.820    88459327.87048
  22667553.800   119118924.66308  22667554.880    92820004.90546
  21280848.240   111831636.77008  21280847.820    87141545.93548
  24667345.220   129627771.98904  24667347.500   101008664.46844
  20673323.980   108639225.39009  20673323.080    84654008.27749
  20342019.800   106898073.43809  20342023.120    83297229.90449
  23709023.060   124591777.72606  23709025.920    97084513.67444
 15 02 10 03 45  0.0000000  0 10G04G11G14G16G18G19G21G22G27G32
  22410154.840   117766191.01608  22410157.340    91765893.57546
  23977206.420   126001071.63305  23977208.440    98182667.18844
  24650430.940   129538891.75305  24650433.420   100939401.39545
  21617023.600   113598231.96008  21617024.580    88518116.71348
  22680721.260   119188119.73608  22680722.300    92873923.14446
  21270642.980   111778008.04008  21270642.580    87099757.33748
  24680590.220   129697374.45604  24680592.300   101062900.14844
  20675430.620   108650296.10509  20675429.740    84662634.81649
  20339644.240   106885590.05109  20339647.600    83287502.59649
  23686928.440   124475670.69706  23686931.380    96994040.73845
 15 02 10 03 45 30.0000000  0 10G04G11G14G16G18G19G21G22G27G32
  22396564.900   117694775.70708  22396567.400    91710245.32146
  23960491.480   125913233.87005  23960493.440    98114222.21544
  24635824.340   129462133.86005  24635826.940   100879590.09245
  21631458.800   113674089.27708  21631459.700    88577226.31148
  22693947.080   119257621.41408  22693948.040    92928080.28546
  21260482.040   111724611.92408  21260481.620    87058149.98848
  24693833.640   129766968.64605  24693835.460   101117129.35244
  20677635.720   108661884.08409  20677634.800    84671664.42049
  20337336.560   106873463.37109  20337339.940    83278053.23949
  23664860.040   124359701.58406  23664863.100    96903675.26945
 15 02 10 03 46  0.0000000  0 10G04G11G14G16G18G19G21G22G27G32
  22383015.620   117623574.14108  22383018.080    91654763.61446
  23943790.920   125825471.83506  23943792.840    98045836.29144
  24621222.460   129385400.03405  24621224.800   100819797.45743
  21645971.720   113750355.29408  21645972.660    88636654.37248
  22707230.820   119327427.29208  22707231.680    92982474.47446
  21250365.580   111671449.45508  21250365.100    87016724.70048
  24707075.520   129836553.90205  24707076.860   101171351.58544
  20679939.080   108673988.34909  20679938.120    84681096.32349
  20335096.920   106861694.17509  20335100.340    83268882.44549
  23642818.240   124243872.59606  23642821.600    96813419.00545
 15 02 10 03 46 30.0000000  0 10G04G11G14G16G18G19G21G22G27G32
  22369507.460   117552588.31508  22369509.900    91599450.01846
  23927105.220   125737787.82906  23927107.120    97977511.12645
  24606625.820   129308694.80405  24606628.200   100760027.18144
  21660562.200   113827029.07308  21660563.220    88696400.17248
  22720572.440   119397537.39008  22720573.240    93037105.71746
  21240294.160   111618523.79608  21240293.660    86975483.94948
  24720315.860   129906131.50205  24720316.860   101225567.90744
  20682340.900   108686609.89509  20682339.880    84690931.30949
  20332925.920   106850285.51709  20332929.340    83259992.59649
  23620804.020   124128188.21406  23620807.520    96723275.39845
 15 02 10 03 47  0.0000000  0 10G04G11G14G16G18G19G21G22G27G32
  22356040.080   117481816.74808  22356042.500    91544303.37547
  23910434.100   125650180.70205  23910435.980    97909245.88845
  24592035.000   129232019.41205  24592037.260   100700280.12043
  21675229.640   113904107.26908  21675230.740    88756461.10448
  22733971.140   119467947.89708  22733971.920    93091971.04146
  21230267.660   111565834.39808  21230267.200    86934427.30348
  24733554.340   129975699.96805  24733554.980   101279777.06244
  20684840.560   108699745.55809  20684839.440    84701166.90249
  20330823.460   106839237.00409  20330826.860    83251383.36749
  23598817.520   124012649.32206  23598821.160    96633245.15646
 15 02 10 03 47 30.0000000  0  9G04G11G16G18G19G21G22G27G32
  22342613.880   117411261.54108  22342616.340    91489325.33047
  23893778.100   125562652.83106  23893780.020    97841042.39745
  21689973.880   113981589.08308  21689975.060    88816836.54448
  22747426.880   119538658.31908  22747427.660    93147070.06746
  21220286.900   111513385.23708  21220286.440    86893557.84148
  24746791.380   130045261.22205  24746791.820   101333980.61443
  20687438.380   108713396.88709  20687437.200    84711804.30949
  20328790.160   106828551.69109  20328793.520    83243057.15549
  23576859.660   123897260.44106  23576863.240    96543331.83646
 15 02 10 03 48  0.0000000  0 10G04G11G14G16G18G19G21G22G27G32
  22329227.920   117340918.20408  22329230.500    91434512.36346
  23877136.220   125475199.59705  23877138.200    97772897.06144
  24562873.760   129078763.24205  24562875.120   100580880.17543
  21704793.500   114059467.00308  21704794.760    88877520.63748
  22760938.360   119609662.05708  22760939.220    93202397.64546
  21210351.240   111461172.98408  21210350.780    86852872.98848
  24760026.060   130114810.22704  24760026.540   101388174.64044
  20690133.240   108727558.42709  20690132.060    84722839.28449
  20326825.300   106818226.10309  20326828.620    83235011.25149
  23554930.100   123782019.55506  23554933.480    96453533.82144
 15 02 10 03 48 30.0000000  0 10G04G11G14G16G18G19G21G22G27G32
  22315883.440   117270792.92108  22315886.140    91379869.32347
  23860509.600   125387827.36005  23860511.740    97704814.84744
  24548303.360   129002196.69704  24548304.800   100521217.96944
  21719689.220   114137744.61708  21719690.480    88938516.18048
  22774506.500   119680962.97508  22774507.380    93257956.80546
  21200462.040   111409204.96608  21200461.580    86812378.44348
  24773259.420   130184352.37904  24773260.020   101442363.29744
  20692926.060   108742234.82209  20692924.940    84734275.44849
  20324930.280   106808267.36709  20324933.540    83227251.20349
  23533030.340   123666935.12406  23533033.420    96363857.71545
 15 02 10 03 49  0.0000000  0 10G04G11G14G16G18G19G21G22G27G32
  22302579.780   117200882.17908  22302582.520    91325393.45447
  23843897.940   125300533.45605  23843900.080    97636793.65744
  24533741.040   128925670.67905  24533742.160   100461587.26944
  21734659.860   114216415.77108  21734661.100    88999818.37548
  22788130.100   119752555.19008  22788130.980    93313742.94146
  21190618.900   111357478.85308  21190618.420    86772072.39348
  24786490.740   130253883.95505  24786491.560   101496543.76443
  20695815.980   108757421.68009  20695814.940    84746109.37649
  20323104.560   106798673.13309  20323107.840    83219775.18349
  23511160.220   123552006.23206  23511163.020    96274302.79845
 15 02 10 03 49 30.0000000  0 10G04G11G14G16G18G19G21G22G27G32
  22289316.980   117131185.91208  22289319.700    91271084.71046
  23827301.140   125213317.63005  23827303.240    97568833.32144
  24519186.920   128849188.11504  24519187.980   100401990.46644
  21749704.860   114295477.79308  21749706.100    89061425.14347
  22801808.760   119824436.53108  22801809.580    93369754.37446
  21180822.000   111305995.70708  21180821.520    86731955.67548
  24799720.040   130323404.78205  24799721.160   101550715.79644
  20698802.780   108773117.93709  20698801.860    84758340.23449
  20321348.340   106789444.22709  20321351.620    83212583.83149
  23489320.100   123437235.22206  23489322.680    96184870.92845
 15 02 10 03 50  0.0000000  0 10G04G11G14G16G18G19G21G22G27G32
  22276095.580   117061706.93108  22276098.180    91216945.27746
  23810719.860   125126182.98305  23810721.840    97500936.25944
  24504642.100   128772754.11805  24504642.640   100342431.53041
  21764824.220   114374930.51908  21764825.440    89123336.35848
  22815542.480   119896607.35408  22815543.260    93425991.37746
  21171072.100   111254759.75708  21171071.640    86692031.57048
  24812947.800   130392917.21905  24812949.160   101604881.29944
  20701886.720   108789324.77909  20701885.940    84770968.95449
  20319662.380   106780584.53409  20319665.660    83205680.18049
  23467510.960   123322627.36306  23467513.480    96095566.16045
 15 02 10 03 50 30.0000000  0 10G04G11G14G16G18G19G21G22G27G32
  22262915.280   116992444.08708  22262917.760    91162974.26046
  23794154.020   125039128.74605  23794155.840    97433101.81845
  24490106.720   128696370.61905  24490107.360   100282911.89243
  21780017.240   114454770.32808  21780018.460    89185549.20048
  22829330.620   119969064.23508  22829331.320    93482451.28646
  21161369.280   111203771.21708  21161368.840    86652300.25548
  24826173.720   130462419.69505  24826175.340   101659039.09144
  20705067.520   108806040.31409  20705066.780    84783994.05249
  20318046.640   106772093.95709  20318049.940    83199064.15149
  23445733.100   123208183.94406  23445735.620    96006389.53345
 15 02 10 03 51  0.0000000  0 10G04G11G14G16G18G19G21G22G27G32
  22249776.220   116923397.74508  22249778.540    91109171.95746
  23777603.540   124952155.37805  23777605.320    97365330.41644
  24475581.360   128620040.57005  24475582.480   100223433.93743
  21795283.480   114534994.84808  21795284.700    89248061.81547
  22843172.800   120041805.23208  22843173.440    93539132.58246
  21151713.800   111153031.55908  21151713.380    86612762.86748
  24839398.060   130531920.36405  24839399.280   101713196.18941
  20708344.960   108823263.45409  20708344.200    84797414.68749
  20316501.440   106763973.79809  20316504.700    83192736.76249
  23423986.980   123093907.75906  23423989.500    95917343.22345
 15 02 10 03 51 30.0000000  0 10G04G11G14G16G18G19G21G22G27G32
  22236678.720   116854569.50308  22236680.820    91055539.59746
  23761068.920   124865265.04306  23761070.720    97297623.71044
  24461066.800   128543768.47305  24461068.640   100164001.09644
  21810622.660   114615602.78808  21810623.880    89310873.19748
  22857068.860   120114829.70408  22857069.480    93596034.76646
  21142106.320   111102543.97408  21142105.880    86573421.90648
  24852620.340   130601404.46105  24852621.400   101767339.64644
  20711719.160   108840994.77909  20711718.300    84811231.31249
  20315027.220   106756226.78009  20315030.440    83186700.12949
  23402273.500   122979802.89806  23402276.020    95828430.40245
 15 02 10 03 52  0.0000000  0 10G04G11G14G16G18G19G21G22G27G32
  22223622.040   116785955.91308  22223624.000    91002074.48746
  23744549.440   124778454.34006  23744551.260    97229979.05445
  24446563.240   128467553.11105  24446565.520   100104612.50244
  21826033.520   114696587.48008  21826034.780    89373978.14748
  22871017.760   120188131.69008  22871018.380    93653153.19946
  21132546.360   111052306.08408  21132545.900    86534275.51148
  24865840.400   130670876.06105  24865841.460   101821473.32144
  20715189.180   108859229.38409  20715188.200    84825440.10349
  20313623.460   106748850.21309  20313626.700    83180952.15749
  23380592.520   122865868.28507  23380594.980    95739650.25144
 15 02 10 03 52 30.0000000  0 10G04G11G14G16G18G19G21G22G27G32
  22210606.780   116717560.44208  22210608.700    90948779.33946
  23728045.940   124691727.19006  23728047.700    97162399.50145
  24432071.720   128391400.65805  24432074.180   100045272.89644
  21841516.360   114777950.25908  21841517.600    89437377.71147
  22885019.640   120261712.31008  22885020.260    93710488.74146
  21123034.820   111002322.71208  21123034.340    86495327.43448
  24879058.820   130740338.36005  24879059.760   101875599.76843
  20718755.480   108877969.86309  20718754.360    84840043.08249
  20312291.100   106741848.66409  20312294.340    83175496.40449
  23358945.040   122752109.85207  23358947.420    95651007.35745
 15 02 10 03 53  0.0000000  0 10G04G11G14G16G18G19G21G22G27G32
  22197632.660   116649381.43008  22197634.660    90895652.85546
  23711558.040   124605082.02006  23711559.720    97094883.82645
  24417592.700   128315312.35105  24417595.120    99985983.31444
  21857070.280   114859686.58408  21857071.520    89501068.35247
  22899073.840   120335567.88408  22899074.480    93768038.53746
  21113571.700   110952593.55508  21113571.180    86456577.45448
  24892275.100   130809789.53705  24892275.880   101929717.54743
  20722417.400   108897213.09609  20722416.220    84855037.81749
  20311030.020   106735221.52309  20311033.240    83170332.39649
  23337331.200   122638528.37707  23337333.520    95562502.37145
 15 02 10 03 53 30.0000000  0 10G04G11G14G16G18G19G21G22G27G32
  22184699.880   116581420.15808  22184702.120    90842696.04446
  23695086.040   124518520.45906  23695087.580    97027433.30344
  24403126.740   128239292.15606  24403129.060    99926746.79044
  21872694.980   114941794.92608  21872696.220    89565048.87447
  22913180.180   120409697.46208  22913180.840    93825801.84246
  21104157.440   110903121.17908  21104156.900    86418027.56148
  24905489.440   130879230.53705  24905489.980   101983827.37044
  20726174.940   108916959.20409  20726173.760    84870424.40349
  20309840.600   106728970.96809  20309843.820    83165461.83849
  23315751.660   122525127.65506  23315754.060    95474138.20745
 15 02 10 03 54  0.0000000  0 10G04G11G14G16G18G19G21G22G27G32
  22171808.700   116513677.38608  22171811.180    90789909.48946
  23678630.080   124432043.38506  23678631.540    96960048.58945
  24388674.540   128163343.71405  24388676.780    99867566.20543
  21888390.120   115024273.51408  21888391.380    89629317.90647
  22927338.320   120484099.23908  22927339.060    93883777.24746
  21094792.420   110853907.44408  21094791.820    86379679.20248
  24918701.800   130948661.35905  24918701.980   102037929.32442
  20730027.960   108937207.28709  20730026.820    84886202.13649
  20308723.200   106723098.67309  20308726.380    83160886.02449
  23294206.980   122411910.73006  23294209.580    95385917.27545
 15 02 10 03 54 30.0000000  0 10G04G11G14G16G18G19G21G22G27G32
  22158959.220   116446153.41708  22158961.860    90737293.43247
  23662190.280   124345651.88106  23662191.860    96892730.56545
  24374236.540   128087470.01405  24374238.640    99808443.85744
  21904155.300   115107119.84208  21904156.560    89693873.48848
  22941547.980   120558771.39308  22941548.720    93941963.34546
  21085477.000   110804954.43908  21085476.340    86341534.01648
  24931912.260   131018082.65305  24931912.180   102092023.84043
  20733976.380   108957956.83909  20733975.340    84902370.62549
  20307678.060   106717606.21309  20307681.240    83156606.18949
  23272697.800   122298880.64206  23272700.680    95297841.92346
 15 02 10 03 55  0.0000000  0 10G04G11G14G16G18G19G21G22G27G32
  22146151.300   116378847.38508  22146154.020    90684847.19447
  23645766.560   124259345.39106  23645768.200    96825478.77944
  24359813.120   128011672.94905  24359814.980    99749381.21744
  21919989.680   115190329.81808  21919990.940    89758712.43148
  22955808.480   120633710.75808  22955809.220    94000357.65146
  21076211.220   110756262.45808  21076210.540    86303592.22948
  24945120.500   131087493.11604  24945120.820   102146109.91643
  20738019.760   108979205.44909  20738018.840    84918927.98949
  20306705.120   106712493.48909  20306708.300    83152622.24849
  23251224.500   122186038.84507  23251227.640    95209913.31245
 15 02 10 03 55 30.0000000  0 10G04G11G14G16G18G19G21G22G27G32
  22133384.880   116311758.91208  22133387.560    90632570.47947
  23629358.940   124173123.48606  23629360.700    96758292.91845
  24345404.480   127935954.66105  24345406.120    99690379.97344
  21935892.680   115273900.30108  21935893.900    89823832.28347
  22970119.320   120708914.51507  22970120.120    94058957.97746
  21066995.300   110707832.49508  21066994.620    86265854.60848
  24958326.560   131156892.07105  24958327.180   102200186.99344
  20742157.820   109000951.59508  20742157.020    84935873.04449
  20305804.580   106707761.10609  20305807.760    83148934.68349
  23229787.540   122073387.39106  23229790.800    95122132.98445
 15 02 10 03 56  0.0000000  0 10G04G11G14G16G18G19G21G22G27G32
  22120660.280   116244890.09108  22120662.860    90580464.92347
  23612967.840   124086988.56006  23612969.580    96691174.83244
  24331011.640   127860320.14705  24331013.080    99631443.97344
  21951864.180   115357830.93908  21951865.320    89889232.77947
  22984480.380   120784382.57807  22984481.220    94117764.25846
  21057829.800   110659667.68508  21057829.180    86228323.59848
  24971530.800   131226281.19105  24971531.500   102254256.42544
  20746390.700   109023195.82109  20746389.980    84953206.21349
  20304976.980   106703412.06309  20304980.180    83145545.81849
  23208387.780   121960930.82407  23208391.000    95034504.54045
 15 02 10 03 56 30.0000000  0 10G04G11G14G16G18G19G21G22G27G32
  22107977.220   116178239.72208  22107979.700    90528529.59147
  23596593.180   124000939.85005  23596594.900    96624123.92445
  24316634.920   127784770.98505  24316636.460    99572574.52744
  21967903.440   115442117.78508  21967904.500    89954910.83547
  22998891.140   120860111.67007  22998891.980    94176773.93045
  21048714.860   110611768.44208  21048714.260    86190999.52848
  24984733.040   131295659.19405  24984733.860   102308317.21843
  20750717.940   109045935.63609  20750717.240    84970925.55649
  20304222.260   106699446.26609  20304225.500    83142455.58949
  23187025.440   121848670.41807  23187028.520    94947028.93845
 15 02 10 03 57  0.0000000  0 10G04G11G14G16G18G19G21G22G27G32
  22095335.820   116111808.28308  22095338.180    90476764.85247
  23580235.140   123914978.30005  23580236.720    96557140.93944
  24302274.960   127709310.38405  24302276.420    99513774.04244
  21984009.900   115526757.94608  21984010.920    90020864.19847
  23013351.040   120936099.31207  23013351.960    94235985.07945
  21039650.780   110564136.48508  21039650.200    86153883.73249
  24997933.200   131365026.05605  24997934.300   102362369.30044
  20755139.320   109069170.04309  20755138.600    84989030.29949
  20303540.700   106695864.77509  20303543.960    83139664.82349
  23165700.940   121736608.79406  23165703.820    94859708.22945
 15 02 10 03 57 30.0000000  0  9G04G11G14G16G18G19G22G27G32
  22082736.220   116045596.75508  22082738.540    90425171.46747
  23563894.040   123829105.23206  23563895.480    96490226.92844
  24287932.500   127633942.40005  24287934.220    99455045.74744
  22000183.260   115611749.88408  22000184.300    90087091.68447
  23027860.020   121012344.75807  23027860.980    94295397.09945
  21030638.080   110516774.58708  21030637.540    86116978.37349
  20759654.860   109092899.05609  20759654.060    85007520.44749
  20302932.720   106692669.94809  20302936.000    83137175.34949
  23144414.940   121624749.92007  23144417.640    94772545.51745
 15 02 10 03 58  0.0000000  0  9G04G11G14G16G18G19G22G27G32
  22070179.180   115979609.31408  22070181.540    90373752.69447
  23547570.620   123743324.99706  23547571.960    96423385.25044
  24273608.940   127558673.49205  24273610.960    99396394.62944
  22016423.780   115697094.74208  22016424.900    90153594.16947
  23042418.420   121088849.75607  23042419.400    94355011.37745
  21021677.720   110469687.80908  21021677.200    86080287.39148
  20764264.980   109117125.12409  20764264.100    85026397.91149
  20302399.240   106689866.69409  20302402.560    83134990.99349
  23123168.700   121513100.04106  23123171.240    94685545.63446
 15 02 10 03 58 30.0000000  0 10G01G04G11G14G16G18G19G22G27G32
  24572466.620   129129181.90204  24572471.680   100620168.71444
  22057662.900   115913836.44408  22057665.380    90322501.12447
  23531263.120   123657628.37206  23531264.420    96356608.74944
  24259303.160   127483497.00905  24259305.480    99337815.56844
  22032729.180   115782780.51208  22032730.420    90220362.29647
  23057024.020   121165602.77307  23057025.020    94414818.92046
  21012768.220   110422868.25708  21012767.720    86043804.63649
  20768967.640   109141837.59009  20768966.680    85045654.38449
  20301938.720   106687446.58209  20301942.020    83133105.19649
  23101960.860   121401652.52907  23101963.340    94598703.45545
 15 02 10 03 59  0.0000000  0 10G01G04G11G14G16G18G19G22G27G32
  24557183.860   129048869.82805  24557189.320   100557587.93741
  22045187.820   115848280.13908  22045190.420    90271418.30346
  23514971.920   123572017.66206  23514973.160    96289899.14044
  24245016.040   127408417.65005  24245018.220    99279312.15341
  22049099.360   115868806.25208  22049100.660    90287395.33647
  23071676.720   121242603.02407  23071677.700    94474819.10545
  21003910.180   110376319.04008  21003909.700    86007532.52949
  20773762.920   109167036.83309  20773761.880    85065290.16849
  20301551.620   106685412.39409  20301554.880    83131520.11549
  23080792.320   121290411.41607  23080794.680    94512022.09745
 15 02 10 03 59 30.0000000  0 10G01G04G11G14G16G18G19G22G27G32
  24541922.220   128968668.73805  24541928.080   100495093.63044
  22032754.880   115782945.08208  22032757.520    90220507.88646
  23498698.180   123486498.47906  23498699.380    96223260.89543
  24230749.080   127333443.28606  24230750.980    99220890.58544
  22065534.600   115955173.80108  22065535.920    90354694.72847
  23086377.040   121319853.44807  23086378.060    94535014.23146
  20995104.820   110330046.55508  20995104.340    85971476.05649
  20778651.400   109192726.04809  20778650.340    85085307.74849
  20301239.040   106683769.95109  20301242.360    83130240.28949
  23059664.560   121179384.19007  23059666.840    94425507.40545
 15 02 10 04 00  0.0000000  0 10G01G04G11G14G16G18G19G22G27G32
  24526681.180   128888576.83704  24526687.600   100432684.41044
  22020363.880   115717829.85008  22020366.460    90169768.77346
  23482441.600   123401069.36906  23482442.820    96156692.80744
  24216502.400   127258574.91906  24216504.200    99162551.61443
  22082034.000   116041878.44908  22082035.300    90422256.79247
  23101124.140   121397349.82407  23101125.180    94595401.01646
  20986352.040   110284050.51708  20986351.560    85935635.00449
  20783632.600   109218902.45709  20783631.540    85105704.95649
  20301000.900   106682518.43809  20301004.200    83129265.08849
  23038577.540   121068571.49607  23038579.860    94339159.88245
 15 02 10 04 00 30.0000000  0 10G01G04G11G14G16G18G19G22G27G32
  24511460.980   128808594.35904  24511467.300   100370360.46445
  22008014.760   115652934.59508  22008017.240    90119201.06846
  23466202.200   123315730.93006  23466203.560    96090195.39744
  24202276.580   127183815.51306  24202278.200    99104297.53245
  22098597.060   116128917.83508  22098598.380    90490079.68847
  23115917.760   121475090.49307  23115918.800    94655978.15245
  20977652.180   110238332.42108  20977651.660    85900010.51949
  20788706.200   109245564.43109  20788705.160    85126480.52949
  20300837.340   106681659.06409  20300840.640    83128595.44449
  23017531.840   120957976.14607  23017534.320    94252981.71145
 15 02 10 04 01  0.0000000  0 10G01G04G11G14G16G18G19G22G27G32
  24496261.840   128728722.47804  24496268.020   100308122.69944
  21995707.740   115588260.34308  21995710.100    90068805.57646
  23449980.380   123230484.45406  23449981.860    96023769.62945
  24188072.160   127109169.10306  24188073.640    99046131.50445
  22115223.560   116216290.58008  22115224.840    90558162.34747
  23130757.520   121553074.01407  23130758.600    94716744.51545
  20969005.640   110192894.60408  20969005.120    85864604.43849
  20793872.240   109272712.24609  20793871.240    85147634.67349
  20300748.780   106681193.84409  20300752.140    83128232.93849
  22996528.160   120847601.64807  22996530.800    94166975.62346
 15 02 10 04 01 30.0000000  0 10G01G04G11G14G16G18G19G22G27G32
  24481083.700   128648961.29504  24481089.740   100245971.20544
  21983442.820   115523807.48308  21983445.080    90018582.59047
  23433776.120   123145330.89806  23433777.700    95957416.26245
  24173889.680   127034638.52706  24173891.020    98988055.73545
  22131912.880   116303993.70108  22131914.100    90626502.43547
  23145643.180   121631298.40907  23145644.140    94777698.59046
  20960412.860   110147739.32208  20960412.360    85829418.51249
  20799130.460   109300344.29809  20799129.440    85169166.14949
  20300735.500   106681123.96509  20300738.860    83128178.48749
  22975567.120   120737450.83707  22975569.840    94081143.85346
 15 02 10 04 02  0.0000000  0 10G01G04G11G14G16G18G19G22G27G32
  24465926.340   128569309.08805  24465932.260   100183904.62244
  21971219.640   115459574.12808  21971221.840    89968530.64846
  23417589.240   123060268.61306  23417590.880    95891134.00545
  24159729.400   126960225.04406  24159730.600    98930071.21744
  22148664.160   116392022.20608  22148665.300    90695096.06347
  23160573.940   121709759.81407  23160574.780    94838837.34546
  20951873.720   110102865.89608  20951873.240    85794452.22149
  20804480.220   109328457.43409  20804479.200    85191072.48949
  20300797.260   106681448.53709  20300800.620    83128431.40549
  22954648.840   120627524.26307  22954651.620    93995486.80746
 15 02 10 04 02 30.0000000  0 10G01G04G11G14G16G18G19G22G27G32
  24450790.240   128489768.73404  24450796.260   100121925.19244
  21959038.720   115395563.47308  21959041.020    89918652.22846
  23401420.380   122975300.95706  23401422.120    95824925.47445
  24145592.320   126885934.44006  24145593.520    98872182.43644
  22165477.440   116480376.57808  22165478.500    90763943.61747
  23175549.900   121788458.80007  23175550.640    94900161.22245
  20943389.040   110058278.63108  20943388.560    85759708.90349
  20809921.760   109357053.06209  20809920.760    85213354.80549
  20300934.820   106682171.42709  20300938.160    83128994.69449
  22933774.360   120517827.44407  22933777.060    93910008.78746
 15 02 10 04 03  0.0000000  0 10G01G04G11G14G16G18G19G22G27G32
  24435675.140   128410338.96505  24435681.060   100060031.95343
  21946899.900   115331774.24308  21946902.320    89868946.35947
  23385269.280   122890427.15706  23385271.140    95758790.09345
  24131478.820   126811768.12705  24131480.140    98814390.51345
  22182351.960   116569052.75808  22182353.000    90833041.92947
  23190570.340   121867391.73707  23190570.980    94961667.40245
  20934958.860   110013977.73808  20934958.360    85725188.73449
  20815454.580   109386128.36909  20815453.600    85236010.89049
  20301148.140   106683292.29209  20301151.440    83129868.09549
  22912943.820   120408361.50507  22912946.380    93824710.65745
 15 02 10 04 03 30.0000000  0 10G01G04G11G14G16G18G19G22G27G32
  24420581.080   128331019.90404  24420587.040    99998224.98244
  21934803.220   115268206.45708  21934805.800    89819413.03547
  23369136.160   122805647.77506  23369138.080    95692728.26445
  24117389.500   126737729.21505  24117390.900    98756697.84644
  22199287.180   116658047.93208  22199288.240    90902388.81047
  23205634.960   121946556.74207  23205635.600    95023354.41145
  20926583.440   109969964.62808  20926582.940    85690892.81349
  20821078.360   109415681.85809  20821077.440    85259039.58749
  20301437.360   106684812.20309  20301440.640    83131052.44049
  22892157.680   120299129.19307  22892160.100    93739594.59846
 15 02 10 04 04  0.0000000  0 10G01G04G11G14G16G18G19G22G27G32
  24405508.060   128251810.78905  24405513.820    99936503.59843
  21922748.540   115204859.40608  21922751.280    89770051.70947
  23353020.980   122720962.72606  23353022.960    95626739.93744
  24103324.800   126663819.84005  24103326.420    98699106.12344
  22216282.280   116747358.02708  22216283.440    90971981.08747
  23220743.080   122025950.53007  23220743.760    95085219.69446
  20918262.900   109926239.97108  20918262.400    85656821.66349
  20826792.800   109445711.53509  20826791.900    85282439.33649
  20301802.560   106686731.24009  20301805.820    83132547.79349
  22871416.280   120190132.13207  22871418.580    93654661.84146
 15 02 10 04 04 30.0000000  0 10G01G04G11G14G16G18G19G22G27G32
  24390456.000   128172711.87905  24390461.600    99874868.17844
  21910736.020   115141733.38908  21910738.820    89720862.62047
  23336923.860   122636372.64906  23336925.860    95560825.61344
  24089285.340   126590043.09905  24089287.120    98641617.76345
  22233336.860   116836981.02508  22233338.180    91041817.19247
  23235894.480   122105571.71107  23235895.160    95147262.16745
  20909997.680   109882806.02608  20909997.180    85622977.04049
  20832597.600   109476216.11209  20832596.740    85306209.14049
  20302243.940   106689050.66809  20302247.180    83134355.13949
  22850720.140   120081373.17707  22850722.360    93569914.61245
 15 02 10 04 05  0.0000000  0 10G01G04G11G14G16G18G19G22G27G32
  24375425.060   128093724.11904  24375430.600    99813319.30944
  21898765.820   115078829.50108  21898768.600    89671846.61747
  23320845.100   122551878.96206  23320847.060    95494986.39944
  24075271.820   126516402.67105  24075273.880    98584235.62245
  22250450.620   116926914.78008  22250452.060    91111895.44247
  23251088.840   122185418.61407  23251089.500    95209480.52545
  20901788.220   109839665.01908  20901787.720    85589360.67649
  20838492.700   109507195.00109  20838491.820    85330348.53848
  20302761.860   106691772.28509  20302765.100    83136475.88049
  22830069.920   119972855.75607  22830072.100    93485355.61045
 15 02 10 04 05 30.0000000  0 10G01G04G11G14G16G18G19G22G27G32
  24360415.260   128014847.69705  24360420.840    99751857.21344
  21886837.980   115016147.86108  21886840.640    89623003.80147
  23304784.920   122467482.40906  23304786.820    95429222.87844
  24061284.920   126442901.66406  24061287.120    98526962.11244
  22267623.120   117017156.95608  22267624.600    91182214.02347
  23266325.760   122265489.57607  23266326.440    95271873.47245
  20893634.780   109796818.43208  20893634.300    85555973.73749
  20844477.820   109538646.89509  20844476.920    85354856.50949
  20303356.500   106694897.20809  20303359.780    83138910.88049
  22809466.060   119864582.50107  22809468.300    93400986.85545
 15 02 10 04 06  0.0000000  0 10G01G04G11G14G16G18G19G22G27G32
  24345426.460   127936080.78805  24345432.240    99690480.40744
  21874952.160   114953686.82408  21874954.620    89574332.88447
  23288743.000   122383181.49806  23288744.820    95363533.87745
  24047324.820   126369541.04306  24047327.060    98469797.99044
  22284853.500   117107702.81408  22284854.900    91252769.22947
  23281604.520   122345780.36507  23281605.280    95334437.71545
  20885537.300   109754265.69808  20885536.760    85522815.76649
  20850552.280   109570568.35009  20850551.360    85379730.37148
  20304027.700   106698424.43509  20304031.000    83141659.37549
  22788908.720   119756553.99807  22788911.060    93316808.82646
 15 02 10 04 06 30.0000000  0 10G01G04G11G14G16G18G19G22G27G32
  24330458.860   127857425.04305  24330464.800    99629190.29644
  21863108.620   114891448.03908  21863110.880    89525835.14847
  23272719.720   122298978.32506  23272721.420    95297921.05445
  24033392.360   126296325.46406  24033394.660    98412746.88744
  22302141.480   117198550.91908  22302142.720    91323559.94647
  23296925.080   122426290.42507  23296925.820    95397172.82645
  20877496.380   109712010.23908  20877495.800    85489889.44149
  20856716.100   109602959.33309  20856715.140    85404970.10648
  20304775.900   106702356.56509  20304779.280    83144723.37149
  22768398.800   119648774.47407  22768401.220    93232824.79146
 15 02 10 04 07  0.0000000  0 10G01G04G11G14G16G18G19G22G27G32
  24315512.260   127778880.20405  24315518.480    99567986.56445
  21851307.260   114829431.34208  21851309.420    89477510.47647
  23256715.160   122214873.25906  23256716.700    95232384.68245
  24019488.040   126223257.45906  24019490.320    98355810.79644
  22319486.300   117289698.06708  22319487.400    91394583.68747
  23312286.940   122507017.18107  23312287.640    95460076.79245
  20869512.180   109670053.10108  20869511.620    85457195.57349
  20862968.960   109635818.22909  20862967.960    85430574.43848
  20305601.300   106706694.19209  20305604.700    83148103.34249
  22747936.760   119541246.17507  22747939.300    93149036.53545
 15 02 10 04 07 30.0000000  0 10G01G04G11G14G16G18G19G22G27G32
  24300586.620   127700445.53605  24300592.940    99506868.70844
  21839548.000   114767636.11908  21839550.120    89429358.37247
  23240729.240   122130866.02507  23240730.560    95166924.55344
  24005612.320   126150339.18406  24005614.500    98298991.37344
  22336887.180   117381140.34808  22336888.320    91465837.40647
  23327689.520   122587958.12807  23327690.240    95523147.66045
  20861584.860   109628395.00008  20861584.320    85424734.72949
  20869310.360   109669142.48709  20869309.340    85456541.39948
  20306503.860   106711437.40809  20306507.320    83151799.35249
  22727522.920   119433970.84507  22727525.500    93065445.38946
 15 02 10 04 08  0.0000000  0 10G01G04G11G14G16G18G19G22G27G32
  24285682.360   127622123.13405  24285688.620    99445838.30444
  21827831.240   114706064.28708  21827833.340    89381380.33647
  23224762.380   122046959.13107  23224763.540    95101542.60344
  23991766.120   126077575.66906  23991768.120    98242292.53244
  22354344.080   117472877.58308  22354345.380    91537320.96447
  23343132.740   122669112.80507  23343133.460    95586385.07245
  20853715.220   109587039.84908  20853714.660    85392509.94349
  20875740.500   109702933.04609  20875739.460    85482871.70848
  20307484.200   106716589.23509  20307487.660    83155813.76349
  22707158.160   119326952.99607  22707160.760    92982054.87246
 15 02 10 04 08 30.0000000  0 10G01G04G11G14G16G18G19G22G27G32
  24270799.360   127543912.49905  24270805.460    99384894.98944
  21816156.900   114644715.57408  21816159.040    89333576.16246
  23208814.640   121963152.94807  23208815.800    95036239.14045
  23977949.840   126004969.23206  23977951.560    98185716.10444
  22371856.380   117564905.89308  22371857.840    91609031.34147
  23358616.120   122750478.61807  23358616.900    95649786.99145
  20845903.420   109545988.63908  20845902.860    85360521.99549
  20882258.900   109737187.48709  20882257.880    85509563.48748
  20308542.400   106722149.99209  20308545.820    83160146.82149
  22686842.720   119220194.62807  22686845.400    92898866.55045
 15 02 10 04 09  0.0000000  0 10G01G04G11G14G16G18G19G22G27G32
  24255937.760   127465814.40605  24255943.700    99324039.39444
  21804525.180   114583590.78008  21804527.380    89285946.46147
  23192886.180   121879448.49407  23192887.340    94971014.92745
  23964163.940   125932523.54906  23964165.520    98129264.90244
  22389423.840   117657223.63608  22389425.360    91680967.23947
  23374139.420   122832054.12907  23374140.240    95713352.32145
  20838149.840   109505243.40608  20838149.260    85328772.47149
  20888865.360   109771904.88209  20888864.400    85536616.00648
  20309678.760   106728121.36009  20309682.120    83164799.83049
  22666577.320   119113699.10307  22666580.040    92815883.04546
 15 02 10 04 09 30.0000000  0 10G01G04G11G14G16G18G19G22G27G32
  24241097.400   127387828.20005  24241103.280    99263270.95644
  21792935.980   114522689.30208  21792938.220    89238490.77447
  23176976.940   121795845.20207  23176978.160    94905869.55245
  23950408.880   125860240.89406  23950410.540    98072940.73744
  22407045.780   117749827.20408  22407047.200    91753125.85947
  23389702.140   122913836.63507  23389702.960    95777078.94645
  20830454.660   109464804.99208  20830454.080    85297262.02849
  20895559.480   109807082.95908  20895558.580    85564027.50348
  20310893.280   106734503.44609  20310896.600    83169772.88249
  22646362.340   119007468.11207  22646364.960    92733105.66146
 15 02 10 04 10  0.0000000  0 10G01G04G11G14G16G18G19G22G27G32
  24226278.520   127309954.39405  24226284.280    99202590.12043
  21781389.420   114462011.75408  21781391.720    89191209.58647
  23161087.200   121712344.69306  23161088.540    94840804.27145
  23936685.300   125788124.76805  23936687.320    98016746.34544
  22424721.740   117842714.24708  22424722.980    91825505.36147
  23405303.920   122995824.54207  23405304.780    95840965.63345
  20822818.260   109424675.50408  20822817.680    85265992.30449
  20902341.060   109842720.80208  20902340.220    85591797.24748
  20312186.200   106741297.64709  20312189.480    83175067.05949
  22626198.240   118901504.69207  22626200.740    92650536.77446
 15 02 10 04 10 30.0000000  0 10G01G04G11G14G16G18G19G22G27G32
  24211480.660   127232191.57805  24211486.260    99141995.76344
  21769885.240   114401556.69308  21769887.520    89144101.76947
  23145216.900   121628946.21106  23145218.420    94775818.46845
  23922993.640   125716176.53205  23922996.020    97960682.77444
  22442450.740   117935880.20808  22442451.820    91898102.20447
  23420944.020   123078014.21107  23420945.000    95905009.51445
  20815240.600   109384854.76408  20815240.020    85234963.16049
  20909209.540   109878815.22008  20909208.740    85619922.77248
  20313557.420   106748503.34409  20313560.680    83180681.88749
  22606085.200   118795809.91107  22606087.680    92568177.21546
 15 02 10 04 11  0.0000000  0 10G01G04G11G14G16G18G19G22G27G32
  24196703.960   127154540.67705  24196709.440    99081488.67244
  21758423.600   114341325.17408  21758425.840    89097168.14247
  23129366.240   121545651.01107  23129367.820    94710913.15445
  23909334.840   125644399.98106  23909337.400    97904753.02545
  22460232.360   118029323.28908  22460233.380    91970914.98447
  23436622.260   123160404.50707  23436623.420    95969209.74145
  20807722.200   109345345.42108  20807721.640    85204176.67149
  20916164.840   109915365.64208  20916164.060    85648403.62448
  20315007.240   106756122.33109  20315010.560    83186618.75849
  22586023.820   118690387.13607  22586026.320    92486029.61546
 15 02 10 04 11 30.0000000  0 10G01G04G11G14G16G18G19G22G27G32
  24181948.420   127077000.74505  24181953.920    99021067.97644
  21747004.380   114281316.36908  21747006.520    89050408.05447
  23113535.200   121462458.79906  23113536.840    94646088.09945
  23895709.360   125572797.03806  23895711.820    97848958.53044
  22478065.800   118123039.52108  22478066.940    92043940.61347
  23452338.040   123242991.84607  23452339.300    96033563.51545
  20800263.160   109306147.91708  20800262.620    85173633.16849
  20923206.440   109952369.26108  20923205.600    85677237.61748
  20316535.640   106764154.40309  20316539.060    83192877.51649
  22566014.480   118585237.93907  22566017.000    92404095.18546
 15 02 10 04 12  0.0000000  0 10G01G04G11G14G16G18G19G22G27G32
  24167213.980   126999571.39505  24167219.760    98960733.47144
  21735627.420   114221529.87708  21735629.500    89003821.20147
  23097723.840   121379369.72307  23097725.420    94581343.38945
  23882117.560   125501370.27306  23882119.740    97793301.32344
  22495950.620   118217025.50908  22495951.840    92117176.43847
  23468090.980   123325774.15207  23468092.340    96098069.19445
  20792863.760   109267263.59408  20792863.200    85143333.70449
  20930333.880   109989824.06608  20930333.040    85706423.18148
  20318142.760   106772600.00709  20318146.220    83199458.50649
  22546057.640   118480364.35407  22546060.200    92322375.52246
 15 02 10 04 12 30.0000000  0 10G01G04G11G14G16G18G19G22G27G32
  24152500.940   126922254.21505  24152506.780    98900486.39844
  21724293.040   114161967.26408  21724295.080    88957408.79347
  23081932.480   121296385.80807  23081934.080    94516680.62245
  23868560.260   125430124.25206  23868562.020    97737784.98245
  22513886.560   118311279.72108  22513887.880    92190621.28247
  23483880.960   123408750.83607  23483882.300    96162726.34245
  20785524.460   109228695.41008  20785523.940    85113280.57949
  20937547.220   110027730.12908  20937546.340    85735960.37248
  20319829.060   106781461.49409  20319832.500    83206363.56149
  22526154.100   118375770.35107  22526156.560    92240873.71546
 15 02 10 04 13  0.0000000  0 10G01G04G11G14G16G18G19G22G27G32
  24137809.300   126845049.90105  24137815.340    98840327.21445
  21713001.400   114102629.37408  21713003.420    88911171.50547
  23066161.480   121213508.37807  23066162.960    94452100.84245
  23855037.980   125359062.54606  23855039.360    97682412.21444
  22531873.420   118405800.68208  22531874.720    92264273.97147
  23499707.620   123491920.50607  23499708.980    96227533.86745
  20778245.720   109190445.51208  20778245.220    85083475.47249
  20944846.100   110066086.08408  20944845.260    85765848.13348
  20321594.820   106790740.39709  20321598.200    83213593.87349
  22506304.520   118271459.13008  22506306.700    92159592.26246
 15 02 10 04 13 30.0000000  0 10G01G04G11G14G16G18G19G22G27G32
  24123139.160   126767958.11805  24123145.380    98780255.74944
  21701752.440   114043515.92408  21701754.500    88865109.09747
  23050410.760   121130737.71707  23050412.160    94387604.25245
  23841550.980   125288187.43906  23841552.380    97627184.88045
  22549910.460   118500584.96908  22549911.660    92338131.85147
  23515570.520   123575280.41607  23515571.740    96292489.64545
  20771027.760   109152515.08108  20771027.300    85053919.30349
  20952230.260   110104890.25908  20952229.500    85796085.15448
  20323440.080   106800437.15909  20323443.420    83221149.78549
  22486509.220   118167432.91508  22486511.100    92078532.88846
 15 02 10 04 14  0.0000000  0 10G01G04G11G14G16G18G19G22G27G32
  24108490.720   126690980.03105  24108496.980    98720272.86444
  21690546.440   113984628.25108  21690548.540    88819222.62347
  23034680.640   121048075.23407  23034681.940    94323191.94645
  23828100.120   125217503.21006  23828101.660    97572106.27645
  22567997.220   118595630.66208  22567998.380    92412193.42447
  23531469.420   123658829.82807  23531470.600    96357593.06945
  20763871.100   109114906.80308  20763870.660    85024614.15649
  20959699.640   110144142.07709  20959698.900    85826670.98848
  20325365.240   106810553.66709  20325368.480    83229032.77949
  22466768.760   118063695.24608  22466770.520    91997698.35446
 15 02 10 04 14 30.0000000  0 10G01G04G11G14G16G18G19G22G27G32
  24093863.520   126614112.62505  24093869.420    98660376.22345
  21679382.840   113925963.48408  21679384.980    88773509.83847
  23018970.740   120965519.01107  23018971.940    94258862.45245
  23814685.340   125147009.55306  23814687.320    97517176.17045
  22586132.360   118690931.53208  22586133.560    92486453.83346
  23547403.440   123742563.74007  23547404.560    96422840.25245
  20756775.500   109077619.15208  20756775.020    84995558.85249
  20967253.300   110183836.60209  20967252.520    85857601.78948
  20327369.840   106821087.67009  20327373.040    83237241.08849
  22447082.940   117960245.54008  22447084.800    91917088.19946
 15 02 10 04 15  0.0000000  0 10G01G04G11G14G16G18G19G22G27G32
  24079257.940   126537359.16405  24079263.740    98600568.38344
  21668262.200   113867524.59708  21668264.400    88727973.06747
  23003281.680   120883072.49607  23003282.860    94194618.45045
  23801308.060   125076712.99306  23801310.460    97462399.65045
  22604315.980   118786488.22208  22604317.360    92560913.58647
  23563372.760   123826483.03306  23563373.840    96488231.91745
  20749741.880   109040656.94008  20749741.340    84966757.13949
  20974891.520   110223975.44609  20974890.680    85888878.81248
  20329454.620   106832043.15809  20329457.820    83245777.82849
  22427452.840   117857089.39907  22427454.900    91836706.80946
 15 02 10 04 15 30.0000000  0 10G01G04G11G14G16G18G19G22G27G32
  24064673.420   126460716.71805  24064678.940    98540847.05644
  21657184.060   113809308.94108  21657186.280    88682610.24347
  22987613.160   120800733.92907  22987614.320    94130458.55544
  23787968.340   125006613.45306  23787971.060    97407776.61844
  22622547.160   118882295.03008  22622548.720    92635568.22946
  23579376.460   123910582.91207  23579377.500    96553764.28745
  20742769.920   109004018.88808  20742769.340    84938208.01249
  20982613.380   110264553.89409  20982612.440    85920498.38448
  20331619.180   106843417.97909  20331622.380    83254641.32349
  22407878.440   117754226.45907  22407880.700    91756553.87946
 15 02 10 04 16  0.0000000  0 10G01G04G11G14G16G18G19G22G27G32
  24050110.080   126384185.98105  24050115.580    98481212.73444
  21646148.560   113751317.21808  21646150.780    88637421.91247
  22971965.420   120718504.34507  22971966.580    94066383.58845
  23774666.880   124936714.05306  23774669.680    97353309.55745
  22640825.540   118978349.60108  22640827.200    92710415.94346
  23595414.220   123994861.77106  23595415.260    96619436.10844
  20735860.000   108967707.03208  20735859.440    84909913.06349
  20990418.680   110305570.97009  20990417.660    85952459.74448
  20333863.760   106855213.49409  20333867.020    83263832.63449
  22388360.420   117651659.86707  22388362.880    91676631.85846
 15 02 10 04 16 30.0000000  0 10G01G04G11G14G16G18G19G22G27G32
  24035568.340   126307768.58805  24035573.720    98421666.75244
  21635156.060   113693551.31408  21635158.260    88592409.54447
  22956338.800   120636385.99407  22956340.020    94002395.29945
  23761404.560   124867019.70206  23761407.160    97299002.27545
  22659150.980   119074650.61908  22659152.640    92785455.69747
  23611485.940   124079319.40606  23611487.000    96685247.24644
  20729012.720   108931724.62408  20729012.220    84881874.83049
  20998307.400   110347026.51509  20998306.340    85984762.77148
  20336188.880   106867432.15909  20336192.180    83273353.67149
  22368899.660   117549393.56908  22368902.220    91596943.84146
 15 02 10 04 17  0.0000000  0 10G01G04G11G14G16G18G19G22G27G32
  24021047.840   126231463.27605  24021053.140    98362208.10844
  21624206.300   113636009.75508  21624208.440    88547571.98847
  22940733.180   120554378.01307  22940734.380    93938493.00745
  23748181.580   124797531.75606  23748183.960    97244855.83345
  22677522.700   119171193.87908  22677524.220    92860684.19547
  23627590.980   124163952.16707  23627592.100    96751194.84844
  20722228.140   108896071.52608  20722227.660    84854093.20149
  21006278.940   110388917.29609  21006277.860    86017404.94248
  20338594.380   106880073.29409  20338597.740    83283203.90649
  22349496.400   117447428.73708  22349498.940    91517490.73546
 15 02 10 04 17 30.0000000  0  9G04G11G14G16G18G19G22G27G32
  21613298.760   113578690.14608  21613300.860    88502907.38447
  22925148.200   120472478.62107  22925149.420    93874675.33445
  23734997.960   124728250.95306  23735000.040    97190870.79444
  22695939.600   119267973.86508  22695940.900    92936097.16347
  23643728.520   124248755.37807  23643729.600    96817275.26245
  20715506.080   108860747.02008  20715505.620    84826567.61849
  21014332.500   110431239.21808  21014331.460    86050383.06748
  20341079.940   106893135.02809  20341083.340    83293381.87749
  22330150.600   117345765.23808  22330153.020    91438272.43746
 15 02 10 04 18  0.0000000  0 10G01G04G11G14G16G18G19G22G27G32
  23992071.040   126079184.88705  23992075.680    98243544.38444
  21602435.320   113521602.38908  21602437.400    88458423.43247
  22909585.840   120390698.14407  22909587.040    93810950.32145
  23721856.120   124659189.89406  23721858.060    97137056.97644
  22714402.760   119364997.21408  22714403.880    93011699.76347
  23659899.980   124333736.98207  23659901.100    96883494.67744
  20708848.740   108825762.32008  20708848.220    84799306.81949
  21022469.580   110474000.25608  21022468.620    86083703.35448
  20343647.560   106906627.90209  20343650.940    83303895.80249
  22310864.460   117244415.13208  22310866.780    91359298.33846
 15 02 10 04 18 30.0000000  0 10G01G04G11G14G16G18G19G22G27G32
  23977614.860   126003216.98805  23977619.820    98184348.69445
  21591614.000   113464735.94508  21591616.060    88414111.94247
  22894044.240   120309026.79207  22894045.420    93747310.32145
  23708754.520   124590340.49206  23708756.360    97083408.10045
  22732909.560   119462250.93708  22732910.760    93087481.87846
  23676103.080   124418884.15307  23676104.180    96949843.11945
  20702254.340   108791108.29408  20702253.760    84772303.68349
  21030687.860   110517187.69308  21030686.980    86117355.90248
  20346295.300   106920541.92209  20346298.640    83314737.89049
  22291636.320   117143370.34008  22291638.640    91280562.14746
 15 02 10 04 19  0.0000000  0  9G04G11G14G16G18G19G22G27G32
  21580835.620   113408095.43808  21580837.680    88369976.49847
  22878524.340   120227469.62107  22878525.520    93683759.29846
  23695694.620   124521710.38606  23695696.440    97029930.11145
  22751460.320   119559736.48007  22751461.740    93163444.63846
  23692338.020   124504199.01607  23692339.140    97016322.23245
  20695723.980   108756790.94708  20695723.360    84745562.89349
  21038987.900   110560804.69008  21038987.080    86151343.17548
  20349024.180   106934882.29709  20349027.520    83325912.20349
  22272467.480   117042637.77708  22272469.860    91202069.24946
 15 02 10 04 19 30.0000000  0 10G01G04G11G14G16G18G19G22G27G32
  23948767.120   125851614.13805  23948772.440    98066217.93645
  21570100.480   113351682.40108  21570102.580    88326018.31447
  22863026.520   120146028.57107  22863027.720    93620298.77245
  23682677.280   124453303.84706  23682679.140    96976626.32745
  22770054.820   119657452.21408  22770056.460    93239586.76946
  23708604.800   124589681.31407  23708605.960    97082931.80145
  20689258.220   108722813.21208  20689257.600    84719086.74249
  21047369.600   110604850.66608  21047368.780    86185664.71448
  20351834.620   106949651.21909  20351837.940    83337420.44949
  22253358.800   116942221.35308  22253361.200    91123822.68346
 15 02 10 04 20  0.0000000  0 10G01G04G11G14G16G18G19G22G27G32
  23934375.340   125775983.59405  23934380.480    98007285.08845
  21559407.640   113295491.71008  21559409.800    88282233.38147
  22847550.000   120064699.34307  22847551.220    93556925.38045
  23669702.080   124385118.63006  23669703.940    96923494.99145
  22788691.640   119755390.08908  22788693.360    93315901.98646
  23724902.020   124675323.83307  23724903.180    97149666.21345
  20682856.500   108689171.84309  20682855.840    84692872.69149
  21055831.580   110649318.59508  21055830.780    86220315.04648
  20354725.720   106964844.11509  20354729.020    83349259.06549
  22234309.740   116842118.19008  22234312.140    91045820.23346
 15 02 10 04 20 30.0000000  0 10G01G04G11G14G16G18G19G22G27G32
  23920005.320   125700467.90205  23920010.360    97948441.73844
  21548758.160   113239528.73008  21548760.340    88238625.88447
  22832095.960   119983488.01007  22832097.240    93493643.85246
  23656770.620   124317163.15206  23656772.480    96870542.68645
  22807371.400   119853552.73608  22807373.040    93392392.34446
  23741230.380   124761129.96507  23741231.500    97216528.12845
  20676519.960   108655873.18809  20676519.320    84666925.69149
  21064374.540   110694212.14508  21064373.740    86255297.03548
  20357698.640   106980466.98109  20357701.940    83361432.72249
  22215321.840   116742336.05508  22215324.160    90968067.92446
 15 02 10 04 21  0.0000000  0 10G01G04G11G14G16G18G19G22G27G32
  23905656.580   125625065.32605  23905661.660    97889686.53645
  21538151.740   113183791.86108  21538153.940    88195194.57647
  22816664.200   119902393.46607  22816665.540    93430453.33445
  23643883.000   124249438.42706  23643884.980    96817770.19045
  22826093.120   119951935.33708  22826094.620    93469054.09747
  23757589.100   124847095.58506  23757590.220    97283514.32745
  20670248.640   108622917.21309  20670248.020    84641245.71349
  21072997.800   110739527.65308  21072996.980    86290607.82148
  20360753.200   106996518.68409  20360756.520    83373940.54149
  22196395.160   116642875.51208  22196397.340    90890566.20846
 15 02 10 04 21 30.0000000  0 10G01G04G11G14G16G18G19G22G27G32
  23891329.240   125549775.33205  23891334.500    97831019.05145
  21527588.320   113128280.70108  21527590.480    88151939.15247
  22801254.740   119821415.80507  22801256.000    93367353.88245
  23631039.740   124181946.97206  23631041.760    96765179.44645
  22844856.120   120050534.43708  22844857.440    93545884.55846
  23773977.720   124933218.26706  23773978.760    97350622.88645
  20664042.760   108590305.03309  20664042.140    84615833.62449
  21081700.920   110785262.71008  21081700.020    86326245.52848
  20363889.400   107012999.35809  20363892.680    83386782.61849
  22177530.060   116543738.56408  22177532.160    90813316.65746
 15 02 10 04 22  0.0000000  0 10G01G04G11G14G16G18G19G22G27G32
  23877023.380   125474598.09305  23877028.800    97772439.43145
  21517067.940   113072995.47608  21517070.000    88108859.78047
  22785867.740   119740556.02007  22785868.920    93304346.27245
  23618241.260   124114691.04906  23618243.420    96712772.23545
  22863659.720   120149347.21008  22863660.980    93622881.51246
  23790395.860   125019496.03306  23790396.920    97417852.31245
  20657902.580   108558038.15109  20657901.960    84590690.59749
  21090483.580   110831415.86008  21090482.620    86362209.02448
  20367107.340   107029909.73409  20367110.640    83399959.53049
  22158727.000   116444927.50908  22158729.040    90736321.04246
 15 02 10 04 22 30.0000000  0 10G01G04G11G14G16G18G19G22G27G32
  23862739.300   125399534.83805  23862744.640    97713948.65145
  21506590.820   113017937.58408  21506592.840    88065957.55147
  22770503.500   119659816.00807  22770504.560    93241432.00545
  23605488.560   124047675.52406  23605490.760    96660552.35845
  22882503.520   120248372.09507  22882504.840    93700043.75846
  23806843.300   125105928.29406  23806844.460    97485202.11445
  20651828.640   108526119.32809  20651828.000    84565818.79449
  21099345.600   110877986.20308  21099344.620    86398497.60048
  20370407.400   107047251.67409  20370410.700    83413472.72649
  22139986.560   116346446.12408  22139988.720    90659582.30846
 15 02 10 04 23  0.0000000  0 10G01G04G11G14G16G18G19G22G27G32
  23848476.520   125324583.37605  23848481.860    97655544.93245
  21496156.540   112963104.86308  21496158.560    88023230.78647
  22755161.740   119579194.04507  22755162.720    93178609.72746
  23592781.760   123980901.05206  23592783.900    96608520.31045
  22901386.440   120347603.59207  22901388.000    93777367.00046
  23823319.340   125192510.58206  23823320.500    97552668.82344
  20645820.760   108494547.59009  20645820.100    84541217.44149
  21108286.240   110924969.69908  21108285.260    86435108.11648
  20373789.240   107065023.53109  20373792.580    83427320.92149
  22121308.820   116248294.52408  22121311.160    90583100.54046
 15 02 10 04 23 30.0000000  0 10G01G04G11G14G16G18G19G22G27G32
  23834235.220   125249745.45905  23834240.780    97597229.70745
  21485765.400   112908498.89008  21485767.380    87980680.69448
  22739842.860   119498692.54507  22739843.760    93115881.30446
  23580121.780   123914372.09306  23580123.880    96556679.56245
  22920308.440   120447040.84207  22920310.280    93854850.58046
  23839823.940   125279242.92206  23839825.200    97620252.46344
  20639879.620   108463326.52609  20639878.940    84516889.33949
  21117305.480   110972366.22508  21117304.540    86472040.47448
  20377253.340   107083227.59209  20377256.700    83441505.90549
  22102694.620   116150476.67908  22102697.140    90506878.85146
 15 02 10 04 24  0.0000000  0 10G01G04G11G14G16G18G19G22G27G32
  23820015.360   125175019.64605  23820020.880    97539001.85445
  21475417.180   112854118.59008  21475419.140    87938306.45547
  22724546.800   119418311.21007  22724547.660    93053246.51845
  23567508.800   123848090.06006  23567510.760    96505031.23345
  22939268.880   120546679.47307  22939270.840    93932491.06546
  23856356.460   125366121.83806  23856357.700    97687950.30944
  20634005.240   108432456.26609  20634004.540    84492834.59849
  21126402.700   111020172.60108  21126401.800    86509292.19648
  20380799.540   107101863.08809  20380802.900    83456027.07149
  22084144.180   116052993.66108  22084146.780    90430918.05547
 15 02 10 04 24 30.0000000  0 10G01G04G11G14G16G18G19G22G27G32
  23805817.320   125100408.44205  23805822.740    97480863.28445
  21465112.360   112799966.37508  21465114.320    87896109.94447
  22709274.080   119338053.07407  22709275.060    92990707.73746
  23554943.880   123782060.41006  23554945.680    96453579.55444
  22958267.760   120646519.14007  22958269.600    94010288.20246
  23872916.900   125453147.40606  23872918.160    97755762.42644
  20628198.320   108401940.65709  20628197.620    84469056.20349
  21135578.020   111068389.08608  21135577.100    86546863.48148
  20384428.400   107120932.92309  20384431.740    83470886.67449
  22065658.400   115955850.09508  22065660.940    90355221.77846
 15 02 10 04 25  0.0000000  0 10G01G04G11G14G16G18G19G22G27G32
  23791640.580   125025909.55705  23791646.040    97422812.24644
  21454850.560   112746040.32008  21454852.520    87854089.66047
  22694024.420   119257916.36007  22694025.500    92928263.56546
  23542427.040   123716283.78306  23542428.740    96402325.05645
  22977304.060   120746554.57607  22977305.560    94088237.87846
  23889504.400   125540315.45706  23889505.700    97823685.57645
  20622458.700   108371778.83909  20622458.000    84445553.49049
  21144830.640   111117011.72008  21144829.700    86584751.25048
  20388139.640   107140435.42909  20388142.960    83486083.42649
  22047237.260   115859046.15608  22047239.700    90279790.14646
 15 02 10 04 25 30.0000000  0 10G01G04G11G14G16G18G19G22G27G32
  23777485.600   124951524.62905  23777490.880    97364850.00245
  21444632.060   112692341.82708  21444634.040    87812246.69447
  22678798.280   119177903.42707  22678799.460    92865915.84846
  23529959.060   123650764.30306  23529960.920    96351270.94045
  22996377.420   120846784.34607  22996378.580    94166338.97946
  23906118.960   125627625.91106  23906120.420    97891719.69645
  20616787.020   108341974.09409  20616786.340    84422329.01949
  21154160.540   111166040.34708  21154159.580    86622955.37748
  20391933.620   107160372.75009  20391936.960    83501618.99549
  22028881.520   115762585.75308  22028883.820    90204626.20946
 15 02 10 04 26  0.0000000  0 10G01G04G11G14G16G18G19G22G27G32
  23763352.120   124877252.94005  23763357.340    97306976.01644
  21434456.760   112638870.50608  21434458.780    87770580.74947
  22663595.760   119098014.45707  22663597.040    92803664.72146
  23517540.280   123585503.83806  23517542.280    96300418.62645
  23015487.100   120947204.89408  23015488.000    94244588.73946
  23922760.040   125715075.74206  23922761.560    97959862.42445
  20611183.440   108312527.13209  20611182.760    84399383.34149
  21163567.120   111215472.20608  21163566.180    86661473.70848
  20395810.280   107180744.65909  20395813.600    83517493.20849
  22010591.440   115666470.47108  22010593.640    90129731.19346
 15 02 10 04 26 30.0000000  0 10G01G04G11G14G16G18G19G22G27G32
  23749240.180   124803093.99805  23749245.180    97249189.88245
  21424324.600   112585625.79608  21424326.660    87729091.38047
  22648416.920   119018249.71907  22648418.320    92741510.40646
  23505171.380   123520505.60206  23505173.460    96249770.66845
  23034632.240   121047812.58507  23034633.100    94322984.32846
  23939427.200   125802662.65306  23939428.780    98028111.93643
  20605648.140   108283439.12109  20605647.480    84376717.36249
  21173049.980   111265305.02908  21173049.100    86700304.47848
  20399769.620   107201551.26009  20399772.920    83533706.13649
  21992367.320   115570702.08708  21992369.480    90055106.49047
 15 02 10 04 27  0.0000000  0 10G01G04G11G14G16G18G19G22G27G32
  23735149.700   124729047.81005  23735154.520    97191491.60744
  21414235.640   112532608.05308  21414237.740    87687778.86847
  22633261.920   118938609.96407  22633263.320    92679453.47445
  23492852.880   123455772.18906  23492854.940    96199329.04545
  23053812.360   121148604.75907  23053813.300    94401523.68046
  23956120.040   125890384.42906  23956121.600    98096466.56944
  20600181.380   108254711.10009  20600180.700    84354331.89449
  21182608.680   111315536.58108  21182607.900    86739445.94148
  20403811.720   107222792.88409  20403815.060    83550258.04649
  21974209.580   115475282.87708  21974211.800    89980753.86547
 15 02 10 04 27 30.0000000  0 10G01G04G11G14G16G18G19G22G27G32
  23721080.860   124655115.07605  23721085.540    97133881.74245
  21404189.940   112479817.70908  21404192.060    87646643.55148
  22618131.020   118859096.64707  22618132.440    92617495.06846
  23480585.520   123391306.85606  23480587.480    96149096.32545
  23073027.040   121249579.25907  23073028.200    94480205.11546
  23972838.320   125978239.84106  23972839.980    98164925.31944
  20594783.560   108226345.44909  20594782.900    84332228.79149
  21192243.040   111366165.84208  21192242.340    86778897.31548
  20407936.840   107244470.84809  20407940.220    83567149.96049
  21956118.860   115380215.82708  21956121.140    89906675.65947
 15 02 10 04 28  0.0000000  0 10G01G04G11G14G16G18G19G22G27G32
  23707033.560   124581295.85605  23707038.240    97076360.31145
  21394187.600   112427255.04408  21394189.680    87605685.64747
  22603024.360   118779710.36107  22603025.740    92555635.65146
  23468369.780   123327112.55106  23468371.640    96099074.80945
  23092275.780   121350733.26107  23092277.260    94559026.41546
  23989581.700   126066227.07806  23989583.320    98233486.77845
  20589454.960   108198343.57209  20589454.320    84310409.15049
  21201952.760   111417190.85408  21201952.080    86818657.06348
  20412145.100   107266585.53509  20412148.480    83584382.17949
  21938095.600   115285503.20108  21938097.980    89832873.61947
 15 02 10 04 28 30.0000000  0 10G01G04G11G14G16G18G19G22G27G32
  23693007.740   124507589.73505  23693012.480    97018927.00545
  21384228.520   112374919.81808  21384230.580    87564904.97147
  22587941.980   118700451.43807  22587943.220    92493875.48446
  23456206.180   123263191.72106  23456207.960    96049266.35845
  23111558.020   121452063.02507  23111559.660    94637984.67946
  24006349.800   126154343.80206  24006351.360    98302149.15445
  20584195.860   108170706.69109  20584195.200    84288873.92149
  21211737.400   111468609.39208  21211736.680    86858723.45248
  20416436.560   107289137.10209  20416439.900    83601954.82349
  21920140.180   115191146.94008  21920142.600    89759349.25947
 15 02 10 04 29  0.0000000  0 10G01G04G11G14G16G18G19G22G27G32
  23679003.360   124433996.90705  23679008.360    96961581.98146
  21374312.780   112322812.29708  21374314.820    87524301.73147
  22572884.080   118621321.20108  22572885.200    92432215.58446
  23444095.160   123199547.55306  23444096.940    95999673.50645
  23130873.360   121553566.20607  23130875.000    94717078.05446
  24023142.180   126242588.13406  24023143.660    98370910.95744
  20579006.500   108143436.52809  20579005.860    84267624.44749
  21221596.600   111520419.71508  21221595.840    86899095.13448
  20420811.280   107312126.10909  20420814.560    83619868.32449
  21902253.040   115097149.42708  21902255.480    89686104.45247
 15 02 10 04 29 30.0000000  0 10G01G04G11G14G16G18G19G22G27G32
  23665020.600   124360518.04305  23665025.900    96904325.76445
  21364440.480   112270933.13908  21364442.540    87483876.42947
  22557850.880   118542320.80708  22557851.860    92370656.85846
  23432037.400   123136183.38706  23432039.140    95950298.84345
  23150221.240   121655239.93307  23150222.780    94796304.32146
  24039958.480   126330958.61006  24039959.920    98439771.04144
  20573887.300   108116535.04509  20573886.680    84246662.25049
  21231530.080   111572620.22108  21231529.260    86939770.84948
  20425269.420   107335553.66109  20425272.680    83638123.55249
  21884434.680   115003513.45508  21884437.140    89613141.37247
 15 02 10 04 30  0.0000000  0 10G01G04G11G14G16G18G19G22G27G32
  23651059.420   124287152.14605  23651064.860    96847157.56345
  21354611.480   112219281.51608  21354613.520    87443628.43048
  22542842.340   118463450.10108  22542843.240    92309199.19746
  23420033.180   123073100.91107  23420034.940    95901143.67145
  23169601.020   121757080.99107  23169602.400    94875660.97346
  24056798.360   126419452.74506  24056799.520    98508727.49044
  20568838.360   108090002.67109  20568837.740    84225987.67949
  21241537.240   111625208.04608  21241536.380    86980748.37548
  20429810.900   107359419.16309  20429814.160    83656720.03849
  21866685.380   114910240.39808  21866687.860    89540461.07247
 15 02 10 04 30 30.0000000  0 10G01G04G11G14G16G18G19G22G27G32
  23637119.680   124213898.98505  23637125.240    96790077.21546
  21344825.800   112167857.32908  21344827.800    87403557.64947
  22527858.540   118384709.66908  22527859.460    92247843.04146
  23408083.160   123010303.01107  23408084.920    95852210.25545
  23189012.020   121859086.18207  23189013.220    94955145.52146
  24073661.340   126508067.96406  24073662.200    98577778.31443
  20563859.880   108063840.71109  20563859.280    84205601.73649
  21251617.680   111678180.99508  21251616.780    87022025.99848
  20434435.720   107383722.80309  20434438.980    83675657.93449
  21849005.500   114817332.28008  21849007.980    89468065.14447
 15 02 10 04 31  0.0000000  0 10G01G04G11G14G16G18G19G22G27G32
  23623201.500   124140758.97305  23623207.220    96733085.02246
  21335083.500   112116661.14408  21335085.500    87363664.53447
  22512899.640   118306100.35808  22512900.640    92186589.05946
  23396187.880   122947792.64607  23396189.660    95803500.88145
  23208453.700   121961252.81407  23208454.780    95034755.88146
  24090547.120   126596802.84006  24090547.920    98646922.36944
  20558952.280   108038051.17209  20558951.700    84185505.99249
  21261771.120   111731537.61908  21261770.220    87063602.58848
  20439144.060   107408465.39909  20439147.340    83694937.87549
  21831395.580   114724791.67608  21831398.020    89395955.59047
 15 02 10 04 31 30.0000000  0 10G01G04G11G14G16G18G19G22G27G32
  23609305.180   124067733.71606  23609310.920    96676182.26345
  21325384.840   112065694.53408  21325386.860    87323950.30747
  22497966.200   118227624.84008  22497967.260    92125439.33646
  23384348.180   122885574.12707  23384349.900    95755018.93145
  23227925.680   122063578.96407  23227926.740    95114490.52546
  24107455.560   126685656.90906  24107456.420    98716159.27744
  20554116.140   108012637.01109  20554115.540    84165702.75049
  21271997.500   111785277.52008  21271996.560    87105477.83348
  20443936.360   107433648.91409  20443939.620    83714561.38349
  21813856.360   114632622.40508  21813858.760    89324135.38647
 15 02 10 04 32  0.0000000  0 10G01G04G11G14G16G18G19G22G27G32
  23595430.280   123994820.46606  23595435.880    96619366.76945
  21315729.380   112014954.73308  21315731.400    87284412.81847
  22483057.860   118149281.30808  22483059.020    92064392.44846
  23372563.960   122823647.47207  23372565.680    95706764.40745
  23247427.140   122166059.92507  23247428.280    95194345.81845
  24124385.840   126774625.72806  24124386.780    98785485.63644
  20549351.140   107987596.68609  20549350.500    84146190.81049
  21282295.880   111839395.90108  21282294.960    87147647.99448
  20448812.100   107459270.92709  20448815.360    83734526.58649
  21796387.720   114540823.81208  21796390.120    89252604.02647
