     2.11           OBSERVATION DATA    G                   RINEX VERSION / TYPE
SPIDER V4,0,0,3554                      2015 03 24 00:09    PGM / RUN BY / DATE 
CJSR                                                        MARKER NAME         
CJSR                                                        MARKER NUMBER       
                                                            OBSERVER / AGENCY   
496548              LEICA GRX1200+GNSS  8.20/4.007          REC # / TYPE / VERS 
10321013            LEIAR25         NONE                    ANT # / TYPE        
  5147913.4740   536355.0963  3716357.4907                  APPROX POSITION XYZ 
        0.0720        0.0000        0.0000                  ANTENNA: DELTA H/E/N
     1     1                                                WAVELENGTH FACT L1/2
     4    C1    L1    P2    L2                              # / TYPES OF OBSERV 
    30.000                                                  INTERVAL            
  2015    02    09    06    15   30.0000000     GPS         TIME OF FIRST OBS   
  2015    02    09    22    29   30.0000000     GPS         TIME OF LAST OBS    
    16                                                      LEAP SECONDS        
    29                                                      # OF SATELLITES     
   G 1   538   538   538   538                              PRN / # OF OBS      
   G 2   870   870   867   867                              PRN / # OF OBS      
   G 3   685   685   685   685                              PRN / # OF OBS      
   G 4   402   402   402   402                              PRN / # OF OBS      
   G 5   652   652   652   652                              PRN / # OF OBS      
   G 6   801   801   800   800                              PRN / # OF OBS      
   G 7   666   666   666   666                              PRN / # OF OBS      
   G 9   785   785   785   785                              PRN / # OF OBS      
   G10   761   761   761   761                              PRN / # OF OBS      
   G11   438   438   438   438                              PRN / # OF OBS      
   G12   687   687   687   687                              PRN / # OF OBS      
   G13   794   794   792   792                              PRN / # OF OBS      
   G14   574   573   573   573                              PRN / # OF OBS      
   G15   708   708   708   708                              PRN / # OF OBS      
   G17   902   899   898   898                              PRN / # OF OBS      
   G18   301   301   301   301                              PRN / # OF OBS      
   G19   214   214   214   214                              PRN / # OF OBS      
   G20   798   798   798   798                              PRN / # OF OBS      
   G21    71    68    66    66                              PRN / # OF OBS      
   G22    19    19    19    19                              PRN / # OF OBS      
   G23   749   749   748   748                              PRN / # OF OBS      
   G24   803   803   802   802                              PRN / # OF OBS      
   G25   493   492   492   492                              PRN / # OF OBS      
   G27    85    85    85    85                              PRN / # OF OBS      
   G28   765   765   761   761                              PRN / # OF OBS      
   G29   384   384   384   384                              PRN / # OF OBS      
   G30   711   711   711   711                              PRN / # OF OBS      
   G31   429   429   429   429                              PRN / # OF OBS      
   G32   433   433   433   433                              PRN / # OF OBS      
BIT 2 OF LLI FLAGS DATA COLLECTED UNDER A/S CONDITION       COMMENT             
SNR is mapped to RINEX snr flag value [2-9]                 COMMENT             
Lx:     = 25dBHz -> 1; 26-27dBHz -> 2; 28-31dBHz -> 3       COMMENT             
       32-35dBHz -> 4; 36-38dBHz -> 5; 39-41dBHz -> 6       COMMENT             
       42-44dBHz -> 7; 45-48dBHz -> 8; >=49dBHz -> 9        COMMENT             
                                                            END OF HEADER       
 15 02 09 06 15 30.0000000  0 10G01G03G04G11G14G19G22G27G28G32
  21248305.600   111660628.39109  21248305.980    87008305.24148
  21883470.320   114998426.60709  21883471.080    89609165.83148
  20335284.620   106862664.03409  20335282.480    83269613.48548
  20279232.780   106568108.00509  20279229.080    83040084.78248
  22801283.280   119821555.70508  22801280.780    93367435.23646
  21273141.480   111791135.45009  21273137.080    87109962.52948
  24383863.100   128138093.01408  24383860.020    99847870.50145
  23009128.100   120913797.56409  23009128.080    94218543.07147
  24020624.680   126229232.03808  24020620.920    98360434.77145
  20083419.200   105539118.58509  20083417.000    82238282.53948
 15 02 09 06 16  0.0000000  0 10G01G03G04G11G14G19G22G27G28G32
  21239785.760   111615856.33809  21239786.140    86973417.91448
  21870627.280   114930936.40709  21870628.180    89556576.07448
  20335627.360   106864464.78209  20335625.160    83271016.64348
  20274032.800   106540781.63709  20274029.100    83018791.48448
  22807662.760   119855079.88308  22807660.260    93393557.91546
  21285332.580   111855199.68209  21285328.120    87159882.66848
  24401160.680   128228992.04308  24401157.820    99918700.70646
  23028278.240   121014432.18509  23028278.240    94296959.55447
  24017000.780   126210188.10708  24016997.420    98345595.33045
  20084884.720   105546819.74009  20084882.500    82244283.42448
 15 02 09 06 16 30.0000000  0 10G01G03G04G11G14G19G22G27G28G32
  21231297.780   111571251.61509  21231298.140    86938660.97548
  21857845.100   114863766.12309  21857846.080    89504235.59548
  20336022.940   106866543.59009  20336020.760    83272636.46748
  20268903.260   106513825.65909  20268899.600    82997786.80748
  22814141.760   119889126.90109  22814139.320    93420088.00446
  21297603.580   111919683.48909  21297599.120    87210129.74448
  24418458.740   128319893.23908  24418455.940    99989532.60446
  23047472.500   121115298.65409  23047472.700    94375556.69548
  24013469.900   126191633.14208  24013466.760    98331136.90245
  20086441.440   105555000.12209  20086439.220    82250657.73448
 15 02 09 06 17  0.0000000  0 10G01G03G04G11G14G19G22G27G28G32
  21222841.560   111526813.76809  21222841.880    86904034.05748
  21845123.860   114796915.10909  21845124.760    89452143.87748
  20336471.200   106868899.52009  20336469.140    83274472.22348
  20263844.180   106487240.11709  20263840.580    82977070.77248
  22820719.940   119923694.71309  22820717.380    93447023.90446
  21309954.020   111984584.56109  21309949.400    87260701.95748
  24435756.720   128410794.07008  24435753.820   100060364.19146
  23066710.380   121216393.71609  23066710.720    94454331.95348
  24010031.980   126173566.19608  24010028.720    98317058.76245
  20088088.920   105563657.27309  20088086.620    82257403.54548
 15 02 09 06 17 30.0000000  0 10G01G03G04G11G14G19G22G27G28G32
  21214417.560   111482545.89109  21214418.020    86869539.59948
  21832464.000   114730386.28409  21832464.700    89400303.23448
  20336972.760   106871535.46609  20336970.780    83276526.19048
  20258856.360   106461028.90909  20258852.800    82956646.44048
  22827397.600   119958784.96308  22827394.940    93474366.90546
  21322384.080   112049904.23709  21322379.400    87311600.35649
  24453054.900   128501696.10708  24453051.920   100131196.72646
  23085991.900   121317717.72509  23085992.360    94533285.62448
  24006687.240   126155989.70508  24006683.940    98303362.78745
  20089827.340   105572792.11709  20089824.920    82264521.58948
 15 02 09 06 18  0.0000000  0 10G01G03G04G11G14G19G22G27G28G32
  21206025.220   111438444.33809  21206025.760    86835174.74448
  21819864.700   114664175.79009  21819865.280    89348710.65048
  20337526.940   106874447.71809  20337524.980    83278795.44648
  20253939.060   106435188.53909  20253935.580    82936511.07048
  22834173.560   119994392.09808  22834170.800    93502112.67346
  21334892.700   112115636.91709  21334887.940    87362820.57548
  24470352.300   128592593.58808  24470349.440   100202025.70345
  23105315.700   121419264.27608  23105316.320    94612412.68748
  24003435.160   126138899.59408  24003432.040    98290045.82145
  20091655.540   105582399.00809  20091653.080    82272007.46748
 15 02 09 06 18 30.0000000  0 10G01G03G04G11G14G19G22G27G28G32
  21197665.940   111394515.64409  21197666.400    86800944.57048
  21807327.140   114598289.84209  21807327.640    89297370.93648
  20338134.840   106877642.19309  20338132.900    83281284.61948
  20249093.660   106409726.08709  20249090.260    82916670.18248
  22841048.680   120030520.74809  22841045.860    93530264.80446
  21347480.720   112181787.28209  21347476.040    87414366.25748
  24487649.780   128683491.06608  24487646.840   100272854.71045
  23124682.340   121521037.04508  23124683.100    94691716.01347
  24000276.760   126122301.75108  24000273.600    98277112.42145
  20093574.360   105592482.37509  20093571.860    82279864.61648
 15 02 09 06 19  0.0000000  0 10G01G03G04G11G14G19G22G27G28G32
  21189339.020   111350757.33909  21189339.460    86766847.18248
  21794850.820   114532725.81009  21794851.200    89246282.06548
  20338795.940   106881116.29209  20338794.060    83283991.68448
  20244319.900   106384639.81609  20244316.580    82897122.42448
  22848022.260   120067166.80309  22848019.480    93558820.12546
  21360147.320   112248350.57309  21360142.600    87466233.71148
  24504946.280   128774384.02508  24504943.620   100343680.12946
  23144090.960   121623030.78508  23144091.800    94771191.52847
  23997211.320   126106192.99408  23997208.320    98264560.13445
  20095582.960   105603037.59709  20095580.480    82288089.44848
 15 02 09 06 19 30.0000000  0 10G01G03G04G11G14G19G22G27G28G32
  21181044.500   111307169.08009  21181044.960    86732882.28848
  21782435.600   114467483.04209  21782435.960    89195443.53448
  20339510.160   106884869.39909  20339508.320    83286916.15848
  20239617.860   106359929.80409  20239614.440    82877867.84748
  22855093.880   120104328.16509  22855091.160    93587776.96946
  21372892.080   112315324.43909  21372887.440    87518421.08649
  24522241.620   128865270.42908  24522238.900   100414500.48845
  23163541.120   121725242.31608  23163541.960    94850836.75347
  23994238.900   126090572.06008  23994235.660    98252387.98045
  20097680.860   105614062.17309  20097678.440    82296680.01548
 15 02 09 06 20  0.0000000  0 10G01G03G04G11G14G19G22G27G28G32
  21172783.160   111263754.83009  21172783.440    86699052.98448
  21770082.080   114402565.21909  21770082.520    89144858.21848
  20340278.200   106888905.00109  20340276.240    83290060.75948
  20234988.340   106335600.56909  20234984.780    82858909.97248
  22862264.000   120142006.97409  22862261.360    93617137.03146
  21385715.260   112382710.96209  21385710.840    87570930.00248
  24539536.000   128956152.28408  24539533.300   100485317.27845
  23183033.060   121827672.81808  23183033.960    94930652.60047
  23991359.740   126075442.27708  23991356.520    98240598.50645
  20099868.420   105625557.81509  20099866.020    82305637.63148
 15 02 09 06 20 30.0000000  0 10G01G03G04G11G14G19G22G27G28G32
  21164554.880   111220514.54109  21164555.040    86665359.22248
  21757790.340   114337972.02309  21757790.920    89094525.85948
  20341099.980   106893222.93709  20341097.840    83293425.36248
  20230431.360   106311652.65809  20230427.660    82840249.23848
  22869532.220   120180201.24709  22869529.620    93646898.75746
  21398616.480   112450507.75409  21398612.160    87623758.61148
  24556829.000   129047027.66207  24556826.460   100556129.02846
  23202566.120   121930319.36808  23202567.140    95010636.79647
  23988574.000   126060803.00408  23988570.700    98229191.26845
  20102145.260   105637522.41909  20102142.860    82314960.67348
 15 02 09 06 21  0.0000000  0 10G01G03G04G11G14G19G22G27G28G32
  21156359.140   111177446.12309  21156359.420    86631799.41148
  21745559.920   114273701.06009  21745560.420    89044444.58348
  20341974.980   106897820.64909  20341972.700    83297007.95648
  20225946.600   106288084.47009  20225942.780    82821884.38548
  22876897.700   120218906.95608  22876895.160    93677058.99646
  21411595.140   112518711.15109  21411590.880    87676904.06248
  24574120.080   129137892.28308  24574117.760   100626932.37545
  23222139.420   122033177.04909  23222140.460    95090785.51247
  23985881.120   126046651.48808  23985877.560    98218164.12445
  20104510.480   105649951.59209  20104508.080    82324645.72948
 15 02 09 06 21 30.0000000  0 10G01G03G04G11G14G19G22G27G28G32
  21148196.360   111134551.09409  21148196.900    86598374.69148
  21733391.080   114209753.51909  21733391.580    88994615.31848
  20342903.360   106902699.37409  20342901.140    83300809.53348
  20221534.280   106264897.70309  20221530.480    82803816.74248
  22884360.380   120258123.91408  22884357.980    93707617.59546
  21424651.060   112587320.25309  21424646.840    87730365.64348
  24591408.960   129228745.97107  24591406.720   100697727.19646
  23241752.700   122136244.46709  23241753.700    95171097.64447
  23983281.140   126032988.27408  23983277.520    98207517.44645
  20106964.000   105662844.66209  20106961.520    82334692.24548
 15 02 09 06 22  0.0000000  0 10G01G03G04G11G14G19G22G27G28G32
  21140067.540   111091834.03509  21140068.120    86565088.65348
  21721284.700   114146133.64209  21721285.120    88945041.37248
  20343886.020   106907863.46909  20343883.900    83304833.46248
  20217195.560   106242097.72309  20217191.740    82786050.49548
  22891920.780   120297854.75508  22891918.560    93738576.64146
  21437784.600   112656337.69509  21437780.520    87784145.39848
  24608696.320   129319591.24107  24608694.240   100768515.47945
  23261406.220   122239523.40009  23261407.220    95251574.60847
  23980774.800   126019817.22708  23980771.400    98197254.25645
  20109506.200   105676203.95509  20109503.680    82345102.06248
 15 02 09 06 22 30.0000000  0 10G01G03G04G11G14G19G22G27G28G32
  21131971.680   111049289.46009  21131972.140    86531937.00548
  21709239.540   114082835.49209  21709239.900    88895718.13248
  20344921.940   106913307.00009  20344919.840    83309075.15248
  20212929.460   106219679.40309  20212925.720    82768581.65048
  22899577.560   120338091.89608  22899575.460    93769930.19846
  21450994.400   112725755.77809  21450990.380    87838237.35248
  24625980.680   129410420.84008  24625978.800   100839291.50345
  23281098.340   122343005.35109  23281099.280    95332209.76547
  23978360.860   126007131.77908  23978357.460    98187369.48545
  20112135.660   105690021.75809  20112133.160    82355869.15948
 15 02 09 06 23  0.0000000  0 10G01G03G04G11G14G19G22G27G28G32
  21123909.860   111006923.50609  21123910.140    86498924.55348
  21697256.640   114019864.95409  21697256.980    88846650.16448
  20346012.140   106919035.74509  20346010.040    83313539.07848
  20208737.180   106197649.10909  20208733.560    82751415.16048
  22907331.620   120378839.69408  22907329.480    93801681.66746
  21464281.160   112795578.23609  21464277.100    87892644.40548
  24643262.920   129501239.00907  24643261.360   100910058.67445
  23300829.760   122446693.71508  23300830.560    95413005.76447
  23976040.400   125994937.47708  23976036.880    98177867.39945
  20114853.140   105704302.01509  20114850.680    82366996.61348
 15 02 09 06 23 30.0000000  0 10G01G03G04G11G14G19G22G27G28G32
  21115881.880   110964735.93909  21115882.040    86466051.10448
  21685335.840   113957221.35009  21685336.240    88797836.95348
  20347156.600   106925049.48709  20347154.420    83318225.08048
  20204618.880   106176007.28609  20204615.300    82734551.36748
  22915182.480   120420095.69708  22915180.280    93833829.14146
  21477644.540   112865803.04909  21477640.440    87947364.98048
  24660542.520   129592043.24507  24660541.060   100980814.96745
  23320599.740   122550585.32508  23320600.400    95493960.11347
  23973813.180   125983232.94708  23973809.320    98168746.99845
  20117658.100   105719041.99009  20117655.620    82378482.27748
 15 02 09 06 24  0.0000000  0 10G01G03G04G11G14G19G22G27G28G32
  21107887.600   110922725.57009  21107887.780    86433315.73448
  21673477.020   113894903.10609  21673477.640    88749277.28548
  20348354.880   106931346.40109  20348352.700    83323131.72648
  20200574.480   106154753.26109  20200570.840    82717989.75248
  22923129.520   120461856.89908  22923127.320    93866370.27046
  21491083.840   112936426.82109  21491079.800    88002396.43048
  24677818.960   129682830.92707  24677817.640   101051558.37046
  23340407.660   122654676.02708  23340408.340    95575069.61247
  23971678.720   125972016.15008  23971675.000    98160006.60845
  20120549.880   105734238.28609  20120547.420    82390323.52248
 15 02 09 06 24 30.0000000  0 10G01G03G04G11G14G19G22G27G28G32
  21099927.320   110880893.41409  21099927.500    86400719.22548
  21661680.360   113832910.79809  21661681.100    88700971.58448
  20349607.100   106937927.15609  20349605.000    83328259.54848
  20196604.080   106133888.21609  20196600.400    82701731.24548
  22931172.400   120504122.18008  22931170.320    93899304.18346
  21504598.820   113007448.27109  21504594.840    88057737.76248
  24695092.100   129773600.98107  24695090.820   101122288.03745
  23360253.040   122758963.93208  23360253.880    95656332.76147
  23969637.100   125961287.42208  23969633.500    98151646.54645
  20123528.160   105749889.59509  20123525.720    82402519.32548
 15 02 09 06 25  0.0000000  0  9G01G03G04G11G14G19G27G28G32
  21092001.620   110839243.18809  21092001.800    86368264.47148
  21649946.300   113771247.69409  21649946.840    88652922.37748
  20350913.960   106944795.15709  20350911.920    83333611.20248
  20192708.520   106113416.47709  20192704.780    82685779.20848
  22939311.520   120546893.28708  22939309.500    93932632.24546
  21518189.780   113078868.83809  21518185.840    88113390.08848
  23380136.080   122863449.82608  23380137.040    95737750.18947
  23967688.800   125951049.03708  23967685.320    98143668.55345
  20126593.260   105765997.33209  20126590.980    82415070.78448
 15 02 09 06 25 30.0000000  0  9G01G03G04G11G14G19G27G28G32
  21084110.020   110797772.70809  21084110.260    86335949.79248
  21638274.340   113709911.17709  21638275.000    88605127.70648
  20352275.000   106951947.67509  20352273.000    83339184.55248
  20188887.400   106093336.32109  20188883.680    82670132.30748
  22947546.000   120590165.73208  22947544.040    93966350.96746
  21531855.880   113150684.13409  21531851.940    88169350.00248
  23400055.880   122968128.54308  23400056.900    95819317.88347
  23965833.200   125941298.03708  23965829.980    98136070.35145
  20129744.360   105782556.85009  20129742.220    82427974.27848
 15 02 09 06 26  0.0000000  0  9G01G03G04G11G14G19G27G28G32
  21076252.800   110756482.94309  21076253.060    86303775.91548
  21626664.660   113648901.73709  21626665.060    88557587.84748
  20353690.400   106959385.48909  20353688.420    83344980.21048
  20185140.940   106073648.74109  20185137.220    82654791.30248
  22955875.560   120633938.45908  22955873.740    94000459.51246
  21545596.840   113222892.82009  21545592.840    88225616.45548
  23420012.020   123072998.14908  23420013.120    95901034.30447
  23964070.400   125932034.36908  23964067.140    98128851.88345
  20132981.200   105799566.76709  20132979.160    82441228.73148
 15 02 09 06 26 30.0000000  0  9G01G03G04G11G14G19G27G28G32
  21068430.420   110715376.14309  21068430.760    86271744.62348
  21615117.560   113588221.12809  21615117.920    88510304.22748
  20355160.440   106967110.36209  20355158.440    83350999.55548
  20181469.660   106054356.48109  20181466.000    82639758.35048
  22964300.380   120678211.55008  22964298.660    94034957.96346
  21559412.660   113295494.93909  21559408.540    88282189.48048
  23440004.260   123178057.93408  23440005.600    95982898.90847
  23962400.500   125923258.93009  23962397.320    98122013.84445
  20136303.800   105817026.92409  20136301.660    82454834.02048
 15 02 09 06 27  0.0000000  0  9G01G03G04G11G14G19G27G28G32
  21060642.500   110674450.36009  21060642.880    86239854.37248
  21603632.520   113527866.89809  21603632.820    88463274.92248
  20356684.620   106975119.99309  20356682.700    83357240.78148
  20177873.400   106035458.10409  20177869.760    82625032.31448
  22972819.720   120722980.83408  22972817.980    94069843.05646
  21573302.520   113368486.23409  21573298.300    88339065.75048
  23460031.780   123283302.93408  23460033.320    96064907.83347
  23960823.080   125914969.05908  23960819.800    98115554.19445
  20139711.300   105834932.95309  20139709.000    82468786.74148
 15 02 09 06 27 30.0000000  0  9G01G03G04G11G14G19G27G28G32
  21052889.860   110633710.09609  21052890.360    86208108.68548
  21592210.300   113467843.09709  21592210.680    88416503.10748
  20358263.780   106983418.72409  20358261.940    83363707.29148
  20174353.060   106016958.29609  20174349.380    82610616.84648
  22981434.000   120768248.71808  22981432.240    94105116.66346
  21587266.780   113441868.89209  21587262.580    88396246.97648
  23480094.840   123388734.74208  23480096.580    96147062.31547
  23959338.780   125907168.49208  23959335.200    98109475.80045
  20143204.080   105853287.01009  20143201.700    82483088.57448
 15 02 09 06 28  0.0000000  0  9G01G03G04G11G14G19G27G28G32
  21045171.960   110593152.41309  21045172.480    86176505.27548
  21580850.260   113408146.16209  21580850.900    88369986.01748
  20359897.300   106992002.96409  20359895.500    83370396.27348
  20170908.120   105998854.61209  20170904.400    82596510.04648
  22990142.220   120814009.97408  22990140.360    94140774.72546
  21601304.540   113515637.66309  21601300.420    88453729.07548
  23500192.360   123494347.32308  23500194.220    96229357.65647
  23957946.660   125899852.45808  23957943.080    98103774.97345
  20146781.040   105872083.75709  20146778.640    82497735.37348
 15 02 09 06 28 30.0000000  0  9G01G03G04G11G14G19G27G28G32
  21037489.280   110552779.50509  21037489.800    86145045.83248
  21569552.860   113348777.78009  21569553.480    88323724.92148
  20361585.600   107000874.68809  20361583.780    83377309.26348
  20167538.920   105981149.20709  20167535.240    82582713.59248
  22998944.340   120860264.65508  22998942.480    94176817.26146
  21615415.640   113589792.21009  21615411.680    88511511.76448
  23520324.200   123600139.90008  23520326.100    96311793.27147
  23956646.860   125893021.96808  23956643.380    98098452.47945
  20150442.120   105891322.74709  20150439.760    82512726.77148
 15 02 09 06 29  0.0000000  0  9G01G03G04G11G14G19G27G28G32
  21029841.840   110512591.66609  21029842.440    86113730.59748
  21558318.060   113289737.74609  21558318.660    88277719.67148
  20363328.600   107010033.70009  20363326.740    83384446.11548
  20164245.660   105963842.99809  20164242.060    82569228.19648
  23007840.020   120907010.82309  23007838.060    94213242.78346
  21629599.860   113664330.62309  21629595.960    88569593.57548
  23540489.920   123706109.78509  23540491.760    96394367.04347
  23955439.360   125886676.22608  23955435.840    98093507.72145
  20154186.940   105911001.88009  20154184.640    82528061.13648
 15 02 09 06 29 30.0000000  0  9G01G03G04G11G14G19G27G28G32
  21022230.260   110472592.69509  21022230.880    86082562.55248
  21547146.260   113231029.17009  21547146.760    88231972.72348
  20365126.860   107019483.46209  20365125.020    83391809.53148
  20161029.160   105946940.20009  20161025.580    82556057.15048
  23016829.460   120954249.95009  23016827.480    94250052.43146
  21643857.500   113739254.57009  21643853.620    88627975.80448
  23560689.460   123812257.73308  23560691.080    96477079.56047
  23954324.620   125880817.95808  23954321.100    98088942.83445
  20158015.820   105931122.44909  20158013.500    82543739.47348
 15 02 09 06 30  0.0000000  0  9G01G03G04G11G14G19G27G28G32
  21014654.680   110432782.62709  21014655.280    86051541.68948
  21536037.500   113172651.58009  21536037.840    88186483.65548
  20366980.360   107029223.39209  20366978.540    83399399.03848
  20157889.420   105930440.85009  20157885.820    82543200.47648
  23025912.240   121001979.62908  23025910.280    94287244.31547
  21658188.040   113814561.14609  21658183.960    88686656.18648
  23580922.340   123918580.75609  23580923.580    96559928.49947
  23953302.260   125875445.99808  23953299.040    98084756.84845
  20161928.200   105951682.00609  20161925.860    82559759.88048
 15 02 09 06 30 30.0000000  0  9G01G03G04G11G14G19G27G28G32
  21007114.960   110393160.58709  21007115.440    86020667.34048
  21524991.160   113114603.38909  21524991.680    88141251.30248
  20368888.940   107039252.38309  20368887.060    83407213.79948
  20154826.380   105914344.37209  20154822.760    82530657.73548
  23035087.840   121050196.84409  23035085.760    94324816.10446
  21672590.820   113890247.43609  21672586.520    88745632.44748
  23601187.800   124025074.92708  23601188.700    96642910.82546
  23952371.980   125870558.02608  23952368.860    98080948.01945
  20165923.420   105972677.16009  20165921.100    82576119.71148
 15 02 09 06 31  0.0000000  0  9G01G03G04G11G14G19G27G28G32
  20999611.400   110353728.51209  20999611.780    85989941.01248
  21514007.720   113056885.99709  21514008.380    88096276.69548
  20370852.860   107049571.80609  20370850.800    83415254.86548
  20151840.420   105898653.00109  20151836.800    82518430.66048
  23044356.120   121098901.03109  23044353.980    94362767.34046
  21687065.740   113966312.96809  21687061.380    88804904.21548
  23621485.440   124131739.17508  23621486.480    96726025.63946
  23951534.000   125866154.88208  23951530.920    98077516.99145
  20170001.400   105994107.31309  20169999.140    82592818.50948
 15 02 09 06 31 30.0000000  0  9G01G03G04G11G14G19G27G28G32
  20992144.220   110314487.81909  20992144.660    85959363.82548
  21503087.560   112999500.18509  21503088.160    88051560.43448
  20372872.240   107060182.79509  20372870.020    83423523.12748
  20148931.860   105883368.52009  20148928.320    82506520.63648
  23053716.820   121148091.37408  23053714.620    94401097.40446
  21701612.540   114042756.35109  21701608.180    88864470.41548
  23641815.060   124238571.85808  23641816.380    96809271.69747
  23950788.200   125862236.39108  23950785.380    98074463.58345
  20174161.920   106015971.29809  20174159.720    82609855.34648
 15 02 09 06 32  0.0000000  0  9G01G03G04G11G14G19G27G28G32
  20984712.740   110275434.88109  20984713.140    85928932.93348
  21492229.660   112942441.59809  21492230.280    88007099.18448
  20374946.260   107071081.24409  20374944.000    83432015.38548
  20146100.040   105868487.40309  20146096.600    82494924.92348
  23063168.760   121197761.55608  23063166.440    94439801.36546
  21716230.060   114119571.88409  21716225.820    88924326.60048
  23662175.520   124345566.25008  23662176.980    96892643.76947
  23950134.000   125858797.88508  23950131.100    98071784.20245
  20178403.860   106038262.99209  20178401.700    82627225.45948
 15 02 09 06 32 30.0000000  0  9G01G03G04G11G14G19G27G28G32
  20977318.160   110236575.97509  20977318.580    85898653.22348
  21481435.140   112885715.90709  21481435.720    87962897.32648
  20377076.000   107082272.80709  20377073.780    83440736.03948
  20143346.180   105854016.09109  20143342.860    82483648.54448
  23072712.760   121247915.74108  23072710.480    94478882.46546
  21730919.040   114196763.03709  21730914.920    88984475.48248
  23682567.480   124452725.53308  23682568.860    96976144.32447
  23949571.900   125855843.88808  23949569.000    98069482.33145
  20182727.860   106060985.97109  20182725.800    82644931.64348
 15 02 09 06 33  0.0000000  0  9G01G03G04G11G14G19G27G28G32
  20969960.460   110197910.73309  20969960.840    85868524.43448
  21470703.860   112829322.07009  21470704.360    87918954.04748
  20379261.340   107093756.88809  20379259.160    83449684.63948
  20140670.300   105839954.43409  20140667.060    82472691.37848
  23082348.160   121298551.06608  23082346.080    94518338.48946
  21745679.000   114274327.10009  21745674.960    89044914.93448
  23702990.140   124560046.31608  23702991.440    97059770.72646
  23949101.720   125853372.81708  23949098.700    98067556.79945
  20187133.440   106084137.37109  20187131.420    82662971.66548
 15 02 09 06 33 30.0000000  0  9G01G03G04G11G14G19G27G28G32
  20962639.880   110159440.75409  20962640.240    85838547.79548
  21460035.740   112773260.88909  21460036.360    87875270.00248
  20381502.540   107105534.50509  20381500.420    83458861.96648
  20138072.760   105826304.35609  20138069.580    82462054.91648
  23092074.920   121349666.24408  23092073.060    94558168.42546
  21760509.880   114352263.25209  21760505.800    89105644.33848
  23723443.100   124667527.08108  23723444.620    97143521.76547
  23948723.220   125851384.83508  23948720.380    98066007.64045
  20191620.420   106107716.12409  20191618.360    82681344.68648
 15 02 09 06 34  0.0000000  0  9G01G03G04G11G14G19G27G28G32
  20955355.780   110121162.94409  20955356.260    85808720.88948
  21449430.260   112717528.64209  21449430.940    87831842.24948
  20383798.960   107117602.17109  20383796.860    83468265.29648
  20135553.040   105813062.84609  20135549.820    82451736.81848
  23101892.100   121401256.12808  23101890.260    94598368.25646
  21775410.400   114430565.65809  21775406.200    89166659.13248
  23743925.300   124775161.63208  23743927.160    97227392.63347
  23948436.060   125849875.28908  23948432.940    98064831.36945
  20196187.620   106131716.57009  20196185.560    82700046.29948
 15 02 09 06 34 30.0000000  0  9G01G03G04G11G14G19G27G28G32
  20948109.140   110083081.98809  20948109.660    85779047.37848
  21438888.080   112662129.23309  21438888.860    87788673.86448
  20386151.420   107129964.22709  20386149.340    83477898.01748
  20133112.040   105800234.94709  20133108.760    82441741.01148
  23111800.040   121453322.95708  23111798.380    94638939.73346
  21790380.920   114509236.46609  21790376.780    89227960.98748
  23764437.160   124882951.54608  23764439.260    97311384.56847
  23948240.420   125848847.38608  23948237.400    98064030.33145
  20200835.420   106156140.75809  20200833.340    82719078.10048
 15 02 09 06 35  0.0000000  0  9G01G03G04G11G14G19G27G28G32
  20940899.520   110045195.86509  20940900.180    85749525.68348
  21428408.880   112607059.94009  21428409.460    87745762.69648
  20388559.380   107142618.04009  20388557.340    83487758.09448
  20130749.360   105787818.58809  20130746.020    82432065.89048
  23121797.980   121505862.03708  23121796.400    94679879.19446
  21805420.620   114588271.19109  21805416.600    89289546.41748
  23784977.700   124990891.70308  23784979.860    97395493.57347
  23948135.860   125848297.77008  23948132.580    98063602.05545
  20205562.920   106180983.88909  20205560.840    82738436.34848
 15 02 09 06 35 30.0000000  0 10G01G03G04G11G14G19G23G27G28G32
  20933727.660   110007508.13809  20933728.460    85720158.59648
  21417992.940   112552323.51409  21417993.600    87703110.93148
  20391023.400   107155566.64909  20391021.420    83497847.88148
  20128465.820   105775817.91609  20128462.420    82422714.68248
  23131886.000   121558874.29908  23131884.340    94721187.38246
  21820529.840   114667670.65709  21820525.960    89351416.05748
  24821704.900   130438935.75405                                
  23805546.940   125098982.50908  23805549.060    97479719.97447
  23948122.600   125848228.25608  23948119.540    98063547.82745
  20210370.300   106206247.02009  20210368.280    82758121.87648
 15 02 09 06 36  0.0000000  0 10G01G03G04G11G14G19G23G27G28G32
  20926592.320   109970011.63909  20926593.100    85690940.49648
  21407638.860   112497912.03109  21407639.400    87660712.34048
  20393542.040   107168802.40709  20393540.160    83508161.41448
  20126259.980   105764225.19009  20126256.480    82413681.34649
  23142062.240   121612349.99408  23142060.560    94762856.67046
  21835706.660   114747425.19209  21835702.880    89413562.36248
  24801633.720   130333461.09306  24801630.320   101558532.29642
  23826142.900   125207213.68308  23826144.880    97564055.75747
  23948199.140   125848630.38208  23948196.400    98063861.10245
  20215255.720   106231920.15409  20215253.740    82778126.87548
 15 02 09 06 36 30.0000000  0 10G01G03G04G11G14G19G23G27G28G32
  20919496.520   109932722.47509  20919497.220    85661883.96348
  21397349.520   112443840.81609  21397350.040    87618578.90648
  20396118.320   107182340.90809  20396116.480    83518710.84548
  20124134.920   105753056.99409  20124131.320    82404978.81648
  23152329.300   121666302.85508  23152327.460    94804897.79046
  21850953.680   114827548.25009  21850949.940    89475995.83848
  24781560.560   130227975.98606  24781557.740   101476336.07542
  23846767.960   125315598.17708  23846770.080    97648511.01147
  23948368.040   125849518.25708  23948365.560    98064552.91445
  20220221.800   106258016.81209  20220219.820    82798461.90548
 15 02 09 06 37  0.0000000  0 10G01G03G04G11G14G19G23G27G28G32
  20912439.240   109895635.99009  20912440.000    85632985.36648
  21387123.880   112390104.40009  21387124.440    87576706.35548
  20398751.280   107196177.11709  20398749.440    83529492.25848
  20122089.740   105742308.64109  20122085.980    82396603.43849
  23162685.740   121720725.34208  23162683.800    94847304.83746
  21866269.480   114908032.45609  21866265.580    89538710.73448
  24761484.800   130122477.06906  24761482.280   101394129.00644
  23867420.680   125424128.24608  23867423.080    97733079.68547
  23948628.140   125850885.88208  23948625.740    98065618.57845
  20225267.120   106284529.72809  20225265.120    82819121.27848
 15 02 09 06 37 30.0000000  0 10G01G03G04G11G14G19G23G27G28G32
  20905419.100   109858745.13909  20905420.060    85604239.21648
  21376960.480   112336694.91609  21376960.940    87535088.54048
  20401439.440   107210303.23009  20401437.540    83540499.57448
  20120123.100   105731973.43409  20120119.280    82388549.98748
  23173129.580   121775607.91808  23173127.760    94890070.41346
  21881652.120   114988868.26709  21881648.240    89601699.59848
  24741405.440   130016958.92006  24741403.040   101311907.01342
  23888099.180   125532793.63808  23888101.740    97817753.81347
  23948977.940   125852724.33008  23948975.920    98067051.10045
  20230389.800   106311449.03009  20230387.760    82840097.32248
 15 02 09 06 38  0.0000000  0 10G01G03G04G11G14G19G23G27G28G32
  20898438.300   109822060.74309  20898439.300    85575653.94448
  21366861.220   112283622.36809  21366861.560    87493733.28048
  20404184.820   107224729.93709  20404182.880    83551741.11048
  20118237.040   105722062.14009  20118233.240    82380826.85448
  23183662.500   121830958.83608  23183661.000    94933200.90546
  21897103.140   115070063.86209  21897099.360    89664968.81948
  24721324.700   129911433.42506  24721322.340   101229679.30543
  23908804.960   125641602.04808  23908807.460    97902539.39346
  23949418.960   125855042.89108  23949417.380    98068857.71345
  20235591.340   106338782.82409  20235589.300    82861396.34748
 15 02 09 06 38 30.0000000  0 10G01G03G04G11G14G19G23G27G28G32
  20891495.420   109785575.21309  20891496.300    85547223.61748
  21356824.400   112230878.28609  21356824.740    87452633.96748
  20406985.820   107239448.86009  20406983.780    83563210.35448
  20116430.200   105712567.16909  20116426.460    82373428.14049
  23194282.640   121886768.05108  23194281.320    94976688.51546
  21912620.620   115151608.81209  21912616.900    89728510.25948
  24701241.460   129805894.73006  24701239.000   101147441.27242
  23929535.860   125750542.67808  23929538.200    97987427.97846
  23949949.780   125857832.29808  23949948.140    98071031.23645
  20240869.700   106366520.77709  20240867.640    82883010.29148
 15 02 09 06 39  0.0000000  0 10G01G03G04G11G14G19G23G27G28G32
  20884591.180   109749293.09709  20884592.040    85518951.80948
  21346850.640   112178466.32309  21346851.060    87411793.46148
  20409843.120   107254463.90509  20409841.040    83574910.34048
  20114703.460   105703493.21509  20114699.780    82366357.48548
  23204990.260   121943036.75108  23204989.080    95020534.15246
  21928204.860   115233504.81409  21928201.260    89792325.24548
  24681156.780   129700348.49306  24681154.440   101065197.35143
  23950292.120   125859616.89808  23950294.400    98072420.66446
  23950570.760   125861095.38408  23950569.100    98073573.83945
  20246225.260   106394664.71909  20246223.300    82904940.59648
 15 02 09 06 39 30.0000000  0 10G01G03G04G11G14G19G23G27G28G32
  20877726.380   109713218.41909  20877727.360    85490841.64149
  21336940.800   112126389.73309  21336941.240    87371214.27648
  20412757.480   107269778.95209  20412755.460    83586844.09548
  20113057.600   105694844.31209  20113054.000    82359618.03748
  23215785.640   121999766.54608  23215784.540    95064739.08146
  21943856.280   115315753.66809  21943852.760    89856415.17748
  24661071.740   129594800.32506  24661069.360   100982951.97543
  23971073.920   125968825.61608  23971076.300    98157518.16846
  23951282.360   125864834.40508  23951280.840    98076487.29045
  20251658.280   106423215.88409  20251656.480    82927188.21648
 15 02 09 06 40  0.0000000  0 10G01G03G04G11G14G19G23G27G28G32
  20870900.680   109677348.95009  20870901.680    85462891.37948
  21327094.160   112074645.31709  21327094.600    87330893.93348
  20415728.360   107285391.14209  20415726.440    83599009.39548
  20111492.200   105686618.32909  20111488.720    82353208.14048
  23226667.700   122056952.15708  23226666.720    95109299.19346
  21959573.840   115398349.86909  21959570.340    89920775.78048
  24640986.140   129489249.48007  24640983.880   100900704.52044
  23991880.200   126078163.33708  23991882.780    98242716.17546
  23952083.840   125869045.39108  23952082.220    98079768.52445
  20257167.860   106452169.26309  20257166.220    82949749.25148
 15 02 09 06 40 30.0000000  0 10G01G03G04G11G14G19G23G27G28G32
  20864114.080   109641684.60109  20864115.020    85435100.94248
  21317310.600   112023232.09709  21317311.080    87290831.67448
  20418755.620   107301299.53209  20418753.780    83611405.49248
  20110007.240   105678815.04809  20110003.820    82347127.61848
  23237635.980   122114591.28308  23237635.160    95154212.69346
  21975357.080   115481291.02409  21975353.520    89985405.16748
  24620900.260   129383697.28507  24620897.940   100818455.95744
  24012710.320   126187626.82408  24012713.200    98328012.15546
  23952974.800   125873726.45808  23952972.940    98083416.05845
  20262753.500   106481522.03709  20262751.880    82972621.51148
 15 02 09 06 41  0.0000000  0 10G01G03G04G11G14G19G23G27G28G32
  20857367.140   109606228.76409  20857367.960    85407472.97848
  21307590.560   111972152.50109  21307590.880    87251029.35648
  20421839.920   107317507.24909  20421838.080    83624034.82548
  20108603.380   105671437.84809  20108600.000    82341379.10348
  23248690.720   122172684.52808  23248689.960    95199480.05046
  21991206.100   115564577.58709  21991202.560    90050303.69048
  24600814.960   129278148.41007  24600812.680   100736210.00944
  24033564.500   126297216.20608  24033567.620    98413406.24347
  23953955.420   125878878.97808  23953953.440    98087430.95645
  20268415.360   106511274.75509  20268413.640    82995805.39648
 15 02 09 06 41 30.0000000  0 10G01G03G04G11G14G19G23G27G28G32
  20850659.540   109570980.03809  20850660.300    85380006.41248
  21297933.500   111921404.25309  21297933.680    87211485.24648
  20424980.820   107334012.39609  20424978.980    83636895.92948
  20107280.360   105664485.47809  20107277.040    82335961.62948
  23259831.240   122231227.85408  23259830.420    95245098.13646
  22007120.140   115648205.50209  22007116.480    90115468.22948
  24580730.240   129172602.67807  24580728.140   100653966.47143
  24054442.020   126406926.95008  24054445.200    98498894.90647
  23955025.100   125884499.97208  23955022.920    98091810.88545
  20274152.500   106541423.19509  20274150.740    83019297.65648
 15 02 09 06 42  0.0000000  0 10G01G03G04G11G14G19G23G27G28G32
  20843991.620   109535939.45309  20843992.380    85352702.02148
  21288339.540   111870987.42909  21288339.640    87172199.36748
  20428178.300   107350815.07809  20428176.520    83649988.87048
  20106038.360   105657958.79209  20106035.100    82330875.86348
  23271057.040   122290218.90908  23271056.120    95291065.08446
  22023098.680   115732172.70809  22023095.120    90180897.12048
  24560646.600   129067062.64807  24560644.760   100571727.43544
  24075342.340   126516756.83708  24075345.380    98584476.39847
  23956183.920   125890588.34508  23956181.520    98096555.03645
  20279964.600   106571965.67409  20279962.860    83043096.95648
 15 02 09 06 42 30.0000000  0 10G01G03G04G11G14G19G23G27G28G32
  20837363.880   109501109.51209  20837364.520    85325561.76648
  21278808.740   111820903.50209  21278809.060    87133172.93248
  20431432.780   107367917.48009  20431431.080    83663315.36948
  20104877.840   105651860.24509  20104874.640    82326123.70948
  23282368.000   122349657.49108  23282367.020    95337380.77146
  22039141.720   115816478.96909  22039138.260    90246590.22048
  24540564.880   128961532.43107  24540563.380   100489496.00844
  24096265.200   126626705.12708  24096268.020    98670150.16147
  23957431.860   125897144.84008  23957429.180    98101663.95645
  20285851.620   106602901.77109  20285849.900    83067202.96648
 15 02 09 06 43  0.0000000  0 10G01G03G04G11G14G19G23G27G28G32
  20830776.580   109466492.24409  20830777.080    85298587.23748
  21269341.600   111771153.61109  21269342.020    87094406.75648
  20434744.640   107385321.10409  20434742.940    83676876.58348
  20103799.240   105646191.91109  20103796.060    82321706.79148
  23293764.000   122409543.11008  23293763.000    95384044.79646
  22055249.240   115901123.82209  22055245.760    90312547.15448
  24520485.680   128856015.07607  24520484.120   100407274.63544
  24117210.340   126736770.65208  24117212.980    98755915.28047
  23958768.820   125904169.55608  23958766.180    98107137.70345
  20291813.360   106634230.70809  20291811.700    83091615.10148
 15 02 09 06 43 30.0000000  0 10G01G03G04G11G14G19G23G27G28G32
  20824229.520   109432087.03309  20824230.040    85271777.94549
  21259937.760   111721736.10609  21259938.120    87055899.58348
  20438113.580   107403024.68809  20438111.880    83690671.53048
  20102802.420   105640953.23809  20102799.220    82317624.67148
  23305244.320   122469872.07908  23305243.300    95431054.27646
  22071420.520   115986103.55509  22071416.920    90378765.05048
  24500409.120   128750511.56307  24500407.680   100325064.00744
  24138176.980   126846949.52808  24138179.580    98841768.71647
  23960194.460   125911659.98109  23960191.560    98112974.36146
  20297849.160   106665949.12509  20297847.520    83116330.71748
 15 02 09 06 44  0.0000000  0 10G01G03G04G11G14G19G23G27G28G32
  20817722.800   109397894.03309  20817723.360    85245134.01448
  21250597.120   111672650.18109  21250597.480    87017650.77148
  20441539.540   107421027.67509  20441537.760    83704699.78248
  20101887.300   105636144.02609  20101884.160    82313877.19348
  23316808.560   122530641.77708  23316807.460    95478407.18946
  22087655.060   116071415.52409  22087651.280    90445241.82248
  24480335.540   128645023.74407  24480334.060   100242865.63544
  24159164.520   126957238.74208  24159167.240    98927708.10747
  23961708.320   125919614.26108  23961705.320    98119172.44445
  20303958.560   106698054.23609  20303956.940    83141347.64248
 15 02 09 06 44 30.0000000  0 10G01G03G04G11G14G19G23G27G28G32
  20811256.960   109363915.79409  20811257.540    85218657.43548
  21241319.780   111623897.21409  21241320.280    86979661.42248
  20445022.820   107439332.10909  20445021.020    83718962.92548
  20101054.300   105631766.65009  20101051.240    82310466.21148
  23328456.500   122591851.76008  23328455.460    95526103.20646
  22103952.700   116157059.35409  22103948.800    90511977.18248
  24460265.600   128539555.00107  24460264.100   100160682.11944
  24180172.940   127067637.48108  24180175.660    99013732.84747
  23963310.440   125928032.72808  23963307.560    98125732.22746
  20310141.480   106730545.63709  20310139.920    83166665.58048
 15 02 09 06 45  0.0000000  0 10G01G03G04G11G14G19G23G27G28G32
  20804832.380   109330154.53209  20804833.000    85192349.93248
  21232105.980   111575478.53909  21232106.540    86941932.55848
  20448563.700   107457939.55109  20448561.960    83733462.17548
  20100303.820   105627822.96909  20100300.840    82307393.18049
  23340188.080   122653501.22708  23340187.080    95574141.66846
  22120313.280   116243034.36709  22120309.300    90578970.61248
  24440200.000   128434109.17808  24440198.440   100078516.46045
  24201202.040   127178144.79608  24201204.720    99099842.19446
  23965000.880   125936915.74808  23964998.140    98132653.99945
  20316397.800   106763422.77809  20316396.260    83192284.09948
 15 02 09 06 45 30.0000000  0 10G01G03G04G11G14G19G23G27G28G32
  20798448.300   109296606.40409  20798449.000    85166208.50549
  21222954.840   111527389.21809  21222955.520    86904460.33148
  20452161.400   107476845.70509  20452159.760    83748194.18048
  20099635.300   105624309.79709  20099632.320    82304655.60049
  23352002.020   122715583.39308  23352001.060    95622517.31046
  22136735.520   116329334.01309  22136731.680    90646216.98148
  24420138.300   128328683.88808  24420136.700    99996366.78045
  24222250.460   127288753.56108  24222252.940    99186030.59646
  23966778.620   125946257.37708  23966775.720    98139933.13845
  20322726.200   106796678.88109  20322724.680    83218197.90448
 15 02 09 06 46  0.0000000  0 10G01G03G04G11G14G19G23G27G28G32
  20792106.320   109263279.20309  20792107.120    85140239.23749
  21213867.640   111479636.01009  21213868.360    86867250.00848
  20455817.280   107496057.53709  20455815.720    83763164.39348
  20099050.140   105621234.44509  20099047.180    82302259.19248
  23363899.160   122778103.10208  23363898.280    95671233.90146
  22153220.440   116415963.01209  22153216.700    90713720.01148
  24400082.240   128223288.20108  24400080.660    99914240.17045
  24243318.940   127399468.34308  24243321.360    99272301.60546
  23968644.480   125956063.56808  23968641.940    98147574.24745
  20329127.660   106830318.91209  20329126.160    83244410.88048
 15 02 09 06 46 30.0000000  0 10G01G03G04G11G14G19G23G27G28G32
  20785805.780   109230169.26909  20785806.580    85114439.25749
  21204843.520   111432214.16809  21204844.320    86830297.88648
  20459530.620   107515571.10509  20459529.080    83778369.71548
  20098547.600   105618592.94309  20098544.580    82300200.84049
  23375878.360   122841054.19908  23375877.620    95720286.62646
  22169766.780   116502914.94209  22169763.140    90781474.66548
  24380031.420   128117920.04208  24380029.840    99832135.00045
  24264406.120   127510282.16108  24264408.680    99358649.78146
  23970597.660   125966328.18108  23970595.460    98155572.60045
  20335600.900   106864336.19709  20335599.360    83270917.82548
 15 02 09 06 47  0.0000000  0 10G01G03G04G11G14G19G23G27G28G32
  20779547.260   109197279.92009  20779548.020    85088811.16249
  21195882.800   111385125.90509  21195883.680    86793605.70948
  20463301.900   107535388.77909  20463300.300    83793812.01248
  20098128.280   105616388.59009  20098125.120    82298483.12348
  23387939.660   122904436.54008  23387938.940    95769675.41646
  22186374.700   116590190.05109  22186371.160    90849481.14948
  24359986.640   128012583.75908  24359984.920    99750054.67245
  24285512.080   127621195.07908  24285514.980    99445075.15446
  23972638.360   125977052.75508  23972636.040    98163929.33545
  20342146.000   106898731.24209  20342144.560    83297719.10748
 15 02 09 06 47 30.0000000  0 10G01G03G04G11G14G19G23G27G28G32
  20773330.160   109164608.66009  20773330.920    85063353.00949
  21186984.960   111338367.69509  21186985.920    86757170.70748
  20467130.500   107555507.59509  20467128.820    83809488.95848
  20097791.600   105614618.81209  20097788.360    82297104.04348
  23400082.000   122968244.73708  23400081.260    95819396.00946
  22203043.180   116677783.03909  22203039.760    90917735.33848
  24339947.720   127907278.42708  24339945.860    99667998.47045
  24306635.900   127732201.33408  24306639.140    99531573.27946
  23974765.700   125988232.25708  23974763.320    98172640.60345
  20348761.940   106933498.60409  20348760.620    83324810.53048
 15 02 09 06 48  0.0000000  0 10G01G03G04G11G14G19G23G27G28G32
  20767155.280   109132159.32609  20767156.040    85038067.78349
  21178150.480   111291942.18609  21178151.440    86720994.96448
  20471016.940   107575930.61809  20471015.260    83825402.95148
  20097538.180   105613287.15509  20097535.040    82296066.35148
  23412305.600   123032479.64708  23412304.780    95869449.13046
  22219772.300   116765694.60409  22219769.000    90986237.76048
  24319915.660   127802009.11508  24319913.780    99585970.35745
  24327777.680   127843301.45008  24327781.080    99618144.54646
  23976979.960   125999868.62608  23976977.640    98181707.86046
  20355449.040   106968639.26209  20355447.660    83352192.82448
 15 02 09 06 48 30.0000000  0 10G01G03G04G11G14G19G23G27G28G32
  20761022.300   109099930.17709  20761023.060    85012954.11649
  21169378.800   111245846.56509  21169379.740    86685076.26748
  20474960.800   107596655.54009  20474959.160    83841552.19548
  20097367.720   105612391.48709  20097364.680    82295368.38849
  23424609.460   123097136.49408  23424608.540    95919831.02446
  22236561.180   116853920.19909  22236557.820    91054984.88048
  24299890.440   127696775.60008  24299888.460    99503970.15446
  24348936.460   127954490.38608  24348939.860    99704785.01546
  23979280.540   126011958.19808  23979278.420    98191128.21646
  20362206.360   107004148.46209  20362204.880    83379862.29148
 15 02 09 06 49  0.0000000  0 10G01G03G04G11G14G19G23G27G28G32
  20754932.280   109067927.03009  20754933.140    84988016.57049
  21160670.880   111200085.48509  21160671.740    86649418.25848
  20478963.080   107617687.62609  20478961.500    83857940.79548
  20097281.320   105611937.55109  20097278.320    82295014.63848
  23436994.080   123162218.02508  23436993.180    95970543.82546
  22253410.320   116942462.40209  22253406.940    91123978.71548
  24279873.460   127591585.18008  24279871.360    99422003.55646
  24370112.680   128065770.71208  24370116.040    99791496.68546
  23981667.920   126024504.14308  23981665.980    98200904.22045
  20369034.360   107040029.09509  20369032.760    83407821.19648
 15 02 09 06 49 30.0000000  0 10G01G03G04G11G14G19G23G27G28G32
  20748884.680   109036146.99509  20748885.740    84963252.87248
  21152025.920   111154654.94409  21152026.740    86614017.80648
  20483023.080   107639023.17009  20483021.540    83874565.85648
  20097278.400   105611922.10409  20097275.340    82295002.55648
  23449458.320   123227718.16108  23449457.420    96021582.79846
  22270318.560   117031315.59509  22270315.240    91193214.87748
  24259864.400   127486436.22108  24259862.280    99340069.26846
  24391305.100   128177136.24808  24391308.440    99878274.74346
  23984141.160   126037501.44308  23984139.100    98211031.91045
  20375931.880   107076275.31109  20375930.200    83436064.96748
 15 02 09 06 50  0.0000000  0 11G01G03G04G11G14G17G19G23G27G28G32
  20742880.080   109004592.59309  20742881.240    84938664.98549
  21143443.980   111109556.22709  21143444.720    86578875.93448
  20487141.120   107660663.98409  20487139.680    83891428.79348
  20097359.340   105612347.48409  20097356.300    82295333.98448
  23462002.060   123293636.49308  23462001.280    96072947.66145
  24996150.100   131355664.55708  24996150.460   102355055.60545
  22287285.880   117120479.17209  22287282.620    91262692.89948
  24239863.940   127381332.54808  24239861.820    99258170.27546
  24412513.620   128288586.16808  24412516.880    99965118.55447
  23986700.300   126050950.36408  23986698.400    98221511.48945
  20382898.800   107112886.67809  20382897.200    83464593.28348
 15 02 09 06 50 30.0000000  0 11G01G03G04G11G14G17G19G23G27G28G32
  20736915.660   108973249.21809  20736916.840    84914241.53948
  21134922.120   111064773.59509  21134923.000    86543980.36148
  20491314.380   107682594.96609  20491313.040    83908517.82848
  20097521.300   105613198.72809  20097518.300    82295997.25248
  23474622.020   123359955.14408  23474621.220    96124624.42645
  24976711.120   131253507.64807  24976710.000   102275452.73945
  22304308.900   117209935.62509  22304305.700    91332399.12148
  24219869.520   127276260.79409  24219867.380    99176296.16246
  24433734.820   128400102.55308  24433737.980   100052014.14947
  23989342.160   126064833.89208  23989340.440    98232329.75445
  20389931.900   107149845.64209  20389930.300    83493392.44548
 15 02 09 06 51  0.0000000  0 11G01G03G04G11G14G17G19G23G27G28G32
  20730997.900   108942151.13509  20730999.040    84890009.22349
  21126466.700   111020340.12709  21126467.640    86509356.86448
  20495549.240   107704849.53409  20495547.980    83925859.00948
  20097770.800   105614509.83309  20097767.800    82297018.85448
  23487324.200   123426705.49708  23487323.400    96176637.59345
  24957297.180   131151484.58408  24957295.360   102195954.20146
  22321393.600   117299716.11909  22321390.460    91402357.85848
  24199887.880   127171256.60409  24199885.740    99094474.71446
  24454974.600   128511716.39008  24454977.700   100138985.67247
  23992073.080   126079184.02008  23992071.420    98243511.62945
  20397037.140   107187183.50209  20397035.520    83522486.85348
 15 02 09 06 51 30.0000000  0 11G01G03G04G11G14G17G19G23G27G28G32
  20725122.840   108911277.71709  20725124.060    84865951.98449
  21118073.600   110976233.98809  21118074.520    86474988.41649
  20499841.660   107727406.43709  20499840.460    83943435.79148
  20098103.840   105616260.05509  20098100.900    82298382.62448
  23500104.100   123493863.86508  23500103.280    96228968.68245
  24937904.900   131049576.37508  24937902.460   102116545.12046
  22338535.400   117389796.94909  22338532.380    91472550.61448
  24179915.480   127066300.91509  24179913.300    99012691.05246
  24476228.260   128623403.74808  24476231.420   100226014.45647
  23994888.380   126093978.14808  23994886.680    98255039.43545
  20404210.000   107224876.70509  20404208.380    83551858.14748
 15 02 09 06 52  0.0000000  0 11G01G03G04G11G14G17G19G23G27G28G32
  20719291.640   108880634.79409  20719293.000    84842074.35049
  21109743.780   110932459.82209  21109744.540    86440878.63148
  20504192.600   107750270.92309  20504191.420    83961252.23248
  20098521.520   105618454.98809  20098518.620    82300092.92348
  23512962.100   123561432.72308  23512961.180    96281619.62745
  24918535.540   130947790.03508  24918532.980   102037231.06646
  22355734.920   117480180.88209  22355732.000    91542979.56148
  24159953.620   126961400.85109  24159951.400    98930950.74046
  24497496.220   128735167.10907  24497499.640   100313102.46647
  23997788.900   126109219.61908  23997786.940    98266915.85545
  20411450.980   107262927.98009  20411449.360    83581508.45448
 15 02 09 06 52 30.0000000  0 11G01G03G04G11G14G17G19G23G27G28G32
  20713504.440   108850222.88109  20713505.840    84818376.72849
  21101476.860   110889016.85309  21101477.620    86407026.94748
  20508602.020   107773442.69709  20508600.820    83979308.11348
  20099023.780   105621094.50309  20099020.920    82302149.64348
  23525897.740   123629409.54108  23525896.980    96334588.44246
  24899189.760   130846127.42208  24899187.080   101958013.34046
  22372991.680   117570865.42109  22372988.840    91613642.74648
  24140002.700   126856558.37109  24140000.480    98849255.27945
  24518777.980   128847003.69107  24518781.780   100400247.52346
  24000774.040   126124906.04708  24000772.040    98279138.96645
  20418759.560   107301334.94609  20418757.980    83611435.93148
 15 02 09 06 53  0.0000000  0 11G01G03G04G11G14G17G19G23G27G28G32
  20707761.480   108820043.06809  20707762.820    84794859.95549
  21093272.900   110845905.00209  21093273.680    86373433.28048
  20513070.000   107796922.12009  20513068.800    83997603.73048
  20099610.820   105624179.42709  20099607.980    82304553.44548
  23538910.540   123697791.97008  23538909.920    96387873.33246
  24879868.020   130744591.28708  24879865.440   101878894.22246
  22390305.220   117661848.51709  22390302.420    91684538.56448
  24120063.180   126751775.64409  24120060.920    98767606.37645
  24540073.060   128958911.23507  24540077.420   100487447.85646
  24003843.620   126141036.44908  24003841.600    98291708.03945
  20426135.460   107340095.62809  20426133.920    83641639.02948
 15 02 09 06 53 30.0000000  0 11G01G03G04G11G14G17G19G23G27G28G32
  20702062.880   108790096.10509  20702064.080    84771524.61949
  21085131.860   110803123.72209  21085132.720    86340097.19548
  20517596.540   107820709.13209  20517595.360    84016139.01948
  20100282.720   105627710.05709  20100279.880    82307304.55248
  23552000.100   123766577.82808  23551999.700    96441472.57746
  24860570.720   130643183.78008  24860568.120   101799875.33045
  22407675.160   117753127.79209  22407672.380    91755665.17648
  24100135.440   126647054.78409  24100133.140    98686005.67545
  24561381.220   129070887.19907  24561386.140   100574701.50446
  24006997.360   126157609.50408  24006995.340    98304622.00545
  20433578.260   107379207.78509  20433576.740    83672116.00248
 15 02 09 06 54  0.0000000  0 11G01G03G04G11G14G17G19G23G27G28G32
  20696408.160   108760380.02809  20696409.300    84748369.19949
  21077053.240   110760669.82709  21077054.080    86307016.21548
  20522181.180   107844801.30509  20522180.060    84034912.10448
  20101039.040   105631684.13809  20101036.180    82310401.20648
  23565165.620   123835762.13808  23565165.200    96495382.32546
  24841297.800   130541904.13008  24841295.120   101720956.07646
  22425100.520   117844698.37709  22425097.700    91827018.79348
  24080219.400   126542395.35308  24080217.000    98604452.86045
  24582701.560   129182926.23708  24582706.800   100662004.32746
  24010234.520   126174620.32208  24010232.540    98317877.12645
  20441087.000   107418666.49809  20441085.480    83702863.01948
 15 02 09 06 54 30.0000000  0 11G01G03G04G11G14G17G19G23G27G28G32
  20690798.120   108730898.49909  20690799.120    84725396.53849
  21069037.400   110718545.70209  21069038.180    86274192.18949
  20526824.460   107869201.54109  20526823.400    84053925.23248
  20101880.380   105636105.13609  20101877.500    82313846.10348
  23578407.040   123905344.93208  23578406.500    96549602.54946
  24822050.180   130440757.38308  24822047.720   101642140.37546
  22442581.440   117936560.89809  22442578.680    91898599.87348
  24060316.040   126437802.30108  24060313.460    98522951.76445
  24604034.200   129295028.65908  24604039.560   100749356.55646
  24013555.200   126192070.24508  24013553.060    98331474.37345
  20448661.780   107458472.37709  20448660.300    83733880.55648
 15 02 09 06 55  0.0000000  0 11G01G03G04G11G14G17G19G23G27G28G32
  20685233.040   108701653.27009  20685233.940    84702608.00949
  21061084.320   110676751.80009  21061085.060    86241625.49849
  20531526.560   107893910.75209  20531525.480    84073179.13048
  20102806.960   105640974.26808  20102804.100    82317640.19248
  23591724.100   123975325.19908  23591723.380    96604132.49445
  24802828.600   130339746.63408  24802826.320   101563430.61246
  22460117.600   118028713.72009  22460114.800    91970407.16748
  24040425.880   126333278.73208  24040423.380    98441504.82045
  24625378.680   129407192.93208  24625384.060   100836756.97346
  24016959.280   126209958.26008  24016957.120    98345413.02245
  20456302.440   107498624.14609  20456300.920    83765167.61248
 15 02 09 06 55 30.0000000  0 11G01G03G04G11G14G17G19G23G27G28G32
  20679713.020   108672645.03809  20679713.900    84680004.16549
  21053193.900   110635287.52109  21053194.720    86209315.64848
  20536287.480   107918928.95309  20536286.300    84092673.79748
  20103818.820   105646291.56809  20103816.000    82321783.50848
  23605116.220   124045700.00108  23605115.440    96658969.89745
  24783633.300   130238873.66808  24783631.100   101484828.21246
  22477708.680   118121154.51109  22477705.880    92042438.86648
  24020549.220   126228826.20208  24020546.920    98360113.21845
  24646734.440   129519416.37408  24646739.780   100924203.51046
  24020446.440   126228282.93908  24020444.420    98359691.89945
  20464008.540   107539119.53309  20464006.940    83796722.42648
 15 02 09 06 56  0.0000000  0 11G01G03G04G11G14G17G19G23G27G28G32
  20674238.140   108643874.23409  20674239.000    84657585.32049
  21045366.080   110594152.01809  21045366.860    86177261.98248
  20541107.120   107944255.76809  20541105.840    84112408.94948
  20104916.120   105652057.40909  20104913.240    82326276.33448
  23618582.840   124116466.59708  23618582.000    96714112.60946
  24764464.660   130138140.88408  24764462.460   101406335.05346
  22495353.960   118213880.42309  22495351.120    92114692.74048
  24000686.560   126124447.12708  24000684.400    98278778.86645
  24668100.940   129631696.11908  24668106.240   101011693.92645
  24024016.180   126247042.18608  24024014.300    98374309.39245
  20471779.460   107579955.80409  20471777.840    83828542.86448
 15 02 09 06 56 30.0000000  0 11G01G03G04G11G14G17G19G23G27G28G32
  20668809.120   108615344.18609  20668809.880    84635354.07749
  21037601.080   110553347.33509  21037602.080    86145466.11949
  20545985.980   107969893.65409  20545984.560    84132386.48548
  20106099.320   105658274.53609  20106096.340    82331120.81048
  23632123.840   124187624.97408  23632123.020    96769560.60646
  24745323.560   130037552.97908  24745321.320   101327954.77946
  22513053.520   118306891.80509  22513050.700    92187169.04348
  23980838.740   126020145.98708  23980836.580    98197505.24945
  24689478.100   129744032.08408  24689483.520   101099228.16245
  24027668.700   126266236.61008  24027666.780    98389266.02845
  20479615.320   107621133.39509  20479613.720    83860629.26848
 15 02 09 06 57  0.0000000  0 11G01G03G04G11G14G17G19G23G27G28G32
  20663425.300   108587051.63509  20663425.960    84613307.89949
  21029898.280   110512868.78209  21029899.140    86113924.34748
  20550923.320   107995838.90909  20550921.780    84152603.52548
  20107367.680   105664939.26109  20107364.580    82336314.06548
  23645738.220   124259169.19808  23645737.380    96825309.26545
  24726209.640   129937107.74708  24726207.340   101249685.68445
  22530806.100   118400182.11209  22530803.380    92259862.69048
  23961005.380   125915920.72708  23961003.200    98116290.75846
  24710864.760   129856417.65508  24710870.200   101186801.03546
  24031403.060   126285860.41808  24031401.140    98404557.22645
  20487514.920   107662645.95809  20487513.340    83892976.68548
 15 02 09 06 57 30.0000000  0 11G01G03G04G11G14G17G19G23G27G28G32
  20658087.720   108559002.42409  20658088.340    84591451.33749
  21022258.340   110472720.88409  21022259.360    86082640.25449
  20555920.100   108022096.41909  20555918.440    84173063.89348
  20108722.120   105672056.94109  20108719.060    82341860.26948
  23659426.380   124331101.34008  23659425.680    96881360.18245
  24707124.320   129836812.33408  24707121.820   101171533.34245
  22548612.260   118493753.96909  22548609.520    92332775.73448
  23941187.880   125811778.60208  23941185.660    98035141.04846
  24732261.320   129968855.40008  24732266.760   101274414.55346
  24035219.600   126305916.87108  24035218.000    98420185.52245
  20495478.800   107704496.32709  20495477.240    83925587.32548
 15 02 09 06 58  0.0000000  0 10G01G03G04G11G14G17G19G23G28G32
  20652795.360   108531191.02909  20652796.060    84569780.08049
  21014679.980   110432896.75109  21014681.080    86051608.44548
  20560975.060   108048659.84309  20560973.320    84193762.62448
  20110161.600   105679621.44909  20110158.600    82347754.65448
  23673186.720   124403412.52508  23673186.140    96937706.50345
  24688066.900   129736663.04308  24688064.120   101093494.84345
  22566470.340   118587598.87609  22566467.700    92405901.52548
  23921385.380   125707715.20309  23921383.060    97954052.66546
  24039117.060   126326397.78308  24039115.540    98436144.55545
  20503505.320   107746675.86709  20503503.780    83958454.46448
 15 02 09 06 58 30.0000000  0 10G01G03G04G11G14G17G19G23G28G32
  20647549.900   108503625.91309  20647550.700    84548300.74049
  21007164.660   110393403.59109  21007165.880    86020834.53449
  20566089.640   108075536.95609  20566087.880    84214705.79048
  20111687.620   105687640.64109  20111684.640    82354003.34249
  23687020.240   124476108.11308  23687019.680    96994352.32645
  24669039.100   129636669.67608  24669035.980   101015577.86545
  22584381.460   118681722.10009  22584378.800    92479244.20848
  23901599.700   125603740.33209  23901597.280    97873033.26246
  24043096.500   126347308.89108  24043094.860    98452438.82745
  20511595.560   107789190.06809  20511594.000    83991582.37648
 15 02 09 06 59  0.0000000  0 10G01G03G04G11G14G17G19G23G28G32
  20642350.940   108476305.03709  20642351.800    84527011.71549
  20999711.720   110354237.90909  20999712.920    85990315.80048
  20571263.300   108102724.93609  20571261.640    84235891.18848
  20113299.700   105696112.22109  20113296.760    82360604.53648
  23700925.940   124549182.56308  23700925.280    97051293.35845
  24650040.540   129536831.49308  24650037.600   100937781.77345
  22602344.480   118776118.19509  22602341.840    92552799.50848
  23881830.780   125499853.66509  23881828.320    97792082.57846
  24047156.940   126368645.59908  24047155.020    98469064.74545
  20519748.520   107832033.78609  20519746.920    84024967.05748
 15 02 09 06 59 30.0000000  0 10G01G03G04G11G14G17G19G23G28G32
  20637198.900   108449230.84209  20637199.900    84505914.91349
  20992321.320   110315400.80309  20992322.500    85960053.11048
  20576496.380   108130225.30909  20576494.840    84257320.01148
  20114998.220   105705038.16709  20114995.400    82367559.78149
  23714903.640   124622635.09008  23714902.920    97108529.01046
  24631072.080   129437152.13308  24631069.380   100860109.43045
  22620359.280   118870786.44209  22620356.780    92626566.87248
  23862079.320   125396058.78209  23862076.840    97711203.42146
  24051298.460   126390407.81208  24051296.400    98486022.24645
  20527964.020   107875206.35409  20527962.420    84058607.98848
 15 02 09 07 00  0.0000000  0 10G01G03G04G11G14G17G19G23G28G32
  20632093.460   108422402.11509  20632094.720    84485009.38949
  20984992.960   110276889.64309  20984993.940    85930044.40048
  20581788.580   108158036.31709  20581787.160    84278990.89048
  20116782.840   105714416.37909  20116780.120    82374867.43948
  23728952.480   124696461.18308  23728951.700    97166055.73245
  24612133.940   129337632.03208  24612131.160   100782561.23845
  22638425.040   118965722.42809  22638422.620    92700542.86448
  23842345.280   125292355.55209  23842342.900    97630395.69346
  24055520.000   126412591.44008  24055517.940    98503308.06544
  20536241.340   107918703.68809  20536239.660    84092501.97048
 15 02 09 07 00 30.0000000  0 10G01G03G04G11G14G17G19G23G28G32
  20627035.340   108395822.16609  20627036.740    84464297.70849
  20977726.900   110238706.30309  20977727.940    85900291.13048
  20587140.360   108186160.34809  20587139.020    84300905.67248
  20118654.080   105724249.69609  20118651.460    82382529.72149
  23743072.280   124770660.60208  23743071.600    97223873.36545
  24593227.040   129238275.64708  24593223.920   100705140.61145
  22656541.760   119060926.32709  22656539.480    92774727.61048
  23822629.600   125188748.98009  23822627.340    97549663.28846
  24059821.880   126435197.15407  24059819.320    98520922.86444
  20544580.520   107962525.80509  20544578.780    84126649.02748
 15 02 09 07 01  0.0000000  0 10G01G03G04G11G14G17G19G23G28G32
  20622024.540   108369490.35309  20622025.940    84443779.38349
  20970522.860   110200848.76009  20970523.900    85870791.72349
  20592551.460   108214595.71209  20592550.120    84323063.05648
  20120611.680   105734536.79609  20120609.120    82390545.61249
  23757262.360   124845229.33008  23757261.680    97281978.77945
  24574351.620   129139084.28308  24574348.260   100627848.52846
  22674708.640   119156394.07509  22674706.400    92849117.95948
  23802932.380   125085239.35409  23802930.160    97469006.40746
  24064203.280   126458221.63008  24064200.900    98538863.87344
  20552980.720   108006669.08609  20552979.020    84161046.35148
 15 02 09 07 01 30.0000000  0 10G01G03G04G11G14G17G19G23G28G32
  20617061.260   108343408.03809  20617062.620    84423455.47549
  20963380.800   110163316.97609  20963381.920    85841546.16649
  20598022.000   108243343.11109  20598020.640    84345463.58348
  20122655.800   105745278.78209  20122653.340    82398915.95248
  23771522.360   124920165.60208  23771521.640    97340370.58345
  24555507.940   129040060.26808  24555504.860   100550686.89546
  22692925.480   119252123.82409  22692923.300    92923712.45248
  23783254.180   124981829.40009  23783251.800    97388427.20045
  24068664.060   126481663.25308  24068661.660    98557129.99544
  20561441.680   108051131.83809  20561440.100    84195692.61148
 15 02 09 07 02  0.0000000  0 10G01G03G04G11G14G17G19G23G28G32
  20612145.840   108317576.97909  20612147.140    84403327.34849
  20956300.880   110126111.29609  20956301.820    85812554.69548
  20603552.140   108272403.57009  20603550.700    84368108.04348
  20124786.660   105756476.81809  20124784.300    82407641.65849
  23785851.880   124995467.63008  23785851.140    97399047.39645
  24536696.660   128941206.90008  24536694.020   100473658.20646
  22711192.100   119348114.46209  22711189.780    92998510.24348
  23763595.560   124878522.27308  23763593.000    97307928.10145
  24073204.140   126505521.00308  24073201.620    98575720.38645
  20569963.040   108095912.72509  20569961.740    84230586.76848
 15 02 09 07 02 30.0000000  0 10G01G03G04G11G14G17G19G23G28G32
  20607278.380   108291997.92309  20607279.600    84383395.58848
  20949282.860   110089230.96809  20949283.800    85783816.77148
  20609141.760   108301776.93209  20609140.340    84390996.33348
  20127004.340   105768130.74209  20127002.040    82416722.60248
  23800250.520   125071133.08108  23800249.960    97458007.37345
  24517918.260   128842526.41208  24517916.120   100396764.24546
  22729507.900   119444363.20609  22729505.320    93073509.17248
  23743956.860   124775320.06908  23743954.180    97227510.79344
  24077823.040   126529792.85308  24077820.860    98594633.41645
  20578544.520   108141009.46909  20578543.380    84265727.04548
 15 02 09 07 03  0.0000000  0 10G01G03G04G11G14G17G19G23G28G32
  20602459.360   108266673.59209  20602460.540    84363662.31449
  20942327.040   110052677.28809  20942327.820    85755333.36149
  20614791.280   108331465.11009  20614789.880    84414129.92348
  20129309.200   105780242.54009  20129306.780    82426160.32448
  23814718.120   125147160.89808  23814717.620    97517249.71945
  24499173.520   128744022.94208  24499171.940   100320008.21146
  22747872.620   119540869.37809  22747869.920    93148708.66848
  23724338.860   124672226.62808  23724336.180    97147178.24245
  24082520.900   126554478.81109  24082518.680    98613869.15145
  20587186.120   108186421.75409  20587185.100    84301113.19448
 15 02 09 07 03 30.0000000  0 10G01G03G04G11G14G17G19G23G28G32
  20597688.440   108241601.91009  20597689.580    84344125.91049
  20935432.760   110016446.68809  20935433.380    85727101.71349
  20620500.140   108361465.19109  20620498.740    84437506.57648
  20131700.700   105792809.52709  20131698.160    82435952.76349
  23829253.740   125223545.62608  23829253.340    97576770.19045
  24480462.300   128645695.64208  24480460.960   100243389.45046
  22766285.380   119637627.47409  22766282.580    93224104.50348
  23704741.440   124569241.33309  23704738.760    97066929.95446
  24087296.520   126579573.81009  24087293.860    98633423.64245
  20595886.840   108232144.27509  20595885.840    84336741.09648
 15 02 09 07 04  0.0000000  0 10G01G03G04G11G14G17G19G23G28G32
  20592966.020   108216784.97609  20592967.040    84324788.00249
  20928600.120   109980539.82909  20928600.640    85699122.31449
  20626268.560   108391778.36609  20626267.160    84461127.18148
  20134179.140   105805833.30209  20134176.440    82446101.12848
  23843857.080   125300286.00208  23843856.660    97636567.79845
  24461785.540   128547548.30708  24461783.960   100166910.93346
  22784745.840   119734636.51209  22784742.980    93299695.85048
  23685165.260   124466367.51309  23685162.600    96986768.50746
  24092149.820   126605077.19809  24092147.340    98653296.31946
  20604646.540   108278176.14209  20604645.420    84372610.02748
 15 02 09 07 04 30.0000000  0 10G01G03G04G11G14G17G19G23G28G32
  20588292.540   108192225.56009  20588293.600    84305650.77249
  20921829.100   109944957.94809  20921829.740    85671396.17248
  20632097.000   108422406.71309  20632095.540    84484993.38048
  20136744.840   105819315.80709  20136742.060    82456606.94648
  23858528.000   125377381.50508  23858527.580    97696642.11445
  24443143.940   128449584.97908  24443141.780   100090575.81946
  22803253.820   119831895.87809  22803251.000    93375482.26348
  23665610.980   124363609.11309  23665608.340    96906697.01846
  24097080.880   126630988.98709  24097078.280    98673487.24546
  20613465.080   108324517.07609  20613463.820    84408719.79348
 15 02 09 07 05  0.0000000  0 10G01G03G04G11G14G17G19G23G28G32
  20583667.820   108167922.39009  20583668.920    84286713.21149
  20915119.340   109909698.34909  20915119.940    85643921.13749
  20637984.960   108453347.92509  20637983.440    84509103.36348
  20139397.480   105833255.27509  20139394.700    82467468.83648
  23873265.520   125454827.37808  23873265.180    97756989.43446
  24424537.420   128351805.55608  24424534.700   100014383.99746
  22821808.460   119929401.19309  22821805.880    93451460.29748
  23646078.700   124260966.31209  23646076.040    96826715.60346
  24102088.720   126657304.83108  24102086.220    98693992.99346
  20622341.560   108371162.61309  20622340.220    84445066.91748
 15 02 09 07 05 30.0000000  0 10G01G03G04G11G14G17G19G23G28G32
  20579092.540   108143879.03109  20579093.660    84267978.09349
  20908471.280   109874763.06809  20908471.820    85616698.80848
  20643932.940   108484604.74809  20643931.480    84533459.27948
  20142137.600   105847654.54309  20142134.860    82478689.01048
  23888069.700   125532623.53008  23888069.440    97817609.72945
  24405966.780   128254215.31408  24405963.980    99938339.61446
  22840409.980   120027152.54309  22840407.480    93527630.06648
  23626569.280   124158443.88909  23626566.680    96746828.00247
  24107173.520   126684025.49908  24107171.020    98714814.20446
  20631276.000   108418113.27009  20631274.720    84481651.79048
 15 02 09 07 06  0.0000000  0 10G01G03G04G11G14G17G19G23G28G32
  20574566.700   108120095.33409  20574567.760    84249445.31449
  20901884.600   109840150.44609  20901885.280    85589727.91349
  20649940.780   108516176.05709  20649939.320    84558060.24848
  20144965.020   105862512.70309  20144962.340    82490266.77548
  23902939.980   125610766.66708  23902939.700    97878500.37845
  24387432.300   128156815.64608  24387429.800    99862443.71446
  22859057.620   120125146.68709  22859055.120    93603989.01048
  23607082.880   124056042.78009  23607080.440    96667034.95347
  24112334.720   126711147.58508  24112332.280    98735948.19546
  20640267.820   108465365.87609  20640266.640    84518471.96548
 15 02 09 07 06 30.0000000  0 10G01G03G04G11G14G17G19G23G28G32
  20570091.040   108096575.16709  20570092.040    84231117.88449
  20895359.840   109805862.83709  20895360.640    85563010.26748
  20656009.060   108548065.07609  20656007.620    84582908.78348
  20147880.320   105877832.76109  20147877.700    82502204.44748
  23917876.280   125689256.82008  23917876.080    97939661.41145
  24368935.000   128059611.66608  24368932.900    99786700.32046
  22877751.600   120223384.04709  22877749.120    93680537.48748
  23587620.700   123953768.81009  23587618.380    96587340.98346
  24117572.540   126738672.28108  24117570.300    98757395.93346
  20649317.300   108512921.22009  20649316.140    84555528.02648
 15 02 09 07 07  0.0000000  0 10G01G03G04G11G14G17G19G23G28G32
  20565664.860   108073315.07209  20565665.860    84212993.11249
  20888895.980   109771895.26509  20888896.820    85536542.02748
  20662136.940   108580267.17909  20662135.520    84608001.28448
  20150882.640   105893610.16709  20150880.040    82514498.50148
  23932877.320   125768087.18908  23932877.160    98001087.57545
  24350474.620   127962601.37508  24350472.800    99711107.82646
  22896490.560   120321857.77309  22896488.020    93757270.15847
  23568182.260   123851619.20509  23568179.960    96507743.89646
  24122885.660   126766593.16208  24122883.480    98779152.35746
  20658423.180   108560772.72409  20658422.020    84592814.87648
 15 02 09 07 07 30.0000000  0 10G01G03G04G11G14G17G19G23G28G32
  20561288.740   108050318.02009  20561289.740    84195073.29649
  20882493.300   109738249.12809  20882494.220    85510324.23548
  20668324.840   108612784.66409  20668323.460    84633339.53248
  20153972.520   105909847.50109  20153969.900    82527150.93248
  23947943.040   125847257.31708  23947942.840    98062778.47545
  24332051.960   127865789.40208  24332050.120    99635669.85146
  22915274.300   120420567.47609  22915271.920    93834186.67547
  23548768.340   123749598.21909  23548765.980    96428247.01046
  24128274.200   126794910.15208  24128272.000    98801217.45845
  20667585.380   108608920.22909  20667584.200    84630332.36348
 15 02 09 07 08  0.0000000  0 10G01G03G04G11G14G17G19G23G28G32
  20556963.000   108027585.64809  20556963.960    84177359.73749
  20876151.880   109704924.56709  20876152.760    85484357.01148
  20674572.880   108645618.26709  20674571.600    84658924.10348
  20157150.140   105926545.77309  20157147.480    82540162.54248
  23963073.040   125926765.38608  23963072.900    98124732.70045
  24313667.520   127769178.48808  24313665.520    99560388.54446
  22934102.720   120519511.47809  22934100.380    93911285.78148
  23529379.480   123647708.74409  23529377.040    96348852.60346
  24133737.760   126823621.94007  24133735.740    98823590.14645
  20676803.620   108657362.28909  20676802.460    84668079.38648
 15 02 09 07 08 30.0000000  0 10G01G03G04G11G14G17G19G23G28G32
  20552687.760   108005118.66109  20552688.660    84159852.96849
  20869871.460   109671920.69809  20869872.380    85458639.67949
  20680881.080   108678767.65109  20680879.840    84684754.72248
  20160415.440   105943704.75109  20160412.720    82553533.14448
  23978266.800   126006608.58008  23978266.600    98186948.04745
  24295321.720   127672770.88708  24295319.620    99485265.67746
  22952975.360   120618687.09309  22952973.080    93988565.36048
  23510016.020   123545952.84409  23510013.540    96269562.28746
  24139276.220   126852726.26308  24139274.080    98846268.76645
  20686077.500   108706096.66309  20686076.380    84706054.18648
 15 02 09 07 09  0.0000000  0 10G01G03G04G11G14G17G19G23G28G32
  20548463.160   107982917.82609  20548463.940    84142553.58749
  20863651.920   109639236.72709  20863652.920    85433171.62949
  20687249.340   108712232.64209  20687248.120    84710831.27748
  20163768.380   105961324.27809  20163765.620    82567262.60648
  23993523.760   126086783.93908  23993523.400    98249422.23645
  24277014.980   127576568.36908  24277012.880    99410302.59446
  22971891.620   120718091.74009  22971889.240    94066023.41848
  23490678.300   123444332.54408  23490675.800    96190377.63745
  24144888.920   126882220.57507  24144886.840    98869251.26945
  20695406.540   108755120.91209  20695405.420    84744254.86348
 15 02 09 07 09 30.0000000  0 10G01G03G04G11G14G17G19G23G28G32
  20544290.040   107960987.60309  20544290.720    84125465.07349
  20857493.860   109606875.60609  20857494.880    85407955.14748
  20693678.340   108746017.04909  20693677.180    84737156.73448
  20167209.620   105979407.77209  20167206.800    82581353.61448
  24008844.120   126167292.73508  24008843.700    98312156.20545
  24258748.540   127480577.54208  24258746.460    99335504.47146
  22990851.500   120817726.58009  22990849.280    94143660.82448
  23471367.420   123342853.60309  23471365.020    96111303.14545
  24150575.880   126912106.49207  24150574.060    98892538.87246
  20704791.000   108804436.39009  20704789.880    84782682.46548
 15 02 09 07 10  0.0000000  0 10G01G03G04G11G14G17G19G23G28G32
  20540167.620   107939324.44209  20540168.360    84108584.66549
  20851396.260   109574832.21509  20851397.300    85382986.25248
  20700167.220   108780116.15209  20700166.100    84763727.42048
  20170738.380   105997951.05309  20170735.500    82595802.89148
  24024226.560   126248127.75008  24024226.200    98375144.41645
  24240522.000   127384796.02908  24240519.940    99260869.44846
  23009853.860   120917584.66109  23009851.880    94221472.18148
  23452083.000   123241513.69909  23452080.700    96032336.99045
  24156336.280   126942377.31008  24156334.540    98916126.42145
  20714229.600   108854036.50509  20714228.540    84821331.87248
 15 02 09 07 10 30.0000000  0 10G01G03G04G11G14G17G19G23G28G32
  20536096.120   107917929.10909  20536097.000    84091912.95549
  20845358.900   109543105.68009  20845359.980    85358264.26649
  20706715.960   108814529.93409  20706714.880    84790543.29948
  20174354.580   106016954.11509  20174351.740    82610610.43548
  24039670.620   126329286.41308  24039670.340    98438384.79144
  24222335.680   127289226.11708  24222333.640    99186399.30146
  23028898.340   121017663.22709  23028896.480    94299455.35948
  23432825.440   123140315.03509  23432823.200    95953480.89046
  24162169.620   126973030.72008  24162167.640    98940012.12445
  20723721.960   108903918.96209  20723720.880    84860201.28548
 15 02 09 07 11  0.0000000  0 10G01G03G04G11G14G17G19G23G28G32
  20532076.320   107896805.37209  20532077.320    84075452.87649
  20839382.240   109511698.20109  20839383.360    85333790.89249
  20713325.060   108849261.18409  20713324.060    84817606.56148
  20178058.760   106036419.81809  20178056.060    82625778.48448
  24055176.380   126410768.88808  24055176.120    98501877.51645
  24204190.520   127193873.02008  24204188.680    99112098.11746
  23047984.940   121117963.01209  23047983.040    94377610.90748
  23413595.680   123039262.39209  23413593.420    95874738.57346
  24168075.800   127004067.30108  24168073.900    98964196.37445
  20733268.160   108954084.37209  20733267.020    84899291.18548
 15 02 09 07 11 30.0000000  0 10G01G03G04G11G14G17G19G23G28G32
  20528108.560   107875954.77109  20528109.620    84059205.62549
  20833466.320   109480609.75509  20833467.540    85309566.11349
  20719994.640   108884310.40709  20719993.740    84844917.58548
  20181851.060   106056348.77009  20181848.500    82641307.49748
  24070743.220   126492573.03508  24070743.080    98565620.84545
  24186087.120   127098739.57108  24186085.600    99037968.04946
  23067113.280   121218481.95609  23067111.220    94455937.23647
  23394394.280   122938358.54309  23394392.080    95796112.19346
  24174054.680   127035485.58108  24174052.620    98988678.07845
  20742867.900   109004531.29109  20742866.800    84938600.44048
 15 02 09 07 12  0.0000000  0 10G01G03G04G11G14G17G19G23G28G32
  20524193.500   107855381.06309  20524194.620    84043174.14049
  20827611.600   109449842.47109  20827612.700    85285591.58749
  20726725.320   108919680.46109  20726724.520    84872478.62148
  20185732.060   106076743.77509  20185729.600    82657199.67248
  24086371.360   126574699.27307  24086371.160    98629615.21045
  24168026.500   127003830.71608  24168025.260    98964013.05946
  23086283.300   121319220.34209  23086280.960    94534434.56347
  23375222.200   122837608.63809  23375220.140    95717605.79247
  24180106.160   127067286.12408  24180104.200    99013457.60945
  20752521.360   109055260.32109  20752520.300    84978129.51848
 15 02 09 07 12 30.0000000  0 10G01G03G04G11G14G17G19G23G28G32
  20520329.580   107835076.10509  20520330.720    84027352.07049
  20821816.180   109419386.58409  20821817.220    85261859.72349
  20733515.400   108955362.39109  20733514.640    84900282.66948
  20189700.140   106097595.85109  20189697.640    82673448.01248
  24102058.580   126657135.90808  24102058.280    98693851.42644
  24150007.460   126909140.05908  24150006.360    98890228.06446
  23105492.880   121420166.74409  23105490.400    94613093.97547
  23356078.120   122737005.59809  23356076.180    95639213.82547
  24186228.240   127099457.63008  24186226.260    99038526.20245
  20762226.420   109106260.30409  20762225.340    85017869.72748
 15 02 09 07 13  0.0000000  0 10G01G03G04G11G14G17G19G23G28G32
  20516518.880   107815050.71009  20516520.000    84011747.83549
  20816081.780   109389251.33909  20816082.660    85238377.69849
  20740366.700   108991365.88709  20740365.920    84928337.30348
  20193757.160   106118914.76009  20193754.500    82690060.11848
  24117806.320   126739890.11508  24117806.060    98758335.09546
  24132032.400   126814680.14708  24132031.340    98816622.88946
  23124743.400   121521328.51008  23124740.900    94691921.21147
  23336964.260   122636561.64309  23336962.420    95560945.83347
  24192422.340   127132008.00508  24192420.420    99063890.02245
  20771984.460   109157538.90809  20771983.380    85057827.05748
 15 02 09 07 13 30.0000000  0 10G01G03G04G11G14G17G19G23G28G32
  20512760.940   107795302.28409  20512762.040    83996359.41949
  20810407.420   109359432.42909  20810408.260    85215142.18549
  20747278.520   109027687.48909  20747277.700    84956639.80548
  20197902.340   106140696.87909  20197899.500    82707033.16748
  24133613.140   126822955.38608  24133613.000    98823061.15145
  24114100.980   126720449.65008  24114099.980    98743196.49446
  23144033.560   121622699.51808  23144031.340    94770911.46647
  23317880.320   122536275.30908  23317878.620    95482800.66647
  24198687.480   127164931.24108  24198685.540    99089544.42845
  20781794.460   109209090.48309  20781793.340    85097997.08248
 15 02 09 07 14  0.0000000  0 10G01G03G04G11G14G17G19G23G28G32
  20509055.920   107775831.87309  20509057.020    83981187.63349
  20804793.140   109329929.30909  20804794.060    85192152.72749
  20754250.800   109064327.14709  20754250.020    84985190.14248
  20202135.660   106162942.44009  20202132.700    82724367.33048
  24149478.720   126906329.55608  24149478.740    98888027.92445
  24096213.640   126626450.86008  24096212.720    98669950.65747
  23163363.140   121724277.41209  23163361.280    94850062.94447
  23298826.640   122436148.77708  23298825.240    95404780.06347
  24205023.000   127198225.13608  24205021.540    99115487.59845
  20791655.980   109260913.00209  20791654.860    85138378.22148
 15 02 09 07 14 30.0000000  0 10G01G03G04G11G14G17G19G23G28G32
  20505403.700   107756639.03809  20505404.820    83966232.15149
  20799238.540   109300739.92309  20799239.380    85169407.73849
  20761283.340   109101283.29909  20761282.560    85013987.10948
  20206456.800   106185649.97609  20206453.800    82742061.46948
  24165402.360   126990008.70407  24165402.440    98953232.32045
  24078370.680   126532684.97008  24078369.760    98596886.27247
  23182731.480   121826058.42109  23182729.920    94929372.68648
  23279803.640   122336183.02508  23279802.400    95326884.75247
  24211428.540   127231886.24408  24211426.920    99141716.95644
  20801568.400   109313003.01309  20801567.300    85178967.80948
 15 02 09 07 15  0.0000000  0 10G01G03G04G11G14G17G19G23G28G32
  20501804.760   107737726.15509  20501805.860    83951494.80949
  20793743.820   109271864.99309  20793744.760    85146907.79349
  20768376.440   109138557.65209  20768375.720    85043032.02548
  20210866.060   106208820.78609  20210863.120    82760116.59848
  24181383.800   127073991.50707  24181384.140    99018673.33245
  24060572.880   126439155.62508  24060571.840    98524006.24547
  23202138.320   121928041.76509  23202136.940    95008840.08348
  23260812.100   122236381.58309  23260810.820    95249117.44447
  24217903.860   127265913.54008  24217901.920    99168231.63744
  20811531.680   109365359.74309  20811530.480    85219765.21848
 15 02 09 07 15 30.0000000  0 10G01G03G04G11G14G17G19G23G28G32
  20498259.380   107719095.01009  20498260.480    83936977.00749
  20788308.860   109243304.63409  20788309.880    85124652.97049
  20775530.200   109176150.81209  20775529.560    85072325.35748
  20215363.620   106232455.77109  20215360.740    82778533.43048
  24197422.700   127158276.25408  24197423.040    99084349.63745
  24042820.600   126345866.15508  24042819.560    98451313.13047
  23221583.440   122030225.66909  23221582.140    95088463.77848
  23241852.520   122136747.50809  23241851.120    95171480.54446
  24224448.520   127300305.39008  24224446.520    99195030.40145
  20821545.480   109417981.91109  20821544.120    85260769.46648
 15 02 09 07 16  0.0000000  0 10G01G03G04G11G14G17G19G23G28G32
  20494767.340   107700744.37409  20494768.500    83922677.77749
  20782933.260   109215056.03609  20782934.400    85102641.07349
  20782744.200   109214060.74609  20782743.680    85101865.53448
  20219948.980   106256552.41509  20219946.200    82797309.98748
  24213518.220   127242858.02508  24213518.540    99150257.36645
  24025113.860   126252816.84708  24025112.980    98378807.11346
  23241065.860   122132605.30009  23241064.420    95168239.99948
  23222924.800   122037280.75709  23222923.120    95093973.99446
  24231061.820   127335057.50208  24231059.800    99222109.84845
  20831608.980   109470865.28009  20831607.480    85301977.24348
 15 02 09 07 16 30.0000000  0 10G01G03G04G11G14G17G19G23G28G32
  20491329.860   107682680.21009  20491331.040    83908601.77749
  20777617.900   109187123.42609  20777618.900    85080875.40549
  20790019.400   109252292.16409  20790018.920    85131656.21948
  20224623.260   106281116.13309  20224620.600    82816450.50348
  24229670.780   127327739.22608  24229671.240    99216398.43745
  24007454.140   126160014.83608  24007453.520    98306493.80046
  23260586.060   122235183.21909  23260584.380    95248170.72347
  23204030.200   121937988.37809  23204028.200    95016603.30346
  24237744.180   127370172.61808  24237742.280    99249472.16844
  20841722.700   109524012.73509  20841721.120    85343390.79948
 15 02 09 07 17  0.0000000  0 10G01G03G04G11G14G17G19G23G28G32
  20487946.220   107664898.95709  20487947.440    83894746.22049
  20772361.700   109159501.56709  20772362.580    85059351.87849
  20797354.960   109290840.72609  20797354.500    85161694.02948
  20229385.460   106306141.78109  20229382.920    82835950.96148
  24245878.960   127412912.81808  24245879.540    99282767.35045
  23989841.260   126067458.24909  23989840.720    98234371.73147
  23280142.640   122337952.37209  23280140.700    95328250.46748
  23185168.360   121838868.49509  23185166.120    94939367.00646
  24244494.300   127405643.85008  24244492.280    99277111.99744
  20851885.340   109577417.60609  20851883.740    85385004.93548
 15 02 09 07 17 30.0000000  0 10G01G03G04G11G14G17G19G23G28G32
  20484617.260   107647405.38809  20484618.580    83881114.84949
  20767165.240   109132193.58909  20767166.040    85038072.93449
  20804751.600   109329710.05809  20804751.080    85191981.79048
  20234236.380   106331633.38009  20234233.840    82855814.50648
  24262143.000   127498380.03908  24262143.780    99349365.05845
  23972276.340   125975153.65308  23972275.700    98162446.02147
  23299735.720   122440914.08809  23299733.800    95408480.24248
  23166340.340   121739926.69209  23166338.020    94862269.49646
  24251312.320   127441472.37708  24251310.020    99305030.27145
  20862097.280   109631081.71809  20862095.680    85426821.08248
 15 02 09 07 18  0.0000000  0 10G01G03G04G11G14G17G19G23G28G32
  20481342.940   107630199.31709  20481344.400    83867707.49449
  20762028.060   109105197.62009  20762028.840    85017037.09849
  20812209.100   109368899.09109  20812208.540    85222518.66248
  20239175.760   106357589.60009  20239173.160    82876040.08348
  24278462.180   127584136.72108  24278463.000    99416188.29845
  23954759.520   125883101.67508  23954758.800    98090717.13946
  23319364.760   122544064.90808  23319362.840    95488857.37847
  23147546.280   121641163.87409  23147544.120    94785311.47847
  24258197.780   127477655.15908  24258195.560    99333224.54445
  20872357.900   109685001.77409  20872356.380    85468836.65448
 15 02 09 07 18 30.0000000  0 10G01G03G04G11G14G17G19G23G28G32
  20478123.500   107613281.26909  20478125.040    83854524.56949
  20756949.960   109078512.48709  20756950.820    84996243.47848
  20819727.300   109408407.06509  20819726.660    85253304.06848
  20244203.420   106384009.81909  20244200.780    82896627.22648
  24294835.820   127670180.26008  24294836.660    99483235.06745
  23937291.200   125791304.67908  23937290.380    98019186.95346
  23339029.080   122647401.95708  23339027.280    95569379.61247
  23128786.660   121542582.01009  23128784.800    94708494.48447
  24265150.080   127514189.06208  24265148.020    99361692.39545
  20882666.740   109739175.30909  20882665.340    85511049.74548
 15 02 09 07 19  0.0000000  0 10G01G03G04G11G14G17G19G23G28G32
  20474959.260   107596652.97509  20474960.860    83841567.42649
  20751930.980   109052138.28909  20751932.080    84975692.14949
  20827306.320   109448234.89509  20827305.660    85284338.69948
  20249319.540   106410894.64609  20249316.800    82917576.39948
  24311263.560   127756508.59508  24311264.500    99550503.75745
  23919872.000   125699765.78208  23919871.200    97947857.86047
  23358728.600   122750923.32609  23358726.840    95650045.49147
  23110061.980   121444184.13708  23110060.400    94631820.87047
  24272168.920   127551072.52908  24272166.920    99390432.64145
  20893023.500   109793600.96809  20893022.240    85553459.30548
 15 02 09 07 19 30.0000000  0 10G01G03G04G11G14G17G19G23G28G32
  20471850.160   107580314.24509  20471851.740    83828835.91949
  20746970.800   109026073.08409  20746972.060    84955381.58948
  20834946.040   109488381.32509  20834945.260    85315621.59648
  20254523.860   106438242.97509  20254521.060    82938886.74848
  24327744.760   127843117.80408  24327745.860    99617991.29144
  23902502.180   125608486.12809  23902501.340    97876730.81046
  23378462.640   122854625.57009  23378460.840    95730852.30647
  23091372.380   121345970.92209  23091371.060    94555291.14547
  24279253.540   127588302.04408  24279251.740    99419442.54145
  20903427.620   109848275.48209  20903426.540    85596062.76648
 15 02 09 07 20  0.0000000  0 10G01G03G04G11G14G17G19G23G28G32
  20468796.800   107564268.39409  20468798.360    83816332.62449
  20742069.740   109000318.48109  20742071.100    84935313.04349
  20842646.840   109528848.51309  20842645.940    85347154.43448
  20259816.720   106466056.54309  20259813.780    82960559.61548
  24344279.420   127930007.89008  24344280.380    99685697.68745
  23885182.620   125517470.38008  23885181.540    97805809.39546
  23398230.920   122958508.28808  23398229.300    95811799.72747
  23072718.960   121247947.53408  23072717.800    94478909.33647
  24286404.020   127625877.81708  24286402.260    99448722.24445
  20913879.180   109903199.17109  20913878.300    85638860.39348
 15 02 09 07 20 30.0000000  0 10G01G03G04G11G14G17G19G23G28G32
  20465799.100   107548515.14509  20465800.640    83804057.33049
  20737227.580   108974872.56709  20737228.920    84915485.03749
  20850408.440   109569635.32109  20850407.440    85378936.32548
  20265197.840   106494334.20209  20265194.920    82982594.10548
  24360866.760   128017174.70008  24360867.760    99753619.73145
  23867913.460   125426720.15108  23867912.260    97735094.88546
  23418032.760   123062567.88309  23418031.380    95892884.99547
  23054101.680   121150114.11608  23054100.620    94402675.57147
  24293619.640   127663796.07508  24293618.160    99478268.81745
  20924377.500   109958368.76909  20924376.740    85681849.63948
 15 02 09 07 21  0.0000000  0 10G01G03G04G11G14G17G19G23G28G32
  20462857.400   107533056.22109  20462858.880    83792011.40149
  20732444.180   108949735.29709  20732445.500    84895897.54049
  20858230.900   109610742.28509  20858229.840    85410967.68648
  20270667.360   106523076.56609  20270664.480    83004990.71448
  24377506.480   128104616.34608  24377507.500    99821755.92845
  23850695.280   125336238.47708  23850694.200    97664589.64246
  23437867.900   123166802.61508  23437866.780    95974106.70847
  23035521.260   121052473.79909  23035520.180    94326592.26047
  24300899.960   127702054.88308  24300898.680    99508080.75045
  20934922.440   110013782.95009  20934921.700    85725029.47148
 15 02 09 07 21 30.0000000  0 10G01G03G04G11G14G17G19G23G28G32
  20459971.420   107517890.21709  20459972.860    83780193.70549
  20727719.020   108924903.59309  20727720.160    84876548.13049
  20866113.700   109652166.87309  20866112.620    85443246.54348
  20276224.760   106552280.81309  20276221.900    83027747.22548
  24394197.600   128192327.87308  24394198.660    99890102.37944
  23833528.180   125246025.19608  23833527.240    97594293.56546
  23457735.480   123271207.34009  23457734.320    96055460.91847
  23016977.680   120955026.32309  23016976.400    94250659.19547
  24308244.300   127740649.81008  24308243.380    99538154.59746
  20945513.120   110069437.23909  20945512.400    85768396.40448
 15 02 09 07 22  0.0000000  0 10G01G03G04G11G14G17G19G23G28G32
  20457142.500   107503024.09509  20457143.960    83768609.68549
  20723052.980   108900382.68609  20723054.040    84857440.90349
  20874058.100   109693915.21609  20874057.040    85475777.66848
  20281871.220   106581952.97409  20281868.360    83050868.34948
  24410940.740   128280312.89007  24410941.620    99958661.96344
  23816413.900   125156088.90908  23816412.960    97524213.31246
  23477636.160   123375785.90408  23477635.100    96136950.56347
  22998472.480   120857780.18209  22998470.900    94174882.99747
  24315653.180   127779584.15208  24315652.480    99568492.90045
  20956150.320   110125335.67909  20956149.560    85811953.58148
 15 02 09 07 22 30.0000000  0 10G01G03G04G11G14G17G19G23G28G32
  20454369.360   107488451.27509  20454370.880    83757254.21649
  20718444.380   108876164.27709  20718445.480    84838569.39749
  20882062.660   109735979.42309  20882061.540    85508554.92448
  20287605.180   106612085.30609  20287602.380    83074348.04448
  24427733.980   128368561.01608  24427734.680   100027426.56044
  23799351.480   125066424.70608  23799350.140    97454345.07147
  23497568.060   123480528.25908  23497567.000    96218567.83547
  22980004.560   120760729.86309  22980002.700    94099259.39547
  24323124.840   127818847.81708  24323124.260    99599087.82445
  20966832.240   110181468.62509  20966831.320    85855693.48648
 15 02 09 07 23  0.0000000  0 11G01G03G04G11G14G17G19G23G28G31G32
  20451652.920   107474176.42309  20451654.480    83746130.93049
  20713893.900   108852251.33809  20713895.020    84819935.91349
  20890128.020   109778363.17009  20890126.900    85541581.17348
  20293427.320   106642680.97609  20293424.620    83098188.78548
  24444577.600   128457073.45908  24444578.220   100096397.10944
  23782341.920   124977038.41308  23782340.200    97384693.40447
  23517531.420   123585435.56509  23517530.200    96300313.65147
  22961574.980   120663881.11509  22961572.920    94023792.86746
  24330659.520   127858442.26308  24330659.060    99629940.51645
  24449688.300   128483976.70808  24449687.180   100117380.99054
  20977559.100   110237837.79809  20977558.080    85899617.47648
 15 02 09 07 23 30.0000000  0 11G01G03G04G11G14G17G19G23G28G31G32
  20448993.680   107460202.14109  20448995.300    83735241.84949
  20709401.700   108828644.71809  20709402.880    84801541.12849
  20898254.460   109821068.06109  20898253.420    85574857.65848
  20299337.960   106673741.51209  20299335.280    83122391.76048
  24461471.300   128545849.06707  24461471.940   100165572.74245
  23765385.920   124887934.11308  23765384.300    97315261.42947
  23537526.040   123690506.70909  23537524.580    96382187.13747
  22943184.320   120567237.56309  22943182.000    93948486.21746
  24338256.940   127898366.55208  24338256.340    99661050.23145
  24440378.940   128435057.05708  24440379.420   100079261.69145
  20988330.860   110294442.77609  20988329.720    85943725.20648
 15 02 09 07 24  0.0000000  0 11G01G03G04G11G14G17G19G23G28G31G32
  20446392.500   107446532.68209  20446394.080    83724590.29649
  20704968.340   108805346.98009  20704969.480    84783387.02049
  20906442.540   109864097.10909  20906441.620    85608386.73548
  20305337.620   106705269.89109  20305334.940    83146959.29348
  24478415.180   128634888.45708  24478415.720   100234953.92445
  23748484.760   124799117.70508  23748483.240    97246053.81847
  23557551.980   123795742.87508  23557550.380    96464189.20147
  22924833.680   120470804.99309  22924831.260    93873343.98746
  24345917.320   127938621.39008  24345916.620    99692417.50245
  24431132.060   128386466.13308  24431133.420   100041398.65045
  20999147.620   110351284.78109  20999146.420    85988017.64548
 15 02 09 07 24 30.0000000  0 11G01G03G04G11G14G17G19G23G28G31G32
  20443848.220   107433162.00109  20443849.740    83714171.55549
  20700592.300   108782350.28309  20700593.380    84765467.49749
  20914691.040   109907443.38409  20914690.180    85642163.00548
  20311424.900   106737258.79209  20311422.340    83171885.67248
  24495407.420   128724181.85408  24495407.780   100304533.04644
  23731637.520   124710584.42508  23731635.960    97177066.83447
  23577607.400   123901134.42408  23577606.020    96546312.33847
  22906522.180   120374578.22509  22906519.820    93798362.12146
  24353638.820   127979197.19808  24353637.920    99724034.90445
  24421947.000   128338199.62807  24421949.080   100003788.38844
  21010007.700   110408354.75809  21010006.540    86032487.71048
 15 02 09 07 25  0.0000000  0 11G01G03G04G11G14G17G19G23G28G31G32
  20441362.320   107420097.79109  20441363.780    83703991.62249
  20696274.700   108759660.61409  20696275.720    84747787.21549
  20923001.160   109951113.39909  20923000.340    85676191.53248
  20317601.000   106769714.44009  20317598.480    83197175.75148
  24512448.800   128813733.64408  24512449.140   100374313.49144
  23714845.820   124622343.17808  23714844.260    97108307.38647
  23597693.140   124006685.42209  23597691.920    96628559.71147
  22888251.540   120278566.14209  22888249.340    93723547.53547
  24361422.160   128020098.33108  24361421.220    99755905.77645
  24412825.280   128290266.67008  24412827.840    99966438.01745
  21020912.040   110465657.53509  21020910.980    86077139.18248
 15 02 09 07 25 30.0000000  0 11G01G03G04G11G14G17G19G23G28G31G32
  20438933.920   107407335.83209  20438935.300    83694047.22249
  20692014.380   108737272.03409  20692015.340    84730341.54849
  20931371.880   109995101.74009  20931371.060    85710468.10648
  20323864.900   106802631.54609  20323862.460    83222825.40548
  24529537.800   128903535.83408  24529537.980   100444289.08844
  23698109.180   124534391.32508  23698107.760    97039773.45947
  23617807.840   124112388.14609  23617806.760    96710925.34147
  22870021.240   120182766.05109  22870019.360    93648898.17847
  24369265.940   128061317.11108  24369265.040    99788024.18144
  24403766.640   128242664.61008  24403769.540    99929345.46345
  21031859.340   110523185.89309  21031858.300    86121966.43248
 15 02 09 07 26  0.0000000  0 11G01G03G04G11G14G17G19G23G28G31G32
  20436563.460   107394878.47409  20436564.760    83684340.16749
  20687811.380   108715185.12609  20687812.280    84713130.94349
  20939803.460   110039409.77709  20939802.640    85744993.79848
  20330216.840   106836011.21409  20330214.440    83248835.49148
  24546674.120   128993586.98608  24546674.360   100514458.64944
  23681428.260   124446732.81708  23681427.060    96971468.08947
  23637951.280   124218241.60708  23637950.360    96793408.39247
  22851832.000   120087181.07109  22851830.340    93574416.43447
  24377169.860   128102852.36208  24377169.060    99820389.17345
  24394771.880   128195397.37107  24394774.980    99892513.83645
  21042849.440   110580939.13509  21042848.440    86166968.91348
 15 02 09 07 26 30.0000000  0 11G01G03G04G11G14G17G19G23G28G31G32
  20434251.240   107382727.36009  20434252.520    83674871.74249
  20683665.680   108693399.80309  20683666.840    84696155.36549
  20948295.900   110084037.93409  20948295.200    85779768.92848
  20336656.860   106869853.61109  20336654.520    83275206.15348
  24563857.400   129083885.37507  24563857.720   100584820.90144
  23664803.740   124359370.91308  23664802.640    96903393.85547
  23658123.020   124324243.92608  23658122.180    96876007.44647
  22833684.240   119991814.19509  22833682.660    93500104.65547
  24385133.740   128144702.39308  24385132.880    99852999.48244
  24385841.600   128148468.45908  24385844.720    99855945.84145
  21053882.100   110638916.02609  21053881.220    86212145.66948
 15 02 09 07 27  0.0000000  0 11G01G03G04G11G14G17G19G23G28G31G32
  20431997.680   107370884.73309  20431999.020    83665643.69549
  20679577.480   108671916.56909  20679578.700    84679415.15649
  20956849.460   110128987.47909  20956848.900    85814794.48048
  20343185.140   106904159.69409  20343182.760    83301938.13048
  24581087.440   129174429.70408  24581087.840   100655374.77944
  23648236.460   124272309.37209  23648235.260    96835553.66047
  23678322.860   124430393.82909  23678322.080    96958721.48847
  22815578.780   119896668.77509  22815577.120    93425965.41347
  24393157.120   128186865.76007  24393156.580    99885853.94944
  24376976.400   128101881.30808  24376979.540    99819644.16145
  21064957.160   110697115.83309  21064956.380    86257496.11848
 15 02 09 07 27 30.0000000  0 11G01G03G04G11G14G17G19G23G28G31G32
  20429802.440   107359348.80309  20429803.860    83656654.62649
  20675546.100   108650731.84809  20675547.380    84662907.57149
  20965463.620   110174255.31109  20965463.160    85850068.05048
  20349801.080   106938926.33809  20349798.640    83329028.98148
  24598363.240   129265214.52508  24598363.740   100726116.04044
  23631726.340   124185547.63008  23631724.980    96767947.09047
  23698549.820   124536686.11308  23698548.940    97041546.48247
  22797515.500   119801744.42409  22797513.700    93351998.43547
  24401239.180   128229337.10407  24401238.680    99918948.36644
  24368176.400   128055635.66608  24368179.360    99783608.61045
  21076073.740   110755533.78909  21076073.060    86303016.55348
 15 02 09 07 28  0.0000000  0 11G01G03G04G11G14G17G19G23G28G31G32
  20427666.720   107348125.62909  20427668.200    83647909.26249
  20671572.420   108629849.99509  20671573.700    84646635.97049
  20974139.380   110219846.48009  20974138.960    85885593.57548
  20356505.560   106974158.33509  20356503.120    83356482.45448
  24615685.220   129356242.14107  24615686.040   100797046.49345
  23615274.640   124099093.24708  23615273.320    96700580.01647
  23718804.380   124643123.48008  23718803.380    97124484.52047
  22779495.580   119707047.99609  22779493.660    93278209.06447
  24409380.440   128272118.94907  24409379.860    99952284.74244
  24359442.740   128009738.90108  24359445.700    99747844.99646
  21087232.460   110814173.01409  21087231.760    86348709.39048
 15 02 09 07 28 30.0000000  0 11G01G03G04G11G14G17G19G23G28G31G32
  20425589.360   107337209.34709  20425590.920    83639403.04849
  20667655.000   108609263.38009  20667656.200    84630594.43448
  20982875.500   110265754.21509  20982875.000    85921365.77948
  20363297.160   107009848.37609  20363294.740    83384292.83748
  24633051.580   129447503.11307  24633052.600   100868158.79945
  23598880.560   124012941.94108  23598879.220    96633449.09947
  23739084.780   124749696.42408  23739083.740    97207528.21147
  22761518.100   119612574.77909  22761516.100    93204593.62847
  24417578.960   128315201.87407  24417578.560    99985855.73544
  24350774.780   127964187.14208  24350777.540    99712350.21346
  21098431.640   110873024.74509  21098430.960    86394567.82848
 15 02 09 07 29  0.0000000  0 11G01G03G04G11G14G17G19G23G28G31G32
  20423571.880   107326607.64409  20423573.500    83631141.95249
  20663794.780   108588977.92409  20663795.980    84614787.58349
  20991673.100   110311984.77509  20991672.440    85957389.54048
  20370177.060   107046002.69409  20370174.720    83412464.99448
  24650463.220   129539001.71007  24650464.220   100939456.22645
  23582545.820   123927102.43208  23582544.440    96566561.14347
  23759391.720   124856409.26308  23759390.700    97290680.89947
  22743584.740   119518333.83409  22743582.640    93131159.18947
  24425835.540   128358590.17207  24425835.100   100019664.70444
  24342174.120   127918989.37908  24342176.600    99677131.27246
  21109672.240   110932093.85009  21109671.480    86440595.64948
 15 02 09 07 29 30.0000000  0 11G01G03G04G11G14G17G19G23G28G31G32
  20421614.600   107316321.97809  20421616.200    83623127.12149
  20659991.880   108568993.37109  20659993.020    84599215.18549
  21000532.160   110358538.57409  21000531.440    85993665.17548
  20377145.360   107082621.38109  20377143.060    83440999.00648
  24667919.620   129630735.57207  24667920.720   101010936.96144
  23566271.020   123841577.66808  23566269.580    96499918.46047
  23779724.820   124963259.71809  23779723.940    97373940.81947
  22725695.940   119424327.55809  22725693.740    93057907.61947
  24434149.840   128402281.60106  24434149.320   100053709.84644
  24333641.140   127874148.46808  24333643.580    99642190.44246
  21120953.980   110991378.73509  21120953.080    86486791.60848
 15 02 09 07 30  0.0000000  0 11G01G03G04G11G14G17G19G23G28G31G32
  20419716.740   107306348.17309  20419718.260    83615355.29249
  20656245.160   108549303.74109  20656246.240    84583872.59649
  21009451.640   110405410.24109  21009450.920    86030188.50648
  20384201.000   107119698.89109  20384198.700    83469890.53748
  24685419.340   129722697.08207  24685420.640   101082595.07244
  23550055.540   123756365.29708  23550054.260    96433519.17547
  23800082.680   125070240.48409  23800081.880    97457302.28047
  22707851.240   119330552.93209  22707848.760    92984836.51947
  24442520.440   128446268.38406  24442519.880   100087985.11243
  24325175.500   127829661.78708  24325177.960    99607525.63146
  21132275.380   111050872.31609  21132274.360    86533150.19148
 15 02 09 07 30 30.0000000  0 11G01G03G04G11G14G17G19G23G28G31G32
  20417879.020   107296690.77109  20417880.580    83607830.00949
  20652555.100   108529911.82909  20652556.140    84568761.99849
  21018432.260   110452603.16309  21018431.500    86066962.16248
  20391344.560   107157238.37309  20391342.280    83499142.04948
  24702962.680   129814887.14107  24702963.920   101154431.27544
  23533900.720   123671471.52808  23533899.680    96367368.13947
  23820465.580   125177352.57409  23820464.720    97540766.08247
  22690051.700   119237015.71509  22690049.120    92911950.43947
  24450947.460   128490551.62406  24450946.960   100122491.37244
  24316778.360   127785535.05408  24316780.820    99573141.28746
  21143636.780   111110576.30309  21143635.660    86579672.72348
 15 02 09 07 31  0.0000000  0 11G01G03G04G11G14G17G19G23G28G31G32
  20416101.220   107287348.36709  20416102.840    83600550.19349
  20648921.000   108510814.43909  20648921.960    84553880.90249
  21027473.500   110500114.81109  21027472.720    86103984.17548
  20398575.420   107195236.89609  20398573.200    83528751.25548
  24720548.600   129907300.26907  24720549.680   101226441.31045
  23517806.560   123586896.03408  23517805.820    96301465.12447
  23840872.520   125284590.98709  23840871.720    97624328.32047
  22672297.200   119143715.72909  22672294.520    92839249.22347
  24459429.780   128535126.14106  24459429.580   100157224.66743
  24308449.700   127741768.72008  24308452.380    99539037.79746
  21155037.380   111170486.35409  21155036.220    86626355.83848
 15 02 09 07 31 30.0000000  0 11G01G03G04G11G14G17G19G23G28G31G32
  20414384.120   107278325.00009  20414385.800    83593518.97449
  20645343.340   108492013.93009  20645344.340    84539231.13849
  21036575.920   110547948.14309  21036575.140    86141256.85448
  20405894.140   107233697.15809  20405891.980    83558720.25548
  24738177.160   129999937.87907  24738178.260   101298626.22345
  23501774.040   123502644.38908  23501773.480    96235814.44447
  23861303.560   125391956.51708  23861302.920    97707989.59046
  22654588.780   119050658.14009  22654585.940    92766736.86547
  24467967.700   128579992.50206  24467967.640   100192185.36543
  24300190.700   127698368.07808  24300193.500    99505219.23046
  21166477.440   111230603.68909  21166476.180    86673200.46048
 15 02 09 07 32  0.0000000  0 11G01G03G04G11G14G17G19G23G28G31G32
  20412727.560   107269619.61109  20412729.260    83586735.53149
  20641821.640   108473507.40509  20641822.660    84524810.44349
  21045739.100   110596100.87409  21045738.340    86178778.39948
  20413300.240   107272616.61009  20413298.160    83589047.06648
  24755847.460   130092794.70807  24755848.560   101370982.01945
  23485803.240   123418716.72708  23485802.820    96170416.23547
  23881757.740   125499444.27108  23881757.320    97791746.07946
  22636926.500   118957842.85709  22636923.720    92694413.33047
  24476560.300   128625146.08605  24476560.080   100227369.80544
  24292001.320   127655333.34808  24292004.200    99471685.73346
  21177956.200   111290924.35709  21177954.820    86720203.52948
 15 02 09 07 32 30.0000000  0 11G01G03G04G11G14G17G19G23G28G31G32
  20411132.240   107261236.04009  20411133.920    83580202.85249
  20638356.360   108455296.96309  20638357.340    84510620.46549
  21054963.540   110644575.64109  21054962.880    86216550.90448
  20420794.240   107311997.61009  20420792.160    83619733.52448
  24773559.520   130185871.16507  24773560.660   101443508.86344
  23469895.300   123335118.81909  23469894.820    96105274.98047
  23902235.240   125607054.57808  23902235.040    97875598.07546
  22619311.300   118865274.87409  22619308.740    92622282.50747
  24485207.520   128670586.97505  24485206.920   100262778.15843
  24283882.400   127612669.90108  24283885.660    99438441.58546
  21189473.760   111351449.34609  21189472.360    86767365.81748
 15 02 09 07 33  0.0000000  0 11G01G03G04G11G14G17G19G23G28G31G32
  20409597.820   107253172.42709  20409599.500    83573919.49549
  20634946.700   108437379.00809  20634947.580    84496658.40849
  21064248.640   110693369.58409  21064248.160    86254572.11348
  20428375.480   107351836.80909  20428373.380    83650777.02548
  24791312.440   130279161.97307  24791313.480   101516202.79245
  23454050.040   123251850.14908  23454049.400    96040390.27747
  23922735.280   125714782.41608  23922735.100    97959541.64947
  22601743.040   118772953.53609  22601740.620    92550343.85847
  24493908.300   128716309.77706  24493907.500   100298406.18543
  24275834.180   127570377.35408  24275837.500    99405486.37246
  21201029.240   111412173.92409  21201027.940    86814683.62948
 15 02 09 07 33 30.0000000  0 11G01G03G04G11G14G17G19G23G28G31G32
  20408124.560   107245430.51509  20408126.280    83567886.80549
  20631592.720   108419753.50609  20631593.600    84482924.22849
  21073594.500   110742483.07709  21073594.240    86292842.32048
  20436043.860   107392134.13709  20436041.800    83682177.50248
  24809105.740   130372665.09807  24809106.820   101589062.17845
  23438267.860   123168913.54208  23438267.180    95975764.33047
  23943257.460   125822626.25408  23943257.280    98043575.59947
  22584222.180   118680881.50709  22584219.920    92478599.47747
  24502662.420   128762312.75706  24502661.460   100334252.58143
  24267857.040   127528458.60607  24267860.380    99372822.42346
  21212622.460   111473096.93309  21212621.300    86862156.05448
 15 02 09 07 34  0.0000000  0 11G01G03G04G11G14G17G19G23G28G31G32
  20406712.960   107238012.64609  20406714.700    83562106.62349
  20628294.600   108402421.05609  20628295.300    84469418.39349
  21083001.520   110791917.45009  21083001.320    86331362.57048
  20443799.680   107432891.35609  20443797.660    83713936.33148
  24826939.020   130466379.08307  24826940.260   101662085.86444
  23422549.560   123086312.98709  23422548.940    95911400.23447
  23963801.520   125930584.60408  23963801.340    98127698.76447
  22566749.520   118589062.67209  22566747.400    92407052.38847
  24511469.600   128808594.44806  24511468.920   100370316.02743
  24259951.880   127486917.79808  24259955.300    99340452.97645
  21224253.340   111534217.86909  21224252.240    86909782.71548
 15 02 09 07 34 30.0000000  0 11G01G03G04G11G14G17G19G23G28G31G32
  20405362.800   107230917.30809  20405364.480    83556577.75549
  20625051.540   108385378.34509  20625052.240    84456138.33449
  21092469.100   110841669.81109  21092468.920    86370130.60748
  20451642.320   107474104.72809  20451640.340    83746050.61048
  24844811.560   130560299.31607  24844812.980   101735270.28745
  23406895.360   123004048.84609  23406894.440    95847298.29647
  23984366.420   126038652.49908  23984366.260    98211907.27747
  22549324.940   118497495.99609  22549322.800    92335701.77847
  24520328.820   128855149.72905  24520328.760   100406592.77043
  24252118.620   127445754.41107  24252121.940    99308377.60646
  21235921.080   111595532.46909  21235920.060    86957560.28948
 15 02 09 07 35  0.0000000  0 11G01G03G04G11G14G17G19G23G28G31G32
  20404074.480   107224146.58309  20404076.060    83551301.83149
  20621863.660   108368625.71809  20621864.420    84443084.32649
  21101997.460   110891741.29209  21101997.220    86409147.31448
  20459571.880   107515774.87109  20459569.940    83778520.81948
  24862723.080   130654423.96907  24862724.300   101808613.97445
  23391305.780   122922124.15708  23391304.520    95783460.86147
  24004951.980   126146828.88009  24004951.640    98296200.35747
  22531949.020   118406185.13809  22531946.900    92264550.51648
  24529239.900   128901977.26106  24529240.120   100443140.57441
  24244357.900   127404972.08308  24244361.420    99276599.16446
  21247625.500   111657040.01409  21247624.620    87005488.20048
 15 02 09 07 35 30.0000000  0 10G01G03G04G11G17G19G23G28G31G32
  20402848.380   107217702.89309  20402849.900    83546280.74149
  20618731.080   108352163.84609  20618731.840    84430256.87349
  21111586.740   110942132.79909  21111586.480    86448413.37148
  20467588.600   107557902.75609  20467586.680    83811347.69348
  23375781.340   122840542.42209  23375780.040    95719890.65647
  24025557.900   126255112.44609  24025557.420    98380576.95547
  22514622.440   118315133.58509  22514620.260    92193601.29947
  24538202.580   128949075.51405  24538202.640   100479834.45043
  24236670.800   127364574.57108  24236673.840    99245120.57745
  21259366.540   111718740.07909  21259365.840    87053566.13448
 15 02 09 07 36  0.0000000  0 10G01G03G04G11G17G19G23G28G31G32
  20401686.140   107211594.86309  20401687.580    83541521.21649
  20615655.100   108335999.56209  20615655.920    84417661.31949
  21121238.340   110992851.88509  21121238.040    86487934.70748
  20475693.740   107600495.26009  20475691.840    83844536.62248
  23360324.120   122759314.29309  23360322.860    95656595.96947
  24046185.140   126363508.43108  24046184.680    98465041.13947
  22497347.100   118224351.09209  22497344.880    92122861.73747
  24547217.720   128996449.76905  24547217.100   100516759.27444
  24229058.900   127324572.06608  24229061.760    99213949.83545
  21271145.320   111780638.53509  21271144.780    87101798.65248
 15 02 09 07 36 30.0000000  0 10G01G03G04G11G17G19G23G28G31G32
  20400583.700   107205801.38609  20400585.120    83537006.78449
  20612631.460   108320110.00409  20612632.300    84405279.83049
  21130948.040   111043876.47909  21130947.680    86527694.08948
  20483883.060   107643529.88309  20483881.060    83878070.06048
  23344930.380   122678420.22108  23344929.220    95593561.59047
  24066829.100   126471992.31608  24066828.720    98549573.80647
  22480119.100   118133817.40109  22480116.920    92052316.05147
  24556280.640   129044075.07805                                
  24221518.240   127284944.53508  24221520.840    99183071.29345
  21282957.280   111842711.36809  21282956.860    87150167.04748
 15 02 09 07 37  0.0000000  0 10G01G03G04G11G17G19G23G28G31G32
  20399545.760   107200346.96409  20399547.220    83532756.56049
  20609664.400   108304517.95309  20609665.280    84393130.17349
  21140720.260   111095229.84209  21140719.900    86567709.65748
  20492160.940   107687029.81109  20492158.860    83911966.06348
  23329605.060   122597886.08008  23329604.100    95530807.65747
  24087493.820   126580585.08608  24087493.520    98634191.31547
  22462943.300   118043558.24209  22462940.880    91981984.24847
  24565395.240   129091972.09104                                
  24214053.640   127245717.85008  24214056.020    99152505.13945
  21294806.640   111904980.42009  21294806.260    87198688.34348
 15 02 09 07 37 30.0000000  0 10G01G03G04G11G17G19G23G28G31G32
  20398570.580   107195222.38709  20398572.120    83528763.36349
  20606751.860   108289212.40209  20606752.700    84381203.75149
  21150553.000   111146901.46509  21150552.800    86607973.22748
  20500525.280   107730984.10009  20500523.080    83946216.12348
  23314346.860   122517704.03409  23314346.100    95468328.11647
  24108176.900   126689274.28308  24108176.700    98718883.97147
  22445818.160   117953565.52309  22445815.680    91911860.08047
  24574559.060   129140128.05405                                
  24206663.840   127206884.18908  24206666.000    99122245.22745
  21306691.100   111967433.64409  21306690.760    87247353.15848
 15 02 09 07 38  0.0000000  0 10G01G03G04G11G17G19G23G28G31G32
  20397658.780   107190430.74309  20397660.400    83525029.60249
  20603894.100   108274194.70709  20603895.060    84369501.64249
  21160446.660   111198893.12309  21160446.560    86648486.16648
  20508976.340   107775394.13109  20508974.080    83980821.29548
  23299156.480   122437878.51409  23299155.780    95406126.38147
  24128878.160   126798059.49508  24128877.940    98803651.44546
  22428744.620   117863843.66909  22428742.120    91841946.96647
  24583772.280   129188542.62204                                
  24199349.600   127168448.00808  24199351.380    99092295.07545
  21318610.720   112030071.45709  21318610.440    87296161.81548
 15 02 09 07 38 30.0000000  0 10G01G03G04G11G17G19G23G28G31G32
  20396810.080   107185970.63209  20396811.740    83521554.16649
  20601090.520   108259461.70009  20601091.520    84358021.36249
  21170400.760   111251202.36109  21170400.720    86689246.56848
  20517513.500   107820256.90209  20517511.200    84015779.24948
  23284033.920   122358409.70708  23284033.220    95344202.60747
  24149596.560   126906935.73208  24149596.440    98888489.83846
  22411722.440   117774391.95109  22411719.960    91772244.35347
  24593033.760   129237210.81704  24593033.140   100704358.64953
  24192110.980   127130409.17608  24192112.540    99062654.56245
  21330564.660   112092889.59709  21330564.440    87345110.97448
 15 02 09 07 39  0.0000000  0  9G01G03G04G11G17G19G23G31G32
  20396025.480   107181847.62009  20396027.200    83518341.40349
  20598341.820   108245017.19209  20598342.820    84346765.89149
  21180416.160   111303833.46709  21180416.120    86730257.78348
  20526137.560   107865576.16509  20526135.200    84051092.91648
  23268980.580   122279304.65508  23268980.140    95282562.28447
  24170332.640   127015905.23808  24170332.620    98973400.89945
  22394753.080   117685217.31009  22394750.620    91702757.62848
  24184949.140   127092774.46708  24184951.120    99033328.95246
  21342553.400   112155891.03209  21342553.260    87394202.96248
 15 02 09 07 39 30.0000000  0  9G01G03G04G11G17G19G23G31G32
  20395304.160   107178057.32409  20395305.960    83515387.90149
  20595646.880   108230855.06809  20595647.860    84335730.44249
  21190491.780   111356780.93409  21190491.760    86771515.50248
  20534847.340   107911346.12409  20534845.020    84086757.76948
  23253996.000   122200560.25309  23253995.640    95221203.00347
  24191085.040   127124960.18808  24191085.080    99058378.52746
  22377835.800   117596316.13009  22377833.420    91633483.98848
  24177863.620   127055540.65708  24177865.760    99004315.71246
  21354575.640   112219068.53009  21354575.540    87443432.14248
 15 02 09 07 40  0.0000000  0  9G01G03G04G11G17G19G23G31G32
  20394646.520   107174601.79909  20394648.400    83512695.26249
  20593005.660   108216975.61809  20593006.740    84324915.27849
  21200627.740   111410045.47709  21200627.700    86813020.30248
  20543642.920   107957567.41909  20543640.640    84122774.31448
  23239080.660   122122179.71408  23239080.280    95160127.24147
  24211853.540   127234099.19208  24211853.620    99143421.66546
  22360971.320   117507692.14909  22360968.920    91564426.34447
  24170855.060   127018711.39508  24170857.280    98975617.71146
  21366631.320   112282421.49009  21366631.220    87492798.04448
 15 02 09 07 40 30.0000000  0  9G01G03G04G11G17G19G23G31G32
  20394053.400   107171485.25309  20394055.340    83510266.76449
  20590418.800   108203381.31409  20590419.840    84314322.28949
  21210824.600   111463630.01209  21210824.560    86854774.43648
  20552524.880   108004242.58309  20552522.660    84159144.51948
  23224235.780   122044169.21708  23224235.500    95099339.82847
  24232638.320   127343323.06808  24232638.540    99228530.92546
  22344160.300   117419350.41709  22344158.040    91495588.66648
  24163924.520   126982291.59508  24163926.780    98947238.75746
  21378720.740   112345951.42709  21378720.560    87542301.84448
 15 02 09 07 41  0.0000000  0  9G01G03G04G11G17G19G23G31G32
  20393524.440   107168705.54709  20393526.360    83508100.73249
  20587885.440   108190068.25209  20587886.520    84303948.45049
  21221081.760   111517531.37909  21221081.700    86896775.44448
  20561492.380   108051367.33709  20561490.240    84195865.04748
  23209461.220   121966527.76808  23209460.900    95038839.99447
  24253438.280   127452626.34808  24253438.640    99313702.02546
  22327402.660   117331289.28709  22327400.520    91426969.60947
  24157071.820   126946280.90508  24157073.900    98919178.58145
  21390842.940   112409653.50509  21390842.640    87591939.77048
 15 02 09 07 41 30.0000000  0  9G01G03G04G11G17G19G23G31G32
  20393060.300   107166265.91709  20393062.080    83506199.70449
  20585405.820   108177037.92709  20585406.920    84293794.93149
  21231399.540   111571751.37409  21231399.400    86939024.74748
  20570545.780   108098943.55109  20570543.720    84232937.37648
  23194757.700   121889260.24108  23194757.520    94978631.50947
  24274253.360   127562008.84208  24274253.760    99398934.87746
  22310699.360   117243513.52009  22310697.280    91358572.91847
  24150297.720   126910683.46008  24150299.700    98891440.42546
  21402998.040   112473528.22509  21402997.560    87641712.23448
 15 02 09 07 42  0.0000000  0  9G01G03G04G11G17G19G23G31G32
  20392661.140   107164167.51309  20392662.760    83504564.55549
  20582979.880   108164289.77809  20582980.960    84283861.28249
  21241777.960   111626290.12109  21241777.820    86981522.42548
  20579685.040   108146970.76009  20579683.040    84270361.11848
  23180125.660   121812368.85708  23180125.500    94918716.13647
  24295083.180   127671468.40308  24295083.600    99484227.79047
  22294050.880   117156025.41409  22294048.820    91290400.37647
  24143602.780   126875501.93808  24143604.740    98864026.36346
  21415185.660   112537574.09809  21415185.080    87691618.06048
 15 02 09 07 42 30.0000000  0  9G01G03G04G11G17G19G23G31G32
  20392326.740   107162409.80409  20392328.300    83503194.88949
  20580607.200   108151821.55509  20580608.280    84274145.76749
  21252216.660   111681145.70209  21252216.540    87024266.97548
  20588909.700   108195446.62309  20588907.760    84308134.45848
  23165565.380   121735854.72008  23165565.140    94859094.71547
  24315926.820   127781000.81808  24315927.300    99569577.44947
  22277457.420   117068825.34509  22277455.160    91222452.24848
  24136987.000   126840736.60808  24136988.940    98836936.60545
  21427405.280   112601788.00209  21427404.600    87741654.81748
 15 02 09 07 43  0.0000000  0  9G01G03G04G11G17G19G23G31G32
  20392057.000   107160992.29209  20392058.560    83502090.31649
  20578287.380   108139630.97109  20578288.500    84264646.59049
  21262715.340   111736316.59309  21262715.240    87067257.22448
  20598219.340   108244369.15109  20598217.480    84346255.84948
  23151077.280   121659718.84208  23151077.000    94799768.07647
  24336783.580   127890602.20208  24336784.140    99654980.84547
  22260918.940   116981914.05009  22260916.440    91154729.15347
  24130450.480   126806388.23708  24130452.540    98810171.76446
  21439656.260   112666166.74809  21439655.500    87791820.01448
 15 02 09 07 43 30.0000000  0  9G01G03G04G11G17G19G23G31G32
  20391852.780   107159918.96209  20391854.300    83501253.93249
  20576020.900   108127720.32309  20576021.960    84255365.53949
  21273274.520   111791805.18809  21273274.400    87110495.03548
  20607614.400   108293740.41209  20607612.580    84384726.90848
  23136662.240   121583966.55908  23136661.860    94740740.31047
  24357653.620   128000273.26308  24357654.260    99740438.53447
  22244436.400   116895296.52709  22244433.700    91087234.96948
  24123994.520   126772462.40108  24123996.860    98783736.15646
  21451938.900   112730711.74409  21451938.000    87842114.76348
 15 02 09 07 44  0.0000000  0  9G01G03G04G11G17G19G23G31G32
  20391714.420   107159191.44109  20391715.900    83500687.01149
  20573807.680   108116089.46009  20573808.780    84246302.51749
  21283894.300   111847612.14609  21283894.120    87153980.91348
  20617094.840   108343560.33409  20617093.060    84423547.57248
  23122320.760   121508601.03508  23122320.460    94682013.92348
  24378536.580   128110012.34608  24378537.260    99825949.22747
  22228010.160   116808975.30709  22228007.260    91019971.66848
  24117619.560   126738961.58908  24117621.800    98757631.75246
  21464252.940   112795421.92809  21464252.000    87892538.22248
 15 02 09 07 44 30.0000000  0  9G01G03G04G11G17G19G23G31G32
  20391641.200   107158806.27409  20391642.600    83500386.86049
  20571646.720   108104733.31309  20571647.780    84237453.55749
  21294573.720   111903732.61709  21294573.520    87197711.08848
  20626659.700   108393823.98109  20626657.940    84462714.01148
  23108052.500   121433620.08109  23108052.100    94623587.19147
  24399431.200   128219812.52608  24399431.860    99911507.52446
  22211639.760   116722948.00909  22211636.880    90952937.41448
  24111325.180   126705883.47708  24111327.080    98731856.71046
  21476597.280   112860291.29209  21476596.300    87943085.71648
 15 02 09 07 45  0.0000000  0  9G01G03G04G11G17G19G23G31G32
  20391634.220   107158768.98709  20391635.500    83500357.77449
  20569538.700   108093655.59309  20569539.800    84228821.54749
  21305313.640   111960171.04909  21305313.440    87241689.02248
  20636309.580   108444534.87609  20636307.940    84502228.92248
  23093858.800   121359030.35809  23093858.000    94565465.33747
  24420337.860   128329676.06008  24420338.480    99997115.19046
  22195326.440   116637221.28309  22195323.740    90886137.37448
  24105112.460   126673234.94308  24105114.320    98706416.39246
  21488972.400   112925322.69709  21488971.480    87993759.46348
 15 02 09 07 45 30.0000000  0  9G01G03G04G11G17G19G23G31G32
  20391693.700   107159081.01509  20391694.900    83500600.88649
  20567483.580   108082856.05609  20567484.740    84220406.31149
  21316114.040   112016927.44709  21316113.880    87285914.70948
  20646044.500   108495692.81709  20646043.040    84542092.19448
  23079740.140   121284835.30509  23079739.100    94507650.99447
  24441256.120   128439601.22007  24441256.740   100082770.85946
  22179070.760   116551797.76809  22179068.240    90819573.60848
  24098981.820   126641018.32808  24098983.740    98681312.63546
  21501378.080   112990515.04609  21501377.320    88044558.63948
 15 02 09 07 46  0.0000000  0 10G01G03G04G11G17G19G20G23G31G32
  20391819.620   107159742.50009  20391820.860    83501116.30549
  20565481.040   108072333.11809  20565482.380    84212206.61749
  21326974.740   112074000.76109  21326974.660    87330387.35548
  20655864.340   108547296.31209  20655862.940    84582302.65448
  23065696.720   121211036.33609  23065695.660    94450145.29347
  24462185.380   128549584.54108  24462186.040   100168471.84446
  24329447.820   127852111.06205  24329447.720    99625027.01043
  22162873.020   116466678.39809  22162870.560    90753246.83748
  24092933.280   126609234.99607  24092935.340    98656546.50646
  21513813.980   113055865.99209  21513813.340    88095481.38048
 15 02 09 07 46 30.0000000  0 10G01G03G04G11G17G19G20G23G31G32
  20392012.800   107160757.77009  20392014.140    83501907.39049
  20563531.680   108062089.42309  20563533.140    84204224.51749
  21337896.260   112131393.95109  21337896.320    87375109.24448
  20665769.520   108599347.75609  20665768.100    84622862.16348
  23051729.680   121137638.86909  23051728.740    94392952.43748
  24483125.920   128659626.67108  24483126.560   100254218.68046
  24313655.640   127769121.97305  24313655.800    99560360.29643
  22146734.220   116381868.57409  22146731.720    90687161.26547
  24086968.340   126577890.27508  24086970.620    98632122.14346
  21526280.380   113121377.15109  21526279.780    88146528.97948
 15 02 09 07 47  0.0000000  0 10G01G03G04G11G17G19G20G23G31G32
  20392271.540   107162117.83109  20392273.000    83502967.14549
  20561633.480   108052114.27209  20561635.020    84196451.65849
  21348876.740   112189096.96009  21348876.980    87420072.55248
  20675757.940   108651836.33009  20675756.360    84663762.30248
  23037837.440   121064635.22508  23037836.760    94336066.46347
  24504075.340   128769715.70708  24504076.200   100340002.04546
  24297882.880   127686235.46305  24297883.500    99495773.35343
  22130652.820   116297360.54009  22130650.380    90621310.87348
  24081085.360   126546976.39608  24081087.780    98608033.52345
  21538775.120   113187037.11909  21538774.520    88197692.51648
 15 02 09 07 47 30.0000000  0 10G01G03G04G11G17G19G20G23G31G32
  20392597.120   107163829.24409  20392598.760    83504300.67649
  20559787.360   108042412.47809  20559788.800    84188891.81949
  21359917.240   112247115.02209  21359917.620    87465281.35548
  20685830.560   108704767.21009  20685828.840    84705007.09848
  23024021.740   120992034.05109  23024021.080    94279494.08747
  24525034.320   128879854.90708  24525035.340   100425824.51645
  24282130.520   127603456.70205  24282131.760    99431270.48843
  22114630.340   116213161.77109  22114627.940    90555701.45648
  24075286.080   126516501.17408  24075288.260    98584286.67046
  21551298.920   113252849.84609  21551298.340    88248975.10348
 15 02 09 07 48  0.0000000  0 10G01G03G04G11G17G19G20G23G31G32
  20392989.680   107165892.35509  20392991.420    83505908.26949
  20557992.960   108032982.78509  20557994.440    84181544.01049
  21371017.600   112305447.33209  21371018.040    87510735.03248
  20695986.980   108758138.60609  20695985.140    84746595.14848
  23010282.860   120919836.66209  23010282.260    94223236.36647
  24546002.300   128990041.22408  24546003.400   100511683.71046
  24266398.700   127520785.56906  24266399.100    99366851.42643
  22098666.960   116129273.69909  22098664.640    90490334.14548
  24069570.640   126486465.83708  24069572.660    98560882.60445
  21563851.340   113318813.28209  21563850.780    88300375.14248
 15 02 09 07 48 30.0000000  0 10G01G03G04G11G17G19G20G23G31G32
  20393449.620   107168309.37509  20393451.420    83507791.62849
  20556250.460   108023825.61209  20556251.880    84174408.55049
  21382177.940   112364094.77809  21382178.320    87556434.26548
  20706227.260   108811950.88909  20706225.320    84788526.73548
  22996621.520   120848046.25009  22996621.120    94167295.74148
  24566979.020   129100273.23908  24566980.140   100597578.48846
  24250687.640   127438223.01306  24250688.560    99302516.99343
  22082763.300   116045699.46409  22082761.040    90425211.38048
  24063939.580   126456873.55808  24063941.360    98537823.73646
  21576432.340   113384927.03009  21576431.880    88351892.27948
 15 02 09 07 49  0.0000000  0 10G01G03G04G11G17G19G20G23G31G32
  20393977.380   107171082.73809  20393979.200    83509952.65549
  20554559.960   108014941.78309  20554561.340    84167486.09249
  21393398.440   112423058.33109  21393398.800    87602379.82148
  20716551.500   108866204.76609  20716549.540    84830802.43448
  22983038.580   120776667.43709  22983038.260    94111675.87247
  24587964.320   129210550.38708  24587965.540   100683508.42646
  24234997.620   127355771.23306  24234998.320    99238268.77143
  22066920.060   115962442.80009  22066917.660    90360336.07747
  24058393.500   126427727.86508  24058394.780    98515112.87646
  21589041.960   113451191.02209  21589041.580    88403526.51448
 15 02 09 07 49 30.0000000  0 10G01G03G04G11G17G19G20G23G31G32
  20394572.140   107174208.27809  20394573.980    83512388.10849
  20552920.400   108006325.48009  20552921.740    84160772.08449
  21404678.100   112482332.66609  21404678.460    87648567.54148
  20726958.580   108920894.27709  20726956.660    84873417.57948
  22969533.360   120705697.10109  22969533.080    94056374.26648
  24608956.800   129320865.11708  24608958.120   100769467.62547
  24219327.620   127273425.47106  24219329.060    99174103.19144
  22051136.520   115879500.09709  22051134.140    90295705.43048
  24052931.800   126399025.72108  24052932.880    98492747.61046
  21601678.960   113517598.72709  21601678.600    88455272.72448
 15 02 09 07 50  0.0000000  0 10G01G03G04G11G17G19G20G23G31G32
  20395235.140   107177692.57409  20395237.060    83515103.10749
  20551332.580   107997981.49509  20551333.960    84154270.27749
  21416017.920   112541923.27909  21416018.260    87695001.71348
  20737449.440   108976024.17109  20737447.520    84916375.89148
  22956107.500   120635142.85009  22956107.120    94001396.92447
  24629957.020   129431220.52008  24629958.360   100855458.50946
  24203678.880   127191191.30007  24203680.220    99110024.47944
  22035414.240   115796879.26009  22035411.940    90231325.59048
  24047555.860   126370774.71008  24047556.860    98470733.88446
  21614344.100   113584154.17209  21614343.740    88507134.05048
 15 02 09 07 50 30.0000000  0 10G01G03G04G11G17G19G20G23G31G32
  20395966.000   107181533.21209  20395967.900    83518095.77549
  20549795.780   107989905.81109  20549797.180    84147977.52949
  21427417.100   112601826.24309  21427417.420    87741679.26948
  20748023.280   109031590.23809  20748021.420    84959674.06548
  22942760.780   120565004.08409  22942760.040    93946743.31748
  24650963.860   129541611.21608  24650965.280   100941476.88947
  24188051.000   127109065.41107  24188052.060    99046030.15544
  22019753.020   115714578.80409  22019750.680    90167195.38648
  24042265.500   126342973.38108  24042266.480    98449070.48346
  21627036.440   113650852.50309  21627036.020    88559106.72948
 15 02 09 07 51  0.0000000  0 11G01G03G04G09G11G17G19G20G23G31G32
  20396765.240   107185733.18609  20396767.160    83521368.44949
  20548310.340   107982099.74809  20548311.720    84141894.87349
  21438876.120   112662043.31009  21438876.380    87788601.57848
  24316876.860   127786050.82005  24316882.200    99573546.20445
  20758680.380   109087593.67709  20758678.600    85003313.05548
  22929493.920   120495285.18909  22929492.960    93892416.89148
  24671977.300   129652036.73208  24671978.840   101027522.39247
  24172444.140   127027050.46406  24172445.280    98982122.24244
  22004153.480   115632602.85509  22004151.080    90103318.04948
  24037061.340   126315625.70908  24037062.520    98427760.59046
  21639756.060   113717694.22109  21639755.600    88611191.13548
 15 02 09 07 51 30.0000000  0 11G01G03G04G09G11G17G19G20G23G31G32
  20397633.300   107190294.94009  20397635.220    83524923.03049
  20546876.360   107974564.13709  20546877.640    84136022.96349
  21450395.220   112722575.65909  21450395.380    87835769.56848
  24295679.060   127674657.17706  24295685.160    99486746.19244
  20769420.840   109144035.05909  20769419.140    85047293.30048
  22916307.660   120425990.04709  22916306.460    93838420.66747
  24692997.220   129762496.37108  24692998.940   101113594.48246
  24156858.740   126945148.06907  24156859.920    98918302.04744
  21988616.320   115550954.62509  21988613.920    90039696.09148
  24031944.320   126288735.22708  24031945.800    98406806.92546
  21652502.920   113784679.57809  21652502.560    88663387.45848
 15 02 09 07 52  0.0000000  0 11G01G03G04G09G11G17G19G20G23G31G32
  20398569.420   107195214.08209  20398571.300    83528756.09749
  20545492.740   107967292.93909  20545493.920    84130357.08449
  21461973.300   112783417.74509  21461973.380    87883178.90048
  24274499.300   127563358.17406  24274506.000    99400019.94444
  20780243.460   109200908.24609  20780241.800    85091610.01948
  22903201.280   120357115.55009  22903199.900    93784752.23047
  24714022.140   129872982.43108  24714024.040   101199687.14047
  24141293.900   126863353.13707  24141295.160    98854565.62444
  21973140.960   115469630.88109  21973138.400    89976326.96648
  24026913.640   126262298.63908  24026915.260    98386206.90846
  21665275.800   113851801.51809  21665275.540    88715690.22148
 15 02 09 07 52 30.0000000  0 11G01G03G04G09G11G17G19G20G23G31G32
  20399573.920   107200492.36309  20399575.720    83532869.00849
  20544159.420   107960286.18509  20544160.540    84124897.26749
  21473610.400   112844570.05709  21473610.380    87930829.97648
  24253338.200   127452156.97606  24253344.580    99313369.88344
  20791148.200   109258212.94709  20791146.700    85136262.97248
  22890175.440   120288664.62009  22890173.940    93731413.82847
  24735051.780   129983493.31507  24735053.880   101285799.10446
  24125749.820   126781666.66107  24125750.920    98790913.68945
  21957727.860   115388634.46209  21957725.180    89913212.90648
  24021969.760   126236318.51108  24021971.240    98365962.56246
  21678074.620   113919059.59709  21678074.420    88768099.05148
 15 02 09 07 53  0.0000000  0 11G01G03G04G09G11G17G19G20G23G31G32
  20400647.500   107206133.98809  20400649.340    83537265.04949
  20542876.960   107953546.50209  20542878.000    84119645.55449
  21485306.960   112906035.43009  21485306.880    87978724.98748
  24232196.840   127341059.03907  24232202.720    99226800.30143
  20802135.520   109315951.54809  20802134.140    85181254.03848
  22877231.180   120220642.42409  22877229.960    93678409.52348
  24756086.300   130094029.79307  24756088.600   101371931.01946
  24110227.000   126700092.40408  24110228.060    98727349.23545
  21942377.940   115307970.41909  21942375.240    89850357.84547
  24017113.700   126210800.05108  24017115.380    98346077.95146
  21690899.720   113986455.59809  21690899.560    88820615.35648
 15 02 09 07 53 30.0000000  0 11G01G03G04G09G11G17G19G20G23G31G32
  20401790.500   107212140.36209  20401792.340    83541945.30849
  20541645.240   107947073.66709  20541646.280    84114601.77549
  21497063.060   112967813.88709  21497062.880    88026863.96948
  24211075.680   127230067.17406  24211081.440    99140313.41544
  20813205.340   109374123.52109  20813203.960    85226582.79048
  22864369.180   120153052.73809  22864368.100    93625742.22248
  24777125.420   130204590.28207  24777127.940   101458081.63846
  24094725.600   126618631.05408  24094726.640    98663872.82145
  21927091.620   115227641.33509  21927089.060    89787763.79648
  24012345.880   126185745.60308  24012347.760    98326554.89646
  21703750.880   114053988.48709  21703750.720    88873238.32748
 15 02 09 07 54  0.0000000  0 11G01G03G04G09G11G17G19G20G23G31G32
  20403002.380   107218508.41909  20403004.180    83546907.41049
  20540463.360   107940862.94609  20540464.440    84109762.24749
  21508877.880   113029901.03509  21508877.600    88075243.50048
  24189974.240   127119179.60706  24189980.100    99053907.77245
  20824356.780   109432724.39009  20824355.340    85272245.74548
  22851589.020   120085893.57408  22851588.100    93573410.40648
  24798168.060   130315168.42308  24798170.660   101544246.01646
  24079244.860   126537278.54408  24079245.840    98600481.25946
  21911868.680   115147644.95209  21911866.200    89725428.98148
  24007666.080   126161152.87708  24007667.680    98307391.61146
  21716627.040   114121652.91809  21716626.900    88925963.80248
 15 02 09 07 54 30.0000000  0 11G01G03G04G09G11G17G19G20G23G31G32
  20404283.560   107225240.56609  20404285.300    83552153.20649
  20539331.520   107934915.19709  20539332.660    84105127.62349
  21520751.660   113092298.31509  21520751.340    88123864.68348
  24168893.360   127008400.20906  24168899.400    98967586.44444
  20835589.880   109491754.28509  20835588.320    85318243.01448
  22838891.480   120019168.45508  22838890.740    93521416.79448
  24819214.060   130425763.72108  24819216.680   101630423.73846
  24063785.120   126456036.70208  24063786.220    98537175.95445
  21896709.600   115067984.50309  21896707.280    89663355.94448
  24003074.800   126137025.41508  24003076.280    98288590.86046
  21729528.260   114189449.03109  21729528.120    88978791.88348
 15 02 09 07 55  0.0000000  0 11G01G03G04G09G11G17G19G20G23G31G32
  20405634.720   107232340.38709  20405636.320    83557685.50349
  20538250.120   107929232.37509  20538251.240    84100699.43649
  21532684.800   113155007.74609  21532684.460    88172729.09948
  24147833.960   126897733.84407  24147840.020    98881353.16445
  20846904.960   109551215.02709  20846903.340    85364576.00348
  22826277.480   119952882.20209  22826277.040    93469765.14048
  24840263.340   130536375.95908  24840265.920   101716614.67045
  24048347.100   126374908.89908  24048348.200    98473959.52845
  21881615.440   114988664.96009  21881613.240    89601548.54848
  23998572.900   126113367.53708  23998574.460    98270156.05946
  21742454.760   114257377.94309  21742454.640    89031723.43948
 15 02 09 07 55 30.0000000  0 11G01G03G04G09G11G17G19G20G23G31G32
  20407055.460   107239805.85609  20407056.940    83563502.72549
  20537218.400   107923810.85209  20537219.580    84096474.86749
  21544676.720   113218026.16809  21544676.460    88221834.27948
  24126796.040   126787180.01907  24126801.900    98795207.54144
  20858301.200   109611102.46009  20858299.480    85411241.48148
  22813747.040   119887034.13509  22813746.680    93418454.92748
  24861314.900   130647000.30708  24861317.340   101802815.01145
  24032930.080   126293892.09108  24032931.020    98410829.60445
  21866586.100   114909685.31409  21866583.900    89540005.98248
  23994160.180   126090178.26608  23994161.880    98252086.39346
  21755405.720   114325435.42609  21755405.620    89084755.17448
 15 02 09 07 56  0.0000000  0 11G01G03G04G09G11G17G19G20G23G31G32
  20408545.880   107247637.40909  20408547.260    83569605.20349
  20536236.160   107918649.47509  20536237.360    84092453.00249
  21556727.320   113281352.86409  21556727.160    88271179.67648
  24105779.960   126676740.45607  24105785.560    98709150.95044
  20869778.320   109671415.17909  20869776.600    85458238.35748
  22801300.320   119821626.01709  22801299.980    93367487.53448
  24882368.200   130757633.85108  24882370.420   101889022.54845
  24017534.080   126212985.68808  24017534.900    98347785.72045
  21851621.740   114831046.76409  21851619.460    89478729.20748
  23989836.820   126067458.97108  23989838.760    98234382.98346
  21768380.800   114393619.65609  21768380.720    89137885.67348
 15 02 09 07 56 30.0000000  0 11G01G03G04G09G11G17G19G20G23G31G32
  20410106.420   107255837.72109  20410107.800    83575995.02649
  20535303.640   107913749.28609  20535304.880    84088634.66549
  21568836.840   113344988.86509  21568836.800    88320766.09548
  24084786.440   126566419.21008  24084791.820    98623186.54844
  20881336.520   109732154.10109  20881334.920    85505567.33648
  22788938.240   119756662.32009  22788937.740    93316866.46548
  24903423.140   130868276.20108  24903425.100   101975236.92544
  24002159.560   126132192.16708  24002160.360    98284829.76845
  21836722.980   114752752.98109  21836720.660    89417721.07848
  23985603.580   126045213.10608  23985605.700    98217048.46146
  21781380.040   114461930.99409  21781379.960    89191115.22648
 15 02 09 07 57  0.0000000  0 11G01G03G04G09G11G17G19G20G23G31G32
  20411737.020   107264406.35309  20411738.420    83582671.85649
  20534420.420   107909108.32209  20534421.780    84085018.31549
  21581005.000   113408932.63909  21581005.040    88370592.34148
  24063815.660   126456217.33008  24063820.880    98537315.14645
  20892975.400   109793316.86309  20892973.860    85553226.57348
  22776660.840   119692143.64109  22776660.360    93266592.15148
  24924479.040   130978923.48208  24924480.720   102061455.17044
  23986806.140   126051510.32208  23986807.040    98221960.88845
  21821889.740   114674804.35709  21821887.680    89356981.93648
  23981460.580   126023441.29908  23981462.820    98200083.36346
  21794403.020   114530366.77509  21794402.900    89244441.74948
 15 02 09 07 57 30.0000000  0 11G01G03G04G09G11G17G19G20G23G31G32
  20413437.800   107273344.26709  20413439.280    83589636.42949
  20533586.460   107904725.94809  20533587.840    84081603.45649
  21593231.720   113473183.99709  21593231.760    88420658.25348
  24042868.020   126346137.12308  24042873.220    98451538.52645
  20904694.800   109854902.53109  20904693.180    85601215.34048
  22764468.560   119628072.18609  22764467.860    93216666.33148
  24945535.460   131089573.69008  24945537.120   102147675.65145
  23971474.020   125970940.59908  23971475.080    98159179.36246
  21807122.680   114597202.99609  21807120.560    89296513.34348
  23977407.980   126002144.71608  23977410.540    98183488.59546
  21807449.520   114598925.75109  21807449.340    89297864.25148
 15 02 09 07 58  0.0000000  0 11G01G03G04G09G11G17G19G20G23G31G32
  20415209.660   107282656.00909  20415211.240    83596892.30149
  20532802.360   107900605.14909  20532803.700    84078392.40749
  21605517.560   113537746.04409  21605517.620    88470966.26548
  24021944.720   126236184.60708  24021949.820    98365861.40946
  20916495.240   109916913.60509  20916493.420    85649535.60848
  22752362.400   119564453.97009  22752361.540    93167093.67348
  24966592.660   131200228.11808  24966594.460   102233899.40145
  23956164.120   125890486.65508  23956164.940    98096488.04845
  21792422.840   114519954.60509  21792420.740    89236319.81048
  23973446.920   125981329.42908  23973449.740    98167268.88646
  21820519.920   114667610.24009  21820519.640    89351384.55948
 15 02 09 07 58 30.0000000  0 11G01G03G04G09G11G17G19G20G23G31G32
  20417051.800   107292337.23209  20417053.560    83604436.07549
  20532066.940   107896740.01509  20532068.280    84075380.58349
  21617861.480   113602612.98309  21617861.580    88521511.85648
  24001045.140   126126356.78108  24001050.160    98280281.43046
  20928375.460   109979343.78609  20928373.540    85698182.44548
  22740341.920   119501285.91609  22740341.200    93117871.80948
  24987649.160   131310879.32708  24987651.220   102320120.64046
  23940875.300   125810143.45608  23940876.100    98033883.00946
  21777789.540   114443055.49809  21777787.280    89176398.42648
  23969576.920   125960991.92108  23969579.860    98151421.49046
  21833612.880   114736413.61009  21833612.500    89404997.50948
 15 02 09 07 59  0.0000000  0 11G01G03G04G09G11G17G19G20G23G31G32
  20418965.040   107302391.90409  20418966.980    83612270.85749
  20531380.580   107893132.98309  20531381.920    84072569.87649
  21630264.000   113667787.63009  21630264.040    88572297.23048
  23980170.380   126016659.08508  23980175.300    98194802.85746
  20940335.720   110042195.14509  20940333.840    85747157.46348
  22728408.000   119438573.22609  22728407.320    93069004.75747
  25008705.120   131421528.28707  25008707.580   102406340.07446
  23925608.120   125729914.50408  23925609.000    97971367.00645
  21763223.600   114366510.70109  21763221.100    89116753.13648
  23965798.760   125941136.86008  23965801.420    98135950.03046
  21846728.760   114805337.76209  21846728.400    89458704.58348
 15 02 09 07 59 30.0000000  0 11G01G03G04G09G11G17G19G20G23G31G32
  20420949.120   107312818.32809  20420951.160    83620395.31349
  20530742.640   107889780.80909  20530744.000    84069957.76149
  21642724.480   113733267.00109  21642724.480    88623320.04548
  23959320.280   125907091.28508  23959325.000    98109425.50546
  20952375.400   110105464.29609  20952373.640    85796458.03848
  22716560.700   119376315.73609  22716559.840    93020492.42348
  25029759.600   131532169.98207  25029762.700   102492553.81346
  23910362.300   125649797.37808  23910363.200    97908938.15746
  21748724.920   114290319.32709  21748722.440    89057383.23648
  23962112.100   125921762.92108  23962114.600    98120853.50446
  21859866.820   114874378.78809  21859866.480    89512502.73148
 15 02 09 08 00  0.0000000  0 11G01G03G04G09G11G17G19G20G23G31G32
  20423004.760   107323620.26109  20423006.760    83628812.37549
  20530153.680   107886685.74509  20530155.040    84067545.98949
  21655243.360   113799053.58909  21655243.320    88674582.24148
  23938495.720   125797658.52207  23938500.340    98024153.37747
  20964494.900   110169152.84509  20964493.360    85846085.41148
  22704800.980   119314518.32109  22704800.160    92972338.60048
  25050812.780   131642805.17606  25050816.480   102578762.45745
  23895138.380   125569795.51508  23895139.220    97846599.09645
  21734294.360   114214486.21209  21734291.940    88998292.49748
  23958517.900   125902874.86808  23958520.380    98106135.58946
  21873027.400   114943538.31309  21873027.120    89566393.20848
 15 02 09 08 00 30.0000000  0 11G01G03G04G09G11G17G19G20G23G31G32
  20425131.700   107334797.02509  20425133.660    83637521.50949
  20529613.180   107883845.55109  20529614.520    84065332.81848
  21667820.400   113865145.64009  21667820.260    88726082.47348
  23917696.940   125688361.53007  23917701.640    97938987.06447
  20976693.660   110233258.10909  20976692.320    85896037.50348
  22693128.880   119253181.61509  22693128.420    92924543.75248
  25071864.100   131753429.95006  25071868.220   102664962.91246
  23879936.040   125489907.00708  23879936.760    97784348.35645
  21719932.020   114139011.82609  21719929.660    88939481.29548
  23955016.060   125884473.03408  23955018.520    98091796.56246
  21886209.960   115012813.41709  21886209.780    89620373.76448
 15 02 09 08 01  0.0000000  0 11G01G03G04G09G11G17G19G20G23G31G32
  20427329.880   107346348.06409  20427331.780    83646522.28949
  20529120.840   107881258.22109  20529122.200    84063316.67149
  21680455.100   113931541.02409  21680454.920    88777819.05648
  23896924.180   125579201.24507  23896929.160    97853927.26646
  20988971.300   110297777.67109  20988970.080    85946312.42148
  22681544.740   119192306.13409  22681544.320    92877108.30748
  25092913.080   131864040.63307  25092917.460   102751152.43646
  23864755.160   125410131.18608  23864755.840    97722185.42945
  21705638.000   114063896.34709  21705635.720    88880949.75548
  23951606.740   125866557.20208  23951609.100    98077836.24046
  21899414.060   115082201.57009  21899413.940    89674442.38748
 15 02 09 08 01 30.0000000  0 11G01G03G04G09G11G17G19G20G23G31G32
  20429599.840   107358276.33209  20429601.700    83655817.01149
  20528676.920   107878925.15409  20528678.200    84061498.66249
  21693147.840   113998241.46009  21693147.720    88829793.34448
  23876178.320   125470182.07107  23876183.460    97768977.41247
  21001327.980   110362712.38409  21001326.780    85996910.84048
  22670049.480   119131896.60309  22670048.760    92830035.95448
  25113959.640   131974637.28708  25113964.020   102837331.02247
  23849596.260   125330470.44508  23849596.760    97660112.16845
  21691413.160   113989143.78809  21691410.860    88822701.00848
  23948290.720   125849131.46808  23948292.800    98064257.79746
  21912639.880   115151703.51009  21912639.800    89728599.69248
 15 02 09 08 02  0.0000000  0 11G01G03G04G09G11G17G19G20G23G31G32
  20431941.200   107370580.17009  20431943.140    83665404.38249
  20528280.820   107876843.24509  20528281.940    84059876.33649
  21705898.060   114065243.99509  21705897.980    88882003.03848
  23855459.420   125361303.89308  23855464.520    97684137.37747
  21013763.120   110428058.97809  21013761.920    86047830.20148
  22658642.720   119071952.41309  22658641.840    92783326.18848
  25135002.700   132085214.95708  25135006.880   102923494.80647
  23834458.600   125250922.41908  23834459.260    97598126.76745
  21677257.140   113914753.40809  21677254.760    88764734.48048
  23945067.660   125832194.26808  23945069.500    98051060.01846
  21925886.760   115221315.59609  21925886.560    89782842.80848
 15 02 09 08 02 30.0000000  0 10G01G03G04G09G11G17G20G23G31G32
  20434355.340   107383266.86609  20434357.400    83675290.08949
  20527933.580   107875018.28409  20527934.760    84058454.25249
  21718706.940   114132554.79609  21718706.880    88934452.93948
  23834769.040   125252575.43508  23834774.020    97599413.98146
  21026277.620   110493822.36309  21026276.360    86099074.33748
  22647326.100   119012482.13909  22647325.100    92736985.72048
  23819343.540   125171493.78808  23819344.200    97536234.41745
  21663171.500   113840733.51709  21663169.240    88707056.65148
  23941939.220   125815754.04408  23941940.840    98038249.49346
  21939155.580   115291043.02209  21939155.260    89837175.81848
 15 02 09 08 03  0.0000000  0 10G01G03G04G09G11G17G20G23G31G32
  20436840.880   107396328.97909  20436843.040    83685468.32249
  20527633.520   107873441.32409  20527634.820    84057225.40349
  21731572.740   114200164.67409  21731572.660    88987135.89348
  23814106.000   125143990.69508  23814110.780    97514802.53246
  21038869.600   110559992.96309  21038868.320    86150635.78648
  22636098.420   118953479.62809  22636097.300    92691009.73748
  23804249.840   125092176.55508  23804250.560    97474428.88345
  21649155.160   113767077.48909  21649153.100    88649662.35648
  23938904.120   125799804.25808  23938905.740    98025821.13146
  21952444.440   115360876.16709  21952444.060    89891591.20648
 15 02 09 08 03 30.0000000  0 10G01G03G04G09G11G17G20G23G31G32
  20439397.840   107409766.77709  20439400.160    83695939.29949
  20527380.480   107872111.22009  20527381.820    84056188.91749
  21744495.300   114268072.97009  21744495.240    89040051.37948
  23793470.740   125035551.42708  23793475.220    97430304.40845
  21051538.800   110626569.73309  21051537.520    86202513.71148
  22624959.900   118894946.30009  22624958.700    92645399.33948
  23789177.280   125012970.31408  23789178.060    97412709.85546
  21635208.420   113693786.66609  21635206.340    88592552.62848
  23935962.500   125784345.49608  23935964.040    98013775.38646
  21965753.040   115430813.41309  21965752.700    89946087.70648
 15 02 09 08 04  0.0000000  0 10G01G03G04G09G11G17G20G23G31G32
  20442028.280   107423590.16709  20442030.660    83706710.74049
  20527176.060   107871036.40209  20527177.400    84055351.35549
  21757476.240   114336288.41709  21757476.320    89093206.19148
  23772865.400   124927269.02808  23772869.800    97345928.50045
  21064286.720   110693560.20509  21064285.460    86254714.01148
  22613912.820   118836893.44709  22613911.660    92600163.33848
  23774127.640   124933884.37708  23774128.540    97351084.58246
  21621333.180   113620871.46409  21621330.880    88535735.58348
  23933116.300   125769388.67208  23933117.840    98002120.75246
  21979082.880   115500862.57109  21979082.660    90000671.40648
 15 02 09 08 04 30.0000000  0 10G01G03G04G09G11G17G20G23G31G32
  20444731.040   107437793.24509  20444733.400    83717778.04849
  20527018.840   107870209.55909  20527020.100    84054707.02349
  21770514.160   114404803.57509  21770514.440    89146594.55848
  23752289.100   124819139.12408  23752293.360    97261671.43245
  21077111.880   110760956.63609  21077110.720    86307230.64548
  22602956.220   118779316.32009  22602955.240    92555298.03248
  23759099.660   124854912.40008  23759100.640    97289548.07846
  21607528.460   113548327.15009  21607526.120    88479207.56348
  23930364.460   125754928.35708  23930365.940    97990853.01346
  21992432.520   115571015.78109  21992432.500    90055336.19848
 15 02 09 08 05  0.0000000  0 10G01G03G04G09G11G17G20G23G31G32
  20447506.720   107452379.39509  20447509.040    83729143.84849
  20526909.220   107869632.59009  20526910.280    84054257.39449
  21783609.500   114473620.62109  21783610.000    89200218.14448
  23731742.720   124711166.59608  23731746.720    97177536.98045
  21090014.500   110828760.45409  21090013.420    86360064.70548
  22592090.960   118722219.83409  22592090.120    92510807.25048
  23744093.820   124776057.10908  23744094.740    97228102.50246
  21593795.160   113476158.11609  21593792.700    88422971.96048
  23927707.780   125740968.52108  23927709.300    97979975.22946
  22005802.260   115641274.40209  22005802.400    90110083.11848
 15 02 09 08 05 30.0000000  0 10G01G03G04G09G11G17G20G23G31G32
  20450355.460   107467349.37809  20450357.660    83740808.74149
  20526847.100   107869304.87309  20526847.940    84054001.99149
  21796762.200   114542739.07009  21796762.860    89254076.59048
  23711226.680   124603353.72108  23711230.500    97093526.93746
  21102994.420   110896970.39409  21102993.440    86413215.24848
  22581317.400   118665605.70309  22581316.800    92466692.33048
  23729110.300   124697318.91508  23729111.240    97166748.15446
  21580133.660   113404366.11609  21580131.160    88367030.15648
  23925146.680   125727510.72208  23925148.360    97969488.66946
  22019191.860   115711637.23309  22019192.140    90164911.24748
 15 02 09 08 06  0.0000000  0 10G01G03G04G09G11G17G20G23G31G32
  20453276.320   107482698.13609  20453278.400    83752768.78149
  20526831.080   107869219.90209  20526831.820    84053935.74149
  21809971.080   114612152.42909  21809971.820    89308164.83548
  23690740.300   124495696.89908  23690744.080    97009638.51346
  21116050.280   110965579.18609  21116049.360    86466676.57948
  22570635.020   118609470.15509  22570634.600    92422950.32248
  23714148.160   124618692.00008  23714149.000    97105480.48545
  21566543.180   113332947.18009  21566540.660    88311379.05648
  23922680.360   125714550.39008  23922682.160    97959389.75546
  22032600.000   115782097.23709  22032600.320    90219815.08948
 15 02 09 08 06 30.0000000  0 10G01G03G04G09G11G17G20G23G31G32
  20456270.540   107498432.45809  20456272.520    83765029.25549
  20526862.200   107869383.11809  20526862.920    84054062.88849
  21823237.360   114681866.51209  21823238.000    89362487.40848
  23670285.160   124388204.52808  23670289.080    96925878.25147
  21129183.040   111034591.97509  21129182.180    86520452.71948
  22560045.380   118553821.20809  22560044.940    92379587.49848
  23699208.360   124540182.72408  23699209.260    97044304.50446
  21553024.960   113261908.57009  21553022.440    88256024.31948
  23920310.200   125702094.96308  23920312.120    97949684.28346
  22046027.620   115852659.32009  22046027.900    90274798.48348
 15 02 09 08 07  0.0000000  0 10G01G03G04G09G11G17G20G23G31G32
  20459337.720   107514550.46909  20459339.700    83777588.71249
  20526939.820   107869791.22909  20526940.700    84054380.86849
  21836560.300   114751877.89709  21836560.780    89417041.65448
  23649861.240   124280876.23308  23649865.320    96842245.86447
  21142391.840   111104004.65309  21142391.060    86574540.45048
  22549548.260   118498658.39409  22549547.740    92336603.48148
  23684290.520   124461788.71708  23684291.420    96983218.29946
  21539579.040   113191249.55009  21539576.460    88200965.35748
  23918035.820   125690143.13408  23918037.960    97940371.24046
  22059473.980   115923319.73309  22059474.120    90329858.49448
 15 02 09 08 07 30.0000000  0 10G01G03G04G09G11G17G20G23G31G32
  20462478.200   107531053.91609  20462480.240    83790448.50249
  20527064.040   107870444.58809  20527065.080    84054889.95849
  21849939.900   114822187.14209  21849940.320    89471827.99048
  23629469.160   124173715.26608  23629473.380    96758743.85547
  21155676.700   111173816.96609  21155675.920    86628939.58848
  22539144.200   118443984.44309  22539143.620    92294000.40848
  23669394.820   124383511.08808  23669395.560    96922222.74946
  21526205.920   113120972.85409  21526203.240    88146204.30548
  23915857.740   125678697.22508  23915860.060    97931452.41046
  22072939.000   115994078.27309  22072938.980    90384994.96448
 15 02 09 08 08  0.0000000  0 10G01G03G04G09G11G17G20G23G31G32
  20465692.120   107547943.18509  20465694.220    83803608.92849
  20527234.720   107871342.24209  20527236.040    84055589.41549
  21863376.020   114892793.36209  21863376.360    89526845.72648
  23609109.260   124066723.56908  23609113.460    96675373.72647
  21169037.340   111244027.29809  21169036.560    86683648.87848
  22528833.520   118389801.12809  22528832.940    92251779.62948
  23654521.200   124305349.59508  23654521.900    96861317.68746
  21512905.660   113051079.56409  21512902.860    88091742.01148
  23913776.200   125667758.27808  23913778.400    97922928.59646
  22086422.460   116064933.48809  22086422.260    90440206.76248
 15 02 09 08 08 30.0000000  0 10G01G03G04G09G11G17G20G23G31G32
  20468979.500   107565218.26009  20468981.620    83817069.99349
  20527451.660   107872482.81409  20527453.120    84056478.15349
  21876868.360   114963695.20509  21876868.680    89582093.81748
  23588781.920   123959902.71308  23588785.920    96592136.72647
  21182473.280   111314633.65309  21182472.680    86738666.74348
  22518616.420   118336109.51409  22518615.780    92209942.00948
  23639669.760   124227304.17909  23639670.360    96800503.06746
  21499678.500   112981570.57909  21499675.760    88037579.18248
  23911791.300   125657326.95108  23911793.160    97914800.36346
  22099923.920   116135883.42709  22099923.640    90495492.37848
 15 02 09 08 09  0.0000000  0 10G01G03G04G09G11G17G20G23G31G32
  20472340.620   107582880.60709  20472342.720    83830832.82449
  20527714.860   107873866.40909  20527716.420    84057556.27449
  21890416.960   115034892.78209  21890417.280    89637572.35048
  23568487.680   123853255.64608  23568491.480    96509035.16547
  21195984.560   111385635.59809  21195983.920    86793992.87148
  22508493.280   118282911.98009  22508492.720    92168489.39048
  23624840.500   124149375.19208  23624840.880    96739779.17746
  21486524.880   112912448.40209  21486522.280    87983717.76048
  23909903.320   125647405.10808  23909905.040    97907069.10546
  22113443.300   116206927.78309  22113442.960    90550851.55747
 15 02 09 08 09 30.0000000  0 10G01G03G04G09G11G17G20G23G31G32
  20475775.840   107600932.29809  20475777.940    83844899.04649
  20528024.500   107875493.78409  20528026.160    84058824.34949
  21904022.040   115106387.15909  21904022.420    89693282.16048
  23548227.200   123746786.02908  23548230.840    96426071.88847
  21209571.220   111457033.09009  21209570.420    86849627.22548
  22498464.720   118230212.26209  22498464.260    92127424.66848
  23610033.620   124071564.70208  23610034.040    96679147.64345
  21473445.380   112843715.85609  21473442.920    87930159.96548
  23908112.760   125637995.40208  23908114.500    97899736.91246
  22126980.640   116278066.82509  22126980.280    90606284.52948
 15 02 09 08 10  0.0000000  0 10G01G03G04G09G11G17G20G23G31G32
  20479285.440   107619374.50609  20479287.480    83859269.54849
  20528380.520   107877364.74709  20528382.180    84060282.24749
  21917683.460   115178177.85909  21917683.900    89749222.86948
  23528000.980   123640496.59408  23528004.480    96343249.00747
  21223233.000   111528825.25709  21223232.080    86905569.11448
  22488531.440   118178012.87009  22488530.960    92086749.84048
  23595249.300   123993873.36408  23595249.620    96618608.91544
  21460440.460   112775375.13909  21460438.060    87876907.47748
  23906419.880   125629099.22008  23906421.680    97892804.84946
  22140535.820   116349299.77409  22140535.500    90661790.66447
 15 02 09 08 10 30.0000000  0 10G01G03G04G09G11G17G20G23G31G32
  20482869.180   107638206.29309  20482871.060    83873943.63849
  20528782.520   107879477.10809  20528784.100    84061928.23849
  21931400.860   115250263.01709  21931401.360    89805393.02448
  23507809.100   123534388.00009  23507812.540    96260567.04947
  21236969.400   111601009.38809  21236968.340    86961816.42948
  22478693.300   118126313.67309  22478693.000    92046464.76048
  23580487.360   123916299.73908  23580487.480    96558161.88844
  21447510.100   112707426.07809  21447507.740    87823960.18548
  23904824.700   125620716.45108  23904826.460    97886272.82946
  22154108.360   116420624.10509  22154108.080    90717368.01247
 15 02 09 08 11  0.0000000  0 10G01G03G04G09G11G17G20G23G31G32
  20486526.840   107657426.58009  20486528.580    83888920.45049
  20529230.000   107881828.44009  20529231.560    84063760.45349
  21945173.780   115322640.02409  21945174.340    89861790.58948
  23487651.740   123428460.70809  23487655.160    96178026.35346
  21250779.720   111673582.21409  21250778.620    87018366.61548
  22468950.460   118075115.11309  22468950.540    92006569.77048
  23565747.520   123838842.39307  23565747.720    96497805.51645
  21434654.340   112639868.67109  21434652.140    87771318.06848
  23903327.040   125612846.31308  23903328.840    97880140.24846
  22167697.760   116492036.90009  22167697.520    90773014.28647
 15 02 09 08 11 30.0000000  0 10G01G03G04G09G11G17G20G23G31G32
  20490258.700   107677037.16909  20490260.400    83904201.38349
  20529723.040   107884419.25609  20529724.560    84065779.28149
  21959002.400   115395309.59009  21959002.980    89918416.12248
  23467529.520   123322718.07808  23467532.860    96095629.53746
  21264663.860   111746543.43109  21264662.740    87075219.44048
  22459303.420   118024419.82609  22459303.420    91967066.95048
  23551029.880   123761502.52507  23551030.480    96437540.71445
  21421873.680   112572705.58709  21421871.460    87718983.20548
  23901927.340   125605491.26008  23901929.280    97874409.02446
  22181303.960   116563538.14009  22181303.840    90828729.48947
 15 02 09 08 12  0.0000000  0 10G01G03G04G09G11G17G20G23G31G32
  20494065.160   107697039.90709  20494066.860    83919787.88749
  20530261.720   107887250.15209  20530263.260    84067985.18649
  21972886.760   115468272.21809  21972887.400    89975270.01448
  23447442.960   123217163.54108  23447446.340    96013379.29246
  21278621.900   111819892.75909  21278620.700    87132374.70148
  22449752.900   117974230.91009  22449752.580    91927958.72748
  23536335.120   123684281.55007  23536335.680    96377368.58945
  21409168.460   112505939.26809  21409166.200    87666957.52548
  23900626.080   125598653.69708  23900628.100    97869081.01246
  22194927.000   116635128.03209  22194927.000    90884513.76747
 15 02 09 08 12 30.0000000  0 10G01G03G04G09G11G17G20G23G31G32
  20497946.020   107717433.68609  20497947.740    83935679.09849
  20530845.560   107890318.73009  20530847.140    84070376.30449
  21986826.440   115541525.54909  21986827.120    90032350.42948
  23427392.220   123111797.60508  23427396.020    95931276.03546
  21292653.220   111893627.38909  21292651.980    87189830.18748
  22440298.760   117924548.36809  22440298.220    91889245.07248
  23521662.860   123607178.06608  23521663.460    96317288.00645
  21396538.720   112439569.57309  21396536.280    87615240.88248
  23899423.140   125592332.78008  23899425.160    97864155.55246
  22208566.320   116706803.69709  22208566.520    90940364.89548
 15 02 09 08 13  0.0000000  0 10G01G03G04G09G11G17G20G23G31G32
  20501901.080   107738217.49009  20501902.880    83951874.22549
  20531474.240   107893622.76509  20531475.900    84072950.89249
  22000821.080   115615067.44009  22000821.780    90089655.70748
  23407377.460   123006620.78408  23407381.740    95849320.15846
  21306757.180   111967744.20909  21306755.940    87247583.48048
  22430940.960   117875372.09009  22430940.220    91850925.90148
  23507012.720   123530190.46708  23507013.120    96257297.71446
  21383984.420   112373596.53909  21383981.960    87563833.33348
  23898318.440   125586527.91308  23898320.260    97859632.21346
  22222221.540   116778562.44109  22222221.840    90996280.74747
 15 02 09 08 13 30.0000000  0 10G01G03G04G09G11G17G20G23G31G32
  20505931.040   107759395.07109  20505932.880    83968376.19749
  20532148.260   107897164.77209  20532149.920    84075710.90549
  22014871.100   115688900.27909  22014871.800    90147187.68848
  23387399.900   122901638.55508  23387404.320    95767515.91247
  21320934.100   112042244.91509  21320932.880    87305635.89948
  22421680.380   117826707.32209  22421679.440    91813005.31448
  23492385.320   123453322.28408  23492385.480    96197400.50446
  21371506.520   112308024.70109  21371504.180    87512738.40648
  23897312.760   125581243.38608  23897314.320    97855514.32346
  22235893.040   116850406.38809  22235893.280    91052262.97948
 15 02 09 08 14  0.0000000  0 10G01G03G04G09G11G17G20G23G31G32
  20510035.600   107780964.99909  20510037.480    83985183.88949
  20532867.140   107900942.04209  20532868.680    84078654.24049
  22028975.940   115763021.16409  22028976.640    90204944.14048
  23367459.460   122796851.01608  23367463.880    95685863.38747
  21335183.500   112117126.04709  21335182.320    87363984.76548
  22412516.920   117778553.96809  22412516.060    91775483.20948
  23477780.340   123376571.63408  23477780.640    96137594.88347
  21359104.880   112242853.26909  21359102.440    87461955.46448
  23896405.900   125576478.18808  23896407.320    97851801.12246
  22249580.240   116922332.42109  22249580.340    91108309.17847
 15 02 09 08 14 30.0000000  0 10G01G03G04G09G11G17G20G23G31G32
  20514215.320   107802929.72109  20514217.220    84002299.21149
  20533631.060   107904955.86109  20533632.460    84081781.90049
  22043135.840   115837431.66509  22043136.520    90262926.25348
  23347556.940   122692262.29208  23347561.280    95604365.77248
  21349505.420   112192388.16009  21349504.320    87422630.49248
  22403451.380   117730915.22209  22403450.620    91738362.12048
  23463198.120   123299940.64209  23463198.440    96077882.48947
  21346780.180   112178085.96409  21346777.680    87411487.42848
  23895598.420   125572235.07008  23895599.880    97848494.72346
  22263283.240   116994341.32309  22263283.260    91164419.94547
 15 02 09 08 15  0.0000000  0 10G01G03G04G09G11G17G20G23G31G32
  20518469.880   107825287.26909  20518471.700    84019720.63249
  20534439.340   107909203.01809  20534440.620    84085091.37749
  22057350.140   115912128.28609  22057350.880    90321131.31848
  23327692.140   122587871.96109  23327696.480    95523022.72948
  21363899.060   112268027.29909  21363898.060    87481569.99848
  22394483.640   117683790.21309  22394483.200    91701641.34048
  23448638.240   123223426.62109  23448638.220    96018261.17046
  21334532.060   112113721.49309  21334529.440    87361333.29748
  23894890.160   125568512.61808  23894891.620    97845594.03546
  22277001.300   117066429.49009  22277001.340    91220592.46947
 15 02 09 08 15 30.0000000  0 10G01G03G04G09G11G17G20G23G31G32
  20522799.760   107848040.56609  20522801.500    84037450.43149
  20535292.320   107913685.29009  20535293.520    84088584.07149
  22071619.220   115987112.67109  22071620.020    90379560.63748
  23307866.020   122483684.64509  23307870.360    95441837.86647
  21378364.600   112344043.99609  21378363.800    87540803.71348
  22385614.500   117637182.88809  22385614.120    91665323.96048
  23434100.880   123147032.06308  23434100.840    95958732.97446
  21322361.320   112049763.63309  21322358.720    87311496.00848
  23894281.700   125565313.80008  23894282.940    97843101.38446
  22290734.680   117138598.33409  22290734.700    91276827.86447
 15 02 09 08 16  0.0000000  0 10G01G03G04G09G11G17G20G23G31G32
  20527204.860   107871189.33709  20527206.580    84055488.39349
  20536189.680   107918401.23209  20536190.860    84092258.82149
  22085942.760   116062383.33209  22085943.660    90438213.01448
  23288078.780   122379701.60609  23288083.140    95360812.17148
  21392901.520   112420435.77109  21392900.780    87600329.69548
  22376844.120   117591094.41409  22376843.800    91629410.87248
  23419586.020   123070756.44508  23419586.140    95899297.46446
  21310268.040   111986212.95509  21310265.460    87261976.00948
  23893772.960   125562639.08608  23893774.000    97841017.13846
  22304482.980   117210845.96209  22304483.000    91333124.65247
 15 02 09 08 16 30.0000000  0 10G01G03G04G09G11G17G20G23G31G32
  20531685.380   107894734.57309  20531687.140    84073835.28649
  20537131.360   107923350.61109  20537132.600    84096115.49049
  22100320.780   116137940.19009  22100321.680    90497088.41048
  23268330.900   122275925.53809  23268335.240    95279947.76247
  21407509.780   112497202.23109  21407509.040    87660147.63048
  22368172.880   117545526.69109  22368172.500    91593903.54548
  23405094.020   122994600.57408  23405094.220    95839955.21446
  21298252.660   111923071.73109  21298250.060    87212775.06148
  23893364.080   125560489.73508  23893365.180    97839342.26146
  22318246.140   117283171.75409  22318246.260    91389482.33047
 15 02 09 08 17  0.0000000  0 10G01G03G04G09G11G17G20G23G31G32
  20536241.940   107918679.35509  20536243.740    84092493.50649
  20538117.860   107928535.41809  20538119.240    84100155.58349
  22114753.540   116213784.99009  22114754.540    90556188.17447
  23248623.220   122172361.14608  23248627.440    95199248.28747
  21422189.560   112574344.40909  21422188.740    87720258.33648
  22359601.620   117500483.68809  22359601.200    91558805.10548
  23390624.900   122918567.14208  23390625.600    95780708.40745
  21286315.720   111860343.03409  21286313.240    87163895.58448
  23893055.640   125558868.83808  23893056.960    97838079.20446
  22332024.500   117355577.27709  22332024.620    91445902.12247
 15 02 09 08 17 30.0000000  0 10G01G03G04G09G11G17G20G23G31G32
  20540873.820   107943019.73309  20540875.620    84111459.99849
  20539148.220   107933950.56409  20539149.800    84104375.18349
  22129240.060   116289912.43909  22129241.120    90615508.18548
  23228955.300   122069006.12008  23228959.420    95118711.95447
  21436939.620   112651856.11109  21436938.700    87780656.98148
  22351129.600   117455962.77809  22351129.140    91524113.47848
  23376178.520   122842652.04008  23376179.280    95721553.77245
  21274456.860   111798024.25509  21274454.280    87115335.49448
  23892847.080   125557773.11008  23892848.540    97837225.36046
  22345816.980   117428057.03109  22345817.140    91502379.76047
 15 02 09 08 18  0.0000000  0 10G01G03G04G09G11G17G20G23G31G32
  20545581.140   107967756.48109  20545582.900    84130735.34649
  20540222.440   107939595.70509  20540224.080    84108773.98649
  22143780.440   116366322.27109  22143781.520    90675048.23448
  23209327.600   121965862.92808  23209331.700    95038340.66447
  21451759.680   112729735.82409  21451758.740    87841342.39248
  22342757.360   117411965.73909  22342756.940    91489830.06648
  23361754.880   122766855.50008  23361755.480    95662491.52545
  21262676.280   111736116.74709  21262673.740    87067095.90648
  23892738.720   125557203.60908  23892740.240    97836781.57646
  22359623.480   117500610.43109  22359623.680    91558914.77947
 15 02 09 08 18 30.0000000  0 10G01G03G04G09G11G17G20G23G31G32
  20550364.260   107992891.59409  20550366.000    84150321.11449
  20541340.640   107945471.71709  20541342.220    84113352.68549
  22158374.720   116443014.94209  22158375.840    90734808.68148
  23189740.780   121862935.17308  23189745.100    94958137.25947
  21466649.800   112807983.85409  21466648.940    87902314.79548
  22334485.400   117368495.88109  22334484.920    91455957.43648
  23347354.220   122691179.33208  23347354.620    95603523.07045
  21250974.500   111674623.48309  21250971.840    87019179.09648
  23892731.060   125557162.74008  23892732.580    97836749.72047
  22373444.060   117573237.86409  22373444.280    91615507.49447
 15 02 09 08 19  0.0000000  0 10G01G03G04G09G11G17G20G23G31G32
  20555222.760   108018422.83909  20555224.540    84170215.55449
  20542502.200   107951575.29409  20542503.680    84118108.70649
  22173022.200   116519987.20909  22173023.280    90794786.98748
  23170194.920   121760222.42208  23170199.540    94878101.40547
  21481609.240   112886595.97109  21481608.460    87963570.90248
  22326313.480   117325551.75209  22326312.800    91422494.47948
  23332976.120   122615621.00008  23332975.940    95544646.37044
  21239351.300   111613543.28109  21239348.740    86971584.15648
  23892823.720   125557648.44708  23892825.280    97837128.20646
  22387278.000   117645935.74409  22387278.320    91672155.09647
 15 02 09 08 19 30.0000000  0 10G01G03G04G09G11G17G20G23G31G32
  20560157.040   108044352.67409  20560158.880    84190420.57149
  20543707.400   107957907.81109  20543708.720    84123043.11749
  22187723.080   116597240.31909  22187724.120    90854984.13047
  23150690.820   121657728.64908  23150695.600    94798236.19947
  21496638.060   112965572.79009  21496637.300    88025111.18248
  22318242.280   117283136.95809  22318241.640    91389443.96948
  23318620.900   122540182.59308  23318620.660    95485863.12645
  21227807.280   111552879.31709  21227804.680    86924313.55948
  23893017.120   125558663.36308  23893018.720    97837919.05946
  22401125.500   117718705.01309  22401125.960    91728858.31247
 15 02 09 08 20  0.0000000  0 10G01G03G04G09G11G17G20G23G31G32
  20565167.400   108070682.52509  20565169.320    84210937.29349
  20544956.200   107964469.61609  20544957.400    84128156.20249
  22202477.400   116674774.39209  22202478.480    90915400.21347
  23131229.160   121555457.06708  23131233.780    94718544.11747
  21511736.120   113044913.67309  21511735.420    88086935.16548
  22310272.200   117241254.24609  22310271.640    91356808.07448
  23304288.720   122464865.26708  23304288.580    95427174.27446
  21216342.820   111492633.69409  21216340.300    86877368.95448
  23893311.500   125560209.36808  23893312.960    97839123.74347
  22414986.540   117791545.60909  22414987.120    91785617.13847
 15 02 09 08 20 30.0000000  0 10G01G03G04G09G11G17G20G23G31G32
  20570253.440   108097410.35809  20570255.420    84231764.14149
  20546247.980   107971257.64309  20546249.180    84133445.54649
  22217284.460   116752586.04909  22217285.680    90976032.58547
  23111809.840   121453407.35009  23111814.240    94639024.91247
  21526902.600   113124614.37309  21526902.000    88149039.51248
  22302403.160   117199902.21409  22302402.540    91324585.70948
  23289979.220   122389666.96808  23289978.940    95368578.14846
  21204957.760   111432805.36409  21204955.320    86830749.50548
  23893706.340   125562284.50508  23893707.800    97840740.76646
  22428860.520   117864454.18609  22428861.140    91842428.91647
 15 02 09 08 21  0.0000000  0 10G01G03G04G09G11G17G20G23G31G32
  20575416.100   108124541.03109  20575418.240    84252904.89149
  20547583.440   107978275.72409  20547584.680    84138914.17549
  22232145.080   116830679.03709  22232146.260    91036884.18847
  23092434.020   121351586.03508  23092438.160    94559683.68147
  21542138.140   113204677.44809  21542137.500    88211426.24848
  22294636.200   117159086.65409  22294635.600    91292781.36848
  23275693.180   122314592.02408  23275692.720    95310078.17246
  21193653.080   111373399.78709  21193650.700    86784459.48048
  23894202.680   125564893.90408  23894204.280    97842774.06546
  22442748.140   117937434.19309  22442748.780    91899296.35547
 15 02 09 08 21 30.0000000  0 10G01G03G04G09G11G17G20G23G31G32
  20580655.140   108152072.90609  20580657.400    84274358.26249
  20548962.200   107985521.18609  20548963.520    84144559.96149
  22247058.700   116909050.61809  22247059.840    91097952.87047
  23073101.620   121249993.13808  23073105.600    94480520.46047
  21557442.020   113285099.52309  21557441.400    88274092.71648
  22286971.300   117118806.92209  22286970.720    91261394.55048
  23261430.080   122239638.15708  23261429.600    95251672.57746
  21182428.720   111314416.12309  21182426.560    86738498.22248
  23894800.280   125568035.76108  23894802.100    97845222.27646
  22456648.860   118010482.64409  22456649.480    91956217.12047
 15 02 09 08 22  0.0000000  0 10G01G03G04G09G11G17G20G23G31G32
  20585970.800   108180007.10809  20585973.140    84296125.13349
  20550384.320   107992994.15409  20550385.620    84150383.02849
  22262025.280   116987700.54809  22262026.480    91159238.44247
  23053813.160   121148631.52808  23053817.060    94401537.48847
  21572814.080   113365879.68409  21572813.500    88337038.21648
  22279408.840   117079065.31709  22279408.220    91230427.03748
  23247190.140   122164806.89108  23247189.740    95193362.48946
  21171285.120   111255856.59109  21171282.940    86692867.45148
  23895499.560   125571711.97108  23895501.560    97848086.86146
  22470562.600   118083599.34408  22470563.280    92013191.06847
 15 02 09 08 22 30.0000000  0 10G01G03G04G09G11G17G20G23G31G32
  20591362.600   108208340.84909  20591364.940    84318203.33349
  20551848.980   108000690.84909  20551850.260    84156380.42949
  22277044.120   117066624.90909  22277045.360    91220737.87047
  23034568.540   121047500.13409  23034572.300    94322733.90047
  21588253.280   113447012.95909  21588252.800    88400258.86448
  22271948.460   117039860.04109  22271947.680    91199877.46148
  23232972.940   122090095.38208  23232972.600    95135145.73946
  21160221.920   111197719.11109  21160219.800    86647565.54948
  23896300.020   125575919.78808  23896302.340    97851365.66546
  22484488.600   118156780.17009  22484489.220    92070214.99347
 15 02 09 08 23  0.0000000  0 10G01G03G04G09G11G17G20G23G31G32
  20596830.540   108237074.50009  20596832.840    84340593.16249
  20553356.140   108008610.67909  20553357.380    84162551.69849
  22292114.960   117145822.92309  22292116.340    91282450.53147
  23015368.080   120946601.00409  23015371.700    94244111.29647
  21603759.400   113528498.12009  21603759.000    88463753.71348
  22264590.300   117001192.48609  22264589.420    91169746.88048
  23218778.400   122015503.32508  23218778.220    95077022.08046
  21149239.280   111140004.77309  21149237.120    86602593.37448
  23897201.820   125580659.77708  23897204.240    97855059.16846
  22498426.680   118230024.16809  22498427.220    92127288.14247
 15 02 09 08 23 30.0000000  0 10G01G03G04G09G11G17G20G23G31G32
  20602375.240   108266211.59609  20602377.520    84363297.35449
  20554906.240   108016756.22309  20554907.460    84168898.84049
  22307238.320   117225296.84509  22307239.840    91344378.16847
  22996212.840   120845939.40909  22996216.360    94165673.78047
  21619332.760   113610336.46909  21619332.460    88527523.76948
  22257335.280   116963067.01009  22257334.360    91140038.70048
  23204607.200   121941033.92008  23204606.960    95018993.97146
  21138338.000   111082717.88909  21138335.720    86557954.26448
  23898205.740   125585935.54108  23898208.180    97859170.15546
  22512377.280   118303333.56809  22512377.680    92184412.24447
 15 02 09 08 24  0.0000000  0 10G01G03G04G09G11G17G20G23G31G32
  20607996.640   108295751.78709  20607998.880    84386315.64449
  20556499.000   108025126.14409  20556500.200    84175420.82849
  22322413.900   117305045.03209  22322415.460    91406519.53547
  22977102.960   120745516.66209  22977106.300    94087422.36647
  21634972.960   113692525.66209  21634972.700    88591567.22248
  22250183.180   116925483.80809  22250182.460    91110753.06048
  23190459.480   121866686.97408  23190459.400    94961061.25946
  21127518.120   111025859.04409  21127515.860    86513648.69948
  23899311.520   125591746.81708  23899314.040    97863698.39146
  22526340.060   118376706.79609  22526340.240    92241586.09547
 15 02 09 08 24 30.0000000  0 10G01G03G04G09G11G17G20G23G31G32
  20613694.680   108325694.71409  20613696.840    84409647.76649
  20558134.180   108033719.21509  20558135.420    84182116.70549
  22337641.460   117385066.03809  22337642.980    91468873.46747
  22958038.820   120645334.25608  22958042.060    94009358.23347
  21650679.500   113775063.49909  21650679.240    88655882.32748
  22243134.560   116888444.40809  22243134.120    91081891.16548
  23176334.700   121792461.73108  23176335.040    94903223.43446
  21116779.640   110969428.51509  21116777.360    86469676.89248
  23900519.200   125598093.42908  23900521.840    97868643.77846
  22540314.640   118450142.29309  22540314.680    92298808.48347
 15 02 09 08 25  0.0000000  0 10G01G03G04G09G11G17G20G23G31G32
  20619468.740   108356037.62009  20619470.900    84433291.55249
  20559811.140   108042531.70509  20559812.440    84188983.55149
  22352920.220   117465355.83309  22352921.740    91531436.83947
  22939020.120   120545391.01208  22939023.400    93931480.46247
  21666451.540   113857944.94009  21666451.120    88720465.18548
  22236189.160   116851946.75709  22236188.760    91053451.39648
  23162232.600   121718355.58908  23162233.160    94845478.39846
  21106122.340   110913424.48309  21106120.180    86426037.39648
  23901828.360   125604972.73008  23901831.060    97874004.21746
  22554300.200   118523635.95609  22554300.260    92356076.19447
 15 02 09 08 25 30.0000000  0 10G01G03G04G09G11G17G20G23G31G32
  20625319.620   108386784.62209  20625321.840    84457250.21449
  20561530.520   108051566.89509  20561531.840    84196023.92649
  22368250.700   117545917.44509  22368252.180    91594212.02747
  22920048.140   120445692.91708  22920051.400    93853793.71247
  21682289.460   113941172.48709  21682288.880    88785317.74148
  22229347.900   116815995.74809  22229347.360    91025437.60548
  23148153.960   121644372.44608  23148154.660    94787829.23746
  21095547.160   110857851.72909  21095545.180    86382733.97848
  23903239.680   125612389.22408  23903242.440    97879783.27146
  22568297.320   118597190.86109  22568297.540    92413391.61547
 15 02 09 08 26  0.0000000  0 10G01G03G04G09G11G17G20G23G31G32
  20631247.620   108417936.81609  20631249.900    84481524.60449
  20563292.320   108060824.95309  20563293.580    84203237.96549
  22383632.880   117626750.88609  22383634.440    91657199.01647
  22901123.360   120346242.74508  22901126.720    93776300.15347
  21698192.920   114024744.88209  21698192.260    88850438.99648
  22222611.120   116780593.01309  22222610.400    90997851.02548
  23134098.720   121570512.65408  23134099.580    94730276.19847
  21085054.420   110802712.12309  21085052.380    86339768.05248
  23904753.460   125620343.78708  23904756.020    97885981.57646
  22582306.040   118670806.75109  22582306.380    92470754.55747
 15 02 09 08 26 30.0000000  0 10G01G03G04G09G11G17G20G23G31G32
  20637251.820   108449489.10809  20637254.140    84506110.76549
  20565095.360   108070299.94809  20565096.720    84210621.05749
  22399065.560   117707849.61809  22399067.180    91720392.73447
  22882245.220   120247037.24009  22882248.580    93698997.21947
  21714160.560   114108655.01309  21714159.920    88915823.42148
  22215978.160   116745734.86809  22215977.040    90970688.81748
  23120066.320   121496771.87908  23120067.420    94672815.91047
  21074643.180   110748001.38709  21074641.200    86297136.33848
  23906368.740   125628831.55808  23906371.120    97892595.38046
  22596325.180   118744477.49009  22596325.640    92528160.25047
 15 02 09 08 27  0.0000000  0 10G01G03G04G09G11G17G20G23G31G32
  20643333.600   108481448.79109  20643335.960    84531014.36949
  20566940.880   108079998.29709  20566942.320    84218178.18649
  22414549.940   117789219.90609  22414551.680    91783798.04347
  22863415.340   120148085.41909  22863418.640    93621891.93647
  21730193.580   114192908.71309  21730192.960    88981475.56148
  22209450.300   116711429.58109  22209449.040    90943957.39548
  23106057.820   121423156.89608  23106058.940    94615453.66046
  21064315.200   110693727.76209  21064313.160    86254845.20548
  23908086.820   125637859.93708  23908089.240    97899630.43446
  22610355.920   118818209.22609  22610356.420    92585613.46047
 15 02 09 08 27 30.0000000  0 10G01G03G04G09G11G17G20G23G31G32
  20649492.120   108513811.75709  20649494.500    84556232.22949
  20568827.940   108089915.03509  20568829.340    84225905.49849
  22430084.960   117870856.34409  22430086.680    91847410.74947
  22844633.220   120049384.90409  22844636.460    93544982.46547
  21746290.720   114277499.39509  21746290.080    89047390.29448
  22203026.840   116677673.69809  22203025.620    90917654.07848
  23092072.360   121349663.38008  23092073.420    94558186.07746
  21054069.800   110639887.67409  21054067.680    86212891.90548
  23909907.040   125647424.96908  23909909.440    97907083.66746
  22624397.280   118891996.70909  22624397.820    92643110.11547
 15 02 09 08 28  0.0000000  0 10G01G03G04G09G11G17G20G23G31G32
  20655727.720   108546579.70909  20655730.100    84581765.65149
  20570756.700   108100051.07609  20570758.160    84233803.68749
  22445670.720   117952759.75809  22445672.500    91911231.47947
  22825899.660   119950939.18209  22825902.900    93468271.52947
  21762451.880   114362426.88509  21762451.240    89113567.45248
  22196708.280   116644469.44309  22196707.240    90891780.59248
  23078110.420   121276293.06108  23078111.260    94501014.44746
  21043907.400   110586483.64909  21043905.200    86171278.39348
  23911829.780   125657528.28208  23911831.940    97914956.33146
  22638449.320   118965840.51709  22638449.920    92700650.65947
 15 02 09 08 28 30.0000000  0 10G01G03G04G09G11G17G20G23G31G32
  20662040.280   108579752.00509  20662042.680    84607614.16149
  20572726.960   108110404.97809  20572728.500    84241871.65249
  22461306.920   118034928.01509  22461308.680    91975258.57547
  22807214.760   119852749.38309  22807218.120    93391760.03047
  21778676.580   114447688.50309  21778676.020    89180004.98748
  22190494.940   116611817.54609  22190493.900    90866337.54548
  23064171.700   121203045.04308  23064172.560    94443938.19446
  21033828.080   110533515.89809  21033825.780    86130004.83748
  23913854.860   125668169.39808  23913856.900    97923248.09946
  22652511.680   119039738.98509  22652512.400    92758233.81847
 15 02 09 08 29  0.0000000  0 10G01G03G04G09G11G17G20G23G31G32
  20668430.040   108613330.26009  20668432.540    84633778.99649
  20574738.800   108120977.53909  20574740.400    84250109.99349
  22476993.620   118117361.48409  22476995.400    92039492.33247
  22788579.280   119754818.95609  22788582.600    93315450.60347
  21794964.820   114533283.98209  21794964.440    89246702.66648
  22184387.040   116579720.44109  22184386.140    90841326.77948
  23050256.620   121129921.08508  23050257.340    94386958.56646
  21023832.180   110480986.64509  21023829.840    86089072.97648
  23915982.440   125679349.81908  23915984.520    97931960.07346
  22666584.500   119113692.64209  22666585.360    92815859.94647
 15 02 09 08 29 30.0000000  0 10G01G03G04G09G11G17G20G23G31G32
  20674896.720   108647312.90009  20674899.260    84660258.95149
  20576791.720   108131766.45609  20576793.440    84258516.93749
  22492730.320   118200057.84109  22492732.160    92103930.93147
  22769993.060   119657148.04708  22769996.500    93239343.43248
  21811315.980   114619210.01009  21811315.820    89313657.90848
  22178384.520   116548177.43709  22178383.700    90816747.78948
  23036364.840   121056919.63508  23036365.560    94330074.43046
  21013919.620   110428895.30409  21013917.220    86048482.34848
  23918212.340   125691068.06508  23918214.280    97941091.16746
  22680667.340   119187698.80509  22680668.240    92873527.00547
 15 02 09 08 30  0.0000000  0 10G01G03G04G09G11G17G20G23G31G32
  20681440.820   108681702.25209  20681443.340    84687055.81349
  20578886.160   108142773.24809  20578888.080    84267093.64249
  22508517.240   118283018.04309  22508519.120    92168575.11147
  22751456.900   119559740.85208  22751460.620    93163441.79448
  21827730.200   114705466.88409  21827730.040    89380870.96148
  22172488.120   116517191.57309  22172487.380    90792602.93248
  23022496.820   120984042.91108  23022497.500    94273287.49546
  21004090.880   110377244.71409  21004088.460    86008235.16348
  23920545.160   125703326.49708  23920546.620    97950643.18246
  22694760.500   119261758.86309  22694761.400    92931236.06047
 15 02 09 08 30 30.0000000  0 10G01G03G04G09G11G17G20G23G31G32
  20688061.680   108716495.09309  20688064.260    84714167.09249
  20581021.400   108153993.96309  20581023.320    84275837.04049
  22524353.560   118366237.70709  22524355.460    92233421.46447
  22732970.660   119462595.87708  22732974.520    93087744.45948
  21844206.380   114792049.11209  21844206.200    89448337.54048
  22166697.300   116486760.56909  22166696.640    90768890.43748
  23008651.940   120911287.50708  23008652.480    94216595.05546
  20994345.600   110326032.74109  20994343.040    85968329.75648
  23922980.120   125716121.63308  23922981.400    97960613.39146
  22708863.180   119335868.57109  22708864.080    92988983.78847
 15 02 09 08 31  0.0000000  0 10G01G03G04G09G11G17G20G23G31G32
  20694759.920   108751694.20309  20694762.520    84741594.93949
  20583197.780   108165430.64909  20583199.600    84284748.73349
  22540239.620   118449718.62509  22540241.500    92298471.40147
  22714535.260   119365717.81608  22714539.160    93012255.09248
  21860744.680   114878957.80309  21860744.560    89516058.48748
  22161012.680   116456887.86509  22161012.140    90745612.97948
  22994830.700   120838656.30309  22994831.020    94159999.37946
  20984684.340   110275262.31909  20984681.620    85928768.41548
  23925517.740   125729456.58808  23925519.000    97971004.22046
  22722975.700   119410029.71009  22722976.540    93046771.59247
 15 02 09 08 31 30.0000000  0 10G01G03G04G09G11G17G20G23G31G32
  20701535.420   108787299.33409  20701537.940    84769339.17849
  20585415.120   108177082.35809  20585416.920    84293827.97849
  22556175.120   118533459.40109  22556176.900    92363723.82547
  22696150.900   119269108.08009  22696155.080    92936974.84948
  21877344.620   114966190.52409  21877344.440    89584031.93648
  22155434.480   116427574.08709  22155433.880    90722771.06648
  22981033.060   120766148.83708  22981033.060    94103500.10446
  20975107.180   110224934.34309  20975104.540    85889551.84948
  23928157.980   125743331.10008  23928159.360    97981815.47346
  22737097.820   119484241.12909  22737098.520    93104598.59047
 15 02 09 08 32  0.0000000  0 10G01G03G04G09G11G17G20G23G31G32
  20708388.420   108823311.80009  20708390.920    84797400.81149
  20587673.560   108188949.72809  20587675.320    84303075.27849
  22572160.060   118617460.12909  22572161.720    92429178.81547
  22677818.320   119172769.96909  22677822.560    92861906.24048
  21894006.160   115053746.67009  21894005.900    89652257.39548
  22149962.980   116398821.46009  22149962.400    90700366.39148
  22967259.140   120693766.76708  22967259.260    94047098.55145
  20965614.600   110175050.85309  20965611.940    85850681.63648
  23930901.180   125757746.37508  23930902.420    97993048.10846
  22751229.600   119558503.18609  22751230.100    93162465.02947
 15 02 09 08 32 30.0000000  0 10G01G03G04G09G11G17G20G23G31G32
  20715318.720   108859730.58309  20715321.300    84825779.05749
  20589972.680   108201031.05209  20589974.320    84312489.27849
  22588193.960   118701718.64009  22588195.600    92494834.65047
  22659537.600   119076704.16109  22659541.700    92787049.80947
  21910728.740   115141623.28809  21910728.280    89720732.58048
  22144598.260   116370629.95209  22144597.820    90678398.96648
  22953508.820   120621508.93908  22953508.840    93990793.81145
  20956206.680   110125611.58109  20956203.820    85812157.54948
  23933746.860   125772700.93708  23933748.100    98004700.91546
  22765370.640   119632813.86209  22765370.980    93220369.36647
 15 02 09 08 33  0.0000000  0 10G01G03G04G09G11G17G20G23G31G32
  20722325.760   108896552.84509  20722328.420    84854471.70049
  20592311.800   108213322.82709  20592313.360    84322067.27249
  22604276.100   118786230.88209  22604277.800    92560688.20647
  22641308.620   118980909.73309  22641312.400    92712404.81747
  21927511.340   115229815.70309  21927510.840    89789453.83848
  22139339.940   116342997.09509  22139339.680    90656866.85348
  22939781.580   120549372.50508  22939781.420    93934583.62746
  20946882.800   110076614.37409  20946880.000    85773977.94648
  23936694.760   125788192.23708  23936696.180    98016771.97046
  22779520.240   119707169.60809  22779520.480    93278308.80647
 15 02 09 08 33 30.0000000  0 10G01G03G04G09G11G17G20G23G31G32
  20729410.680   108933784.53809  20729413.400    84883483.37649
  20594691.920   108225830.34009  20594693.520    84331813.36449
  22620407.480   118871002.07509  22620409.280    92626743.52947
  22623132.760   118885394.36309  22623136.160    92637977.27347
  21944354.720   115318327.83709  21944354.240    89858424.22148
  22134189.220   116315929.47609  22134188.860    90635775.19048
  22926078.560   120477363.47608  22926078.540    93878472.78046
  20937644.320   110028066.12609  20937641.540    85736148.18148
  23939745.880   125804225.80508  23939747.200    98029265.55346
  22793679.300   119781575.30809  22793679.520    93336287.17047
 15 02 09 08 34  0.0000000  0 10G01G03G04G09G11G17G20G23G31G32
  20736572.620   108971421.20709  20736575.420    84912810.62049
  20597112.060   108238548.56109  20597113.720    84341723.64149
  22636587.040   118956026.08909  22636588.920    92692995.85647
  22605009.440   118790155.50309  22605012.580    92563765.22747
  21961257.760   115407153.51509  21961257.320    89927638.93348
  22129145.440   116289423.97609  22129145.200    90615121.54948
  22912399.160   120405477.45808  22912399.280    93822457.74346
  20928490.580   109979962.66909  20928487.740    85698664.98848
  23942899.480   125820797.94008  23942901.000    98042178.82146
  22807846.900   119856025.80809  22807847.080    93394300.45247
 15 02 09 08 34 30.0000000  0 10G01G03G04G09G11G17G20G23G31G32
  20743811.940   109009464.73109  20743814.840    84942454.89049
  20599572.500   108251478.72509  20599574.140    84351799.06549
  22652815.140   119041304.15609  22652817.000    92759446.16047
  22586939.320   118695196.81008  22586942.460    92489771.50847
  21978220.380   115496292.47709  21978220.000    89997097.75448
  22124209.060   116263482.69309  22124208.720    90594907.56748
  22898743.460   120333716.32008  22898743.760    93766540.03546
  20919421.960   109932306.99909  20919419.100    85661530.73748
  23946155.760   125837909.75508  23946157.220    98055512.57746
  22822023.200   119930522.07109  22822023.420    93452349.38247
 15 02 09 08 35  0.0000000  0 10G01G03G04G09G11G17G20G23G31G32
  20751128.620   109047914.51709  20751131.560    84972415.72349
  20602073.060   108264619.65609  20602074.780    84362038.71749
  22669091.260   119126834.53809  22669093.000    92826093.06447
  22568922.680   118600519.59009  22568926.000    92415997.11648
  21995242.160   115585742.18009  21995241.760    90066798.71248
  22119380.140   116238106.34509  22119379.700    90575133.77448
  22885111.500   120262080.19408  22885111.800    93710719.73646
  20910438.480   109885099.17309  20910435.720    85624745.45148
  23949514.700   125855560.77308  23949516.320    98069266.50946
  22836207.940   120005062.77109  22836208.180    93510432.93347
 15 02 09 08 35 30.0000000  0 10G01G03G04G09G11G17G20G23G31G32
  20758522.740   109086771.08809  20758525.740    85002693.52949
  20604613.720   108277971.32209  20604615.540    84372442.56749
  22685415.220   119212616.64409  22685416.960    92892936.11047
  22550960.100   118506126.19609  22550963.500    92342443.87648
  22012322.880   115675501.84309  22012322.580    90136741.19048
  22114658.820   116213295.98809  22114658.420    90555801.01248
  22871503.320   120190569.00408  22871503.600    93654996.75846
  20901540.420   109838340.08109  20901537.820    85588309.82548
  23952976.300   125873751.49808  23952978.140    98083440.98846
  22850400.980   120079647.53909  22850401.280    93568550.82847
 15 02 09 08 36  0.0000000  0 10G01G03G04G09G11G17G20G23G31G32
  20765995.060   109126038.51309  20765998.160    85033291.48449
  20607195.240   108291537.20109  20607197.020    84383013.34349
  22701787.560   119298653.34009  22701789.400    92959977.53647
  22533052.660   118412022.52109  22533056.280    92269116.39448
  22029462.940   115765573.24609  22029462.740    90206926.58848
  22110046.060   116189056.03609  22110045.760    90536912.72648
  22857919.720   120119187.01408  22857920.000    93599374.45346
  20892728.720   109792034.46309  20892726.120    85552227.55248
  23956541.240   125892485.54508  23956543.340    98098038.80046
  22864602.960   120154279.73409  22864603.340    93626705.67747
 15 02 09 08 36 30.0000000  0 10G01G03G04G09G11G17G20G23G31G32
  20773543.900   109165708.32609  20773547.180    85064202.97449
  20609815.880   108305308.31309  20609817.620    84393744.03349
  22718206.560   119384935.15509  22718208.360    93027209.98047
  22515199.100   118318201.97409  22515202.880    92196009.52548
  22046660.300   115855945.69109  22046660.220    90277346.56548
  22105540.520   116165379.11609  22105540.180    90518463.17248
  22844359.140   120047926.08508  22844359.620    93543846.48046
  20884001.900   109746175.15909  20883999.320    85516493.06048
  23960208.020   125911754.26508  23960210.260    98113053.27146
  22878812.140   120228950.19909  22878812.660    93684890.34647
 15 02 09 08 37  0.0000000  0 10G01G03G04G09G11G17G20G23G31G32
  20781171.120   109205789.64609  20781174.440    85095435.12649
  20612477.280   108319293.22909  20612478.960    84404641.33549
  22734673.620   119471469.97709  22734675.620    93094639.55147
  22497401.480   118224675.51408  22497405.500    92123131.82848
  22063916.400   115946626.62709  22063916.340    90348006.92047
  22101143.900   116142274.69009  22101143.500    90500459.71548
  22830823.260   119976795.52008  22830823.940    93488420.10346
  20875361.900   109700771.83309  20875359.300    85481113.87848
  23963978.260   125931567.02308  23963980.500    98128491.67746
  22893030.260   120303667.28608  22893030.960    93743111.33647
 15 02 09 08 37 30.0000000  0 10G01G03G04G09G11G17G20G23G31G32
  20788875.440   109246275.55309  20788878.600    85126982.54549
  20615177.920   108333484.56809  20615179.540    84415699.48549
  22751187.320   119558250.13209  22751189.520    93162260.28247
  22479658.820   118131438.15509  22479663.080    92050479.40848
  22081229.560   116037607.21709  22081229.420    90418900.76947
  22096855.100   116119736.77609  22096854.600    90482897.69648
  22817311.020   119905788.29508  22817311.780    93433089.82946
  20866807.500   109655818.12109  20866804.920    85446085.04448
  23967850.640   125951916.58508  23967852.940    98144348.37346
  22907255.840   120378423.37409  22907256.620    93801362.71646
 15 02 09 08 38  0.0000000  0 10G01G03G04G09G11G17G20G23G31G32
  20796657.480   109287169.55309  20796660.500    85158847.95349
  20617918.420   108347885.29909  20617919.940    84426920.79449
  22767748.220   119645277.87109  22767750.620    93230073.94847
  22461972.280   118038495.19609  22461976.600    91978056.35248
  22098600.140   116128889.20909  22098599.900    90490029.48847
  22092674.820   116097769.44009  22092674.440    90465780.26448
  22803822.900   119834908.23008  22803823.640    93377858.65046
  20858339.420   109611317.90009  20858336.780    85411409.57648
  23971825.640   125972806.13908  23971828.400    98160625.86146
  22921489.420   120453221.26508  22921490.400    93859646.66147
 15 02 09 08 38 30.0000000  0 10G01G03G04G09G11G17G20G23G31G32
  20804517.260   109328471.96209  20804520.100    85191031.59449
  20620698.760   108362495.32009  20620700.160    84438305.18949
  22784356.120   119732552.34609  22784358.600    93298079.86146
  22444342.180   117945848.83709  22444346.480    91905864.42648
  22116027.700   116220470.95009  22116027.480    90561391.76147
  22088603.420   116076373.96509  22088603.140    90449108.44548
  22790359.160   119764156.10608  22790359.900    93322727.13746
  20849957.900   109567272.65809  20849955.180    85377088.63948
  23975903.420   125994235.78308  23975906.160    98177324.18646
  22935730.880   120528060.53808  22935731.960    93917962.86247
 15 02 09 08 39  0.0000000  0 10G01G03G04G09G11G17G20G23G31G32
  20812453.520   109370176.44609  20812456.180    85223528.54049
  20623517.600   108377307.79309  20623518.920    84449847.34449
  22801009.600   119820066.26009  22801012.020    93366272.34347
  22426767.820   117853494.70709  22426771.960    91833900.18648
  22133510.740   116312344.25509  22133510.380    90632981.24247
  22084639.700   116055544.35809  22084639.340    90432877.56248
  22776918.620   119693525.67608  22776919.200    93267690.46146
  20841661.820   109523676.45809  20841659.140    85343117.60448
  23980082.980   126016199.26408  23980085.980    98194438.50546
  22949978.960   120602934.31508  22949980.140    93976305.95247
 15 02 09 08 39 30.0000000  0 10G01G03G04G09G11G17G20G23G31G32
  20820466.960   109412286.95809  20820469.560    85256341.86649
  20626375.600   108392326.23309  20626376.920    84461549.99349
  22817709.200   119907822.47209  22817711.520    93434653.63347
  22409250.320   117761438.55909  22409254.140    91762168.12948
  22151049.620   116404511.18409  22151049.200    90704799.52047
  22080784.660   116035285.40509  22080784.140    90417091.35748
  22763502.100   119623020.74608  22763502.660    93212751.57547
  20833452.140   109480534.20309  20833449.440    85309500.28448
  23984365.000   126038700.13008  23984367.760    98211971.57246
  22964234.180   120677845.86508  22964235.560    94034678.44847
 15 02 09 08 40  0.0000000  0 11G01G03G04G06G09G11G17G20G23G31G32
  20828557.720   109454803.78109  20828560.340    85289471.80849
  20629272.760   108407550.53309  20629274.040    84473413.05849
  22834454.800   119995820.28809  22834457.100    93503223.19447
  24661646.120   129597825.94908                                
  22391789.780   117669682.55008  22391793.500    91690669.99148
  22168644.080   116496970.33309  22168643.660    90776845.50247
  22077038.380   116015597.88509  22077037.760    90401750.42048
  22750109.620   119552642.21608  22750110.040    93157911.19547
  20825329.060   109437846.83809  20825326.300    85276237.43148
  23988749.380   126061738.49508  23988752.040    98229923.46346
  22978496.520   120752794.91508  22978498.080    94093080.18447
 15 02 09 08 40 30.0000000  0 11G01G03G04G06G09G11G17G20G23G31G32
  20836728.980   109497743.85609  20836731.640    85322931.55549
  20632212.180   108422997.21309  20632213.460    84485449.40549
  22851249.480   120084075.57909  22851251.720    93571993.37847
  24642611.700   129497799.17608  24642616.160   100907393.06945
  22374389.860   117578245.54309  22374393.580    91619420.42448
  22186296.940   116589736.38309  22186296.540    90849130.62147
  22073404.200   115996499.40209  22073403.500    90386868.47348
  22736744.420   119482407.11108  22736744.600    93103182.57047
  20817295.880   109395631.68509  20817293.040    85243342.53348
  23993239.200   126085330.87908  23993241.680    98248307.05946
  22992769.060   120827797.74208  22992770.800    94151523.82546
 15 02 09 08 41  0.0000000  0 11G01G03G04G06G09G11G17G20G23G31G32
  20844973.640   109541069.67109  20844976.320    85356691.86349
  20635186.640   108438628.39809  20635187.960    84497629.52849
  22868085.880   120172549.99209  22868087.960    93640934.30747
  24623572.300   129397745.82607  24623576.520   100829429.38146
  22357043.940   117487092.00709  22357047.620    91548391.71148
  22204000.800   116682770.37509  22204000.500    90921624.51847
  22069874.860   115977952.82109  22069874.220    90372416.55348
  22723399.320   119412278.27408  22723399.720    93048536.78747
  20809345.500   109353852.14609  20809342.620    85210787.07448
  23997827.180   126109439.77308  23997829.440    98267093.14746
  23007044.620   120902816.36608  23007046.540    94209979.77146
 15 02 09 08 41 30.0000000  0 11G01G03G04G06G09G11G17G20G23G31G32
  20853297.040   109584809.05509  20853299.700    85390774.45449
  20638201.440   108454471.53609  20638202.740    84509974.80948
  22884968.960   120261269.96709  22884970.980    93710066.59447
  24604533.400   129297695.35307  24604537.760   100751467.98145
  22339757.580   117396251.59909  22339761.300    91477607.04148
  22221760.600   116776098.15209  22221760.300    90994347.33947
  22066456.000   115959986.80409  22066455.340    90358417.03648
  22710079.820   119342283.65809  22710080.260    92993995.58346
  20801483.400   109312536.64509  20801480.440    85178593.19648
  24002518.600   126134092.55808  24002520.660    98286303.03345
  23021328.380   120977878.11808  23021330.380    94268469.31747
 15 02 09 08 42  0.0000000  0 11G01G03G04G06G09G11G17G20G23G31G32
  20861697.980   109628955.97709  20861700.600    85425174.60249
  20641255.320   108470520.23809  20641256.740    84522480.27748
  22901897.400   120350228.76609  22901899.480    93779384.96747
  24585494.100   129197643.45507  24585499.160   100673505.49045
  22322529.980   117305720.20709  22322533.640    91407063.16148
  22239574.780   116869711.97209  22239574.640    91067293.04947
  22063146.520   115942595.74509  22063145.940    90344865.53748
  22696784.720   119272417.23708  22696784.700    92939554.25446
  20793708.500   109271679.74209  20793705.620    85146756.66548
  24007312.260   126159283.08608  24007314.260    98305931.95746
  23035619.140   121052976.34008  23035621.220    94326987.29546
 15 02 09 08 42 30.0000000  0 11G01G03G04G06G09G11G17G20G23G31G32
  20870175.880   109673507.27509  20870178.480    85459889.85249
  20644347.740   108486771.00709  20644349.200    84535143.19949
  22918870.420   120439422.14109  22918872.600    93848886.12647
  24566454.420   129097588.76007  24566460.020   100595540.77845
  22305360.980   117215496.54509  22305364.540    91336759.07448
  22257442.300   116963606.49109  22257442.300    91140457.48547
  22059945.980   115925777.39209  22059945.420    90331760.30348
  22683513.500   119202676.93008  22683513.660    92885211.21846
  20786020.380   109231279.02709  20786017.580    85115275.60848
  24012207.540   126185007.95608  24012209.600    98325977.24646
  23049916.180   121128107.43008  23049918.300    94385530.87446
 15 02 09 08 43  0.0000000  0 11G01G03G04G06G09G11G17G20G23G31G32
  20878731.300   109718465.89509  20878733.800    85494922.48849
  20647479.200   108503226.49109  20647480.600    84547965.64049
  22935888.420   120528852.04309  22935890.740    93918571.59447
  24547415.280   128997535.93008  24547420.900   100517577.53645
  22288251.420   117125585.53409  22288254.960    91266698.64248
  22275363.540   117057783.21709  22275363.580    91213841.81747
  22056855.020   115909534.92609  22056854.580    90319103.81148
  22670266.860   119133065.61209  22670267.040    92830968.67946
  20778419.840   109191338.28009  20778417.120    85084152.96248
  24017204.940   126211269.72508  24017207.240    98346440.87746
  23064220.000   121203273.82808  23064222.060    94444101.96946
 15 02 09 08 43 30.0000000  0 11G01G03G04G06G09G11G17G20G23G31G32
  20887363.640   109763828.69109  20887366.120    85530270.06849
  20650648.960   108519883.20409  20650650.380    84560944.89249
  22952950.720   120618514.38109  22952953.180    93988438.18047
  24528376.320   128897483.64108  24528381.640   100439614.74845
  22271201.160   117035985.92909  22271204.520    91196880.85248
  22293337.560   117152237.11409  22293337.680    91287442.13247
  22053873.200   115893865.94809  22053872.820    90306894.18048
  22657044.220   119063580.09609  22657044.100    92776824.15246
  20770906.300   109151854.63409  20770903.660    85053386.50348
  24022303.900   126238065.01908  24022306.160    98367320.25146
  23078529.920   121278472.02008  23078531.900    94502697.82546
 15 02 09 08 44  0.0000000  0 11G01G03G04G06G09G11G17G20G23G31G32
  20896073.260   109809598.06309  20896075.740    85565934.46148
  20653857.400   108536743.34109  20653858.840    84574082.64549
  22970057.480   120708410.34409  22970060.000    94058486.81347
  24509338.200   128797436.08708  24509343.060   100361655.64446
  22254210.960   116946702.06709  22254214.280    91127309.11248
  22311364.440   117246968.74809  22311364.580    91361258.86047
  22051001.140   115878773.22309  22051000.720    90295133.58748
  22643846.160   118994223.62609  22643845.860    92722780.20046
  20763480.500   109112831.40509  20763477.680    85022978.80948
  24027504.560   126265395.59208  24027507.060    98388616.72746
  23092846.280   121353703.83008  23092848.100    94561319.89646
 15 02 09 08 44 30.0000000  0 11G01G03G04G06G09G11G17G20G23G31G32
  20904860.140   109855773.67109  20904862.680    85601915.40348
  20657104.360   108553806.24709  20657105.800    84587378.40049
  22987208.440   120798538.75309  22987210.980    94128716.57646
  24490301.000   128697394.71608  24490305.580   100283701.37846
  22237281.080   116857735.49909  22237284.620    91057984.66148
  22329443.720   117341976.05009  22329443.920    91435290.38347
  22048238.860   115864256.94409  22048238.380    90283822.17048
  22630672.520   118924996.30008  22630672.420    92668836.89746
  20756142.340   109074268.78009  20756139.360    84992930.02148
  24032807.200   126293261.32908  24032809.920    98410330.20946
  23107168.940   121428968.65508  23107170.700    94619967.67946
 15 02 09 08 45  0.0000000  0 11G01G03G04G06G09G11G17G20G23G31G32
  20913723.800   109902352.77609  20913726.480    85638210.74649
  20660389.320   108571068.92609  20660390.700    84600829.81949
  23004402.900   120888895.79609  23004405.520    94199124.49247
  24471264.740   128597358.71708  24471269.140   100205751.26446
  22220411.380   116769085.38909  22220414.920    90988906.79048
  22347574.580   117437254.21809  22347574.960    91509532.96647
  22045585.820   115850314.84709  22045585.400    90272958.15148
  22617522.820   118855894.97008  22617523.040    92614991.79747
  20748891.400   109036164.64709  20748888.340    84963238.50148
  24038211.320   126321659.04208  24038214.120    98432458.25446
  23121497.220   121504263.18708  23121499.020    94678638.60346
 15 02 09 08 45 30.0000000  0 11G01G03G04G06G09G11G17G20G23G31G32
  20922664.900   109949338.52409  20922667.640    85674822.95348
  20663712.860   108588534.34609  20663714.220    84614439.21549
  23021641.240   120979483.78908  23021644.060    94269712.36447
  24452230.380   128497333.09308  24452234.800   100127809.28446
  22203602.840   116680756.84009  22203606.400    90920079.49348
  22365757.320   117532804.95709  22365757.780    91583987.94647
  22043042.780   115836950.85309  22043042.240    90262544.61848
  22604398.020   118786924.07208  22604398.160    92561248.29946
  20741728.420   108998522.84609  20741725.400    84933907.24048
  24043717.120   126350591.39908  24043719.800    98455002.88846
  23135831.720   121579590.36608  23135833.460    94737334.98746
 15 02 09 08 46  0.0000000  0 11G01G03G04G06G09G11G17G20G23G31G32
  20931683.120   109996729.29109  20931685.820    85711750.76849
  20667074.620   108606200.67709  20667076.020    84628205.16749
  23038923.020   121070300.04609  23038926.040    94340478.09047
  24433198.100   128397318.08108  24433202.500   100049875.54146
  22186855.660   116592750.18609  22186859.160    90851503.01048
  22383991.260   117628624.65109  22383991.780    91658652.49547
  22040609.520   115824163.64609  22040609.080    90252580.51648
  22591297.860   118718082.26908  22591297.780    92507605.38547
  20734653.240   108961342.40309  20734650.200    84904935.47648
  24049324.260   126380056.28808  24049327.140    98477962.44246
  23150172.020   121654948.18908  23150173.740    94796055.22846
 15 02 09 08 46 30.0000000  0 11G01G03G04G06G09G11G17G20G23G31G32
  20940778.340   110044524.55009  20940780.940    85748993.76448
  20670474.440   108624067.13809  20670475.940    84642127.06648
  23056248.060   121161343.06009  23056251.060    94411420.55546
  24414168.020   128297315.04508  24414172.680    99971951.19046
  22170170.080   116505066.75809  22170173.520    90783178.41148
  22402276.040   117724711.19309  22402276.680    91733524.98447
  22038286.100   115811953.12209  22038285.640    90243065.77948
  22578222.120   118649369.20409  22578221.980    92454062.80547
  20727665.860   108924623.56009  20727662.860    84876323.40348
  24055032.700   126410052.92108  24055035.260    98501336.36646
  23164517.900   121730335.65608  23164519.660    94854798.56546
 15 02 09 08 47  0.0000000  0 11G01G03G04G06G09G11G17G20G23G31G32
  20949950.280   110092722.85809  20949952.860    85786550.81548
  20673912.040   108642132.17909  20673913.620    84656203.67848
  23073615.780   121252610.54508  23073618.820    94482537.90246
  24395140.360   128197324.56608  24395145.100    99894036.55746
  22153546.120   116417707.11409  22153549.480    90715106.10448
  22420610.960   117821061.26409  22420611.640    91808602.81847
  22036072.220   115800318.30509  22036071.660    90233999.63548
  22565170.780   118580783.94409  22565170.760    92400619.80447
  20720766.120   108888365.38209  20720763.120    84848070.28148
  24060842.020   126440579.62208  24060844.440    98525123.34246
  23178869.100   121805751.15908  23178870.920    94913563.75346
 15 02 09 08 47 30.0000000  0 11G01G03G04G06G09G11G17G20G23G31G32
  20959199.560   110141327.55109  20959202.200    85824424.53649
  20677387.920   108660398.92709  20677389.680    84670437.48349
  23091026.700   121344104.59909  23091029.700    94553831.80446
  24376116.000   128097351.86408  24376120.820    99816135.81346
  22136984.720   116330676.50409  22136987.960    90647290.19848
  22438996.420   117917676.62309  22438997.200    91883887.36647
  22033968.640   115789263.03209  22033968.060    90225385.09448
  22552144.540   118512330.27308  22552144.360    92347279.33946
  20713954.860   108852572.28209  20713951.860    84820179.56448
  24066752.680   126471639.36208  24066755.220    98549325.67746
  23193226.200   121881197.72708  23193228.040    94972353.15146
 15 02 09 08 48  0.0000000  0 11G01G03G04G06G09G11G17G20G23G31G32
  20968525.660   110190336.00109  20968528.340    85862612.87749
  20680901.660   108678864.66709  20680903.720    84684826.33749
  23108480.140   121435821.88409  23108482.940    94625299.65046
  24357094.960   127997396.35508  24357099.880    99738248.42946
  22120485.740   116243974.27009  22120488.860    90579730.14848
  22457431.460   118014552.58509  22457432.340    91959374.97747
  22031974.760   115778784.97509  22031974.160    90217220.31648
  22539142.620   118444005.26308  22539142.220    92294039.12546
  20707231.520   108817241.47709  20707228.660    84792649.09048
  24072764.100   126503228.87008  24072766.580    98573940.81546
  23207588.620   121956672.38308  23207590.540    95031164.43446
 15 02 09 08 48 30.0000000  0 11G01G03G04G06G09G11G17G20G23G31G32
  20977928.440   110239747.42009  20977931.080    85901115.21948
  20684453.160   108697528.46109  20684455.380    84699369.52049
  23125975.760   121527760.92608  23125978.400    94696940.29946
  24338077.440   127897459.17008  24338082.320    99660375.30846
  22104049.400   116157601.53509  22104052.520    90512426.86448
  22475915.700   118111686.87109  22475916.480    92035063.90047
  22030090.660   115768884.02009  22030090.200    90209505.24048
  22526165.420   118375809.97709  22526165.180    92240899.99046
  20700596.240   108782373.13709  20700593.380    84765478.96148
  24078876.040   126535347.13708  24078878.160    98598967.95645
  23221956.220   122032174.15208  23221958.140    95089996.86347
 15 02 09 08 49  0.0000000  0 11G01G03G04G06G09G11G17G20G23G31G32
  20987408.220   110289563.69809  20987410.840    85939933.02248
  20688042.780   108716392.15209  20688045.060    84714068.46549
  23143513.600   121619922.16609  23143516.320    94768754.07246
  24319064.260   127797544.33408  24319069.120    99582519.58846
  22087676.380   116071562.17409  22087679.660    90445383.36448
  22494449.080   118209079.46209  22494449.880    92110954.08847
  22028316.720   115759562.30509  22028316.460    90202241.52448
  22513213.340   118307746.33708  22513213.220    92187863.44947
  20694049.420   108747969.62909  20694046.560    84738671.04248
  24085088.740   126567995.67608  24085091.020    98624408.27045
  23236329.340   122107704.74808  23236331.240    95148851.72846
 15 02 09 08 49 30.0000000  0 11G01G03G04G06G09G11G17G20G23G31G32
  20996964.900   110339783.65509  20996967.440    85979065.38248
  20691670.240   108735454.46209  20691672.560    84728922.18348
  23161093.400   121712303.95608  23161096.080    94840739.69846
  24300055.540   127697652.73908  24300060.300    99504681.94546
  22071367.060   115985856.95709  22071370.440    90378600.21148
  22513031.200   118306727.73009  22513031.940    92187043.50247
  22026652.880   115750819.14009  22026652.700    90195428.61748
  22500286.040   118239813.38208  22500285.940    92134928.73447
  20687591.000   108714030.48909  20687588.180    84712224.97648
  24091402.000   126601172.82308  24091404.420    98650260.51446
  23250707.720   122183262.67508  23250709.580    95207727.90446
 15 02 09 08 50  0.0000000  0 11G01G03G04G06G09G11G17G20G23G31G32
  21006597.680   110390403.86409  21006600.200    86018509.63149
  20695334.860   108754711.88909  20695337.140    84743927.92949
  23178714.340   121804901.81108  23178716.920    94912893.69146
  24281050.940   127597782.97607  24281055.840    99426861.37946
  22055121.060   115900484.40709  22055124.540    90312076.28148
  22531660.980   118404626.52109  22531661.660    92263328.12447
  22025098.580   115742650.97809  22025098.420    90189063.76248
  22487383.080   118172008.33208  22487383.020    92082093.67947
  20681220.540   108680553.12309  20681217.660    84686138.72248
  24097815.160   126634874.80808  24097817.640    98676521.72746
  23265090.640   122258844.35008  23265092.480    95266622.57446
 15 02 09 08 50 30.0000000  0 11G01G03G04G06G09G11G17G20G23G31G32
  21016307.620   110441429.67809  21016310.160    86058269.92648
  20699037.620   108774169.75909  20699039.780    84759089.87749
  23196377.280   121897720.16308  23196379.840    94985219.49947
  24262051.960   127497942.58607  24262056.960    99349063.73446
  22038939.740   115815451.84309  22038943.220    90245817.26148
  22550338.940   118502779.08809  22550339.660    92339810.50147
  22023654.980   115735064.24409  22023654.680    90183151.97748
  22474505.680   118104337.19109  22474505.620    92029362.96147
  20674939.020   108647543.25209  20674936.060    84660416.76048
  24104329.220   126669106.57608  24104332.060    98703195.75546
  23279479.100   122334455.02008  23279480.940    95325539.84646
 15 02 09 08 51  0.0000000  0 11G01G03G04G06G09G11G17G20G23G31G32
  21026093.480   110492854.85809  21026096.140    86098341.42548
  20702777.340   108793821.81509  20702779.400    84774403.13349
  23214080.760   121990751.88209  23214083.380    95057711.56946
  24243057.800   127398127.49207  24243062.680    99271285.75646
  22022822.340   115730755.01209  22022825.740    90179819.83348
  22569063.700   118601177.82509  22569064.620    92416484.68647
  22022320.960   115728053.09409  22022320.580    90177688.71648
  22461652.760   118036794.14709  22461652.500    91976732.01947
  20668745.360   108614995.17909  20668742.420    84635054.64748
  24110942.860   126703861.28408  24110945.720    98730277.26646
  23293871.800   122410088.22808  23293873.640    95384474.67046
 15 02 09 08 51 30.0000000  0 11G01G03G04G06G09G11G17G20G23G31G32
  21035956.200   110544683.82809  21035958.960    86138727.54548
  20706554.940   108813672.41509  20706556.920    84789871.10649
  23231825.460   122084000.18409  23231828.180    95130372.38446
  24224069.740   127298344.24707  24224074.560    99193532.64745
  22006770.000   115646400.22909  22006773.440    90114088.95248
  22587835.880   118699825.64509  22587836.860    92493352.95747
  22021097.320   115721622.17309  22021096.840    90172677.56048
  22448825.060   117969384.45708  22448824.900    91924205.01747
  20662640.440   108582913.72809  20662637.480    84610056.13548
  24117656.860   126739142.97008  24117659.720    98757769.40446
  23308269.520   122485748.30008  23308271.440    95443430.42346
 15 02 09 08 52  0.0000000  0 11G01G03G04G06G09G11G17G20G23G31G32
  21045895.340   110596914.05109  21045898.080    86179426.34148
  20710369.880   108833719.07509  20710371.780    84805491.84549
  23249610.880   122177462.19909  23249613.460    95203199.73546
  24205087.680   127198592.53108  24205092.420    99115804.10846
  21990782.540   115562386.98609  21990785.900    90048624.19248
  22606654.540   118798717.90609  22606655.500    92570411.71247
  22019983.500   115715769.09609  22019983.100    90168116.67048
  22436022.300   117902106.02408  22436022.100    91871780.26647
  20656624.120   108551297.70109  20656621.100    84585420.28348
  24124470.500   126774948.83208  24124473.760    98785669.95546
  23322671.900   122561432.68208  23322673.840    95502405.13346
 15 02 09 08 52 30.0000000  0 11G01G03G04G06G09G11G17G20G23G31G32
  21055910.840   110649545.20009  21055913.460    86220437.55448
  20714222.100   108853961.51809  20714223.820    84821265.14949
  23267436.660   122271136.42009  23267439.220    95276192.43446
  24186111.920   127098874.14508  24186116.620    99038101.54946
  21974860.460   115478716.91309  21974863.860    89983426.83548
  22625519.260   118897852.84909  22625520.520    92647659.54647
  22018979.640   115710493.90809  22018979.240    90164006.08648
  22423244.480   117834958.79408  22423244.480    91819457.77447
  20650696.360   108520147.23809  20650693.320    84561147.22248
  24131383.640   126811277.87208  24131387.020    98813978.19846
  23337078.800   122637140.79608  23337080.680    95561398.31646
 15 02 09 08 53  0.0000000  0 11G01G03G04G06G09G11G17G20G23G31G32
  21066002.860   110702578.53409  21066005.460    86261762.16048
  20718111.780   108874401.00309  20718113.380    84837191.99149
  23285302.960   122365023.28508  23285305.640    95349350.83046
  24167143.180   126999192.59908  24167147.780    98960427.68346
  21959004.400   115395393.25209  21959007.760    89918499.39948
  22644430.220   118997230.26009  22644431.560    92725096.33247
  22018085.960   115705798.23909  22018085.660    90160347.07248
  22410491.980   117767944.97408  22410492.180    91767239.22147
  20644857.440   108489463.59809  20644854.400    84537237.91348
  24138396.600   126848130.93108  24138399.640    98842694.81646
  23351490.420   122712873.92908  23351492.300    95620411.00046
 15 02 09 08 53 30.0000000  0 11G01G03G04G06G09G11G17G20G23G31G32
  21076170.580   110756010.21109  21076173.280    86303397.15548
  20722038.180   108895033.76409  20722039.700    84853269.43949
  23303208.720   122459117.98009  23303211.620    95422671.15646
  24148181.140   126899546.21408  24148185.480    98882781.20546
  21943214.040   115312414.09609  21943217.320    89853840.40048
  22663386.260   119096844.23709  22663387.480    92802717.44747
  22017301.960   115701678.35409  22017301.640    90157136.74248
  22397764.340   117701061.61808  22397764.780    91715122.33047
  20639106.760   108459243.68409  20639103.680    84513689.94248
  24145508.500   126885503.75508  24145511.400    98871816.39946
  23365906.000   122788628.21308  23365908.040    95679440.15946
 15 02 09 08 54  0.0000000  0 11G01G03G04G06G09G11G17G20G23G31G32
  21086413.800   110809839.16809  21086416.640    86345341.72348
  20726001.060   108915858.82609  20726002.580    84869496.72749
  23321153.660   122553418.69008  23321156.760    95496152.02846
  24129226.000   126799936.24208  24129230.240    98805163.09546
  21927489.420   115229780.41509  21927492.480    89789450.59348
  22682386.840   119196692.33109  22682388.160    92880520.98647
  22016627.560   115698133.77309  22016627.140    90154374.71448
  22385061.520   117634307.88508  22385061.760    91663106.41646
  20633444.160   108429486.93509  20633441.180    84490502.89248
  24152719.020   126923394.58408  24152721.740    98901341.64546
  23380325.340   122864402.55308  23380327.520    95738484.94146
 15 02 09 08 54 30.0000000  0 11G01G03G04G06G09G11G17G20G23G31G32
  21096733.520   110864069.89109  21096736.440    86387599.35848
  20730001.360   108936880.73609  20730002.940    84885877.41249
  23339138.420   122647928.98908  23339141.720    95569796.21047
  24110279.020   126700369.45008  24110283.320    98727578.64446
  21911831.840   115147498.62309  21911834.620    89725334.95948
  22701432.520   119296777.42109  22701433.860    92958509.20347
  22016063.400   115695168.98409  22016063.100    90152064.43848
  22372384.380   117567689.12508  22372384.580    91611195.70047
  20627870.760   108400198.68809  20627867.820    84467680.90249
  24160028.960   126961807.25108  24160031.640    98931273.49146
  23394749.400   122940201.36608  23394751.640    95797548.79246
 15 02 09 08 55  0.0000000  0 11G01G03G04G06G09G11G17G20G23G31G32
  21107129.000   110918698.30309  21107131.900    86430166.87648
  20734038.380   108958095.60609  20734040.060    84902408.43249
  23357162.200   122742644.01708  23357165.540    95643599.91746
  24091339.920   126600844.04708  24091344.240    98650026.41846
  21896240.780   115065566.66609  21896243.380    89661491.93348
  22720522.160   119397093.91009  22720523.520    93036677.71547
  22015608.820   115692780.42909  22015608.740    90150203.19148
  22359732.280   117501201.94608  22359732.740    91559387.53747
  20622385.880   108371375.43909  20622382.900    84445221.24549
  24167437.440   127000737.51108  24167440.080    98961608.64546
  23409177.380   123016020.75808  23409179.840    95856628.68246
 15 02 09 08 55 30.0000000  0 11G01G03G04G06G09G11G17G20G23G31G32
  21117600.780   110973727.24709  21117603.620    86473046.50348
  20738112.660   108979506.37809  20738114.420    84919092.11449
  23375225.360   122837565.88009  23375228.560    95717564.79746
  24072409.740   126501365.25808  24072414.060    98572510.50446
  21880717.120   114983989.36109  21880719.620    89597925.23948
  22739656.100   119497642.83609  22739657.540    93115027.34947
  22015264.500   115690970.98109  22015264.520    90148793.19048
  22347105.940   117434849.92908  22347106.300    91507684.65747
  20616990.180   108343020.45309  20616987.180    84423126.46549
  24174944.820   127040187.62208  24174947.060    98992348.91146
  23423609.900   123091863.40008  23423612.320    95915726.68146
 15 02 09 08 56  0.0000000  0 11G01G03G04G06G09G11G17G20G23G31G32
  21128147.880   111029152.05109  21128150.640    86516234.59048
  20742223.320   109001108.54709  20742225.200    84935924.93848
  23393326.840   122932688.96408  23393329.960    95791686.49046
  24053487.900   126401930.75908  24053492.240    98495029.12646
  21865260.440   114902764.01709  21865263.020    89534632.79848
  22758833.120   119598417.95709  22758834.560    93193553.23447
  22015029.540   115689736.01009  22015029.640    90147830.83348
  22334504.400   117368629.08308  22334504.860    91456084.03847
  20611682.800   108315129.84109  20611679.800    84401393.53748
  24182550.020   127080152.46808  24182552.240    99023490.24246
  23438046.000   123167724.79008  23438048.540    95974839.30146
 15 02 09 08 56 30.0000000  0 11G01G03G04G06G09G11G17G20G23G31G32
  21138770.920   111084976.24809  21138773.700    86559733.89148
  20746371.080   109022905.83809  20746373.100    84952909.80749
  23411467.080   123028015.99408  23411470.280    95865967.07546
  24034575.560   126302546.44608  24034580.120    98417586.84846
  21849871.760   114821896.18909  21849874.360    89471618.94148
  22778053.560   119699421.30009  22778055.020    93272256.97547
  22014904.660   115689079.64609  22014904.720    90147319.33948
  22321928.840   117302543.91408  22321929.200    91404589.10847
  20606464.480   108287707.53609  20606461.500    84380025.52248
  24190253.680   127120635.04708  24190255.840    99055035.03846
  23452486.360   123243608.52408  23452488.800    96033969.33046
 15 02 09 08 57  0.0000000  0 11G01G03G04G06G09G11G17G20G23G31G32
  21149469.160   111141195.90809  21149471.980    86603541.34448
  20750555.280   109044894.49309  20750557.400    84970043.78548
  23429645.260   123123542.29108  23429648.740    95940402.92646
  24015672.500   126203210.83408  24015677.180    98340182.51446
  21834550.780   114741383.92709  21834553.280    89408882.11848
  22797316.380   119800647.31409  22797317.920    93351134.19247
  22014889.260   115688998.31909  22014889.260    90147255.91248
  22309378.460   117236590.93809  22309378.840    91353197.20347
  20601334.640   108260750.26909  20601331.700    84359019.86548
  24198054.960   127161630.67908  24198057.320    99086979.60346
  23466930.240   123319510.77208  23466932.760    96093113.76446
 15 02 09 08 57 30.0000000  0 11G01G03G04G06G09G11G17G20G23G31G32
  21160242.760   111197811.90009  21160245.720    86647657.63448
  20754776.120   109067075.58809  20754778.380    84987327.72048
  23447861.460   123219267.84108  23447865.100    96014994.06346
  23996779.300   126103927.16507  23996784.060    98262818.66146
  21819298.020   114661230.08309  21819300.600    89346424.60148
  22816621.400   119902095.12709  22816622.980    93430184.25647
  22014983.480   115689492.82809  22014983.380    90147641.21248
  22296853.580   117170771.63208  22296853.820    91301909.45747
  20596293.560   108234259.22209  20596290.700    84338377.50149
  24205953.840   127203139.68708  24205956.540    99119324.19046
  23481377.820   123395432.51608  23481380.400    96152273.39546
 15 02 09 08 58  0.0000000  0 11G01G03G04G06G09G11G17G20G23G31G32
  21171092.300   111254826.81909  21171095.360    86692084.78148
  20759034.200   109089451.97609  20759036.520    85004763.81648
  23466115.940   123315194.54608  23466119.700    96089741.91146
  23977896.800   126004700.53407  23977901.760    98185499.26646
  21804114.280   114581439.24309  21804116.920    89284249.93148
  22835968.960   120003765.97209  22835970.380    93509408.12747
  22015187.720   115690565.99109  22015187.540    90148477.40948
  22284354.760   117105089.70308  22284354.880    91250728.75547
  20591341.840   108208237.79209  20591339.020    84318101.07349
  24213950.600   127245164.17408  24213953.580    99152070.46646
  23495829.540   123471376.46008  23495832.200    96211450.31446
 15 02 09 08 58 30.0000000  0 11G01G03G04G06G09G11G17G20G23G31G32
  21182016.620   111312234.32209  21182019.680    86736817.82448
  20763328.340   109112017.51809  20763330.620    85022347.30248
  23484407.260   123411314.85408  23484411.000    96164640.61146
  23959024.500   125905527.05008  23959029.500    98108221.24346
  21788998.740   114502007.06409  21789001.620    89222354.75348
  22855357.380   120105652.00009  22855358.580    93588799.66246
  22015500.920   115692211.70809  22015500.720    90149759.74948
  22271881.040   117039539.56509  22271881.060    91199650.73847
  20586478.200   108182679.95609  20586475.460    84298185.88848
  24222044.240   127287697.40408  24222047.320    99185213.18146
  23510284.340   123547336.44708  23510287.040    96270639.72846
 15 02 09 08 59  0.0000000  0 11G01G03G04G06G09G11G17G20G23G31G32
  21193016.320   111370038.14109  21193019.460    86781859.69948
  20767659.300   109134776.26009  20767661.500    85040081.34949
  23502736.020   123507632.29708  23502739.720    96239692.92246
  23940163.600   125806412.95308  23940168.680    98030989.53746
  21773952.580   114422939.32709  21773955.460    89160743.55248
  22874787.080   120207755.48209  22874788.300    93668360.63647
  22015923.580   115694433.87309  22015923.720    90151491.24148
  22259433.300   116974125.81409  22259433.160    91148679.00647
  20581703.680   108157590.15209  20581700.980    84278635.40149
  24230235.400   127330742.44508  24230238.640    99218754.72546
  23524742.900   123623316.47708  23524745.760    96329844.75646
 15 02 09 08 59 30.0000000  0 11G01G03G04G06G09G11G17G20G23G31G32
  21204090.660   111428234.57909  21204093.900    86827207.50648
  20772026.400   109157724.72409  20772028.540    85057963.23148
  23521101.360   123604141.99308  23521105.120    96314895.04546
  23921313.900   125707357.07208  23921318.940    97953803.15246
  21758975.360   114344234.25109  21758978.220    89099414.95448
  22894257.220   120310070.92509  22894258.520    93748086.77747
  22016455.380   115697228.81909  22016455.560    90153669.09248
  22247010.840   116908845.48508  22247010.780    91097811.25347
  20577017.700   108132965.28709  20577015.000    84259447.19949
  24238523.240   127374294.89708  24238526.580    99252691.66146
  23539204.620   123699312.93708  23539207.560    96389062.60346
 15 02 09 09 00  0.0000000  0 11G01G03G04G06G09G11G17G20G23G31G32
  21215240.240   111486826.01709  21215243.700    86872863.10048
  20776430.120   109180865.64309  20776432.140    85075995.06949
  23539503.600   123700845.67908  23539507.500    96390248.31546
  23902476.260   125608364.28508  23902481.180    97876665.95046
  21744068.160   114265896.29709  21744070.840    89038372.39748
  22913767.820   120412599.31809  22913769.180    93827978.83547
  22017096.700   115700599.23609  22017096.980    90156295.34048
  22234614.400   116843701.92909  22234614.260    91047050.06747
  20572420.840   108108808.25109  20572418.080    84240623.54349
  24246907.960   127418356.69508  24246911.520    99287025.46946
  23553669.980   123775328.48608  23553673.100    96448295.28546
 15 02 09 09 00 30.0000000  0 11G01G03G04G06G09G11G17G20G23G31G32
  21226464.880   111545811.48909  21226468.380    86918825.73448
  20780870.300   109204198.36009  20780872.220    85094176.36249
  23557942.480   123797741.72508  23557946.440    96465751.47646
  23883651.060   125509436.27208  23883655.740    97799579.20946
  21729231.100   114187926.50309  21729233.640    88977616.73448
  22933318.440   120515338.05009  22933319.920    93908034.78947
  22017847.360   115704544.10109  22017847.700    90159369.20248
  22222244.040   116778694.93909  22222243.820    90996395.27947
  20567912.940   108085118.59909  20567910.120    84222164.07649
  24255389.160   127462926.10208  24255393.120    99321754.81146
  23568138.940   123851362.29108  23568142.140    96507542.23646
 15 02 09 09 01  0.0000000  0 11G01G03G04G06G09G11G17G20G23G31G32
  21237763.600   111605185.96409  21237767.020    86965091.49548
  20785346.040   109227718.21809  20785347.920    85112503.48048
  23576416.900   123894824.48508  23576420.980    96541400.12446
  23864837.680   125410570.53608  23864842.100    97722540.98246
  21714463.500   114110321.80009  21714465.980    88917145.57748
  22952907.860   120618280.83909  22952909.560    93988249.75546
  22018706.600   115709058.72909  22018706.900    90162887.05848
  22209898.820   116713820.25409  22209898.440    90945843.57747
  20563493.160   108061891.89909  20563490.260    84204065.35149
  24263966.000   127507997.58208  24263969.920    99356875.40846
  23582610.440   123927409.69408  23582613.640    96566799.77446
 15 02 09 09 01 30.0000000  0 11G01G03G04G06G09G11G17G20G23G31G32
  21249137.120   111664953.45109  21249140.420    87011663.50148
  20789858.240   109251429.50809  20789860.060    85130979.75948
  23594927.360   123992096.89708  23594931.620    96617196.54846
  23846037.320   125311773.67208  23846041.560    97645556.43946
  21699766.400   114033088.18609  21699768.820    88856963.59048
  22972536.680   120721430.13809  22972538.540    94068625.63847
  22019674.980   115714147.04809  22019675.100    90166851.93848
  22197579.760   116649083.02809  22197579.360    90895398.98547
  20559162.240   108039132.47709  20559159.260    84186330.73649
  24272639.040   127553574.67808  24272642.960    99392389.98346
  23597085.300   124003474.92408  23597088.540    96626071.18346
 15 02 09 09 02  0.0000000  0 11G01G03G04G06G09G11G17G20G23G31G32
  21260585.220   111725112.98609  21260588.460    87058540.99648
  20794406.780   109275331.69509  20794408.520    85149604.78548
  23613473.620   124089557.28108  23613477.980    96693139.42246
  23827250.380   125213047.36808  23827254.560    97568626.85846
  21685140.100   113956226.76109  21685142.760    88797071.63148
  22992204.300   120824783.43309  22992206.240    94149160.47247
  22020752.360   115719808.22409  22020752.520    90171263.19048
  22185286.800   116584482.95909  22185286.480    90845061.27747
  20554920.140   108016839.97009  20554917.100    84168959.95249
  24281408.000   127599655.60608  24281412.120    99428297.13446
  23611563.480   124079557.35608  23611566.720    96685356.00346
 15 02 09 09 02 30.0000000  0 11G01G03G04G06G09G11G17G20G23G31G32
  21272107.840   111785664.27509  21272111.140    87105723.75048
  20798991.700   109299424.83709  20798993.320    85168378.60448
  23632055.580   124187204.69308  23632059.880    96769228.05246
  23808477.300   125114393.97508  23808481.420    97491754.10046
  21670585.000   113879739.21009  21670587.780    88737471.00848
  23011910.380   120928338.93809  23011912.300    94229852.86746
  22021938.740   115726042.08909  22021938.820    90176120.71548
  22173020.100   116520021.08609  22173019.720    90794831.25247
  20550766.980   107995014.68109  20550763.880    84151953.22249
  24290272.680   127646239.34308  24290276.900    99464596.08346
  23626044.940   124155656.99908  23626048.200    96744654.20146
 15 02 09 09 03  0.0000000  0 11G01G03G04G06G09G11G17G20G23G31G32
  21283703.620   111846600.17909  21283706.940    87153206.20548
  20803611.660   109323702.23909  20803613.200    85187296.00948
  23650671.640   124285031.35608  23650675.940    96845456.34246
  23789717.200   125015808.99008  23789721.280    97414934.64346
  21656099.920   113803620.32809  21656102.760    88678157.66948
  23031653.420   121032087.96909  23031655.040    94310696.08246
  22023232.740   115732841.61109  22023232.800    90181418.99448
  22160778.440   116455691.02009  22160778.240    90744703.94147
  20546701.400   107973649.84809  20546698.240    84135305.29749
  24299231.580   127693318.22307  24299235.620    99501280.88346
  23640528.340   124231766.99108  23640531.600    96803960.47746
 15 02 09 09 03 30.0000000  0 11G01G03G04G06G09G11G17G20G23G31G32
  21295374.640   111907931.23309  21295377.880    87200996.57748
  20808268.660   109348174.88709  20808270.240    85206365.55848
  23669323.640   124383047.08208  23669328.000    96921831.95446
  23770972.600   124917305.72808  23770976.880    97338178.86547
  21641687.460   113727882.80709  21641690.140    88619141.47748
  23051435.020   121136039.89009  23051436.600    94391697.36946
  22024636.360   115740217.22909  22024636.420    90187166.18648
  22148564.060   116391504.13009  22148564.000    90694688.19147
  20542725.580   107952756.74909  20542722.340    84119024.95049
  24308286.720   127740902.32008  24308290.700    99538359.32646
  23655015.780   124307898.26908  23655019.080    96863283.36546
 15 02 09 09 04  0.0000000  0 11G01G03G04G06G09G11G17G20G23G31G32
  21307118.980   111969647.63609  21307122.240    87249087.21148
  20812960.900   109372833.38409  20812962.620    85225579.92048
  23688009.640   124481241.22708  23688013.940    96998346.58446
  23752242.180   124818877.06408  23752246.800    97261481.23146
  21627346.160   113652518.76209  21627348.800    88560416.31248
  23071253.040   121240183.31609  23071254.680    94472847.87546
  22026147.700   115748159.30109  22026147.780    90193354.76948
  22136375.220   116327451.24709  22136375.140    90644776.84447
  20538837.840   107932326.17509  20538834.540    84103105.00349
  24317435.860   127788981.13108  24317439.900    99575823.23846
  23669505.520   124384041.43108  23669508.900    96922615.47646
 15 02 09 09 04 30.0000000  0 11G01G03G04G06G09G11G17G20G23G31G32
  21318937.240   112031752.29909  21318940.380    87297480.38848
  20817689.140   109397681.14709  20817691.020    85244941.76048
  23706730.120   124579616.21009  23706734.240    97075002.13546
  23733527.020   124720528.63308  23733532.020    97184846.11547
  21613076.840   113577533.11309  21613079.420    88501986.00248
  23091107.800   121344519.78609  23091109.480    94554148.81447
  22027767.220   115756670.71409  22027767.560    90199986.98748
  22124212.880   116263537.16709  22124212.640    90594973.64747
  20535038.660   107912361.24209  20535035.280    84087547.89449
  24326679.540   127837556.87308  24326683.460    99613674.36646
  23683998.140   124460199.70508  23684001.300    96981959.36646
 15 02 09 09 05  0.0000000  0 11G01G03G04G06G09G11G17G20G23G31G32
  21330828.660   112094241.65509  21330831.720    87346173.33148
  20822452.840   109422715.06909  20822454.920    85264448.65348
  23725484.140   124678167.69308  23725487.960    97151795.20746
  23714826.960   124622259.67508  23714832.020    97108272.92446
  21598879.100   113502924.26909  21598881.840    88443849.33648
  23110998.180   121449043.94908  23111000.000    94635595.99746
  22029494.520   115765747.74409  22029495.020    90207059.95148
  22112076.220   116199758.82509  22112076.140    90545276.26447
  20531327.520   107892859.01109  20531324.180    84072351.33749
  24336017.000   127886625.27308  24336020.980    99651909.40546
  23698493.060   124536370.04308  23698496.100    97041312.68246
 15 02 09 09 05 30.0000000  0 11G01G03G04G06G09G11G17G20G23G31G32
  21342794.620   112157122.57609  21342797.580    87395171.38648
  20827253.420   109447942.52109  20827255.660    85284106.36248
  23744272.820   124776901.85008  23744276.620    97228730.61746
  23696143.920   124524079.81308  23696148.880    97031769.14647
  21584754.820   113428701.12909  21584757.660    88386013.20348
  23130925.380   121553761.78508  23130927.480    94717194.07746
  22031330.900   115775397.42909  22031331.400    90214579.13748
  22099966.760   116136123.77909  22099966.780    90495690.53347
  20527705.900   107873826.97009  20527702.520    84057521.14649
  24345449.240   127936192.47808  24345453.340    99690533.07046
  23712991.560   124612559.65208  23712994.740    97100681.00346
 15 02 09 09 06  0.0000000  0 11G01G03G04G06G09G11G17G20G23G31G32
  21354833.480   112220386.51109  21354836.480    87444467.88948
  20832089.420   109473355.48909  20832091.640    85303908.61448
  23763094.540   124875809.37408  23763098.620    97305801.11646
  23677476.720   124425983.34908  23677481.760    96955330.36747
  21570702.720   113354857.19109  21570705.520    88328472.55248
  23150887.540   121658663.29408  23150889.920    94798935.26746
  22033274.720   115785611.23709  22033275.060    90222537.92148
  22087883.440   116072625.34109  22087883.420    90446211.23247
  20524172.140   107855256.94909  20524168.740    84043050.97949
  24354974.580   127986249.24208  24354978.960    99729538.17946
  23727492.240   124688760.57008  23727495.540    97160058.13746
 15 02 09 09 06 30.0000000  0 11G01G03G04G06G09G11G17G20G23G31G32
  21366945.440   112284034.95909  21366948.580    87494064.02148
  20836961.180   109498956.01109  20836963.260    85323857.01848
  23781949.380   124974891.20808  23781953.760    97383007.43246
  23658826.220   124327974.57008  23658831.380    96878959.91447
  21556723.560   113281395.94409  21556726.400    88271230.09848
  23170884.760   121763748.49108  23170887.100    94880819.61946
  22035326.060   115796390.72309  22035326.240    90230937.47448
  22075826.420   116009265.41809  22075826.300    90396839.88647
  20520726.640   107837150.94309  20520723.320    84028942.39749
  24364593.440   128036796.66108  24364597.520    99768925.69246
  23741995.340   124764974.69108  23741998.800    97219445.56546
 15 02 09 09 07  0.0000000  0 11G01G03G04G06G09G11G17G20G23G31G32
  21379130.400   112348067.32209  21379133.540    87543959.30348
  20841868.600   109524743.99409  20841870.580    85343951.49749
  23800837.160   125074146.14208  23800841.620    97460348.62646
  23640192.840   124230055.71308  23640197.940    96802659.51847
  21542817.480   113208318.74309  21542820.200    88214286.89048
  23190916.600   121869015.40408  23190918.780    94962845.56246
  22037484.780   115807735.27009  22037485.160    90239777.30948
  22063795.880   115946044.70009  22063795.740    90347577.03347
  20517369.480   107819508.76909  20517366.120    84015195.22649
  24374305.740   128087833.23508  24374309.380    99808694.35946
  23756501.000   124841201.84708  23756504.520    97278843.16346
 15 02 09 09 07 30.0000000  0 11G01G03G04G06G09G11G17G20G23G31G32
  21391388.360   112412483.52009  21391391.500    87594153.67248
  20846811.760   109550719.94009  20846813.700    85364192.44648
  23819757.680   125173573.17908  23819762.260    97537823.93446
  23621577.060   124132229.55108  23621582.040    96726431.36547
  21528984.680   113135627.51109  21528987.380    88157644.45848
  23210982.740   121974462.45109  23210984.940    95045011.85946
  22039751.100   115819644.47809  22039751.460    90249057.17348
  22051792.080   115882964.32109  22051791.900    90298423.52347
  20514100.640   107802331.24609  20514097.260    84001810.13049
  24384110.940   128139358.31608  24384114.340    99848843.71246
  23771009.140   124917442.47208  23771012.820    97338251.24746
 15 02 09 09 08  0.0000000  0 11G01G03G04G06G09G11G17G20G23G31G32
  21403718.780   112477280.63509  21403721.960    87644644.86548
  20851790.200   109576881.57909  20851792.180    85384578.08648
  23838710.240   125273169.04208  23838715.100    97615430.76246
  23602978.960   124034496.12108  23602983.840    96650275.45146
  21515225.220   113063321.40809  21515227.940    88101302.09948
  23231082.400   122080085.38309  23231084.640    95127315.21246
  22042124.320   115832115.62609  22042124.720    90258774.89748
  22039814.600   115820022.50209  22039814.440    90249377.98647
  20510919.700   107785615.41409  20510916.320    83988784.78949
  24394008.280   128191368.40308  24394011.360    99889370.97446
  23785519.480   124993694.25808  23785523.280    97397668.03846
 15 02 09 09 08 30.0000000  0 11G01G03G04G06G09G11G17G20G23G31G32
  21416121.740   112542458.97209  21416125.040    87695433.11348
  20856804.180   109603229.78309  20856806.160    85405109.10748
  23857694.800   125372933.33908  23857700.000    97693168.84246
  23584399.180   123936858.64408  23584403.900    96574194.32147
  21501539.440   112991402.70609  21501542.180    88045261.62948
  23251215.340   122185883.35109  23251217.600    95209754.95046
  22044604.660   115845148.93409  22044604.780    90268930.70748
  22027863.700   115757220.53209  22027863.500    90200441.43847
  20507826.860   107769362.26509  20507823.480    83976119.98949
  24403997.780   128243862.84208  24404001.080    99930275.66846
  23800032.160   125069958.07308  23800036.020    97457094.19746
 15 02 09 09 09  0.0000000  0 11G01G03G04G06G09G11G17G20G23G31G32
  21428597.440   112608019.54109  21428600.960    87746519.19648
  20861853.920   109629766.19909  20861855.920    85425786.77649
  23876711.540   125472866.39108  23876716.960    97771038.42346
  23565838.380   123839321.02108  23565842.920    96498190.98347
  21487928.040   112919874.43909  21487930.760    87989525.36548
  23271381.520   122291856.06309  23271383.820    95292330.86446
  22047191.980   115858745.20609  22047192.260    90279525.14148
  22015939.960   115694560.49009  22015939.680    90151615.46847
  20504822.320   107753573.46309  20504818.980    83963817.02249
  24414079.660   128296842.13308  24414082.800    99971558.20046
  23814547.560   125146235.35508  23814551.280    97516530.87346
 15 02 09 09 09 30.0000000  0 11G01G03G04G06G09G11G17G20G23G31G32
  21441145.320   112673959.23209  21441148.960    87797900.69748
  20866938.960   109656488.36709  20866941.040    85446609.18749
  23895759.740   125572964.45908  23895765.160    97849036.57646
  23547296.480   123741883.09708  23547300.960    96422265.33646
  21474390.720   112848735.49809  21474393.440    87934092.47948
  23291580.060   122397998.88009  23291582.360    95375039.31746
  22049885.780   115872901.19109  22049886.040    90290555.72648
  22004043.000   115632040.83909  22004042.520    90102898.89647
  20501905.600   107738246.12509  20501902.320    83951873.63649
  24424252.900   128350302.45508  24424256.060   100013215.54946
  23829065.020   125222523.67408  23829068.740    97575976.11846
 15 02 09 09 10  0.0000000  0 11G01G03G04G06G09G11G17G20G23G31G32
  21453765.040   112740276.41309  21453768.760    87849576.35548
  20872059.140   109683395.30209  20872061.360    85467575.58148
  23914838.880   125673225.15208  23914844.520    97927161.42846
  23528773.780   123644546.23508  23528778.360    96346418.45146
  21460927.560   112777986.25109  21460930.140    87878963.24548
  23311810.420   122504308.82809  23311812.760    95457877.99846
  22052685.840   115887615.33509  22052686.000    90302021.26048
  21992172.500   115569660.80909  21992171.860    90054291.12147
  20499076.520   107723379.32509  20499073.320    83940289.11649
  24434517.220   128404241.30308  24434520.120   100055245.78746
  23843584.420   125298821.99108  23843588.080    97635429.18546
 15 02 09 09 10 30.0000000  0 11G01G03G04G06G09G11G17G20G23G31G32
  21466457.700   112806976.79709  21466461.460    87901550.59848
  20877215.760   109710493.40509  20877218.080    85488690.93048
  23933949.980   125773653.98708  23933955.800    98005417.28745
  23510271.920   123547319.16108  23510276.600    96270657.11146
  21447540.060   112707634.40609  21447542.460    87824143.66048
  23332073.380   122610790.43709  23332075.720    95540850.42546
  22055593.080   115902893.23709  22055593.240    90313926.05948
  21980329.740   115507427.30609  21980329.260    90005797.51347
  20496336.300   107708979.17509  20496333.120    83929068.21249
  24444873.520   128458663.69108  24444876.660   100097652.75746
  23858106.860   125375136.58308  23858110.500    97694894.91445
 15 02 09 09 11  0.0000000  0 11G01G03G04G06G09G11G17G20G23G31G32
  21479221.960   112874053.03909  21479225.740    87953817.72248
  20882407.460   109737776.00909  20882409.900    85509950.06248
  23953091.620   125874242.77608  23953097.520    98083797.80546
  23491790.220   123450197.55008  23491794.860    96194977.96246
  21434227.160   112637674.63909  21434229.480    87769629.60148
  23352367.360   122717435.12608  23352369.700    95623949.94747
  22058606.120   115918727.23909  22058606.420    90326264.17548
  21968513.700   115445334.23509  21968513.300    89957413.33247
  20493683.600   107695039.03209  20493680.540    83918205.77749
  24455320.240   128513561.66708  24455323.480   100140430.38046
  23872631.020   125451460.85008  23872634.720    97754368.19946
 15 02 09 09 11 30.0000000  0 11G01G03G04G06G09G11G17G20G23G31G32
  21492057.380   112941503.44509  21492061.200    88006376.38848
  20887634.140   109765242.17209  20887636.560    85531352.21748
  23972263.340   125974989.34908  23972269.300    98162301.24845
  23473328.880   123353182.70908  23473333.580    96119382.01546
  21420988.940   112568107.29209  21420991.200    87715421.31148
  23372691.740   122824239.84908  23372694.040    95707174.13646
  22061724.740   115935115.55109  22061725.120    90339034.22048
  21956724.300   115383381.04009  21956723.960    89909138.14447
  20491118.120   107681557.14409  20491114.980    83907700.41849
  24465856.980   128568932.66508  24465860.380   100183576.49146
  23887156.780   125527793.71308  23887160.620    97813848.18946
 15 02 09 09 12  0.0000000  0 11G01G03G04G06G09G11G17G20G23G31G32
  21504964.640   113009331.23109  21504968.500    88059229.11448
  20892896.460   109792895.82409  20892898.900    85552900.47148
  23991465.620   126075896.24108  23991471.700    98240929.60846
  23454889.080   123256280.96308  23454893.820    96043874.19847
  21407826.360   112498937.54609  21407828.700    87661522.84348
  23393046.960   122931206.54208  23393049.260    95790524.55246
  22064949.560   115952061.23309  22064949.820    90352238.60048
  21944962.320   115321572.26909  21944962.140    89860975.49647
  20488640.560   107668537.40209  20488637.440    83897555.16649
  24476484.240   128624779.29008  24476487.900   100227093.24446
  23901684.940   125604139.05308  23901688.660    97873337.88345
 15 02 09 09 12 30.0000000  0 11G01G03G04G06G09G11G17G20G23G31G32
  21517942.960   113077531.66509  21517946.720    88112372.22348
  20898193.800   109820733.00509  20898196.220    85574591.74048
  24010697.460   126176958.10108  24010703.620    98319678.71246
  23436470.640   123159490.67808  23436475.280    95968453.19847
  21394738.860   112430162.69709  21394741.240    87607932.08848
  23413431.940   123038329.31108  23413434.220    95873996.59046
  22068279.600   115969559.69409  22068279.880    90365873.71248
  21933227.120   115259904.38309  21933226.920    89812922.62947
  20486250.160   107655975.62009  20486247.000    83887766.78049
  24487200.960   128681095.99408  24487204.600   100270976.27546
  23916214.740   125680492.80308  23916218.320    97932834.15645
 15 02 09 09 13  0.0000000  0 11G01G03G04G06G09G11G17G20G23G31G32
  21530992.600   113146106.56209  21530996.180    88165807.11448
  20903526.620   109848756.27309  20903528.900    85596428.01948
  24029959.100   126278176.25108  24029965.180    98398549.61045
  23418074.340   123062816.73808  23418078.940    95893122.89247
  21381727.280   112361786.55109  21381729.740    87554652.00148
  23433846.600   123145608.82108  23433849.040    95957590.74346
  22071715.040   115987612.22309  22071715.220    90379940.56848
  21921519.540   115198380.64609  21921519.320    89764982.07547
  20483947.360   107643874.30109  20483944.160    83878337.19149
  24498007.280   128737883.93608  24498011.000   100315226.48446
  23930746.540   125756857.53808  23930750.020    97992338.99946
 15 02 09 09 13 30.0000000  0 11G01G03G04G06G09G11G17G20G23G31G32
  21544113.600   113215056.82609  21544117.100    88219534.49248
  20908895.140   109876967.30509  20908897.280    85618410.60748
  24049250.520   126379551.20008  24049256.600    98477542.67445
  23399700.820   122966263.10708  23399705.280    95817886.33647
  21368792.080   112293811.95809  21368794.500    87501684.81648
  23454291.000   123253044.57108  23454293.660    96041306.63746
  22075255.840   116006219.47609  22075256.060    90394439.66348
  21909839.860   115137003.10309  21909839.640    89717155.44947
  20481732.380   107632234.47409  20481729.120    83869267.19749
  24508903.360   128795143.12608  24508906.880   100359843.91446
  23945280.700   125833234.79408  23945284.260    98051853.57446
 15 02 09 09 14  0.0000000  0 11G01G03G04G06G09G11G17G20G23G31G32
  21557304.700   113284375.49709  21557308.140    88273548.94548
  20914298.200   109905359.99109  20914300.240    85640534.74848
  24068570.320   126481075.12508  24068576.340    98556651.81045
  23381349.460   122869826.09908  23381353.680    95742740.64447
  21355932.320   112226234.05409  21355934.780    87449026.73648
  23474763.720   123360628.44508  23474766.580    96125137.95146
  22078900.900   116025374.35609  22078901.180    90409365.46648
  21898186.920   115075766.29609  21898186.600    89669438.47447
  20479603.980   107621049.58809  20479600.700    83860551.70649
  24519887.680   128852865.74108  24519891.420   100404822.42846
  23959816.120   125909618.49208  23959819.700    98111373.17145
 15 02 09 09 14 30.0000000  0 11G01G03G04G06G09G11G17G20G23G31G32
  21570566.660   113354066.72609  21570570.100    88327853.70248
  20919736.700   109933939.23109  20919738.760    85662804.26949
  24087919.200   126582751.77408  24087925.040    98635879.94245
  23363021.640   122773512.99108  23363025.820    95667691.50447
  21343149.240   112159058.92509  21343151.660    87396682.50048
  23495265.220   123468363.50108  23495268.020    96209087.07746
  22082651.020   116045080.98309  22082651.280    90424721.22248
  21886561.860   115014675.61809  21886561.200    89621835.35747
  20477563.000   107610324.48109  20477559.760    83852194.49449
  24530960.920   128911055.60308  24530964.400   100450165.04845
  23974353.700   125986013.51008  23974357.340    98170901.58246
 15 02 09 09 15  0.0000000  0 12G01G03G04G06G09G10G11G17G20G23G31G32
  21583898.860   113424127.29509  21583902.280    88382446.24548
  20925210.260   109962702.67009  20925212.280    85685217.31648
  24107296.400   126684577.35308  24107302.180    98715224.10145
  23344717.320   122677323.68708  23344721.660    95592738.83047
  21330442.660   112092285.37809  21330445.040    87344651.17348
  24382837.800   128132679.82807  24382842.360    99843653.07943
  23515794.620   123576245.17208  23515797.320    96293150.42946
  22086505.460   116065335.79209  22086505.740    90440504.12148
  21874964.180   114953729.13309  21874963.340    89574344.59547
  20475609.040   107600056.43309  20475605.840    83844193.41849
  24542122.220   128969708.71207  24542126.040   100495868.58946
  23988892.940   126062417.35608  23988896.520    98230436.87746
 15 02 09 09 15 30.0000000  0 12G01G03G04G06G09G10G11G17G20G23G31G32
  21597301.040   113494556.07709  21597304.460    88437325.69848
  20930718.760   109991649.99409  20930720.800    85707773.64548
  24126701.620   126786550.22108  24126707.540    98794683.01245
  23326437.000   122581260.28608  23326441.360    95517884.26047
  21317812.620   112025914.21709  21317815.120    87292933.41249
  24366661.280   128047672.43807  24366665.200    99777413.59743
  23536351.620   123684271.11609  23536354.240    96377326.21246
  22090463.860   116086137.44009  22090464.160    90456713.10148
  21863393.940   114892926.95309  21863393.200    89526966.28047
  20473741.900   107590244.55409  20473738.720    83836547.79249
  24553371.320   129028822.92108  24553375.180   100541931.50746
  24003433.820   126138829.66508  24003437.400    98289978.76645
 15 02 09 09 16  0.0000000  0 12G01G03G04G06G09G10G11G17G20G23G31G32
  21610772.760   113565350.83009  21610776.380    88492490.32048
  20936261.960   110020779.88509  20936264.080    85730472.24348
  24146134.420   126888667.86008  24146140.260    98874254.74145
  23308180.860   122485323.78308  23308185.160    95443128.57447
  21305259.100   111959945.27709  21305261.660    87241529.07349
  24350496.680   127962726.97807  24350500.300    99711222.40644
  23556935.500   123792438.06508  23556938.020    96461611.85346
  22094525.840   116107483.51809  22094526.260    90473346.33048
  21851851.020   114832268.35709  21851850.240    89479699.84647
  20471961.240   107580886.99709  20471958.060    83829256.18249
  24564707.780   129088395.30908  24564711.640   100588351.42145
  24017976.140   126215249.02208  24017979.660    98349526.14745
 15 02 09 09 16 30.0000000  0 12G01G03G04G06G09G10G11G17G20G23G31G32
  21624314.720   113636514.57509  21624318.500    88547942.46648
  20941840.620   110050096.19109  20941842.840    85753316.09348
  24165595.080   126990932.40508  24165601.040    98953940.92345
  23289950.000   122389520.43208  23289954.420    95368476.64947
  21292783.220   111894383.50909  21292785.700    87190441.99049
  24334344.860   127877848.05308  24334348.420    99645083.04244
  23577546.400   123900747.59308  23577548.780    96546008.59846
  22098692.040   116129376.66809  22098692.440    90490405.85848
  21840336.120   114771757.79809  21840335.300    89432548.76347
  20470267.720   107571987.40209  20470264.540    83822321.42749
  24576131.900   129148428.17708  24576135.520   100635130.21645
  24032520.500   126291679.29308  24032523.840    98409082.03445
 15 02 09 09 17  0.0000000  0 12G01G03G04G06G09G10G11G17G20G23G31G32
  21637926.480   113708044.50209  21637930.280    88603679.96748
  20947454.400   110079597.05409  20947456.740    85776303.76248
  24185083.020   127093340.75508  24185089.180    99033739.15445
  23271744.580   122293850.72408  23271749.240    95293928.87047
  21280384.560   111829228.14309  21280387.080    87139671.61248
  24318205.420   127793034.01908  24318209.040    99578994.26344
  23598183.800   124009196.16209  23598186.120    96630513.67546
  22102961.700   116151813.58409  22102962.080    90507889.09348
  21828849.120   114711393.85809  21828848.400    89385511.93047
  20468660.900   107563543.47509  20468657.760    83815741.74149
  24587642.860   129208917.81608  24587646.680   100682264.91945
  24047066.620   126368118.58408  24047070.000    98468644.94045
 15 02 09 09 17 30.0000000  0 12G01G03G04G06G09G10G11G17G20G23G31G32
  21651607.900   113779940.39009  21651611.680    88659702.61848
  20953103.440   110109283.15109  20953105.820    85799435.77048
  24204598.140   127195892.35708  24204604.440    99113648.97945
  23253565.300   122198317.72408  23253570.060    95219487.61947
  21268063.480   111764480.90909  21268065.900    87089219.23848
  24302078.520   127708285.89408  24302081.980    99512956.84744
  23618847.400   124117782.19809  23618849.820    96715125.86146
  22107334.800   116174794.00109  22107335.120    90525795.82848
  21817390.200   114651177.72008  21817389.780    89338590.26047
  20467140.740   107555554.95909  20467137.520    83809516.90549
  24599240.600   129269863.36608  24599244.300   100729754.92946
  24061614.600   126444567.56108  24061617.900    98528215.39545
 15 02 09 09 18  0.0000000  0 12G01G03G04G06G09G10G11G17G20G23G31G32
  21665358.120   113852197.68709  21665361.940    88716006.88548
  20958787.080   110139150.85509  20958789.440    85822709.27848
  24224139.540   127298581.91208  24224145.960    99193666.31045
  23235411.820   122102920.18308  23235416.600    95145151.91947
  21255819.660   111700139.26309  21255822.060    87039082.91348
  24285963.480   127623600.53508  24285966.820    99446968.32944
  23639536.000   124226500.03708  23639538.420    96799840.75046
  22111810.500   116198313.19109  22111810.800    90544122.39348
  21805958.700   114591105.98008  21805958.560    89291781.11247
  20465706.540   107548018.08209  20465703.300    83803643.98649
  24610923.960   129331259.28208  24610927.680   100777595.84646
  24076163.620   126521022.41708  24076167.020    98587790.41045
 15 02 09 09 18 30.0000000  0 12G01G03G04G06G09G10G11G17G20G23G31G32
  21679177.800   113924819.86009  21679181.700    88772595.48048
  20964506.080   110169204.58109  20964508.400    85846127.72748
  24243707.680   127401412.47208  24243714.500    99273793.48345
  23217285.300   122007664.84508  23217290.140    95070927.03847
  21243654.120   111636208.65409  21243656.400    86989266.87448
  24269861.320   127538982.68408  24269864.460    99381032.45245
  23660250.040   124335351.88009  23660252.520    96884660.05946
  22116389.280   116222374.27409  22116389.700    90562871.20448
  21794555.860   114531183.95109  21794555.780    89245088.62847
  20464359.060   107540936.94809  20464355.820    83798126.20349
  24622693.540   129393108.59608  24622697.080   100825790.07745
  24090714.580   126597487.58208  24090718.100    98647373.45045
 15 02 09 09 19  0.0000000  0 12G01G03G04G06G09G10G11G17G20G23G31G32
  21693066.140   113997803.14509  21693070.120    88829465.44448
  20970259.960   110199441.54809  20970262.240    85869688.97648
  24263302.000   127504379.91608  24263309.080    99354027.33345
  23199185.760   121912551.28908  23199190.640    94996812.63447
  21231566.380   111572687.28309  21231568.700    86939769.74348
  24253771.540   127454429.85508  24253774.680    99315147.27045
  23680988.700   124444332.91809  23680991.200    96969580.01846
  22121070.440   116246973.41309  22121070.840    90582039.28448
  21783181.260   114471409.33109  21783181.040    89198510.99447
  20463097.580   107534308.12809  20463094.420    83792960.88049
  24634548.380   129455406.49207  24634552.000   100874333.83345
  24105267.040   126673960.24808  24105270.600    98706962.34645
 15 02 09 09 19 30.0000000  0 12G01G03G04G06G09G10G11G17G20G23G31G32
  21707023.260   114071147.36809  21707027.220    88886616.67248
  20976048.900   110229862.56209  20976051.180    85893393.63448
  24282922.300   127607483.51408  24282929.480    99434367.25946
  23181113.840   121817582.75008  23181118.700    94922811.23347
  21219556.880   111509576.98709  21219559.260    86890592.92449
  24237694.280   127369943.19408  24237697.480    99249313.63545
  23701751.720   124553442.05908  23701754.240    97054599.82046
  22125853.720   116272109.70909  22125854.000    90601625.93848
  21771835.000   114411783.52809  21771834.740    89152049.32347
  20461922.280   107528131.86909  20461919.100    83788148.18849
  24646488.300   129518151.92007  24646492.160   100923226.30746
  24119821.080   126750441.19308  24119824.580    98766557.67545
 15 02 09 09 20  0.0000000  0 12G01G03G04G06G09G10G11G17G20G23G31G32
  21721048.720   114144850.60209  21721052.600    88944047.64048
  20981872.720   110260466.69809  20981875.040    85917240.96948
  24302568.220   127710720.96708  24302575.280    99514811.47245
  23163069.740   121722760.64608  23163074.540    94848923.93047
  21207625.540   111446877.77909  21207628.040    86841736.44549
  24221629.360   127285522.22108  24221632.560    99183531.19446
  23722538.580   124662676.31308  23722541.200    97139717.08846
  22130738.680   116297780.75109  22130739.140    90621629.25048
  21760517.000   114352305.96209  21760516.480    89105703.15047
  20460832.720   107522406.44509  20460829.600    83783686.79849
  24658512.980   129581342.35608  24658516.880   100972465.51545
  24134376.440   126826929.39608  24134379.960    98826158.64445
 15 02 09 09 20 30.0000000  0 12G01G03G04G06G09G10G11G17G20G23G31G32
  21735142.180   114218911.12009  21735145.940    89001757.02448
  20987731.320   110291253.23709  20987733.560    85941230.44148
  24322239.160   127814089.99708  24322246.160    99595358.23045
  23145053.880   121628086.65208  23145058.540    94775152.03648
  21195772.560   111384589.93809  21195775.060    86793200.50949
  24205576.820   127201166.52108  24205580.040    99117799.61646
  23743348.540   124772032.57108  23743351.420    97224929.41746
  22135725.140   116323984.56809  22135725.660    90642047.74948
  21749226.980   114292976.37809  21749226.620    89059472.33348
  20459828.820   107517130.68309  20459825.600    83779575.79949
  24670622.060   129644974.96807  24670625.920   101022049.28746
  24148933.000   126903424.02008  24148936.640    98885764.61246
 15 02 09 09 21  0.0000000  0 11G01G03G04G06G09G10G11G17G20G23G32
  21749303.560   114293329.14809  21749307.280    89059744.97148
  20993624.880   110322223.43909  20993627.000    85965363.02548
  24341935.080   127917590.30208  24341942.280    99676007.24945
  23127067.020   121533564.44508  23127071.540    94701498.42147
  21183998.280   111322715.61109  21184000.720    86744986.79849
  24189537.060   127116877.75708  24189540.340    99052120.19346
  23764181.480   124881509.94008  23764184.700    97310236.10746
  22140812.960   116350720.87509  22140813.500    90662881.14948
  21737965.520   114233796.38609  21737964.900    89013358.03447
  20458910.660   107512305.28409  20458907.380    83775815.73149
  24163491.120   126979926.39608  24163494.780    98945376.63145
 15 02 09 09 21 30.0000000  0 11G01G03G04G06G09G10G11G17G20G23G32
  21763532.860   114368104.75909  21763536.600    89118011.55248
  20999553.580   110353378.43409  20999555.600    85989639.61648
  24361656.020   128021221.81908  24361663.600    99756758.49745
  23109109.720   121439197.46908  23109114.080    94627965.76947
  21172303.040   111261256.86009  21172305.400    86697096.91548
  24173510.380   127032657.53708  24173513.540    98986494.17945
  23785037.420   124991108.36808  23785041.120    97395637.12546
  22146002.220   116377989.90309  22146002.700    90684129.67248
  21726732.800   114174767.81009  21726732.140    88967361.74947
  20458078.300   107507930.73009  20458074.900    83772406.97149
  24178050.980   127056437.54708  24178054.760    99004995.47346
 15 02 09 09 22  0.0000000  0 11G01G03G04G06G09G10G11G17G20G23G32
  21777829.320   114443233.12909  21777833.120    89176553.01648
  21005516.680   110384714.51009  21005518.720    86014057.28748
  24381400.860   128124979.11808  24381408.720    99837607.75445
  23091181.720   121344984.43308  23091185.860    94554553.05847
  21160686.180   111200210.86009  21160688.600    86649528.66148
  24157496.020   126948502.21607  24157499.060    98920918.73346
  23805915.320   125100821.46708  23805919.260    97481127.48946
  22151291.900   116405786.40209  22151292.160    90705789.21148
  21715528.240   114115887.40009  21715527.700    88921480.91648
  20457330.880   107504002.65409  20457327.440    83769346.11249
  24192611.720   127132953.75408  24192615.740    99064618.24946
 15 02 09 09 22 30.0000000  0 11G01G03G04G06G09G10G11G17G20G23G32
  21792193.780   114518718.72309  21792197.680    89235372.83948
  21011515.220   110416237.15109  21011517.320    86038620.33848
  24401170.320   128228866.25808  24401178.520    99918558.19345
  23073284.400   121250933.23808  23073288.340    94481266.45347
  21149149.060   111139583.96209  21149151.520    86602286.98249
  24141495.000   126864417.72307  24141498.340    98855398.50746
  23826815.700   125210652.19908  23826819.800    97566709.52446
  22156682.620   116434114.23609  22156682.900    90727862.76148
  21704353.120   114057161.43309  21704352.680    88875720.43248
  20456669.200   107500525.56809  20456665.860    83766636.68249
  24207174.320   127209480.44708  24207178.500    99124249.20546
 15 02 09 09 23  0.0000000  0 11G01G03G04G06G09G10G11G17G20G23G32
  21806625.480   114594557.19109  21806629.440    89294467.64048
  21017548.620   110447943.10509  21017550.780    86063326.23148
  24420963.580   128332878.61008  24420971.960    99999606.16345
  23055417.600   121157043.03808  23055421.580    94408105.28848
  21137691.240   111079373.87609  21137693.740    86555370.09349
  24125506.760   126780401.05207  24125510.500    98789931.13446
  23847737.420   125320595.45008  23847741.760    97652379.22546
  22162173.440   116462968.35109  22162173.880    90750346.39748
  21693206.640   113998586.93409  21693206.460    88830077.99448
  20456092.640   107497495.88509  20456089.340    83764275.87849
  24221738.280   127286014.38108  24221742.820    99183885.81045
 15 02 09 09 23 30.0000000  0 11G01G03G04G06G09G10G11G17G20G23G32
  21821123.900   114670746.51809  21821127.920    89353835.81848
  21023616.680   110479831.47509  21023618.940    86088174.27348
  24440780.080   128437013.55708  24440788.580   100080749.65945
  23037581.680   121063315.30508  23037585.880    94335070.73747
  21126312.880   111019580.48509  21126315.500    86508777.89249
  24109531.620   126696451.63907  24109535.340    98724516.11445
  23868680.040   125430648.34508  23868684.500    97738134.35545
  22167764.000   116492346.64209  22167764.300    90773238.50748
  21682088.900   113940163.75109  21682088.740    88784553.44548
  20455600.900   107494911.95209  20455597.660    83762262.41049
  24236303.440   127362554.55908  24236308.200    99243527.26345
 15 02 09 09 24  0.0000000  0 11G01G03G04G06G09G10G11G17G20G23G32
  21835688.520   114747283.95809  21835692.620    89413475.25548
  21029719.180   110511900.69709  21029721.460    86113163.22848
  24460619.440   128541268.14508  24460628.060   100161986.37245
  23019776.780   120969750.89608  23019781.160    94262163.42847
  21115013.660   110960202.96409  21115016.240    86462509.74149
  24093569.200   126612568.23308  24093572.720    98659152.49745
  23889642.860   125540807.20208  23889647.320    97823972.05945
  22173453.640   116522245.81309  22173453.960    90796536.47848
  21670999.780   113881890.37109  21670999.680    88739145.62648
  20455193.560   107492771.49509  20455190.420    83760594.50249
  24250869.500   127439099.33208  24250874.460    99303172.31845
 15 02 09 09 24 30.0000000  0 11G01G03G04G06G09G10G11G17G20G23G32
  21850319.700   114824170.97309  21850323.900    89473387.08848
  21035856.660   110544153.32409  21035858.960    86138295.08848
  24480481.860   128645643.42608  24480490.480   100243317.10945
  23002003.900   120876354.75108  23002008.380    94189387.23947
  21103794.260   110901244.78509  21103796.940    86416568.36049
  24077619.880   126528753.88808  24077623.420    98593842.67345
  23910625.980   125651072.32108  23910630.480    97909892.56245
  22179242.540   116552666.89609  22179242.900    90820241.15048
  21659939.860   113823770.07309  21659939.780    88693857.09948
  20454870.980   107491076.14709  20454867.820    83759273.43249
  24265437.020   127515651.19708  24265442.040    99362822.88845
 15 02 09 09 25  0.0000000  0 11G01G03G04G06G09G10G11G17G20G23G32
  21865017.360   114901407.50909  21865021.640    89533571.27448
  21042029.300   110576590.52009  21042031.640    86163570.76348
  24500367.300   128750138.96008  24500375.760   100324741.56245
  22984263.720   120783130.38508  22984268.340    94116744.90547
  21092655.040   110842707.80209  21092657.600    86370955.16949
  24061683.920   126445009.96908  24061687.540    98528587.74745
  23931629.100   125761442.88808  23931633.640    97995895.21446
  22185130.760   116583609.60109  22185131.120    90844352.28548
  21648909.440   113765804.43309  21648909.340    88648689.08648
  20454633.180   107489826.52309  20454630.080    83758299.69549
  24280006.040   127592211.40908  24280011.240    99422479.94345
 15 02 09 09 25 30.0000000  0 11G01G03G04G06G09G10G11G17G20G23G32
  21879780.480   114978988.09609  21879784.800    89594023.56648
  21048236.180   110609207.95209  21048238.640    86188986.89548
  24520274.660   128854748.89608  24520282.900   100406255.16544
  22966555.840   120690075.96408  22966560.580    94044234.98747
  21081595.280   110784588.51009  21081597.900    86325667.45649
  24045760.600   126361332.42108  24045764.080    98463384.50145
  23952651.060   125871912.38308  23952655.700    98081974.96045
  22191117.100   116615067.91109  22191117.540    90868865.19748
  21637907.660   113707989.58409  21637907.660    88603638.57548
  20454479.200   107489017.43709  20454476.160    83757669.23049
  24294575.860   127668775.46308  24294581.080    99482140.01745
 15 02 09 09 26  0.0000000  0 11G01G03G04G06G09G10G11G17G20G23G32
  21894609.560   115056915.01209  21894613.900    89654745.70948
  21054478.040   110642009.07409  21054480.560    86214546.17048
  24540204.140   128959475.33408  24540212.300   100487859.53744
  22948881.520   120597197.32708  22948886.280    93971862.03347
  21070615.920   110726891.08209  21070618.360    86280708.45049
  24029850.680   126277725.08208  24029854.140    98398235.94244
  23973692.120   125982482.27308  23973696.760    98168132.93145
  22197201.900   116647043.53809  22197202.420    90893781.19348
  21626935.220   113650329.64309  21626935.300    88558708.78548
  20454409.560   107488651.73909  20454406.640    83757384.26649
  24309147.080   127745346.84008  24309152.400    99541805.79645
 15 02 09 09 26 30.0000000  0 11G01G03G04G06G09G10G11G17G20G23G32
  21909504.120   115135185.87509  21909508.440    89715735.87148
  21060754.720   110674992.72709  21060757.200    86240247.67348
  24560155.000   129064315.21508  24560163.400   100569552.25445
  22931240.960   120504495.71608  22931245.760    93899627.03447
  21059716.720   110669615.14209  21059719.060    86236077.87849
  24013954.060   126194187.31208  24013957.600    98333141.63345
  23994751.580   126093148.91608  23994756.140    98254366.27545
  22203384.560   116679533.68909  22203385.000    90919098.10348
  21615992.240   113592824.09209  21615992.320    88513899.28948
  20454423.860   107488727.26409  20454420.960    83757443.11149
  24323719.500   127821924.30908  24323724.800    99601476.34745
 15 02 09 09 27  0.0000000  0 11G01G03G04G06G09G10G11G17G20G23G32
  21924464.180   115213800.61509  21924468.480    89776993.98848
  21067066.360   110708160.11009  21067068.740    86266092.34648
  24580127.440   129169268.19508  24580135.920   100651333.11145
  22913634.800   120411974.74208  22913639.640    93827532.79747
  21048898.100   110612762.48409  21048900.320    86191777.13149
  23998071.000   126110720.55408  23998074.360    98268102.68745
  24015829.200   126203911.45108  24015833.820    98340674.33645
  22209665.060   116712537.57909  22209665.540    90944815.36248
  21605078.880   113535474.38709  21605079.140    88469211.23848
  20454522.220   107489244.34909  20454519.360    83757846.04049
  24338293.220   127898508.93708  24338298.620    99661152.46045
 15 02 09 09 27 30.0000000  0 11G01G03G04G06G09G10G11G17G20G23G32
  21939489.140   115292756.30909  21939493.560    89838517.77748
  21073412.600   110741509.47109  21073414.900    86292078.81248
  24600120.920   129274331.28908  24600129.300   100733199.81245
  22896063.200   120319635.08208  22896067.980    93755579.83847
  21038159.760   110556332.17709  21038161.960    86147805.49148
  23982201.140   126027323.52008  23982204.080    98203118.03245
  24036924.320   126314766.13208  24036929.220    98427054.16546
  22216042.660   116746051.94909  22216043.400    90970930.35548
  21594195.060   113478279.39009  21594195.300    88424643.73748
  20454704.180   107490200.55009  20454701.340    83758591.14249
  24352868.020   127975099.09508  24352873.620    99720832.90545
 15 02 09 09 28  0.0000000  0 11G01G03G04G06G09G10G11G17G20G23G32
  21954578.400   115372049.94909  21954582.820    89900304.91248
  21079793.180   110775039.11509  21079795.380    86318205.75648
  24620134.660   129379500.81308  24620143.060   100815149.40945
  22878526.280   120227477.44108  22878531.000    93683768.73247
  21027501.520   110500323.09209  21027503.680    86104162.06648
  23966344.120   125943994.74508  23966347.380    98138186.56245
  24058036.340   126425709.26408  24058041.440    98513502.92145
  22222516.920   116780073.34209  22222517.500    90997440.47748
  21583340.500   113421237.80409  21583340.640    88380195.76648
  20454969.220   107491593.02109  20454966.300    83759676.18949
  24367443.500   128051692.81908  24367449.160    99780516.13945
 15 02 09 09 28 30.0000000  0 11G01G03G04G06G09G10G11G17G20G23G32
  21969732.980   115451687.18709  21969737.400    89962359.77248
  21086209.380   110808755.91409  21086211.560    86344478.53548
  24640169.660   129484782.24608  24640178.300   100897186.21145
  22861025.660   120135511.15708  22861030.420    93612106.71948
  21016924.840   110444742.82309  21016926.900    86060852.77248
  23950501.380   125860741.27608  23950504.760    98073313.77045
  24079166.160   126536745.27308  24079171.300    98600024.03246
  22229088.620   116814607.01609  22229089.240    91024349.73948
  21572516.400   113364356.87409  21572516.500    88335872.97648
  20455318.520   107493428.04609  20455315.440    83761106.09049
  24382020.960   128128297.24908  24382026.620    99840207.69145
 15 02 09 09 29  0.0000000  0 11G01G03G04G06G09G10G11G17G20G23G32
  21984951.300   115531659.74809  21984955.760    90024675.93548
  21092659.880   110842652.89209  21092662.060    86370891.72248
  24660224.320   129590167.16308  24660233.340   100979303.63645
  22843560.620   120043731.64709  22843565.300    93540590.25747
  21006428.580   110389585.04009  21006430.820    86017872.68649
  23934671.840   125777556.57108  23934675.020    98008494.50945
  24100312.020   126647865.12708  24100317.100    98686610.47245
  22235756.020   116849644.00809  22235756.740    91051651.21648
  21561721.700   113307630.57409  21561721.820    88291670.67248
  20455750.500   107495697.73209  20455747.340    83762874.69449
  24396599.060   128204905.16208  24396604.860    99899901.94745
 15 02 09 09 29 30.0000000  0 11G01G03G04G06G09G10G11G17G20G23G32
  22000233.780   115611969.35809  22000238.280    90087254.73448
  21099145.220   110876733.08709  21099147.400    86397447.67148
  24680298.840   129695656.93708  24680308.180   101061502.77845
  22826132.260   119952144.37409  22826136.740    93469223.58447
  20996013.400   110334853.37009  20996015.840    85975224.64849
  23918855.860   125694443.81307  23918858.840    97943731.33945
  24121474.100   126759069.86208  24121479.220    98773263.05046
  22242519.260   116885185.44509  22242520.300    91079345.72948
  21550957.100   113251062.34509  21550957.200    88247591.53748
  20456265.460   107498404.13309  20456262.300    83764983.60049
  24411178.380   128281519.46908  24411184.200    99959601.23145
 15 02 09 09 30  0.0000000  0 11G01G03G04G06G09G10G11G17G20G23G32
  22015579.880   115692613.37909  22015584.360    90150094.11748
  21105665.160   110910995.18809  21105667.380    86424145.36448
  24700392.760   129801248.58508  24700402.140   101143781.27645
  22808740.700   119860750.42608  22808745.000    93398007.56148
  20985679.240   110280547.07709  20985681.820    85932908.06249
  23903053.240   125611402.04007  23903056.540    97879023.50945
  24142651.560   126870355.71608  24142656.620    98859978.82745
  22249377.940   116921228.10909  22249379.140    91107430.82448
  21540222.340   113194651.24009  21540222.540    88203634.83848
  20456863.060   107501545.07109  20456859.960    83767431.10449
  24425758.700   128358138.99508  24425764.420   100019304.57245
 15 02 09 09 30 30.0000000  0 11G01G03G04G06G09G10G11G17G20G23G32
  22030989.380   115773590.78209  22030993.920    90213193.26148
  21112219.740   110945439.48309  21112222.020    86450985.03048
  24720505.940   129906940.88008  24720515.200   101226138.21445
  22791386.400   119769552.55709  22791390.600    93326944.31748
  20975426.180   110226667.06709  20975428.860    85890923.64749
  23887264.380   125528431.93707  23887267.840    97814371.49446
  24163844.100   126981721.02408  24163849.140    98946756.51246
  22256331.760   116957770.47209  22256332.880    91135905.30248
  21529517.640   113138398.05309  21529517.780    88159801.18648
  20457543.200   107505119.80909  20457540.200    83770216.63349
  24440339.960   128434763.88408  24440345.720   100079012.08945
 15 02 09 09 31  0.0000000  0 11G01G03G04G06G09G10G11G17G20G23G32
  22046462.520   115854902.64009  22046467.200    90276553.01948
  21118809.400   110980068.38309  21118811.760    86477968.54548
  24740638.340   130012734.45208  24740647.680   101308574.06845
  22774070.280   119678555.58509  22774074.400    93256037.62548
  20965254.800   110173216.26509  20965257.420    85849273.66549
  23871489.520   125445536.35407  23871493.260    97749777.57646
  24185051.760   127093165.93108  24185056.900    99033596.20945
  22263380.780   116994813.00709  22263381.800    91164769.52948
  21518843.760   113082305.66509  21518843.780    88116092.82348
  20458306.240   107509129.76109  20458303.280    83773341.29149
  24454922.740   128511396.50608  24454928.460   100138725.61945
 15 02 09 09 31 30.0000000  0 12G01G03G04G06G07G09G10G11G17G20G23G32
  22061998.540   115936544.41409  22062003.260    90340169.86148
  21125433.480   111014878.69409  21125436.000    86505093.42748
  24760788.920   130118624.47608  24760798.700   101391085.04245
  22756792.160   119587758.73308  22756796.300    93185286.86248
  24661747.800   129598361.41607  24661761.480   100985737.32545
  20955164.560   110120192.05509  20955167.160    85807956.10149
  23855728.460   125362712.35208  23855732.240    97685239.40346
  24206273.560   127204685.15308  24206278.800    99120493.79945
  22270524.160   117032350.62409  22270524.960    91194019.54248
  21508199.920   113026371.52509  21508199.880    88072507.77548
  20459151.320   107513570.84909  20459148.360    83776801.89049
  24469506.420   128588033.66508  24469512.140   100198442.70245
 15 02 09 09 32  0.0000000  0 12G01G03G04G06G07G09G10G11G17G20G23G32
  22077597.780   116018518.28709  22077602.540    90404045.48048
  21132092.800   111049874.02209  21132095.420    86532362.47248
  24780958.160   130224612.93907  24780968.500   101473672.73145
  22739553.320   119497168.00409  22739557.480    93114696.72048
  24642401.760   129496698.13307  24642415.200   100906519.75644
  20945156.400   110067598.52009  20945159.000    85766974.11949
  23839982.120   125279963.81308  23839985.740    97620759.99346
  24227509.760   127316279.98308  24227514.980    99207450.29645
  22277762.040   117070385.00009  22277762.740    91223656.63248
  21497586.920   112970599.80409  21497586.820    88029049.28748
  20460079.000   107518445.79009  20460076.000    83780600.56049
  24484091.820   128664678.78808  24484097.340   100258165.97845
 15 02 09 09 32 30.0000000  0 12G01G03G04G06G07G09G10G11G17G20G23G32
  22093258.840   116100817.13009  22093263.560    90468174.32748
  21138786.280   111085048.56009  21138788.920    86559771.16648
  24801144.820   130330692.62507  24801155.560   101556331.50545
  22722353.200   119406780.13509  22722357.220    93044264.65448
  24623041.080   129394958.85207  24623054.440   100827242.85244
  20935229.300   110015430.43309  20935231.800    85726323.66249
  23824248.960   125197285.28908  23824252.440    97556335.16546
  24248758.820   127427942.50508  24248764.100    99294459.52745
  22285092.860   117108908.49009  22285093.680    91253674.83048
  21487003.800   112914985.03609  21487003.700    87985713.09448
  20461087.880   107523747.61409  20461084.920    83784731.86949
  24498677.680   128741326.12607  24498683.060   100317890.97045
 15 02 09 09 33  0.0000000  0 12G01G03G04G06G07G09G10G11G17G20G23G32
  22108981.660   116183440.67309  22108986.400    90532556.17648
  21145514.120   111120403.45909  21145516.760    86587320.40548
  24821348.780   130436862.95808  24821359.660   101639060.93644
  22705192.400   119316598.62909  22705196.280    92973993.38548
  24603666.680   129293147.60308  24603679.920   100747909.81545
  20925383.500   109963689.38009  20925385.720    85686005.93549
  23808529.460   125114678.06008  23808532.640    97491965.86546
  24270020.520   127539671.65608  24270025.920    99381520.68545
  22292516.600   117147920.00809  22292517.440    91284073.31948
  21476450.940   112859529.09609  21476450.860    87942500.65948
  20462177.940   107529476.25409  20462175.000    83789195.75149
  24513264.260   128817976.80107  24513269.400   100377618.58645
 15 02 09 09 33 30.0000000  0 12G01G03G04G06G07G09G10G11G17G20G23G32
  22124767.000   116266392.18009  22124771.680    90597193.58948
  21152277.200   111155943.42709  21152279.760    86615013.85448
  24841570.600   130543126.78008  24841581.540   101721863.18844
  22688072.220   119226630.64609  22688075.980    92903888.49448
  24584279.920   129191271.52208  24584292.920   100668526.42344
  20915619.760   109912380.50609  20915622.060    85646025.00349
  23792824.520   125032147.34908  23792827.740    97427656.21446
  24291295.420   127651470.22908  24291300.940    99468635.91245
  22300033.760   117187422.24609  22300034.420    91314854.21848
  21465929.120   112804237.00809  21465929.080    87899415.90948
  20463349.980   107535635.56609  20463347.080    83793995.21049
  24527852.160   128894635.33008  24527857.220   100437352.29645
 15 02 09 09 34  0.0000000  0 12G01G03G04G06G07G09G10G11G17G20G23G32
  22140614.060   116349667.90509  22140618.700    90662083.61948
  21159075.000   111191666.12809  21159077.540    86642849.68848
  24861809.600   130649480.18208  24861820.760   101804735.25045
  22670992.600   119136876.30309  22670996.160    92833950.07448
  24564880.860   129089330.78908  24564893.540   100589092.67244
  20905937.860   109861501.97509  20905940.180    85606379.39549
  23777133.760   124949691.17708  23777136.860    97363404.64545
  24312582.540   127763333.33908  24312588.340    99555801.41444
  22307643.360   117227410.89309  22307643.960    91346014.10748
  21455438.180   112749106.93809  21455438.240    87856457.40348
  20464603.360   107542222.38209  20464600.520    83799127.78449
  24542441.020   128971299.45008  24542446.240   100497090.36345
 15 02 09 09 34 30.0000000  0 12G01G03G04G06G07G09G10G11G17G20G23G32
  22156522.480   116433265.86009  22156526.940    90727224.75448
  21165907.480   111227571.00809  21165910.020    86670827.49848
  24882065.280   130755921.04608  24882076.700   101887675.45445
  22653953.940   119047337.48309  22653957.380    92764179.59747
  24545469.840   128987327.37208  24545482.300   100509610.02345
  20896337.860   109811053.64509  20896340.200    85567069.00849
  23761457.160   124867309.05508  23761459.860    97299210.77945
  24333881.480   127875258.39508  24333887.520    99643015.16444
  22315344.900   117267883.21609  22315345.740    91377550.87548
  21444978.060   112694139.16209  21444978.220    87813625.37948
  20465937.800   107549234.68809  20465934.900    83804591.90949
  24557030.760   129047968.57308  24557036.220   100556832.31745
