     2.11           OBSERVATION DATA    G                   RINEX VERSION / TYPE
SPIDER V4,0,0,3554                      2015 03 24 00:21    PGM / RUN BY / DATE 
CFKZ                                                        MARKER NAME         
CFKZ                                                        MARKER NUMBER       
                                                            OBSERVER / AGENCY   
496632              LEICA GRX1200+GNSS  8.10/4.007          REC # / TYPE / VERS 
10301036            LEIAR25         NONE                    ANT # / TYPE        
  5212138.8290   540257.5452  3624418.8863                  APPROX POSITION XYZ 
        0.0720        0.0000        0.0000                  ANTENNA: DELTA H/E/N
     1     1                                                WAVELENGTH FACT L1/2
     4    C1    L1    P2    L2                              # / TYPES OF OBSERV 
    30.000                                                  INTERVAL            
  2015    02    21    00    00    0.0000000     GPS         TIME OF FIRST OBS   
  2015    02    21    23    59   30.0000000     GPS         TIME OF LAST OBS    
    16                                                      LEAP SECONDS        
    30                                                      # OF SATELLITES     
   G 1   806   806   806   806                              PRN / # OF OBS      
   G 2   925   925   925   925                              PRN / # OF OBS      
   G 3   854   854   854   854                              PRN / # OF OBS      
   G 4   844   844   844   844                              PRN / # OF OBS      
   G 5   631   631   631   631                              PRN / # OF OBS      
   G 6   787   787   787   787                              PRN / # OF OBS      
   G 7   668   668   668   668                              PRN / # OF OBS      
   G 9   808   808   808   808                              PRN / # OF OBS      
   G10   742   742   742   742                              PRN / # OF OBS      
   G11   783   783   783   783                              PRN / # OF OBS      
   G12   820   820   820   820                              PRN / # OF OBS      
   G13   798   798   798   798                              PRN / # OF OBS      
   G14   929   929   929   929                              PRN / # OF OBS      
   G15   705   705   705   705                              PRN / # OF OBS      
   G16   674   673   673   673                              PRN / # OF OBS      
   G17   939   939   938   938                              PRN / # OF OBS      
   G18   914   914   914   914                              PRN / # OF OBS      
   G19   762   762   762   762                              PRN / # OF OBS      
   G20   779   779   779   779                              PRN / # OF OBS      
   G21   739   739   738   738                              PRN / # OF OBS      
   G22   653   653   653   653                              PRN / # OF OBS      
   G23   752   752   752   752                              PRN / # OF OBS      
   G24   831   831   831   831                              PRN / # OF OBS      
   G25   866   866   866   866                              PRN / # OF OBS      
   G27   815   815   815   815                              PRN / # OF OBS      
   G28   861   860   860   860                              PRN / # OF OBS      
   G29   764   764   763   763                              PRN / # OF OBS      
   G30   715   715   715   715                              PRN / # OF OBS      
   G31   851   850   850   850                              PRN / # OF OBS      
   G32   768   768   768   768                              PRN / # OF OBS      
BIT 2 OF LLI FLAGS DATA COLLECTED UNDER A/S CONDITION       COMMENT             
SNR is mapped to RINEX snr flag value [2-9]                 COMMENT             
Lx:     = 25dBHz -> 1; 26-27dBHz -> 2; 28-31dBHz -> 3       COMMENT             
       32-35dBHz -> 4; 36-38dBHz -> 5; 39-41dBHz -> 6       COMMENT             
       42-44dBHz -> 7; 45-48dBHz -> 8; >=49dBHz -> 9        COMMENT             
                                                            END OF HEADER       
 15 02 21 00 00  0.0000000  0  7G16G18G21G25G27G29G31
  22612375.580   118828846.00909  22612372.020    92593895.20447
  23178128.260   121801914.88609  23178125.060    94910589.15845
  20970433.540   110200375.92208  20970429.960    85870409.98648
  23862363.100   125397552.08908  23862363.340    97712373.73746
  23725601.100   124678891.67108  23725601.160    97152390.27046
  23081783.060   121295580.47908  23081781.340    94516025.49647
  22052046.400   115884278.19909  22052043.080    90299420.33248
 15 02 21 00 00 30.0000000  0  7G16G18G21G25G27G29G31
  22596498.280   118745410.43709  22596494.740    92528880.47647
  23164315.060   121729326.39009  23164311.940    94854026.71846
  20973835.820   110218254.36508  20973832.140    85884341.24048
  23879983.120   125490145.55208  23879983.420    97784524.45446
  23712317.180   124609083.78808  23712316.660    97097994.49247
  23095114.620   121365637.46908  23095112.860    94570615.31847
  22066230.580   115958816.05809  22066227.200    90357501.75948
 15 02 21 00 01  0.0000000  0  7G16G18G21G25G27G29G31
  22580648.240   118662117.82809  22580644.660    92463977.11847
  23150532.820   121656900.87609  23150529.620    94797591.28446
  20977314.740   110236535.20608  20977310.880    85898586.05448
  23897641.400   125582940.45208  23897641.720    97856832.12846
  23699050.720   124539367.75508  23699050.660    97043670.38246
  23108452.720   121435729.13709  23108450.720    94625232.14347
  22080479.600   116033695.04009  22080476.200    90415848.98748
 15 02 21 00 01 30.0000000  0  7G16G18G21G25G27G29G31
  22564825.700   118578969.94509  22564822.220    92399186.59947
  23136782.200   121584641.38808  23136778.960    94741285.19945
  20980869.880   110255216.99908  20980865.900    85913143.29348
  23915337.780   125675935.49908  23915338.140    97929295.77646
  23685801.480   124469743.35908  23685801.440    96989417.61847
  23121797.160   121505854.85609  23121795.140    94679875.54647
  22094792.920   116108912.23109  22094789.540    90474459.76848
 15 02 21 00 02  0.0000000  0  7G16G18G21G25G27G29G31
  22549032.000   118495973.51209  22549028.580    92334514.05247
  23123064.460   121512554.70308  23123061.300    94685113.78346
  20984501.960   110274303.04909  20984497.860    85928015.54748
  23933072.740   125769133.95008  23933073.220    98001917.93146
  23672570.280   124400214.85208  23672570.780    96935239.67346
  23135148.820   121576018.83608  23135146.940    94734548.74647
  22109170.840   116184469.44309  22109167.540    90533335.50248
 15 02 21 00 02 30.0000000  0  7G16G18G21G25G27G29G31
  22533265.580   118413120.23209  22533262.080    92269953.05047
  23109378.180   121440633.33408  23109375.020    94629071.20245
  20988208.640   110293781.54508  20988204.520    85943193.59848
  23950844.260   125862524.51408  23950844.800    98074689.77146
  23659355.860   124330772.21208  23659356.100    96881128.46047
  23148505.900   121646210.83908  23148503.920    94789243.79947
  22123610.960   116260353.52709  22123607.700    90592465.93448
 15 02 21 00 03  0.0000000  0  7G16G18G21G25G27G29G31
  22517529.080   118330424.09609  22517525.460    92205514.52947
  23095726.220   121368892.05708  23095723.020    94573168.93446
  20991992.020   110313663.88008  20991988.040    85958686.32448
  23968654.400   125956118.20408  23968655.140    98147619.85346
  23646159.780   124261427.20208  23646160.040    96827093.48446
  23161870.540   121716442.51209  23161868.600    94843969.72547
  22138115.200   116336574.19309  22138111.940    90651858.64748
 15 02 21 00 03 30.0000000  0  7G16G18G21G25G27G29G31
  22501821.320   118247879.00509  22501817.680    92141193.67747
  23082107.600   121297325.67609  23082104.340    94517402.94146
  20995850.360   110333940.36008  20995846.600    85974486.17148
  23986501.440   126049905.49008  23986502.140    98220700.83745
  23632980.540   124192171.61508  23632980.980    96773128.11247
  23175241.120   121786705.46508  23175239.260    94898720.06247
  22152681.500   116413120.53209  22152678.200    90711505.13348
 15 02 21 00 04  0.0000000  0  7G16G18G21G25G27G29G31
  22486141.960   118165483.31809  22486138.320    92076989.25747
  23068522.040   121225932.97409  23068518.840    94461772.29046
  20999782.840   110354606.00509  20999779.180    85990589.27448
  24004384.460   126143881.56208  24004385.060    98293928.91045
  23619818.300   124123001.90108  23619818.380    96719229.64846
  23188616.960   121856995.89208  23188615.020    94953491.77847
  22167308.560   116489986.15709  22167305.260    90771400.39848
 15 02 21 00 04 30.0000000  0  7G16G18G21G25G27G29G31
  22470494.080   118083253.16609  22470490.420    92012913.80947
  23054972.620   121154730.28609  23054969.380    94406289.70946
  21003791.860   110375673.54308  21003788.120    86007005.53848
  24022305.880   126238059.11008  24022306.380    98367313.99245
  23606674.580   124053931.55708  23606674.500    96665408.65946
  23202000.680   121927327.65308  23201999.020    95008295.71447
  22181998.460   116567182.06309  22181995.220    90831553.03148
 15 02 21 00 05  0.0000000  0  7G16G18G21G25G27G29G31
  22454876.020   118001179.86709  22454872.340    91948960.60747
  23041457.860   121083709.84808  23041454.780    94350949.12046
  21007875.080   110397130.79609  21007871.200    86023725.47848
  24040263.560   126332426.32008  24040263.880    98440846.85645
  23593547.740   123984949.99608  23593547.720    96611656.86245
  23215389.980   121997689.55808  23215388.620    95063123.14947
  22196748.640   116644694.82709  22196745.420    90891952.56748
 15 02 21 00 05 30.0000000  0  7G16G18G21G25G27G29G31
  22439288.240   117919265.68609  22439284.480    91885131.36247
  23027978.320   121012874.92008  23027975.400    94295753.10046
  21012032.360   110418976.99809  21012028.300    86040748.49648
  24058257.140   126426982.50408  24058257.500    98514526.95546
  23580438.280   123916057.73508  23580437.980    96557974.54547
  23228785.080   122068082.07808  23228783.680    95117974.41547
  22211558.680   116722522.25709  22211555.520    90952597.29148
 15 02 21 00 06  0.0000000  0  7G16G18G21G25G27G29G31
  22423732.380   117837519.33109  22423728.700    91821432.93147
  23014535.800   120942234.65809  23014533.100    94240708.77446
  21016264.680   110441217.57109  21016260.500    86058078.81248
  24076287.620   126521732.93508  24076288.120    98588358.41045
  23567346.640   123847261.02809  23567346.260    96504366.76346
  23242187.320   122138511.57608  23242185.880    95172854.53846
  22226429.380   116800668.13909  22226426.200    91013490.17248
 15 02 21 00 06 30.0000000  0  7G16G18G21G25G27G29G31
  22408207.620   117755936.43709  22408204.020    91757861.82647
  23001129.520   120871784.65408  23001127.000    94185812.68146
  21020570.380   110463844.06709  21020566.120    86075709.84948
  24094353.540   126616669.69608  24094354.220    98662335.08345
  23554271.880   123778553.16508  23554272.020    96450828.23047
  23255595.460   122208971.25008  23255593.520    95227758.09646
  22241358.840   116879122.76809  22241355.700    91074623.63148
 15 02 21 00 07  0.0000000  0  7G16G18G21G25G27G29G31
  22392714.480   117674519.80009  22392710.920    91694420.32547
  22987760.280   120801528.91309  22987757.820    94131067.97346
  21024949.320   110486855.87609  21024945.100    86093641.12048
  24112454.860   126711792.52808  24112455.480    98736456.75346
  23541214.420   123709935.13508  23541214.260    96397359.61647
  23269009.520   122279461.62008  23269007.460    95282685.62846
  22256346.820   116957884.71709  22256343.740    91135996.54948
 15 02 21 00 07 30.0000000  0  7G16G18G21G25G27G29G31
  22377254.640   117593278.24709  22377251.060    91631115.20947
  22974429.760   120731476.58608  22974427.160    94076481.76946
  21029402.680   110510258.89509  21029398.480    86111877.24348
  24130592.580   126807106.75308  24130593.420    98810727.53946
  23528174.960   123641413.29008  23528175.160    96343966.03947
  23282430.480   122349988.93908  23282428.320    95337641.96247
  22271394.020   117036957.71409  22271390.900    91197611.85148
 15 02 21 00 08  0.0000000  0  8G16G18G21G22G25G27G29G31
  22361826.960   117512205.68509  22361823.480    91567941.80347
  22961136.940   120661622.41209  22961134.300    94022049.96546
  21033928.660   110534043.07809  21033924.500    86130410.36748
  24543441.320   128976675.32008  24543441.780   100501283.58646
  24148764.860   126902603.13408  24148765.560    98885140.26646
  23515152.320   123572979.59108  23515152.560    96290641.09347
  23295856.960   122420545.52308  23295854.880    95392621.08047
  22286498.320   117116330.71309  22286495.120    91259460.91948
 15 02 21 00 08 30.0000000  0  8G16G18G21G22G25G27G29G31
  22346431.820   117431304.10209  22346428.460    91504901.64047
  22947882.280   120591968.66108  22947879.440    93967774.33846
  21038526.880   110558206.93408  21038522.840    86149239.34648
  24525789.220   128883912.01008  24525788.520   100429000.80545
  24166971.660   126998280.09308  24166972.540    98959693.69246
  23502146.600   123504633.70608  23502147.020    96237384.58347
  23309288.880   122491130.63609  23309286.680    95447622.40146
  22301659.080   117196000.75309  22301655.860    91321541.44348
 15 02 21 00 09  0.0000000  0  8G16G18G21G22G25G27G29G31
  22331070.600   117350580.89209  22331067.360    91442000.43047
  22934667.280   120522523.45908  22934664.480    93913661.22846
  21043198.240   110582754.98109  21043194.260    86168367.69848
  24508121.480   128791066.80508  24508120.220   100356654.23046
  24185213.640   127094141.98208  24185214.380    99034391.24846
  23489158.480   123436381.05308  23489158.340    96184200.72946
  23322727.220   122561749.57108  23322725.000    95502650.14146
  22316876.920   117275970.92909  22316873.680    91383855.84548
 15 02 21 00 09 30.0000000  0  8G16G18G21G22G25G27G29G31
  22315743.780   117270038.33509  22315740.600    91379240.01447
  22921492.480   120453289.41808  22921489.640    93859712.63346
  21047942.360   110607685.46309  21047938.420    86187794.04448
  24490438.580   128698142.21808  24490436.600   100284245.76745
  24203490.460   127190187.40408  24203491.360    99109231.79145
  23476187.960   123368221.44008  23476188.780    96131089.44947
  23336171.820   122632402.08108  23336169.940    95557704.02246
  22332151.200   117356237.89809  22332148.000    91446401.51548
 15 02 21 00 10  0.0000000  0  8G16G18G21G22G25G27G29G31
  22300450.220   117189670.33209  22300447.140    91316615.61747
  22908356.740   120384260.73809  22908353.800    93805924.06746
  21052757.440   110632988.76909  21052753.480    86207510.90748
  24472739.300   128605132.56208  24472736.980   100211771.01645
  24221800.500   127286407.00308  24221801.300    99184208.09045
  23463233.880   123300146.84708  23463233.600    96078044.24347
  23349621.420   122703080.44708  23349619.620    95612778.03746
  22347479.920   117436790.94709  22347476.740    91509170.10248
 15 02 21 00 10 30.0000000  0  8G16G18G21G22G25G27G29G31
  22285192.040   117109487.88109  22285188.980    91254135.80047
  22895262.400   120315449.25209  22895259.420    93752304.75646
  21057644.940   110658672.66008  21057640.980    86227524.32548
  24455025.640   128512048.92407  24455022.840   100139238.62245
  24240145.060   127382808.40108  24240145.960    99259326.02546
  23450297.860   123232166.02608  23450297.800    96025072.21046
  23363077.640   122773792.86908  23363075.660    95667878.58746
  22362864.240   117517636.35709  22362861.160    91572166.50548
 15 02 21 00 11  0.0000000  0  8G16G18G21G22G25G27G29G31
  22269969.320   117029491.66209  22269966.160    91191801.08547
  22882209.720   120246856.32509  22882206.600    93698855.72846
  21062604.280   110684734.17609  21062600.320    86247831.99948
  24437298.140   128418892.62108  24437295.660   100066649.67045
  24258523.660   127479388.99508  24258524.480    99334583.58645
  23437379.140   123164277.47909  23437379.020    95972172.06447
  23376540.140   122844537.91508  23376537.880    95723004.57146
  22378303.360   117598769.55109  22378300.300    91635387.13948
 15 02 21 00 11 30.0000000  0  8G16G18G21G22G25G27G29G31
  22254781.560   116949679.12609  22254778.320    91129609.50747
  22869198.280   120178479.95009  22869195.040    93645575.46146
  21067634.260   110711167.22508  21067630.380    86268429.18748
  24419556.680   128325661.34208  24419554.440    99994002.17445
  24276935.260   127576142.71408  24276936.160    99409976.04945
  23424476.900   123096476.43808  23424476.240    95919340.13346
  23390008.080   122915310.83308  23390005.480    95778152.25946
  22393795.860   117680182.94709  22393792.720    91698826.12448
 15 02 21 00 12  0.0000000  0  8G16G18G21G22G25G27G29G31
  22239629.360   116870053.36809  22239626.000    91067563.47647
  22856228.460   120110322.98309  22856225.140    93592466.16546
  21072734.740   110737970.78809  21072730.920    86289315.08248
  24401801.580   128232358.13408  24401799.200    99921298.67745
  24295379.860   127673069.03708  24295380.260    99485503.04645
  23411591.640   123028763.68008  23411591.580    95866576.98847
  23403481.500   122986112.44808  23403478.600    95833322.32846
  22409341.360   117761874.74109  22409338.120    91762482.04748
 15 02 21 00 12 30.0000000  0  8G16G18G21G22G25G27G29G31
  22224513.720   116790619.82309  22224510.220    91005667.23047
  22843301.560   120042392.06509  22843298.340    93539533.01446
  21077906.240   110765147.37508  21077902.500    86310491.63748
  24384034.240   128138989.28908  24384031.740    99848543.94345
  24313857.820   127770170.29208  24313858.140    99561166.32145
  23398723.900   122961142.72208  23398723.300    95813885.31447
  23416960.900   123056946.01008  23416957.860    95888517.27647
  22424939.980   117843845.59309  22424936.680    91826355.41748
 15 02 21 00 13  0.0000000  0  8G16G18G21G22G25G27G29G31
  22209434.980   116711380.32509  22209431.360    90943922.16547
  22830418.000   119974688.94409  22830414.880    93486777.35046
  21083148.340   110792694.96208  21083144.660    86331957.29348
  24366254.680   128045556.72908  24366251.780    99775739.59145
  24332368.640   127867444.61408  24332368.760    99636964.46145
  23385873.280   122893612.91708  23385872.800    95761264.75246
  23430446.180   123127810.89908  23430442.880    95943736.63146
  22440591.040   117926092.28109  22440587.760    91890443.72048
 15 02 21 00 13 30.0000000  0  8G16G18G21G22G25G27G29G31
  22194393.120   116632334.79409  22194389.440    90882328.26047
  22817577.960   119907214.63309  22817574.920    93434199.99746
  21088460.340   110820609.84408  21088456.680    86353709.14848
  24348463.060   127952061.05608  24348459.980    99702886.02845
  24350911.660   127964888.63508  24350911.800    99712894.83445
  23373039.680   122826172.12808  23373039.240    95708713.49647
  23443936.920   123198704.57709  23443933.520    95998978.43846
  22456293.660   118008609.95409  22456290.440    91954743.17848
 15 02 21 00 14  0.0000000  0  8G16G18G21G22G25G27G29G31
  22179388.860   116553486.79409  22179385.140    90820888.27147
  22804782.160   119839972.52609  22804779.180    93381803.57346
  21093842.180   110848891.68008  21093838.540    86375746.95348
  24330659.960   127858505.80408  24330656.700    99629986.07145
  24369486.760   128062501.93508  24369486.920    99788957.09745
  23360223.340   122758821.26508  23360222.880    95656232.32347
  23457433.460   123269628.57008  23457430.080    96054243.86947
  22472047.400   118091396.31409  22472044.240    92019252.01448
 15 02 21 00 14 30.0000000  0  8G16G18G21G22G25G27G29G31
  22164422.720   116474839.30809  22164419.020    90759604.54047
  22792031.320   119772966.62009  22792028.300    93329591.19346
  21099293.800   110877540.11108  21099290.120    86398070.40148
  24312846.060   127764894.29508  24312842.660    99557042.22445
  24388094.060   128160284.45907  24388094.460    99865151.25445
  23347424.400   122691561.60709  23347423.780    95603822.23047
  23470935.740   123340583.88209  23470932.500    96109533.67946
  22487852.000   118174450.02709  22487848.880    92083969.15248
 15 02 21 00 15  0.0000000  0  8G16G18G21G22G25G27G29G31
  22149495.340   116396395.57009  22149491.640    90698479.56247
  22779326.120   119706200.36909  22779323.040    93277565.56446
  21104815.060   110906554.47308  21104811.360    86420678.98448
  24295022.080   127671230.07908  24295018.820    99484057.35345
  24406733.480   128258235.95207  24406734.020    99941477.04245
  23334642.860   122624394.02109  23334641.800    95551483.86647
  23484443.980   123411571.21108  23484441.080    96164848.42846
  22503707.060   118257768.90009  22503703.960    92148892.93348
 15 02 21 00 15 30.0000000  0  8G16G18G21G22G25G27G29G31
  22134606.740   116318155.57509  22134603.060    90637513.33247
  22766666.620   119639674.07209  22766663.440    93225726.89446
  21110405.260   110935931.24008  21110401.560    86443569.97448
  24277188.260   127577513.77108  24277184.920    99411031.84445
  24425404.320   128356352.94508  24425404.920   100017931.80345
  23321878.260   122557316.37609  23321877.760    95499215.65947
  23497957.900   123482588.24108  23497955.220    96220186.36346
  22519611.660   118341348.37109  22519608.560    92214019.77747
 15 02 21 00 16  0.0000000  0  8G16G18G21G22G25G27G29G31
  22119757.100   116240120.23209  22119753.440    90576706.58947
  22754052.960   119573388.91509  22754049.840    93174076.14146
  21116063.900   110965667.59908  21116060.220    86466741.15748
  24259344.620   127483746.17408  24259341.180    99337966.39545
  24444106.300   128454632.52708  24444106.820   100094513.26544
  23309130.480   122490327.12008  23309129.800    95447016.27647
  23511477.100   123553633.42208  23511474.880    96275546.22447
  22535565.000   118425184.04609  22535561.900    92279346.24048
 15 02 21 00 16 30.0000000  0  8G16G18G21G22G25G27G29G31
  22104946.860   116162291.93009  22104943.220    90516061.17548
  22741485.700   119507347.53309  22741482.660    93122615.33546
  21121790.700   110995762.43108  21121787.000    86490191.67748
  24241491.840   127389930.20408  24241488.260    99264863.24545
  24462839.100   128553073.55108  24462839.740   100171220.50145
  23296399.640   122423426.38008  23296399.260    95394885.84447
  23525001.700   123624707.04608  23524999.980    96330928.20247
  22551566.580   118509272.98209  22551563.500    92344870.04248
 15 02 21 00 17  0.0000000  0  8G16G18G21G22G25G27G29G31
  22090176.600   116084673.65809  22090173.040    90455579.42848
  22728965.460   119441553.49609  22728962.400    93071347.28846
  21127585.520   111026214.57808  21127581.740    86513920.62748
  24223630.400   127296069.10108  24223626.880    99191724.92345
  24481602.620   128651675.53108  24481603.200   100248053.21345
  23283685.900   122356615.01308  23283685.420    95342825.04047
  23538532.020   123695809.97308  23538530.780    96386333.05346
  22567616.040   118593613.43009  22567612.960    92410589.85647
 15 02 21 00 17 30.0000000  0  8G16G18G21G22G25G27G29G31
  22075447.000   116007268.84109  22075443.400    90395263.99647
  22716493.080   119376010.86009  22716490.120    93020275.11846
  21133448.400   111057024.18109  21133444.560    86537928.10048
  24205761.220   127202167.00308  24205757.840    99118554.65445
  24500396.740   128750438.62108  24500397.420   100325011.39945
  23270989.300   122289894.38909  23270988.800    95290834.98947
  23552068.240   123766943.55408  23552066.940    96441761.78946
  22583713.120   118678203.90109  22583710.020    92476504.47747
 15 02 21 00 18  0.0000000  0  8G16G18G21G22G25G27G29G31
  22060758.360   115930079.15409  22060754.700    90335116.21347
  22704068.940   119310721.43709  22704066.120    92969400.26046
  21139378.920   111088188.93809  21139375.040    86562212.32748
  24187884.660   127108225.58508  24187881.080    99045353.72345
  24519220.800   128849360.60607  24519221.860   100402093.41845
  23258309.660   122223263.64508  23258309.740    95238915.00447
  23565610.280   123838106.74008  23565608.780    96497213.57546
  22599857.120   118763040.64209  22599853.960    92542611.02048
 15 02 21 00 18 30.0000000  0  8G16G18G21G22G25G27G29G31
  22046110.740   115853105.02309  22046106.960    90275136.37147
  22691693.160   119245686.05609  22691690.380    92918723.35446
  21145376.400   111119705.33808  21145372.380    86586770.55148
  24170000.860   127014245.84208  24169997.040    98972122.91246
  24538074.680   128948438.53308  24538075.720   100479296.98345
  23245646.860   122156721.23908  23245646.920    95187063.80147
  23579157.880   123909298.29509  23579156.160    96552687.48346
  22616047.120   118848119.27509  22616043.940    92608906.01947
 15 02 21 00 19  0.0000000  0  8G16G18G21G22G25G27G29G31
  22031504.440   115776348.04409  22031500.500    90215325.75647
  22679366.040   119180906.06509  22679363.120    92868245.46646
  21151440.380   111151571.65208  21151436.340    86611601.45648
  24152110.160   126920229.46308  24152106.280    98898863.55645
  24556957.940   129047669.98007  24556959.080   100556620.14845
  23233000.860   122090266.10708  23233001.040    95135280.58847
  23592710.560   123980516.85108  23592708.600    96608182.43546
  22632282.360   118933435.76409  22632279.240    92675386.37848
 15 02 21 00 19 30.0000000  0  8G16G18G21G22G25G27G29G31
  22016940.460   115699813.66009  22016936.420    90155688.57048
  22667088.760   119116388.19209  22667085.740    92817971.80946
  21157571.220   111183789.41308  21157567.200    86636706.19048
  24134213.560   126826182.26108  24134209.520    98825580.15746
  24575870.700   129147057.23808  24575871.880   100634064.69345
  23220372.200   122023901.78608  23220372.220    95083568.13347
  23606269.100   124051765.93808  23606266.860    96663701.16146
  22648563.000   119018990.74209  22648559.920    92742052.55547
 15 02 21 00 20  0.0000000  0  8G16G18G21G22G25G27G29G31
  22002418.640   115623500.89409  22002414.540    90096224.09348
  22654861.140   119052131.49709  22654857.920    92767901.67546
  21163768.040   111216353.95108  21163764.000    86662081.15648
  24116310.980   126732103.79208  24116306.720    98752272.40246
  24594812.280   129246595.61607  24594813.140   100711627.05145
  23207760.140   121957624.98908  23207760.060    95031923.92647
  23619832.760   124123042.43608  23619830.460    96719241.27747
  22664887.880   119104778.25509  22664884.820    92808899.95247
 15 02 21 00 20 30.0000000  0  8G16G18G21G22G25G27G29G31
  21987940.240   115547416.43909  21987936.140    90036937.51748
  22642684.460   118988142.92209  22642681.100    92718040.46446
  21170031.440   111249267.81209  21170027.280    86687728.31948
  24098403.680   126638001.06008  24098399.320    98678945.73346
  24613783.120   129346288.07207  24613783.660   100789309.42744
  23195165.600   121891440.04109  23195165.540    94980351.28347
  23633402.200   124194350.26608  23633399.980    96774805.75346
  22681257.220   119190799.66009  22681254.180    92875929.57347
 15 02 21 00 21  0.0000000  0  8G16G18G21G22G25G27G29G31
  21973505.160   115471559.64409  21973501.040    89977828.33047
  22630558.680   118924421.97209  22630555.260    92668387.79946
  21176360.440   111282526.58209  21176356.160    86713644.24748
  24080491.640   126543873.61908  24080487.400    98605599.79246
  24632782.480   129446130.20107  24632782.940   100867108.44845
  23182588.000   121825343.96808  23182587.620    94928847.88047
  23646976.960   124265686.37208  23646974.620    96830392.30846
  22697669.960   119277049.26109  22697666.940    92943137.02847
 15 02 21 00 21 30.0000000  0  8G16G18G21G22G25G27G29G31
  21959113.700   115395932.06709  21959109.580    89918897.75047
  22618484.220   118860970.42509  22618480.760    92618945.05746
  21182754.640   111316128.28508  21182750.340    86739827.39148
  24062575.100   126449723.36508  24062571.160    98532236.07345
  24651809.920   129546120.23108  24651810.280   100945022.68744
  23170027.200   121759336.30008  23170026.820    94877413.36947
  23660557.140   124337050.91208  23660554.640    96886001.00646
  22714125.400   119363523.58909  22714122.520    93010519.59747
 15 02 21 00 22  0.0000000  0  8G16G18G21G22G25G27G29G31
  21944766.240   115320535.77109  21944762.200    89860147.41347
  22606461.560   118797790.82009  22606457.940    92569714.20246
  21189213.760   111350071.21608  21189209.380    86766276.42048
  24044654.620   126355552.78308  24044651.140    98458856.53745
  24670865.340   129646256.34508  24670865.680   101023050.80345
  23157483.180   121693416.76508  23157482.440    94826047.50547
  23674142.700   124408443.44608  23674140.220    96941631.51546
  22730623.020   119450219.47509  22730620.220    93078074.80847
 15 02 21 00 22 30.0000000  0  8G16G18G21G22G25G27G29G31
  21930463.420   115245374.19709  21930459.460    89801579.94648
  22594491.340   118734886.75009  22594487.620    92520698.04446
  21195737.600   111384354.31609  21195733.220    86792990.51348
  24026731.100   126261365.73608  24026727.960    98385464.13646
  24689948.540   129746538.38708  24689948.780   101101192.60344
  23144956.120   121627586.43308  23144955.520    94774751.17047
  23687733.880   124479865.02208  23687731.500    96997284.63646
  22747162.540   119537135.18409  22747159.720    93145801.31047
 15 02 21 00 23  0.0000000  0  8G16G18G21G22G25G27G29G31
  21916205.680   115170449.46209  21916201.760    89743197.05247
  22582573.960   118672260.64009  22582570.220    92471898.49646
  21202325.960   111418976.61509  21202321.680    86819968.93048
  24008804.820   126167164.61908  24008802.220    98312060.79345
  24709059.220   129846964.83708  24709059.720   101179446.94045
  23132445.880   121561845.29109  23132445.260    94723524.34947
  23701330.520   124551315.46908  23701328.420    97052960.27846
  22763743.320   119624267.64209  22763740.480    93213696.69747
 15 02 21 00 23 30.0000000  0  8G16G18G21G22G25G27G29G31
  21901993.520   115095764.27809  21901989.660    89685000.80948
  22570710.000   118609915.49109  22570706.320    92423317.87846
  21208978.500   111453935.90409  21208974.300    86847209.94148
  23990876.680   126072952.36508  23990873.980    98238648.71246
  24728197.220   129947534.56807  24728197.720   101257812.91144
  23119952.620   121496193.57509  23119951.920    94672367.20147
  23714932.720   124622795.20508  23714930.360    97108658.72946
  22780364.860   119711614.24909  22780362.000    93281758.95147
 15 02 21 00 24  0.0000000  0  8G16G18G21G22G25G27G29G31
  21887826.840   115021318.38209  21887823.060    89626991.02048
  22558899.500   118547851.26209  22558895.860    92374956.15247
  21215694.560   111489229.45008  21215690.500    86874711.39548
  23972946.660   125978729.31108  23972944.000    98165228.27346
  24747361.760   130048243.86707  24747362.300   101336287.67844
  23107475.960   121430629.03108  23107475.580    94621278.00047
  23728539.980   124694301.74208  23728537.480    97164378.05346
  22797026.100   119799169.86609  22797023.260    93349984.06647
 15 02 21 00 24 30.0000000  0  8G16G18G21G22G25G27G29G31
  21873706.660   114947116.76609  21873703.000    89569171.59748
  22547143.420   118486073.00709  22547139.960    92326817.26947
  21222474.340   111524857.96208  21222470.400    86902473.86848
  23955015.660   125884500.76808  23955012.740    98091803.49046
  24766552.900   130149093.87607  24766553.680   101414872.02445
  23095016.480   121365154.27608  23095015.920    94570258.70947
  23742152.740   124765837.88608  23742150.380    97220120.49646
  22813727.040   119886934.17709  22813724.200    93418371.81047
 15 02 21 00 25  0.0000000  0  8G16G18G21G22G25G27G29G31
  21859633.640   114873162.88109  21859630.080    89511545.20148
  22535442.480   118424584.46009  22535439.180    92278904.12947
  21229317.780   111560820.60309  21229313.860    86930496.70748
  23937084.300   125790270.24108  23937081.240    98018377.19645
  24785770.620   130250084.22807  24785771.440   101493565.73844
  23082574.300   121299770.31108  23082573.980    94519310.19547
  23755771.400   124837404.67608  23755769.220    97275886.80846
  22830467.300   119974905.09209  22830464.460    93486920.53847
 15 02 21 00 25 30.0000000  0  8G16G18G21G22G25G27G29G31
  21845607.540   114799455.39009  21845604.020    89454110.80148
  22523796.420   118363384.23309  22523793.280    92231215.67347
  21236223.780   111597111.99609  21236219.880    86958775.71948
  23919152.340   125696037.08208  23919149.100    97944948.84846
  24805014.000   130351210.03907  24805015.140   101572365.01245
  23070148.720   121234473.72508  23070148.740    94468429.76647
  23769395.260   124908998.31308  23769393.100    97331674.01846
  22847245.760   120063076.52509  22847242.920    93555625.52547
 15 02 21 00 26  0.0000000  0  7G16G18G21G22G27G29G31
  21831629.460   114726000.04209  21831625.980    89396872.87048
  22512206.400   118302478.71609  22512203.400    92183756.84746
  21243192.760   111633734.38109  21243189.000    86987312.64048
  23901221.080   125601807.23808  23901217.540    97871523.04746
  23057740.380   121169267.93409  23057740.140    94417620.07747
  23783024.900   124980622.50408  23783022.920    97387485.04646
  22864062.500   120151449.10109  22864059.660    93624487.24147
 15 02 21 00 26 30.0000000  0  7G16G18G21G22G27G29G31
  21817699.340   114652796.72809  21817695.860    89339831.34348
  22500672.480   118241867.80209  22500669.520    92136527.58046
  21250223.960   111670683.87509  21250220.300    87016104.45048
  23883290.500   125507581.04508  23883286.720    97798100.10846
  23045348.820   121104150.56408  23045348.720    94366879.32047
  23796659.780   125052275.15208  23796658.320    97443318.24146
  22880916.460   120240017.13309  22880913.620    93693501.25947
 15 02 21 00 27  0.0000000  0  7G16G18G21G22G27G29G31
  21803817.520   114579847.31409  21803814.060    89282987.64348
  22489195.080   118181553.43709  22489192.080    92089529.37847
  21257317.020   111707958.30708  21257313.400    87045149.46548
  23865361.100   125413360.69208  23865357.180    97724681.72346
  23032974.080   121039121.03708  23032974.140    94316206.99647
  23810299.880   125123955.48908  23810298.940    97499173.01046
  22897807.080   120328777.43809  22897804.200    93762665.09947
 15 02 21 00 27 30.0000000  0  7G16G18G21G22G27G29G31
  21789984.260   114507153.21509  21789980.820    89226342.89548
  22477774.540   118121537.42909  22477771.380    92042763.69447
  21264471.440   111745555.27708  21264467.840    87074445.81048
  23847433.200   125319148.12908  23847428.920    97651269.40746
  23020616.120   120974178.89908  23020615.720    94265602.74547
  23823945.240   125195663.15108  23823944.360    97555049.08646
  22914733.600   120417726.55109  22914730.720    93831976.06847
 15 02 21 00 28  0.0000000  0  7G16G18G21G22G27G29G31
  21776199.760   114434715.11609  21776196.280    89169897.63148
  22466410.820   118061820.14709  22466407.560    91996230.75547
  21271686.560   111783471.20608  21271682.980    87103990.67848
  23829506.920   125224944.20408  23829502.500    97577863.82646
  23008274.500   120909322.28908  23008274.180    94215065.13747
  23837595.640   125267396.03008  23837594.700    97610944.80746
  22931695.060   120506859.44909  22931692.200    93901430.23347
 15 02 21 00 28 30.0000000  0  7G16G18G21G22G27G29G31
  21762465.820   114362542.49509  21762462.260    89113659.23448
  22455105.800   118002411.57409  22455102.500    91949938.37347
  21278963.540   111821712.02109  21278959.900    87133788.71948
  23811583.980   125130758.60808  23811579.500    97504472.53946
  22995950.460   120844558.39408  22995950.060    94164599.77947
  23851252.100   125339161.53008  23851251.040    97666865.92146
  22948692.280   120596180.45109  22948689.540    93971030.98747
 15 02 21 00 29  0.0000000  0  7G16G18G21G22G27G29G31
  21748782.080   114290633.67009  21748778.460    89057626.39348
  22443859.200   117943309.97409  22443855.900    91903885.19747
  21286301.440   111860272.31209  21286297.640    87163835.69748
  23793664.320   125036590.52108  23793659.820    97431094.88946
  22983643.220   120779883.41708  22983642.600    94114203.70547
  23864914.220   125410955.87408  23864912.840    97722809.55346
  22965723.960   120685682.72309  22965721.340    94040772.97247
 15 02 21 00 29 30.0000000  0  7G16G18G21G22G27G29G31
  21735148.920   114218990.88609  21735145.300    89001800.84548
  22432671.480   117884517.80709  22432668.160    91858073.11847
  21293699.520   111899149.09908  21293695.640    87194129.28748
  23775748.460   124942442.18408  23775743.980    97357732.59946
  22971352.760   120715297.20208  22971352.400    94063876.84447
  23878581.760   125482778.88808  23878580.320    97778775.47946
  22982789.600   120775363.52609  22982787.040    94110654.06847
 15 02 21 00 30  0.0000000  0  7G16G18G21G22G27G29G31
  21721566.500   114147615.01809  21721562.920    88946183.30048
  22421542.860   117826036.22209  22421539.520    91812503.07947
  21301157.360   111938340.03708  21301153.420    87224667.68648
  23757836.440   124848314.59808  23757832.000    97284386.52446
  22959078.900   120650798.30808  22959078.740    94013618.00247
  23892254.520   125554629.13508  23892252.560    97834762.66646
  22999888.380   120865218.21709  22999885.760    94180670.68147
 15 02 21 00 30 30.0000000  0  7G16G18G21G22G27G29G31
  21708035.580   114076509.77709  21708032.040    88890776.63148
  22410473.940   117767868.70209  22410470.600    91767177.74147
  21308675.040   111977845.69608  21308671.100    87255451.31348
  23739929.220   124754212.33308  23739924.800    97211060.13446
  22946822.020   120586388.41509  22946821.780    93963428.50047
  23905932.800   125626508.19608  23905930.680    97890772.28746
  23017020.060   120955245.43709  23017017.340    94250821.73247
 15 02 21 00 31  0.0000000  0  7G16G18G21G22G27G29G31
  21694556.580   114005677.22209  21694553.040    88835582.43248
  22399465.140   117710017.34609  22399461.780    91722098.78747
  21316251.920   112017662.35308  21316247.920    87286477.27148
  23722027.200   124660137.61108  23722022.940    97137755.22946
  22934582.040   120522067.07508  22934581.900    93913307.99147
  23919616.380   125698415.73208  23919614.180    97946804.04746
  23034184.000   121045441.97509  23034181.100    94321104.70747
 15 02 21 00 31 30.0000000  0  7G16G18G21G22G27G29G31
  21681129.820   113935119.05909  21681126.220    88780602.06048
  22388516.880   117652483.99109  22388513.460    91677267.60547
  21323887.960   112057789.62809  21323883.900    87317745.28648
  23704130.860   124566092.61608  23704126.660    97064473.50346
  22922358.840   120457833.86508  22922358.820    93863256.15247
  23933305.340   125770351.30308  23933303.340    98002857.68746
  23051379.520   121135804.27609  23051376.460    94391516.85747
 15 02 21 00 32  0.0000000  0  7G16G18G21G22G27G29G31
  21667756.000   113864839.19509  21667752.340    88725838.52748
  22377629.960   117595273.07409  22377626.560    91632687.69847
  21331582.900   112098226.45909  21331578.840    87349254.49848
  23686241.060   124472081.94708  23686236.880    96991218.50946
  22910152.840   120393690.59508  22910152.560    93813274.39747
  23947000.000   125842316.85308  23946998.200    98058934.69545
  23068606.400   121226331.28709  23068603.220    94462057.36247
 15 02 21 00 32 30.0000000  0  7G16G18G21G22G27G29G31
  21654434.780   113794835.91409  21654431.100    88671290.52848
  22366803.900   117538382.21309  22366800.500    91588357.17147
  21339335.700   112138967.46109  21339331.600    87381000.73448
  23668357.480   124378103.62008  23668353.300    96917988.69346
  22897963.160   120329632.84708  22897962.740    93763359.29247
  23960699.680   125914308.09108  23960698.040    98115031.70846
  23085863.100   121317015.48209  23085859.980    94532720.33047
 15 02 21 00 33  0.0000000  0  7G16G18G21G22G27G29G31
  21641167.460   113725115.65009  21641163.720    88616963.05048
  22356040.000   117481818.17209  22356036.680    91544281.30647
  21347146.860   112180015.03709  21347142.700    87412985.85448
  23650481.560   124284165.03408  23650477.300    96844789.86546
  22885790.640   120265665.20809  22885790.060    93713514.39047
  23974405.040   125986329.61908  23974403.640    98171152.34046
  23103149.980   121407858.49409  23103146.980    94603507.05947
 15 02 21 00 33 30.0000000  0  7G16G18G21G22G27G29G31
  21627954.660   113655682.01209  21627950.900    88562858.92548
  22345338.920   117425584.27709  22345335.740    91500462.70047
  21355016.260   112221368.73509  21355011.980    87445209.51248
  23632613.820   124190269.58708  23632609.440    96771624.65546
  22873635.440   120201788.75209  22873634.740    93663740.54947
  23988116.180   126058382.24808  23988114.980    98227297.19546
  23120466.760   121498858.56709  23120463.860    94674416.16747
 15 02 21 00 34  0.0000000  0  7G16G18G21G22G27G29G31
  21614796.340   113586534.72409  21614792.600    88508977.92948
  22334700.720   117369680.69209  22334697.680    91456901.48447
  21362942.980   112263023.55109  21362938.620    87477667.80748
  23614754.360   124096417.70708  23614750.040    96698493.39046
  22861497.100   120138000.92708  22861496.240    93614035.76247
  24001832.760   126130463.53808  24001831.360    98283464.40346
  23137812.400   121590009.98409  23137809.500    94745443.19447
 15 02 21 00 34 30.0000000  0  7G16G18G21G22G27G29G31
  21601692.920   113517675.79709  21601689.180    88455321.63748
  22324125.780   117314109.36209  22324122.820    91413599.17347
  21370926.760   112304978.37009  21370922.300    87510359.87548
  23596903.660   124002611.83908  23596899.300    96625397.97046
  22849375.560   120074301.61508  22849374.680    93564399.95147
  24015554.680   126202573.32708  24015553.320    98339653.77746
  23155186.240   121681309.81209  23155183.380    94816585.88247
 15 02 21 00 35  0.0000000  0  7G16G18G21G22G27G29G31
  21588645.180   113449109.30809  21588641.440    88401893.20448
  22313614.880   117258874.44609  22313611.900    91370558.98547
  21378967.640   112347233.55809  21378963.220    87543285.98848
  23579062.560   123908856.47608  23579058.260    96552341.89846
  22837271.180   120010692.79508  22837270.180    93514834.65547
  24029282.380   126274713.72608  24029280.840    98395867.02046
  23172588.060   121772756.74309  23172585.260    94887843.17847
 15 02 21 00 35 30.0000000  0  7G16G18G21G22G27G29G31
  21575652.400   113380831.49709  21575648.620    88348689.71148
  22303167.160   117203971.62509  22303164.160    91327777.58447
  21387064.160   112389781.27909  21387059.760    87576440.05448
  23561230.420   123815148.05308  23561226.080    96479322.41346
  22825182.800   119947168.25809  22825181.820    93465335.03847
  24043014.980   126346878.56908  24043013.680    98452099.32246
  23190016.140   121864341.49109  23190013.360    94959207.85347
 15 02 21 00 36  0.0000000  0  7G16G18G21G22G27G29G31
  21562716.440   113312852.43409  21562712.580    88295719.02148
  22292784.660   117149411.31609  22292781.680    91285263.07747
  21395217.460   112432627.20909  21395213.060    87609826.49548
  23543409.280   123721497.51108  23543404.780    96406347.99846
  22813111.960   119883735.96709  22813111.120    93415907.29047
  24056753.700   126419076.01108  24056751.860    98508357.01046
  23207471.500   121956069.59609  23207468.660    95030684.25447
 15 02 21 00 36 30.0000000  0  7G16G18G21G22G27G29G31
  21549836.820   113245169.55609  21549832.920    88242979.11548
  22282466.920   117095190.97709  22282463.920    91243013.47447
  21403426.200   112475764.68109  21403421.920    87643440.10648
  23525598.560   123627902.11308  23525594.160    96333416.60946
  22801057.700   119820391.06009  22801056.840    93366547.64547
  24070497.820   126491300.91208  24070496.160    98564636.12646
  23224952.540   122047932.77109  23224949.620    95102265.89847
 15 02 21 00 37  0.0000000  0  7G16G18G21G22G27G29G31
  21537014.620   113177788.47209  21537010.720    88190474.38548
  22272214.900   117041315.93809  22272211.780    91201032.93147
  21411690.840   112519195.67109  21411686.660    87677282.42948
  23507799.480   123534368.20209  23507795.200    96260533.10346
  22789020.720   119757136.76309  22789019.800    93317258.58047
  24084247.780   126563556.65308  24084246.440    98620939.22646
  23242459.300   122139931.17709  23242456.280    95173952.91447
 15 02 21 00 37 30.0000000  0  7G16G18G21G22G27G29G31
  21524249.740   113110708.64609  21524245.860    88138204.39248
  22262028.460   116987785.52409  22262025.200    91159320.94747
  21420010.260   112562914.73609  21420006.140    87711349.22348
  23490012.080   123440895.57008  23490007.880    96187697.31946
  22777000.480   119693970.35909  22776999.680    93268038.02847
  24098002.980   126635840.43908  24098001.240    98677264.22146
  23259990.700   122232059.34509  23259987.620    95245741.05647
 15 02 21 00 38  0.0000000  0  7G16G18G21G22G27G29G31
  21511543.040   113043934.48109  21511539.180    88086172.57648
  22251908.440   116934604.37409  22251905.120    91117881.10147
  21428384.780   112606923.26709  21428380.680    87745641.58748
  23472237.240   123347488.70208  23472233.060    96114912.80747
  22764997.460   119630894.21609  22764996.720    93218887.80147
  24111763.920   126708154.44308  24111762.400    98733612.77746
  23277546.640   122324316.59809  23277543.540    95317629.76947
 15 02 21 00 38 30.0000000  0  7G16G18G21G22G27G29G31
  21498895.000   112977468.62409  21498891.100    88034380.99548
  22241855.380   116881775.14009  22241851.980    91076715.47647
  21436814.060   112651219.09609  21436809.900    87780157.81348
  23454475.740   123254151.52109  23454471.580    96042182.60046
  22753011.720   119567908.73809  22753010.920    93169808.20147
  24125530.680   126780499.20008  24125529.460    98789985.23146
  23295126.580   122416700.05609  23295123.520    95389616.82047
 15 02 21 00 39  0.0000000  0  7G16G18G21G22G27G29G31
  21486305.300   112911309.36009  21486301.380    87982828.33348
  22231868.860   116829295.67009  22231865.420    91035822.39847
  21445297.020   112695797.24709  21445292.880    87814894.02648
  23436727.140   123160882.06408  23436723.020    95969505.12046
  22741042.480   119505009.73608  22741041.520    93120796.02547
  24139302.720   126852871.03108  24139300.940    98846378.84946
  23312729.240   122509202.63208  23312726.260    95461696.70047
 15 02 21 00 39 30.0000000  0  7G16G18G21G22G27G29G31
  21473775.020   112845462.22809  21473771.080    87931518.88848
  22221949.940   116777171.44409  22221946.500    90995206.13247
  21453833.880   112740658.83809  21453829.780    87849851.11548
  23418992.520   123067686.09608  23418988.520    95896884.94646
  22729090.300   119442200.72709  22729089.400    93071853.96747
  24153080.440   126925272.93908  24153078.400    98902795.86146
  23330354.760   122601825.14709  23330351.840    95533870.02747
 15 02 21 00 40  0.0000000  0  7G16G18G21G22G27G29G31
  21461304.360   112779928.46009  21461300.460    87880453.62748
  22212098.800   116725403.60609  22212095.480    90954867.55747
  21462424.220   112785801.40009  21462420.180    87885027.14148
  23401272.280   122974565.75308  23401268.300    95824323.69647
  22717155.040   119379480.74609  22717154.380    93022981.26747
  24166863.800   126997703.87308  24166861.540    98959235.54846
  23348002.320   122694563.42009  23347999.420    95606133.55447
 15 02 21 00 40 30.0000000  0  7G16G18G21G22G27G29G31
  21448894.220   112714712.61009  21448890.320    87829636.09048
  22202316.200   116673995.91409  22202312.960    90914809.63547
  21471067.960   112831224.88109  21471063.980    87920422.05748
  23383567.380   122881525.94208  23383563.320    95751825.16447
  22705237.140   119316851.96409  22705236.560    92974179.63447
  24180652.960   127070166.61408  24180650.680    99015699.96646
  23365671.680   122787416.38609  23365668.820    95678486.46647
 15 02 21 00 41  0.0000000  0  7G16G18G21G22G27G29G31
  21436544.300   112649813.16409  21436540.400    87779065.09548
  22192602.080   116622948.00309  22192598.940    90875032.05247
  21479764.240   112876924.40909  21479760.340    87956032.08148
  23365877.620   122788565.74908  23365873.560    95679388.69947
  22693336.000   119254311.00909  22693335.420    92925446.43348
  24194447.560   127142657.52108  24194445.220    99072186.35246
  23383361.580   122880377.77208  23383358.860    95750923.83647
 15 02 21 00 41 30.0000000  0  7G16G18G21G22G27G29G31
  21424255.980   112585237.34409  21424252.060    87728746.27848
  22182957.480   116572265.82609  22182954.460    90835539.46247
  21488513.400   112922901.93409  21488509.580    87991858.71948
  23348204.320   122695692.20608  23348200.220    95607019.75047
  22681452.460   119191862.38809  22681451.800    92876785.17847
  24208248.200   127215180.79908  24208245.920    99128697.95545
  23401072.340   122973448.92409  23401069.680    95823446.74847
 15 02 21 00 42  0.0000000  0  7G16G18G21G22G27G29G31
  21412029.020   112520984.34809  21412025.160    87678679.01748
  22173382.460   116521948.80409  22173379.400    90796331.39447
  21497314.640   112969153.49208  21497310.960    88027898.89748
  23330547.500   122602905.18808  23330543.360    95534718.21047
  22669585.940   119129503.27109  22669585.200    92828193.67448
  24222054.400   127287733.94708  24222052.080    99185232.84646
  23418803.000   123066624.40008  23418800.400    95896050.95447
 15 02 21 00 42 30.0000000  0  7G16G18G21G22G27G29G31
  21399864.340   112457058.67809  21399860.520    87628866.82548
  22163877.980   116472001.93809  22163874.760    90757411.78647
  21506168.320   113015680.43609  21506164.800    88064153.65948
  23312908.240   122510210.24108  23312904.000    95462488.43447
  22657736.960   119067236.62309  22657736.320    92779674.21747
  24235866.880   127360319.91308  24235864.820    99241793.29846
  23436553.500   123159903.77108  23436550.900    95968736.13047
 15 02 21 00 43  0.0000000  0  7G16G18G21G22G27G29G31
  21387761.160   112393456.20609  21387757.340    87579306.45548
  22154442.840   116422419.85909  22154439.540    90718776.41547
  21515072.640   113062473.48209  21515069.260    88100615.75848
  23295285.740   122417603.10809  23295281.420    95390327.07046
  22645904.280   119005055.49409  22645903.600    92731221.40148
  24249684.340   127432931.23708  24249682.260    99298373.53645
  23454321.940   123253276.99908  23454319.260    96041494.41447
 15 02 21 00 43 30.0000000  0  7G16G18G21G22G27G29G31
  21375720.700   112330183.18609  21375716.880    87530002.81148
  22145078.280   116373208.94809  22145074.940    90680430.26347
  21524028.080   113109534.70009  21524024.640    88137286.83648
  23277681.220   122325090.38908  23277676.800    95318239.27547
  22634088.620   118942963.96309  22634087.900    92682838.39048
  24263507.640   127505572.67208  24263505.620    99354977.24046
  23472108.540   123346745.22209  23472105.680    96114326.73746
 15 02 21 00 44  0.0000000  0  7G16G18G21G22G27G29G31
  21363743.760   112267243.87809  21363739.940    87480959.20748
  22135785.120   116324373.30109  22135781.780    90642376.50947
  21533034.740   113156864.84709  21533031.260    88174167.47348
  23260095.560   122232677.06909  23260091.020    95246228.93946
  22622290.380   118880964.15609  22622289.740    92634526.86647
  24277336.980   127578245.92908  24277335.180    99411605.69046
  23489913.080   123440307.59409  23489910.060    96187232.42446
 15 02 21 00 44 30.0000000  0  7G16G18G21G22G27G29G31
  21351830.340   112204638.42809  21351826.540    87432175.73548
  22126563.380   116275913.15909  22126560.120    90604615.37547
  21542091.860   113204460.23409  21542088.280    88211254.78948
  23242528.880   122140363.86908  23242524.280    95174296.60946
  22610509.260   118819054.28608  22610508.720    92586285.42648
  24291172.140   127650949.60708  24291170.320    99468257.92046
  23507734.600   123533959.28409  23507731.480    96260207.70946
 15 02 21 00 45  0.0000000  0  7G16G18G21G22G27G29G31
  21339981.720   112142373.56009  21339977.940    87383657.66448
  22117414.300   116227834.66109  22117411.100    90567151.62947
  21551199.900   113252323.26508  21551196.300    88248550.64348
  23224982.540   122048157.62108  23224977.900    95102447.61847
  22598746.080   118757238.70508  22598745.600    92538117.44848
  24305013.600   127723687.62808  24305012.100    99524936.84146
  23525573.240   123627701.40208  23525570.060    96333253.45247
 15 02 21 00 45 30.0000000  0  7G16G18G21G22G27G29G31
  21328197.080   112080445.10509  21328193.340    87335401.73448
  22108336.980   116180133.28509  22108333.940    90529981.73247
  21560357.220   113300445.33008  21560353.580    88286048.36748
  23207455.680   121956054.54308  23207451.140    95030679.03746
  22586999.720   118695511.19009  22586999.280    92490018.09048
  24318860.640   127796453.80708  24318859.260    99581637.71146
  23543427.280   123721524.77908  23543424.180    96406362.52047
 15 02 21 00 46  0.0000000  0  7G16G18G21G22G27G29G31
  21316476.820   112018855.20409  21316473.200    87287409.61448
  22099331.760   116132810.91809  22099328.820    90493107.17647
  21569563.560   113348825.12808  21569559.980    88323746.91148
  23189949.040   121864057.70108  23189944.600    94958993.22147
  22575270.140   118633871.71809  22575269.700    92441987.36047
  24332713.120   127869248.21308  24332711.620    99638360.59245
  23561296.180   123815426.51709  23561293.220    96479532.64047
 15 02 21 00 46 30.0000000  0  7G16G18G21G22G27G29G31
  21304822.840   111957613.58609  21304819.280    87239688.87848
  22090400.580   116085877.37409  22090397.640    90456535.59847
  21578820.020   113397467.99608  21578816.380    88361650.45248
  23172464.560   121772176.97608  23172460.240    94887397.87846
  22563558.740   118572327.93509  22563558.280    92394031.19247
  24346572.440   127942078.52508  24346570.680    99695111.48945
  23579180.860   123909411.16609  23579178.060    96552767.35947
 15 02 21 00 47  0.0000000  0  7G16G18G21G22G27G29G31
  21293233.720   111896712.89109  21293230.200    87192233.79548
  22081541.940   116039324.46809  22081538.880    90420260.62047
  21588124.480   113446362.96409  21588120.760    88399750.41548
  23155000.920   121680405.48608  23154996.740    94815887.66847
  22551863.680   118510870.17709  22551863.240    92346142.03448
  24360436.940   128014934.86808  24360434.900    99751882.63045
  23597078.900   124003465.76208  23597076.160    96626056.59947
 15 02 21 00 47 30.0000000  0  7G16G18G21G22G27G29G31
  21281711.300   111836162.75609  21281707.860    87145051.87848
  22072757.600   115993161.82909  22072754.360    90384289.74847
  21597477.900   113495515.35009  21597474.100    88438050.98148
  23137560.120   121588753.38208  23137555.940    94744470.46147
  22540186.460   118449506.03209  22540185.960    92298325.83148
  24374307.820   128087825.15808  24374305.360    99808680.24646
  23614991.140   124097595.02108  23614988.480    96699404.00547
 15 02 21 00 48  0.0000000  0  7G16G18G21G22G27G29G31
  21270255.980   111775964.93209  21270252.580    87098144.48748
  22064047.780   115947391.00109  22064044.420    90348624.18047
  21606879.840   113544922.80708  21606875.980    88476550.29248
  23120142.480   121497222.99009  23120138.260    94673148.12647
  22528527.020   118388235.34509  22528526.420    92250582.47048
  24388184.760   128160748.87008  24388182.240    99865503.91845
  23632916.920   124191795.67008  23632914.340    96772807.03446
 15 02 21 00 48 30.0000000  0  7G16G18G21G22G27G29G31
  21258868.020   111716120.70109  21258864.560    87051512.62548
  22055412.640   115902013.00009  22055409.260    90313264.70247
  21616329.820   113594582.37709  21616325.920    88515246.05548
  23102748.400   121405815.94409  23102744.100    94601921.89847
  22516885.260   118327057.14709  22516884.540    92202911.15548
  24402067.640   128233705.12408  24402065.460    99922352.90845
  23650855.480   124286063.69408  23650853.020    96846262.55547
 15 02 21 00 49  0.0000000  0  7G16G18G21G22G27G29G31
  21247547.840   111656632.55909  21247544.340    87005158.23548
  22046852.580   115857029.78909  22046849.160    90278212.85547
  21625827.740   113644493.48209  21625823.660    88554137.83048
  23085378.360   121314535.47609  23085374.100    94530794.28747
  22505261.200   118265971.86409  22505260.360    92155312.23548
  24415956.660   128306694.24208  24415954.800    99979227.45246
  23668806.380   124380396.39208  23668804.000    96919768.46746
 15 02 21 00 49 30.0000000  0  7G16G18G21G22G27G29G31
  21236294.920   111597497.73709  21236291.420    86959079.15648
  22038367.120   115812438.45809  22038363.720    90243466.38947
  21635372.140   113694648.79609  21635367.960    88593219.89948
  23068032.040   121223379.22909  23068027.660    94459763.47247
  22493653.880   118204974.66509  22493652.960    92107781.95848
  24429851.280   128379711.35708  24429849.580   100036123.94246
  23686768.200   124474786.01208  23686765.760    96993318.74346
 15 02 21 00 50  0.0000000  0  7G16G18G21G22G27G29G31
  21225110.380   111538722.28809  21225106.860    86913280.10648
  22029957.320   115768244.56709  22029953.860    90209029.60247
  21644963.400   113745050.47009  21644959.140    88632493.92248
  23050710.500   121132353.56209  23050706.080    94388834.40947
  22482064.060   118144069.42409  22482063.120    92060323.36348
  24443752.120   128452760.43908  24443750.540   100093045.26146
  23704740.980   124569233.06709  23704738.480    97066913.77546
 15 02 21 00 50 30.0000000  0  7G16G18G21G22G27G29G31
  21213994.540   111480308.02909  21213991.020    86867762.51548
  22021623.420   115724449.53709  22021619.880    90174903.63247
  21654601.000   113795696.12109  21654596.740    88671958.06448
  23033414.180   121041460.67909  23033409.720    94318008.82547
  22470491.580   118083255.77509  22470490.620    92012936.14447
  24457659.100   128525841.05108  24457657.680   100149991.17445
  23722724.160   124663734.46708  23722721.600    97140551.15646
 15 02 21 00 51  0.0000000  0  7G16G18G21G22G27G29G31
  21202948.360   111422259.87409  21202944.800    86822530.17948
  22013366.220   115681058.03909  22013362.780    90141092.07547
  21664285.100   113846586.54109  21664280.920    88711612.93748
  23016144.200   120950706.04609  23016139.580    94247290.94847
  22458937.060   118022536.59709  22458936.100    91965622.48447
  24471572.540   128598955.76708  24471570.920   100206963.68245
  23740717.620   124758289.92809  23740715.020    97214230.65046
 15 02 21 00 51 30.0000000  0  7G16G18G21G22G27G29G31
  21191971.640   111364576.82209  21191968.060    86777582.35148
  22005185.500   115638068.72809  22005182.260    90107593.93147
  21674014.920   113897717.36909  21674010.860    88751455.14248
  22998900.560   120860089.54909  22998895.740    94176680.71547
  22447399.960   117961909.11909  22447399.020    91918380.30148
  24485491.760   128672102.02008  24485490.140   100263960.76446
  23758720.340   124852893.71708  23758717.640    97287947.82546
 15 02 21 00 52  0.0000000  0  7G16G18G21G22G27G29G31
  21181065.360   111307263.99109  21181061.820    86732923.00748
  21997082.180   115595486.04809  21997079.080    90074412.64247
  21683790.640   113949089.56809  21683786.640    88791485.42948
  22981684.260   120769616.68309  22981679.320    94106182.41047
  22435880.900   117901376.22809  22435879.980    91871211.85848
  24499417.460   128745282.71307  24499415.840   100320984.66345
  23776732.060   124947545.27508  23776729.460    97361702.20447
 15 02 21 00 52 30.0000000  0  7G16G18G21G22G27G29G31
  21170229.920   111250323.41409  21170226.420    86688553.72048
  21989056.640   115553311.87109  21989053.620    90041549.64547
  21693611.880   114000700.83809  21693607.860    88831701.99348
  22964495.760   120679289.94109  22964490.620    94035797.94647
  22424379.880   117840938.11009  22424378.960    91824117.23747
  24513349.520   128818497.73308  24513348.180   100378035.29545
  23794752.300   125042241.99408  23794749.840    97435491.75746
 15 02 21 00 53  0.0000000  0  7G16G18G21G22G27G29G31
  21159465.140   111193754.19809  21159461.700    86644473.81948
  21981108.580   115511544.60809  21981105.580    90009003.73447
  21703477.700   114052546.16609  21703473.720    88872100.95048
  22947334.780   120589108.55509  22947329.600    93965526.78847
  22412896.260   117780591.46609  22412895.380    91777093.86248
  24527287.580   128891743.77308  24527286.260   100435110.11545
  23812779.880   125136977.60808  23812777.560    97509311.61146
 15 02 21 00 53 30.0000000  0  7G16G18G21G22G27G29G31
  21148771.560   111137559.20309  21148768.160    86600685.51248
  21973238.540   115470187.04809  21973235.480    89976777.08447
  21713387.920   114104624.86809  21713383.900    88912681.75948
  22930202.120   120499076.51309  22930197.040    93895371.98347
  22401430.240   117720337.35609  22401429.440    91730142.64048
  24541231.920   128965021.97907  24541230.940   100492210.05346
  23830814.440   125231749.89008  23830812.280    97583160.06746
 15 02 21 00 54  0.0000000  0  7G16G18G21G22G27G29G31
  21138149.860   111081742.11609  21138146.520    86557191.68648
  21965447.060   115429242.15509  21965443.880    89944871.98947
  21723342.460   114156936.29009  21723338.420    88953443.90548
  22913098.560   120409197.42409  22913093.520    93825336.36647
  22389982.140   117660177.43709  22389981.380    91683264.81348
  24555182.700   129038333.49208  24555181.860   100549335.87245
  23848855.600   125326557.20908  23848853.540    97657035.77346
 15 02 21 00 54 30.0000000  0  6G16G18G21G22G27G31
  21127606.000   111026333.86009  21127602.660    86514016.42148
  21957739.880   115388740.63809  21957736.700    89913312.37847
  21733346.520   114209507.89109  21733342.480    88994408.78148
  22896030.200   120319503.20909  22896025.180    93755444.79547
  22378557.460   117600140.67709  22378556.760    91636482.93148
  23866908.480   125421425.75708  23866906.420    97730959.23146
 15 02 21 00 55  0.0000000  0  6G16G18G21G22G27G31
  21117128.980   110971276.72409  21117125.580    86471114.75348
  21950105.900   115348624.19909  21950102.800    89882052.81147
  21743388.400   114262277.98709  21743384.260    89035528.32748
  22878986.160   120229936.83209  22878981.160    93685652.83247
  22367144.820   117540167.35909  22367144.300    91589750.51648
  23884961.120   125516293.01608  23884959.000    97804881.67246
 15 02 21 00 55 30.0000000  0  7G16G18G19G21G22G27G31
  21106725.020   110916603.48509  21106721.600    86428512.23348
  21942551.440   115308925.25409  21942548.280    89851118.58947
  24534150.940   128927854.10707  24534151.580   100463243.41246
  21753473.540   114315275.71609  21753469.420    89076825.25848
  22861972.840   120140531.50509  22861967.860    93615986.38147
  22355750.180   117480288.46309  22355749.840    91543091.65948
  23903018.800   125611186.43908  23903016.620    97878824.48046
 15 02 21 00 56  0.0000000  0  7G16G18G19G21G22G27G31
  21096397.820   110862333.62509  21096394.400    86386224.03748
  21935080.100   115269662.92109  21935076.840    89820524.58047
  24519342.000   128850029.01308  24519342.060   100402600.62745
  21763604.840   114368516.04109  21763600.700    89118311.22448
  22844993.960   120051307.24009  22844989.040    93546461.00647
  22344376.800   117420521.26309  22344376.540    91496519.86248
  23921084.200   125706120.22608  23921081.960    97952798.78246
 15 02 21 00 56 30.0000000  0  7G16G18G19G21G22G27G31
  21086137.360   110808414.41809  21086133.940    86344209.07648
  21927681.660   115230783.67509  21927678.340    89790229.06747
  24504536.420   128772220.35107  24504533.940   100341970.40545
  21773771.440   114421942.07109  21773767.320    89159941.89548
  22828039.560   119962211.56909  22828034.800    93477035.84347
  22333014.260   117360811.00909  22333014.080    91449992.37748
  23939146.340   125801036.70508  23939143.960    98026759.57046
 15 02 21 00 57  0.0000000  0  7G16G18G19G21G22G27G31
  21075955.460   110754907.89409  21075951.980    86302515.67948
  21920367.840   115192349.16809  21920364.560    89760280.10747
  24489744.340   128694487.78808  24489741.940   100281399.67446
  21783984.480   114475612.12709  21783980.420    89201762.70948
  22811121.580   119873307.01609  22811116.960    93407759.59247
  22321674.000   117301217.96409  22321673.880    91403556.22948
  23957216.060   125895993.14708  23957213.660    98100751.48246
 15 02 21 00 57 30.0000000  0  7G16G18G19G21G22G27G31
  21065847.200   110701788.14509  21065843.600    86261123.68148
  21913133.720   115154333.25609  21913130.440    89730657.33747
  24474962.000   128616804.07808  24474959.640   100220866.97546
  21794238.220   114529496.44609  21794234.280    89243750.49248
  22794235.300   119784568.76809  22794230.700    93338612.94147
  22310350.780   117241714.38209  22310350.640    91357189.83948
  23975287.480   125990958.58208  23975285.100    98174750.40446
 15 02 21 00 58  0.0000000  0  7G16G18G19G21G22G27G31
  21055815.580   110649071.05109  21055811.840    86220045.42648
  21905982.060   115116750.93209  21905978.800    89701372.41547
  24460190.940   128539182.11707  24460187.840   100160382.36545
  21804534.940   114583606.62909  21804531.160    89285914.26348
  22777383.760   119696012.99709  22777379.040    93269608.46447
  22299047.240   117182313.98108  22299047.060    91310903.81248
  23993362.620   126085943.52708  23993360.160    98248764.53446
 15 02 21 00 58 30.0000000  0  7G16G18G19G21G22G27G31
  21045857.920   110596742.56109  21045854.040    86179269.99048
  21898910.160   115079587.86009  21898906.840    89672414.19147
  24445429.000   128461606.28508  24445425.580   100099933.67546
  21814871.420   114637925.51409  21814867.760    89328240.66048
  22760564.300   119607625.94409  22760559.460    93200735.48047
  22287760.300   117123000.86909  22287760.120    91264685.82948
  24011437.920   126180929.31008  24011435.500    98322779.32546
 15 02 21 00 59  0.0000000  0  7G16G18G19G21G22G27G31
  21035977.980   110544822.53209  21035973.960    86138812.81848
  21891921.700   115042863.27109  21891918.320    89643797.62847
  24430678.880   128384093.78407  24430675.820   100039534.46545
  21825250.660   114692468.87509  21825247.060    89370741.97448
  22743780.820   119519428.26909  22743775.880    93132010.04847
  22276493.420   117063792.98909  22276493.200    91218549.81948
  24029516.260   126275930.71908  24029513.780    98396806.27446
 15 02 21 00 59 30.0000000  0  7G16G18G19G21G22G27G31
  21026172.820   110493295.89009  21026168.760    86098662.19048
  21885013.680   115006561.20209  21885010.200    89615510.31047
  24415937.960   128306627.80808  24415933.800    99979171.27545
  21835669.080   114747217.83409  21835665.540    89413403.48948
  22727030.800   119431405.89609  22727025.640    93063421.20347
  22265243.380   117004673.48009  22265243.160    91172482.70048
  24047593.840   126370927.70009  24047591.280    98470829.78346
 15 02 21 01 00  0.0000000  0  7G16G18G19G21G22G27G31
  21016444.300   110442172.25909  21016440.260    86058825.59448
  21878187.880   114970691.36509  21878184.380    89587559.79847
  24401207.340   128229215.98307  24401203.140    99918850.39046
  21846127.620   114802177.87209  21846124.100    89456229.49048
  22710315.980   119343568.65409  22710310.680    92994976.62347
  22254011.680   116945650.12209  22254011.440    91126490.47948
  24065671.440   126465924.81008  24065668.760    98544853.41646
 15 02 21 01 00 30.0000000  0  7G16G18G19G21G22G27G31
  21006794.320   110391461.65009  21006790.360    86019310.84348
  21871446.040   114935262.78009  21871442.480    89559953.12747
  24386488.100   128151865.83708  24386484.380    99858577.66445
  21856627.440   114857354.78809  21856623.980    89499224.48048
  22693638.400   119255927.03509  22693633.020    92926684.47947
  22242799.740   116886730.83809  22242799.440    91080579.37548
  24083749.880   126560927.09408  24083747.320    98618881.04446
 15 02 21 01 01  0.0000000  0  7G16G18G19G21G22G27G31
  20997221.600   110341157.09809  20997217.720    85980112.48648
  21864786.700   114900267.75409  21864783.160    89532684.28047
  24371779.100   128074568.76308  24371774.540    99798346.11845
  21867166.500   114912738.14009  21867163.040    89542380.34148
  22676996.760   119168474.57409  22676991.380    92858539.73147
  22231605.960   116827906.95309  22231605.600    91034742.59848
  24101826.880   126655922.54608  24101824.540    98692903.32946
 15 02 21 01 01 30.0000000  0  7G16G18G19G21G22G27G31
  20987727.860   110291267.90409  20987724.100    85941237.79148
  21858211.620   114865715.53909  21858208.060    89505760.49647
  24357081.020   127997331.22908  24357077.120    99738161.14846
  21877745.940   114968333.33609  21877742.440    89585701.26048
  22660393.020   119081221.71009  22660387.680    92790550.52147
  22220431.760   116769186.11008  22220431.360    90988986.09948
  24119903.380   126750915.79908  24119901.400    98766923.89446
 15 02 21 01 02  0.0000000  0  7G16G18G19G21G22G27G31
  20978310.740   110241781.36109  20978307.140    85902676.85548
  21851718.080   114831591.89509  21851714.500    89479170.65047
  24342392.000   127920139.27808  24342387.740    99678011.56145
  21888362.740   115024124.20809  21888359.040    89629174.66748
  22643824.820   118994156.03309  22643819.560    92722707.15247
  22209274.320   116710553.52409  22209273.900    90943298.39548
  24137976.160   126845889.01508  24137974.260    98840928.88946
 15 02 21 01 02 30.0000000  0  7G16G18G19G21G22G27G31
  20968973.940   110192716.91609  20968970.480    85864444.82048
  21845309.860   114797916.78409  21845306.300    89452930.33147
  24327714.540   127843009.86908  24327710.240    99617910.78046
  21899019.700   115080126.20909  21899015.720    89672812.59648
  22627296.140   118907297.57709  22627290.900    92655025.26647
  22198137.100   116652027.03009  22198136.620    90897693.36548
  24156048.040   126940857.09908  24156046.340    98914929.83546
 15 02 21 01 03  0.0000000  0  7G16G18G19G21G22G27G31
  20959715.700   110144065.07209  20959712.380    85826534.29048
  21838985.040   114764679.92309  21838981.500    89427031.48647
  24313046.960   127765931.52008  24313043.020    99557849.77046
  21909714.280   115136326.16309  21909710.160    89716604.75148
  22610805.260   118820637.55209  22610800.040    92587497.99047
  22187017.920   116593595.23709  22187017.380    90852162.10048
  24174116.240   127035805.46608  24174114.460    98988915.42546
 15 02 21 01 03 30.0000000  0  7G16G18G19G21G22G27G31
  20950537.280   110095832.52209  20950534.100    85788950.48748
  21832744.700   114731886.98309  21832741.260    89401478.55347
  24298389.980   127688908.94108  24298386.220    99497832.22145
  21920446.980   115192726.47209  21920442.820    89760553.04448
  22594353.460   118734183.05109  22594348.320    92520130.88147
  22175917.640   116535262.99609  22175917.100    90806708.41948
  24192181.100   127130736.09508  24192179.160    99062887.22246
 15 02 21 01 04  0.0000000  0  7G16G18G19G21G22G27G31
  20941438.760   110048019.59309  20941435.660    85751693.66148
  21826588.820   114699537.70909  21826585.440    89376271.33247
  24283743.440   127611940.80908  24283739.360    99437857.07645
  21931217.080   115249323.82409  21931212.900    89804654.87347
  22577941.060   118647935.66209  22577935.980    92452925.15247
  22164836.080   116477029.16309  22164835.560    90761331.42748
  24210241.720   127225644.54708  24210239.720    99136841.71745
 15 02 21 01 04 30.0000000  0  7G16G18G19G21G22G27G31
  20932421.540   110000633.45609  20932418.400    85714769.40148
  21820518.600   114667638.52009  21820515.240    89351414.83447
  24269107.920   127535031.46008  24269104.460    99377927.79746
  21942025.280   115306121.96109  21942021.160    89848913.15148
  22561569.420   118561902.51009  22561564.460    92385886.35247
  22153774.220   116418898.74109  22153773.680    90716035.00048
  24228298.480   127320532.63408  24228296.160    99210780.34745
 15 02 21 01 05  0.0000000  0  7G16G18G19G21G22G27G31
  20923484.460   109953668.55209  20923481.300    85678173.38048
  21814532.900   114636183.69509  21814529.640    89326904.59047
  24254482.520   127458173.95708  24254478.320    99318038.79945
  21952869.860   115363111.18808  21952865.860    89893320.34348
  22545237.700   118476079.06709  22545232.780    92319010.96347
  22142730.740   116360864.83809  22142730.180    90670813.79648
  24246349.480   127415390.40108  24246347.100    99284695.34746
 15 02 21 01 05 30.0000000  0  7G16G18G19G21G22G27G31
  20914629.360   109907134.41209  20914626.140    85641913.01148
  21808633.340   114605181.89009  21808630.200    89302747.34347
  24239868.060   127381375.37108  24239864.300    99258195.83346
  21963751.880   115420297.34109  21963748.020    89937880.96147
  22528947.760   118390475.07609  22528942.920    92252306.56847
  22131707.000   116302934.91709  22131706.480    90625673.59348
  24264395.520   127510221.94608  24264393.040    99358589.90846
 15 02 21 01 06  0.0000000  0  7G16G18G19G21G22G27G31
  20905855.560   109861027.30609  20905852.260    85605985.39448
  21802819.040   114574628.09409  21802816.100    89278939.20547
  24225263.840   127304630.13208  24225260.300    99198394.43246
  21974669.940   115477672.94808  21974666.220    89982589.23348
  22512698.960   118305087.64909  22512694.220    92185770.92047
  22120702.040   116245103.49609  22120701.580    90580610.16548
  24282434.980   127605019.18608  24282432.380    99432457.73445
 15 02 21 01 06 30.0000000  0  7G16G18G19G21G22G27G31
  20897163.560   109815350.03109  20897160.160    85570392.71448
  21797090.620   114544525.16509  21797087.760    89255482.38347
  24210670.080   127227939.18508  24210665.980    99138635.24845
  21985623.940   115535237.26908  21985620.420    90027444.53348
  22496492.060   118219920.64809  22496487.480    92119407.05747
  22109716.100   116187371.99909  22109715.640    90535624.60048
  24300467.500   127699780.39008  24300465.140    99506297.43646
 15 02 21 01 07  0.0000000  0  7G16G18G19G21G22G27G31
  20888553.980   109770105.94109  20888550.520    85535137.58148
  21791448.540   114514875.44809  21791445.580    89232378.72448
  24196086.900   127151303.92008  24196083.060    99078919.53746
  21996613.800   115592989.65908  21996610.460    90072446.39048
  22480327.860   118134977.81009  22480323.320    92053217.85847
  22098749.520   116129742.12709  22098749.000    90490718.22248
  24318492.900   127794504.17808  24318490.720    99580108.01645
 15 02 21 01 07 30.0000000  0  7G16G18G19G21G22G27G31
  20880026.820   109725295.43909  20880023.340    85500220.31348
  21785892.760   114485679.38809  21785889.680    89209628.54947
  24181514.180   127074723.09208  24181509.960    99019246.17145
  22007638.920   115650927.19008  22007635.640    90117592.51548
  22464206.640   118050260.32509  22464202.040    91987204.25747
  22087802.020   116072212.57909  22087801.440    90445889.99948
  24336510.320   127889185.63408  24336508.060    99653885.60645
 15 02 21 01 08  0.0000000  0  7G16G18G19G21G22G27G31
  20871583.380   109680924.89409  20871579.880    85465645.85848
  21780424.180   114456941.45409  21780421.120    89187235.36047
  24166952.380   126998200.46408  24166948.220    98959618.19246
  22018699.800   115709052.45108  22018696.560    90162884.91547
  22448129.660   117965774.95709  22448125.000    91921371.51947
  22076874.440   116014787.62709  22076873.780    90401143.31048
  24354520.000   127983826.53708  24354517.880    99727631.57246
 15 02 21 01 08 30.0000000  0  7G16G18G19G21G22G27G31
  20863222.860   109636990.16209  20863219.400    85431411.00848
  21775042.020   114428657.61509  21775038.920    89165196.01147
  24152400.720   126921730.36208  24152396.620    98900031.15146
  22029794.900   115767357.59008  22029791.580    90208317.49748
  22432096.280   117881518.39809  22432091.520    91855717.07048
  22065965.800   115957462.04509  22065965.040    90356474.02748
  24372520.380   128078418.46008  24372518.500    99801339.37446
 15 02 21 01 09  0.0000000  0  7G16G18G19G21G22G27G31
  20854947.020   109593500.10109  20854943.500    85397522.64948
  21769747.720   114400835.87609  21769744.580    89143516.75447
  24137860.200   126845319.89708  24137855.960    98840490.54146
  22040925.180   115825847.32008  22040921.780    90253893.91147
  22416108.240   117797500.08409  22416103.400    91790248.28548
  22055077.420   115900242.97509  22055076.580    90311887.75748
  24390512.160   128172965.30808  24390510.520    99875012.02146
 15 02 21 01 09 30.0000000  0  7G16G18G19G21G22G27G31
  20846755.560   109550453.27009  20846751.900    85363979.65648
  21764540.740   114373473.53109  21764537.620    89122195.45347
  24123330.400   126768965.45608  24123326.400    98780993.61946
  22052089.800   115884517.17709  22052086.300    90299610.68347
  22400165.480   117713719.62409  22400160.460    91724964.83847
  22044208.680   115843127.17709  22044207.760    90267381.95748
  24408494.220   128267460.73108  24408492.600    99948644.60946
 15 02 21 01 10  0.0000000  0  7G16G18G19G21G22G27G31
  20838649.400   109507854.53909  20838645.560    85330785.84148
  21759422.000   114346575.33509  21759419.040    89101235.83647
  24108811.560   126692669.92408  24108807.420    98721542.61746
  22063288.940   115943368.32709  22063285.380    90345468.71447
  22384269.020   117630182.53509  22384263.780    91659871.02147
  22033360.180   115786118.08309  22033359.320    90222959.28048
  24426466.620   128361905.18208  24426465.000   100022237.48146
 15 02 21 01 10 30.0000000  0  7G16G18G19G21G22G27G31
  20830627.320   109465697.96709  20830623.420    85297936.56048
  21754390.260   114320134.26709  21754387.460    89080632.41947
  24094302.580   126616425.67608  24094298.640    98662131.55146
  22074520.600   116002390.49908  22074516.940    90391460.01747
  22368417.880   117546883.52009  22368412.500    91594962.71847
  22022530.540   115729208.16109  22022529.760    90178613.89948
  24444427.260   128456287.98708  24444425.740   100095782.29046
 15 02 21 01 11  0.0000000  0  7G16G18G19G21G22G27G31
  20822690.880   109423991.73009  20822687.000    85265438.19048
  21749447.000   114294158.07509  21749444.380    89060391.24947
  24079804.620   126540238.96508  24079801.020    98602765.33446
  22085785.700   116061588.72308  22085782.080    90437588.48747
  22352613.620   117463831.33409  22352608.260    91530246.75047
  22011721.040   115672404.03409  22011720.280    90134350.97148
  24462376.880   128550612.66808  24462375.440   100169281.82346
 15 02 21 01 11 30.0000000  0  7G16G18G19G21G22G27G31
  20814840.460   109382737.52309  20814836.640    85233292.05448
  21744592.440   114268647.56609  21744589.880    89040512.94247
  24065317.580   126464109.65808  24065314.120    98543443.85546
  22097083.980   116120961.50408  22097080.320    90483852.99847
  22336856.740   117381028.49409  22336851.420    91465725.08348
  22000931.720   115615705.88709  22000931.020    90090170.61848
  24480314.820   128644876.29308  24480313.540   100242733.72446
 15 02 21 01 12  0.0000000  0  7G16G18G19G21G22G27G31
  20807075.280   109341931.56809  20807071.560    85201495.20548
  21739825.760   114243598.34109  21739823.080    89020994.07447
  24050840.680   126388032.26008  24050837.020    98484162.78246
  22108414.040   116180501.72108  22108410.500    90530247.95547
  22321146.680   117298472.08709  22321141.420    91401395.44347
  21990161.640   115559108.64809  21990160.920    90046068.87548
  24498239.680   128739070.70408  24498238.440   100316131.73746
 15 02 21 01 12 30.0000000  0  7G16G18G19G21G22G27G31
  20799397.500   109301584.78509  20799393.840    85170056.15548
  21735148.720   114219020.00409  21735145.940    89001842.13148
  24036375.220   126312015.50208  24036371.580    98424929.00346
  22119777.060   116240215.29808  22119773.680    90576778.00947
  22305485.620   117216173.00509  22305480.340    91337266.30148
  21979412.400   115502621.16909  21979411.720    90002052.67148
  24516152.360   128833201.50108  24516150.980   100389480.15846
 15 02 21 01 13  0.0000000  0  7G16G18G19G21G22G27G31
  20791806.180   109261692.43209  20791802.580    85138971.20048
  21730560.260   114194907.16909  21730557.460    88983052.91547
  24021920.100   126236052.75308  24021916.260    98365737.26046
  22131171.620   116300095.08508  22131168.380    90623437.57547
  22289872.920   117134127.91809  22289867.600    91273335.08148
  21968682.880   115446237.60409  21968682.240    89958117.43948
  24534051.120   128927259.74408  24534049.900   100462771.99445
 15 02 21 01 13 30.0000000  0  7G16G18G19G21G22G27G31
  20784302.720   109222261.98009  20784299.200    85108246.17948
  21726061.720   114171267.15009  21726058.900    88964632.13547
  24007476.340   126160150.19008  24007472.460    98306592.45146
  22142598.580   116360144.57708  22142595.400    90670229.39247
  22274310.220   117052345.22209  22274304.840    91209608.32747
  21957974.240   115389963.95709  21957973.700    89914267.86448
  24551936.800   129021248.87508  24551935.660   100536010.02145
 15 02 21 01 14  0.0000000  0  7G16G18G19G21G22G27G31
  20776886.520   109183290.25909  20776883.160    85077878.60248
  21721652.320   114148095.49909  21721649.440    88946576.31848
  23993043.020   126084303.10208  23993039.280    98247490.87546
  22154056.780   116420357.75909  22154053.500    90717148.74847
  22258796.960   116970822.66109  22258791.540    91146084.26647
  21947285.680   115333795.59509  21947285.140    89870500.32148
  24569807.760   129115160.91008  24569806.740   100609187.95345
 15 02 21 01 14 30.0000000  0  7G16G18G19G21G22G27G31
  20769557.780   109144778.16409  20769554.540    85047869.17748
  21717332.120   114125392.47209  21717329.160    88928885.64948
  23978620.260   126008510.41108  23978616.220    98188431.63746
  22165545.580   116480731.76908  22165542.220    90764193.42747
  22243333.380   116889561.54909  22243328.080    91082763.94648
  21936617.180   115277732.17009  21936616.580    89826814.55248
  24587663.460   129208992.39508  24587662.460   100682303.11245
 15 02 21 01 15  0.0000000  0  7G16G18G19G21G22G27G31
  20762317.840   109106732.29309  20762314.640    85018223.04448
  21713102.220   114103163.52709  21713099.120    88911564.40448
  23964208.640   125932776.39808  23964204.500    98129418.17046
  22177065.440   116541268.80008  22177062.060    90811365.13947
  22227920.760   116808568.53109  22227915.640    91019652.52348
  21925969.580   115221778.35509  21925968.880    89783214.18548
  24605504.040   129302744.63008  24605503.200   100755356.48645
 15 02 21 01 15 30.0000000  0  7G16G18G19G21G22G27G31
  20755166.720   109069152.96409  20755163.520    84988940.45848
  21708962.500   114081408.44809  21708959.300    88894612.42048
  23949807.940   125857100.15108  23949803.840    98070449.72746
  22188615.820   116601966.64808  22188612.440    90858662.16247
  22212559.620   116727845.57609  22212554.620    90956751.55248
  21915342.700   115165933.60809  21915341.920    89739698.80848
  24623328.880   129396414.05508  24623328.300   100828345.34545
 15 02 21 01 16  0.0000000  0  7G16G18G19G21G22G27G31
  20748104.760   109032041.97209  20748101.500    84960022.80048
  21704913.100   114060128.44409  21704909.920    88878030.60048
  23935418.440   125781482.23208  23935414.220    98011526.67646
  22200196.600   116662824.17108  22200193.160    90906083.59847
  22197250.540   116647395.93809  22197245.560    90894063.53148
  21904736.640   115110198.54109  21904735.800    89696268.89048
  24641137.620   129489998.62508  24641137.060   100901268.10845
 15 02 21 01 16 30.0000000  0  7G16G18G19G21G22G27G31
  20741132.740   108995403.43109  20741129.380    84931473.29248
  21700954.540   114039326.13709  21700951.420    88861821.01648
  23921040.100   125705923.92908  23921035.660    97952650.12146
  22211807.660   116723840.55808  22211804.120    90953628.82947
  22181994.160   116567223.22309  22181989.180    90831591.31448
  21894151.840   115054575.11809  21894150.940    89652925.97748
  24658930.020   129583496.92008  24658929.600   100974123.56245
 15 02 21 01 17  0.0000000  0  7G16G18G19G21G22G27G31
  20734249.740   108959232.75409  20734246.260    84903288.34448
  21697085.920   114018996.49109  21697082.820    88845979.73948
  23906672.100   125630419.45108  23906667.780    97893815.48546
  22223447.620   116785008.76408  22223444.080    91001292.35347
  22166789.820   116487324.01109  22166784.840    90769332.20448
  21883587.260   114999057.79709  21883586.340    89609665.73548
  24676704.520   129676900.27008  24676703.700   101046905.16845
 15 02 21 01 17 30.0000000  0  7G16G18G19G21G22G27G31
  20727457.680   108923540.01209  20727454.060    84875475.82648
  21693308.920   113999148.67109  21693305.920    88830513.92248
  23892315.840   125554977.25508  23892311.420    97835029.38946
  22235117.720   116846335.19408  22235114.120    91049079.17547
  22151639.580   116407709.02009  22151634.560    90707294.56348
  21873044.600   114943655.47709  21873043.680    89566495.11048
  24694461.900   129770214.49508  24694461.000   101119617.18045
 15 02 21 01 18  0.0000000  0  6G16G18G19G21G22G27
  20720754.180   108888312.65009  20720750.520    84848025.93848
  21689621.020   113979769.35109  21689618.100    88815413.17148
  23877968.560   125479583.21408  23877964.500    97776280.85746
  22246814.920   116907803.94808  22246811.160    91096976.91047
  22136541.220   116328366.71609  22136536.220    90645469.41248
  21862521.200   114888354.38109  21862520.240    89523403.36248
 15 02 21 01 18 30.0000000  0  6G16G18G19G21G22G27
  20714142.860   108853569.77709  20714139.220    84820953.57348
  21686025.780   113960876.70809  21686022.900    88800691.63748
  23863634.040   125404254.99008  23863629.820    97717583.55847
  22258542.180   116969430.86008  22258538.400    91144997.85847
  22121498.620   116249317.43809  22121493.620    90583872.58448
  21852020.400   114833172.21609  21852019.420    89480404.29648
 15 02 21 01 19  0.0000000  0  6G16G18G19G21G22G27
  20707622.580   108819305.17409  20707618.880    84794253.87748
  21682521.940   113942463.64109  21682519.000    88786343.80847
  23849310.420   125328984.15308  23849306.080    97658930.99346
  22270297.680   117031205.99109  22270293.860    91193134.31547
  22106510.580   116170554.81909  22106505.540    90522499.13548
  21841540.780   114778101.33809  21841539.780    89437491.92048
 15 02 21 01 19 30.0000000  0  6G16G18G19G21G22G27
  20701194.240   108785523.76509  20701190.520    84767930.68948
  21679110.180   113924534.20709  21679107.100    88772372.82048
  23834998.360   125253774.23208  23834993.940    97600325.89747
  22282081.800   117093131.60208  22282077.880    91241388.02647
  22091578.400   116092085.58109  22091573.280    90461354.28748
  21831083.080   114723145.54909  21831082.080    89394669.22948
 15 02 21 01 20  0.0000000  0  6G16G18G19G21G22G27
  20694857.140   108752222.03209  20694853.380    84741981.28948
  21675789.580   113907084.04709  21675786.480    88758775.30348
  23820697.100   125178620.48808  23820692.660    97541764.57246
  22293893.220   117155200.27909  22293889.280    91289753.22747
  22076701.440   116013906.55009  22076696.260    90400435.57948
  21820646.420   114668300.22009  21820645.400    89351932.62848
 15 02 21 01 20 30.0000000  0  6G16G18G19G21G22G27
  20688613.200   108719409.89309  20688609.420    84716413.39048
  21672561.840   113890122.14509  21672558.680    88745558.24947
  23806407.880   125103531.04408  23806403.620    97483253.38346
  22305733.120   117217419.02409  22305729.260    91338235.35147
  22061881.680   115936028.78709  22061876.580    90339751.63548
  21810232.400   114613574.05509  21810231.380    89309288.87348
 15 02 21 01 21  0.0000000  0  6G16G18G19G21G22G27
  20682460.760   108687078.45309  20682456.980    84691220.05448
  21669425.100   113873638.77309  21669421.820    88732714.06348
  23792129.040   125028495.50207  23792124.740    97424784.15246
  22317599.320   117279775.64309  22317595.340    91386824.91047
  22047117.660   115858444.21009  22047112.700    90279296.12748
  21799839.060   114558956.86109  21799838.060    89266730.03748
 15 02 21 01 21 30.0000000  0  6G16G18G19G21G22G27
  20676401.760   108655238.19309  20676398.060    84666409.46048
  21666381.220   113857643.43009  21666377.960    88720250.17447
  23777862.180   124953522.57308  23777858.040    97366363.72246
  22329492.980   117342277.13208  22329488.900    91435527.37247
  22032411.640   115781163.92709  22032406.780    90219077.74948
  21789468.240   114504458.12309  21789467.300    89224263.49048
 15 02 21 01 22  0.0000000  0  6G16G18G19G21G22G27
  20670435.360   108623884.68109  20670431.780    84641978.14748
  21663429.340   113842131.27509  21663426.080    88708162.78647
  23763606.120   124878607.35708  23763602.000    97307988.28746
  22341412.800   117404915.99909  22341408.700    91484336.86247
  22017763.020   115704184.89309  22017758.160    90159094.09748
  21779118.960   114450072.58109  21779118.100    89181885.13948
 15 02 21 01 22 30.0000000  0  6G16G18G19G21G22G27
  20664561.960   108593020.10209  20664558.500    84617927.82848
  21660569.760   113827103.79409  21660566.400    88696453.08547
  23749361.060   124803749.66108  23749357.240    97249657.67446
  22353358.620   117467691.61209  22353354.460    91533252.91447
  22003172.340   115627510.17609  22003167.460    90099347.58248
  21768791.440   114395801.28109  21768790.600    89139595.83548
 15 02 21 01 23  0.0000000  0  6G16G18G19G21G22G27
  20658782.700   108562650.03609  20658779.300    84594262.83949
  21657803.000   113812564.26509  21657799.620    88685123.59248
  23735127.680   124728953.06708  23735123.700    97191374.63946
  22365330.840   117530605.78708  22365326.640    91582276.94447
  21988640.560   115551145.29909  21988635.740    90039842.50848
  21758486.340   114341647.82509  21758485.520    89097398.34548
 15 02 21 01 23 30.0000000  0  6G16G18G19G21G22G27
  20653098.100   108532777.39509  20653094.720    84570985.44948
  21655129.580   113798515.43409  21655126.140    88674176.46847
  23720906.280   124654219.60008  23720902.480    97133140.82546
  22377329.360   117593658.52509  22377325.260    91631408.93347
  21974168.600   115475094.52309  21974163.780    89980582.17348
  21748204.160   114287614.68909  21748203.360    89055294.61148
 15 02 21 01 24  0.0000000  0  6G16G18G19G21G22G27
  20647507.240   108503397.55309  20647503.920    84548092.07248
  21652548.460   113784951.84909  21652545.060    88663607.44647
  23706695.960   124579543.63308  23706692.020    97074951.76046
  22389352.520   117656841.08308  22389348.580    91680642.07947
  21959755.740   115399354.23009  21959750.900    89921563.78948
  21737943.840   114233696.28809  21737943.060    89013280.28348
 15 02 21 01 24 30.0000000  0  6G16G18G19G21G22G27
  20642011.380   108474517.28909  20642008.140    84525587.97648
  21650060.740   113771879.25209  21650057.520    88653420.99948
  23692497.380   124504930.16208  23692493.740    97016811.46647
  22401401.500   117720158.84009  22401397.540    91729980.58947
  21945403.320   115323931.82209  21945398.480    89862793.09248
  21727706.440   114179898.29909  21727705.700    88971359.78848
 15 02 21 01 25  0.0000000  0  6G16G18G19G21G22G27
  20636609.940   108446132.88309  20636606.720    84503470.25348
  21647665.580   113759293.06409  21647662.540    88643613.59048
  23678309.900   124430373.88608  23678306.000    96958715.67647
  22413474.660   117783603.95209  22413470.820    91779418.33147
  21931110.920   115248824.95609  21931106.060    89804268.27848
  21717491.020   114126215.87009  21717490.340    88929529.32648
 15 02 21 01 25 30.0000000  0  6G16G18G19G21G22G27
  20631304.520   108418252.64109  20631301.240    84481745.39148
  21645364.520   113747200.70109  21645361.500    88634190.98648
  23664134.580   124355881.85908  23664130.600    96900669.98146
  22425573.140   117847181.94409  22425569.420    91828959.61447
  21916880.320   115174042.86109  21916875.420    89745996.53648
  21707299.000   114072656.40909  21707298.340    88887794.69648
 15 02 21 01 26  0.0000000  0  6G16G18G19G21G22G27
  20626094.300   108390872.83509  20626091.020    84460410.46948
  21643156.600   113735597.61209  21643153.560    88625149.63448
  23649970.420   124281449.20308  23649966.600    96842670.55647
  22437695.620   117910885.90109  22437691.960    91878599.04347
  21902710.960   115099582.40309  21902706.040    89687975.40448
  21697129.500   114019215.36809  21697128.840    88846152.33448
 15 02 21 01 26 30.0000000  0  6G16G18G19G21G22G27
  20620980.240   108363998.34709  20620976.960    84439469.30348
  21641042.460   113724487.27409  21641039.340    88616492.21848
  23635818.280   124207079.59708  23635814.380    96784720.25646
  22449842.380   117974717.41609  22449838.740    91928337.86247
  21888603.960   115025449.76509  21888599.060    89630209.72448
  21686983.240   113965896.63009  21686982.620    88804605.27248
 15 02 21 01 27  0.0000000  0  6G16G18G19G21G22G27
  20615961.960   108337626.72609  20615958.540    84418919.99348
  21639021.360   113713866.42409  21639018.240    88608216.24848
  23621677.540   124132768.96808  23621673.660    96726815.87847
  22462012.340   118038671.03809  22462008.660    91978171.85547
  21874559.060   114951643.30409  21874554.140    89572698.22548
  21676859.580   113912696.85609  21676859.040    88763150.92948
 15 02 21 01 27 30.0000000  0  6G16G18G19G21G22G27
  20611041.480   108311769.19809  20611037.940    84398771.26148
  21637095.380   113703745.69409  21637092.280    88600329.97048
  23607549.660   124058526.79108  23607545.620    96668964.87846
  22474207.220   118102755.51209  22474203.560    92028107.79847
  21860578.480   114878174.55309  21860573.480    89515449.85548
  21666760.540   113859626.20009  21666760.080    88721797.16948
 15 02 21 01 28  0.0000000  0  6G16G18G19G21G22G27
  20606216.300   108286412.38609  20606212.680    84379012.70248
  21635261.860   113694110.45709  21635258.700    88592822.01248
  23593432.280   123984339.06408  23593428.180    96611156.30547
  22486423.840   118166954.40208  22486420.200    92078132.89947
  21846660.000   114805031.96309  21846654.820    89458455.63048
  21656683.420   113806670.62109  21656682.960    88680533.09448
 15 02 21 01 28 30.0000000  0  6G16G18G19G21G22G27
  20601488.680   108261568.52509  20601485.100    84359653.84948
  21633522.780   113684971.75609  21633519.580    88585700.95548
  23579327.320   123910216.61508  23579323.000    96553398.58046
  22498663.960   118231276.70109  22498660.220    92128254.15747
  21832806.100   114732228.54409  21832800.720    89401725.70948
  21646630.340   113753841.33509  21646629.860    88639367.43048
 15 02 21 01 29  0.0000000  0  6G16G18G19G21G22G27
  20596858.160   108237235.03609  20596854.660    84340692.68348
  21631877.580   113676326.40109  21631874.500    88578964.33048
  23565234.020   123836155.76908  23565229.780    96495688.85847
  22510926.620   118295716.87509  22510922.740    92178467.28847
  21819016.420   114659762.61709  21819010.860    89345258.76548
  21636600.700   113701135.15209  21636600.220    88598297.68248
 15 02 21 01 29 30.0000000  0  6G16G18G19G21G22G27
  20592324.980   108213413.01109  20592321.500    84322130.05848
  21630326.420   113668175.12109  21630323.380    88572612.67548
  23551152.520   123762157.13908  23551148.100    96438027.59246
  22523211.580   118360273.72209  22523207.520    92228771.31447
  21805291.460   114587636.86109  21805285.760    89289056.88848
  21626594.660   113648552.88109  21626594.180    88557324.49848
 15 02 21 01 30  0.0000000  0  6G16G18G19G21G22G27
  20587889.460   108190104.27809  20587886.040    84303967.40749
  21628869.280   113660517.50409  21628866.140    88566645.70948
  23537082.820   123688220.08808  23537078.380    96380414.34047
  22535518.180   118424945.13909  22535513.980    92279164.61647
  21791631.400   114515852.79509  21791625.700    89233121.27348
  21616612.200   113596094.63409  21616611.680    88516447.94648
 15 02 21 01 30 30.0000000  0  6G16G18G19G21G22G27
  20583552.980   108167315.95909  20583549.600    84286210.27548
  21627507.380   113653360.54209  21627504.200    88561068.85648
  23523025.940   123614350.65608  23523021.440    96322853.78547
  22547847.460   118489736.12409  22547843.380    92329651.08547
  21778037.960   114444419.24009  21778032.360    89177458.77948
  21606654.580   113543766.98809  21606654.020    88475673.16348
 15 02 21 01 31  0.0000000  0  6G16G18G19G21G22G27
  20579314.920   108145044.81609  20579311.620    84268856.13848
  21626239.760   113646699.37209  21626236.560    88555878.34048
  23508981.140   123540544.85508  23508976.580    96265342.80046
  22560198.320   118554640.51009  22560194.300    92380225.90947
  21764510.700   114373333.85009  21764505.200    89122067.58048
  21596721.100   113491566.16409  21596720.520    88434997.19848
 15 02 21 01 31 30.0000000  0  6G16G18G19G21G22G27
  20575175.360   108123291.30509  20575172.080    84251905.34649
  21625066.520   113640534.09409  21625063.360    88551074.24248
  23494948.360   123466802.12008  23494943.680    96207880.93447
  22572570.260   118619655.86409  22572566.140    92430887.22247
  21751050.020   114302598.44509  21751044.660    89066949.09948
  21586811.740   113439491.96009  21586811.120    88394419.90948
 15 02 21 01 32  0.0000000  0  6G16G18G19G21G22G27
  20571135.020   108102059.22809  20571131.760    84235360.86248
  21623988.140   113634867.52609  21623985.080    88546658.73048
  23480927.980   123393125.22209  23480923.040    96150470.40146
  22584963.500   118684783.30809  22584959.380    92481635.86747
  21737656.900   114232217.75009  21737651.700    89012107.01548
  21576927.080   113387547.71109  21576926.440    88353943.87248
 15 02 21 01 32 30.0000000  0  6G16G18G19G21G22G27
  20567193.600   108081347.14609  20567190.360    84219221.57648
  21623004.100   113629696.80209  21623001.200    88542629.60548
  23466919.520   123319511.17708  23466914.920    96093108.87146
  22597377.080   118750017.85208  22597373.080    92532467.96147
  21724331.240   114162190.99209  21724326.120    88957540.73248
  21567066.620   113335730.90409  21567065.980    88313567.14648
 15 02 21 01 33  0.0000000  0  6G16G18G19G21G22G27
  20563351.480   108061156.60709  20563348.220    84203488.67948
  21622114.680   113625022.85809  21622111.860    88538987.57948
  23452923.300   123245960.89908  23452918.640    96035796.96447
  22609811.200   118815359.45209  22609807.120    92583383.48547
  21711073.540   114092520.99009  21711068.460    88903252.43248
  21557230.640   113284042.73009  21557229.980    88273290.65748
 15 02 21 01 33 30.0000000  0  6G16G18G19G21G22G27
  20559608.940   108041489.43709  20559605.700    84188163.61049
  21621319.880   113620846.16709  21621317.060    88535733.03048
  23438939.400   123172474.92208  23438934.780    95978535.16647
  22622265.380   118880806.38909  22622261.260    92634381.07447
  21697884.220   114023210.42709  21697879.180    88849244.20148
  21547419.360   113232484.24509  21547418.680    88233115.20848
 15 02 21 01 34  0.0000000  0  6G16G18G19G21G22G27
  20555967.420   108022352.81509  20555964.080    84173251.96148
  21620620.860   113617173.22509  21620618.080    88532870.99048
  23424968.820   123099059.72408  23424964.420    95921328.56847
  22634740.500   118946363.58409  22634736.380    92685464.58847
  21684764.880   113954267.80209  21684759.900    88795522.69948
  21537634.060   113181062.33309  21537633.380    88193046.19648
 15 02 21 01 34 30.0000000  0  6G16G18G19G21G22G27
  20552425.440   108003739.31709  20552422.000    84158747.93848
  21620016.100   113613995.44709  21620013.340    88530394.81248
  23411010.160   123025706.85708  23411006.040    95864170.53047
  22647234.780   119012021.13809  22647230.660    92736626.31447
  21671714.280   113885686.57009  21671709.320    88742082.79348
  21527873.180   113129768.80109  21527872.540    88153077.20048
 15 02 21 01 35  0.0000000  0  6G16G18G19G21G22G27
  20548983.360   107985651.10609  20548979.860    84144653.23148
  21619505.960   113611314.06609  21619503.000    88528305.43148
  23397063.660   122952417.14508  23397059.340    95807061.66847
  22659747.960   119077777.67009  22659743.720    92787865.16047
  21658733.060   113817470.08209  21658728.100    88688927.10848
  21518137.080   113078605.26309  21518136.480    88113209.52448
 15 02 21 01 35 30.0000000  0  6G16G18G19G21G22G27
  20545642.620   107968095.42509  20545639.080    84130973.47348
  21619091.460   113609134.90209  21619088.240    88526607.40048
  23383130.440   122879197.34109  23383126.140    95750007.29747
  22672280.940   119143638.94508  22672276.640    92839185.64347
  21645822.880   113749626.85909  21645817.880    88636062.27848
  21508427.040   113027578.70409  21508426.480    88073448.56748
 15 02 21 01 36  0.0000000  0  6G16G18G19G21G22G27
  20542402.460   107951068.46709  20542398.960    84117705.70348
  21618771.740   113607454.10009  21618768.380    88525297.68048
  23369209.620   122806042.78009  23369205.640    95693003.77447
  22684832.400   119209598.41709  22684828.300    92890582.59247
  21632983.260   113682154.28809  21632978.220    88583486.26048
  21498742.260   112976684.91209  21498741.720    88033791.08348
 15 02 21 01 36 30.0000000  0  6G16G18G19G21G22G27
  20539263.460   107934572.94709  20539260.000    84104852.05148
  21618547.040   113606272.84409  21618543.560    88524377.24248
  23355301.480   122732954.86709  23355297.160    95636052.16847
  22697402.600   119275655.34709  22697398.560    92942055.51747
  21620214.760   113615055.40909  21620209.740    88531201.43648
  21489083.120   112925925.77609  21489082.560    87994238.51548
 15 02 21 01 37  0.0000000  0  6G16G18G19G21G22G27
  20536225.960   107918610.92409  20536222.580    84092414.10748
  21618417.540   113605592.11209  21618413.980    88523846.79548
  23341406.220   122659934.98508  23341402.180    95579153.62047
  22709991.420   119341809.96208  22709987.480    92993604.55947
  21607518.040   113548333.71909  21607513.080    88479210.52548
  21479449.980   112875303.12309  21479449.360    87954792.30148
 15 02 21 01 37 30.0000000  0  6G16G18G19G21G22G27
  20533289.980   107903182.37909  20533286.680    84080391.85848
  21618383.040   113605410.68809  21618379.440    88523705.43948
  23327523.780   122586982.40209  23327519.680    95522307.47847
  22722598.080   119408058.66208  22722594.360    93045226.90947
  21594893.400   113481990.69109  21594888.480    88427514.67348
  21469842.760   112824816.62309  21469842.040    87915452.17748
 15 02 21 01 38  0.0000000  0  6G16G18G19G21G22G27
  20530456.020   107888289.90009  20530452.760    84068787.32548
  21618443.900   113605730.52709  21618440.260    88523954.66547
  23313654.520   122514099.16708  23313650.360    95465515.36347
  22735222.900   119474402.95709  22735219.280    93096923.73347
  21582341.360   113416029.41509  21582336.480    88376116.30148
  21460261.880   112774468.20709  21460261.000    87876219.65348
 15 02 21 01 38 30.0000000  0  6G16G18G19G21G22G27
  20527723.920   107873932.65209  20527720.680    84057599.85349
  21618599.760   113606549.61409  21618596.040    88524592.93147
  23299797.980   122441282.75208  23299793.820    95408775.34747
  22747865.440   119540839.39608  22747861.680    93148692.39947
  21569862.040   113350450.42109  21569857.140    88325015.79548
  21450707.080   112724256.96109  21450706.040    87837094.01748
 15 02 21 01 39  0.0000000  0  6G16G18G19G21G22G27
  20525094.800   107860116.28609  20525091.500    84046833.85349
  21618851.300   113607872.40609  21618847.740    88525623.68847
  23285955.080   122368538.34708  23285950.980    95352091.43847
  22760525.900   119607370.84308  22760522.240    93200535.05547
  21557456.780   113285260.52409  21557451.820    88274218.49148
  21441179.380   112674188.28309  21441178.220    87798079.46748
 15 02 21 01 39 30.0000000  0  6G16G18G19G21G22G27
  20522567.220   107846833.62109  20522563.860    84036483.70749
  21619197.200   113609690.83509  21619193.820    88527040.65047
  23272124.540   122295858.15808  23272120.480    95295457.49247
  22773202.440   119673986.88608  22773198.940    93252443.63147
  21545124.460   113220453.60009  21545119.360    88223719.59948
  21431677.300   112624254.41109  21431676.120    87759169.95848
 15 02 21 01 40  0.0000000  0  6G16G18G19G21G22G27
  20520142.880   107834093.48209  20520139.480    84026556.31749
  21619638.980   113612012.95409  21619635.800    88528850.09547
  23258307.900   122223250.68109  23258303.380    95238880.24546
  22785896.580   119740695.03208  22785893.120    93304423.99047
  21532866.920   113156039.69809  21532861.700    88173526.96548
  21422202.540   112574464.19309  21422201.400    87720372.39048
 15 02 21 01 40 30.0000000  0  6G16G18G19G21G22G27
  20517820.880   107821891.38909  20517817.540    84017048.19349
  21620175.700   113614833.37109  21620172.600    88531047.81948
  23244504.020   122150710.84708  23244499.360    95182355.74447
  22798606.960   119807488.40608  22798603.520    93356470.76547
  21520683.580   113092015.63309  21520678.320    88123638.07948
  21412754.220   112524812.99609  21412753.120    87681683.14648
 15 02 21 01 41  0.0000000  0  6G16G18G19G21G22G27
  20515601.960   107810230.82309  20515598.660    84007962.03349
  21620807.640   113618153.96709  21620804.480    88533635.31148
  23230713.420   122078241.11209  23230708.820    95125885.82546
  22811333.720   119874367.51908  22811330.120    93408584.34347
  21508575.360   113028386.26109  21508570.100    88074056.76248
  21403332.900   112475303.96209  21403331.880    87643104.68848
 15 02 21 01 41 30.0000000  0  6G16G18G19G21G22G27
  20513486.740   107799114.97509  20513483.420    83999300.33049
  21621535.240   113621977.47609  21621532.080    88536614.67248
  23216936.600   122005843.83409  23216931.880    95069472.40047
  22824076.940   119941333.57308  22824073.320    93460765.67247
  21496542.960   112965155.30109  21496537.660    88024785.90748
  21393939.160   112425939.98509  21393938.220    87604639.26848
 15 02 21 01 42  0.0000000  0  6G16G18G19G21G22G27
  20511474.600   107788540.61909  20511471.180    83991060.56649
  21622357.700   113626299.20909  21622354.500    88539982.25748
  23203172.960   121933515.24908  23203168.200    95013112.47647
  22836835.660   120008381.22008  22836832.140    93513010.57347
  21484586.000   112902321.04209  21484580.580    87975824.16348
  21384572.420   112376717.72309  21384571.500    87566284.26449
 15 02 21 01 42 30.0000000  0  6G16G18G19G21G22G27
  20509566.060   107778510.99509  20509562.620    83983245.27049
  21623275.380   113631121.37909  21623272.020    88543739.79648
  23189422.960   121861258.01508  23189418.040    94956808.13447
  22849610.240   120075511.71609  22849606.720    93565320.02547
  21472705.320   112839887.78909  21472699.860    87927174.88548
  21375233.240   112327640.16409  21375232.320    87528042.01748
 15 02 21 01 43  0.0000000  0  6G16G18G19G21G22G27
  20507761.460   107769027.72709  20507758.060    83975855.70249
  21624288.560   113636445.22409  21624285.080    88547888.24747
  23175686.700   121789073.45808  23175681.740    94900560.42947
  22862400.400   120142724.06309  22862396.800    93617693.25247
  21460901.500   112777858.68809  21460896.160    87878840.53348
  21365921.980   112278709.22509  21365921.060    87489914.02148
 15 02 21 01 43 30.0000000  0  6G16G18G19G21G22G27
  20506060.800   107760090.81909  20506057.460    83968891.87249
  21625396.920   113642269.33609  21625393.260    88552426.52748
  23161964.140   121716960.87909  23161959.200    94844368.85646
  22875205.680   120210015.48909  22875201.940    93670128.14047
  21449174.780   112716234.68409  21449169.560    87830821.85348
  21356638.600   112229924.66009  21356637.700    87451900.07849
 15 02 21 01 44  0.0000000  0  6G16G18G19G21G22G27
  20504464.140   107751700.55309  20504460.840    83962354.00249
  21626600.240   113648592.94809  21626596.600    88557354.02648
  23148255.160   121644919.97608  23148250.240    94788233.12147
  22888025.840   120277385.19808  22888022.020    93722624.03247
  21437525.480   112655017.05709  21437520.260    87783119.81948
  21347383.060   112181286.52509  21347382.180    87414000.23249
 15 02 21 01 44 30.0000000  0  6G16G18G19G21G22G27
  20502971.760   107743858.02209  20502968.400    83956242.93349
  21627898.540   113655416.08609  21627895.000    88562670.76347
  23134560.080   121572951.40608  23134554.980    94732153.68947
  22900860.440   120344831.49008  22900856.840    93775179.53647
  21425953.940   112594207.95209  21425948.660    87735736.11348
  21338155.580   112132795.97909  21338154.740    87376215.40248
 15 02 21 01 45  0.0000000  0  6G16G18G19G21G22G27
  20501584.640   107736568.19809  20501581.120    83950562.54449
  21629292.620   113662742.63309  21629289.180    88568379.76348
  23120879.560   121501059.72509  23120874.760    94676134.23246
  22913710.160   120412357.46908  22913706.700    93827797.15347
  21414461.420   112533814.07109  21414456.080    87688675.95548
  21328957.160   112084458.07409  21328956.340    87338549.51649
 15 02 21 01 45 30.0000000  0  6G16G18G19G21G22G27
  20500302.080   107729827.83209  20500298.400    83945310.30749
  21630781.760   113670568.37909  21630778.360    88574477.75948
  23107212.960   121429241.43908  23107208.180    94620171.93747
  22926574.000   120479957.58808  22926570.480    93880472.55547
  21403047.520   112473833.44509  21403042.140    87641937.82848
  21319787.160   112036269.63809  21319786.340    87301000.08148
 15 02 21 01 46  0.0000000  0  6G16G18G19G21G22G27
  20499123.820   107723635.89709  20499120.100    83940485.41849
  21632365.560   113678891.55709  21632362.220    88580963.34048
  23093560.040   121357494.97809  23093555.140    94564265.60247
  22939451.260   120547628.35308  22939447.740    93933203.00146
  21391712.220   112414266.03909  21391706.840    87595521.68048
  21310645.440   111988229.70109  21310644.600    87263566.37449
 15 02 21 01 46 30.0000000  0  6G16G18G19G21G22G27
  20498050.980   107717998.07709  20498047.220    83936092.31448
  21634044.840   113687716.40909  21634041.620    88587839.86648
  23079921.800   121285825.77708  23079917.040    94508419.50447
  22952343.040   120615374.99408  22952339.500    93985992.57046
  21380456.860   112355118.83109  21380451.440    87549432.97148
  21301533.100   111940343.98109  21301532.220    87226252.83748
 15 02 21 01 47  0.0000000  0  6G16G18G19G21G22G27
  20497083.260   107712912.82609  20497079.500    83932129.77548
  21635819.260   113697040.81809  21635816.080    88595105.63548
  23066297.800   121214231.93309  23066293.040    94452632.13847
  22965248.440   120683192.77109  22965244.780    94038837.57346
  21369281.460   112296391.67109  21369275.940    87503671.55848
  21292449.880   111892611.24309  21292448.960    87189058.50649
 15 02 21 01 47 30.0000000  0  6G16G18G19G21G22G27
  20496220.140   107708377.15509  20496216.380    83928595.48449
  21637688.040   113706860.69809  21637684.740    88602757.49148
  23052687.540   121142709.91008  23052682.760    94396900.69447
  22978166.460   120751076.74708  22978162.640    94091734.17647
  21358185.620   112238082.62509  21358180.020    87458235.95248
  21283395.160   111845028.52109  21283394.260    87151981.06848
 15 02 21 01 48  0.0000000  0  6G16G18G19G21G22G27
  20495462.560   107704396.20309  20495458.860    83925493.43749
  21639651.860   113717180.08209  21639648.500    88610798.57248
  23039091.940   121071264.93909  23039087.420    94341229.32647
  22991097.680   120819030.20908  22991093.720    94144684.90147
  21347170.500   112180198.07009  21347164.880    87413131.11848
  21274369.960   111797601.18709  21274369.100    87115024.70648
 15 02 21 01 48 30.0000000  0  7G04G16G18G19G21G22G27
  24569824.060   129115313.42908  24569826.080   100609323.20545
  20494810.780   107700971.03709  20494807.140    83922824.46648
  21641710.740   113727998.96509  21641707.240    88619228.88548
  23025511.100   120999897.24209  23025506.480    94285618.16347
  23004041.880   120887052.06609  23004037.880    94197688.91346
  21336236.580   112122740.12409  21336231.060    87368358.71248
  21265374.520   111750330.19409  21265373.720    87078190.17248
 15 02 21 01 49  0.0000000  0  7G04G16G18G19G21G22G27
  24551566.540   129019365.66507  24551568.120   100534558.90844
  20494269.460   107698126.28609  20494265.880    83920607.77748
  21643869.120   113739341.16009  21643865.580    88628066.95748
  23011949.620   120928631.41509  23011945.140    94230086.37647
  23017003.540   120955165.59509  23016999.480    94250764.38746
  21325388.860   112065735.17909  21325383.480    87323939.28648
  21256413.640   111703240.73309  21256412.860    87041497.08748
 15 02 21 01 49 30.0000000  0  7G04G16G18G19G21G22G27
  24533331.840   128923537.29208  24533332.260   100459887.49045
  20493828.440   107695808.59209  20493824.880    83918801.77649
  21646116.620   113751152.24609  21646113.220    88637270.39748
  22998397.380   120857413.93709  22998393.020    94174592.26647
  23029972.040   121023315.31009  23029967.800    94303868.04746
  21314617.300   112009130.91609  21314612.100    87279832.08248
  21247477.200   111656279.60209  21247476.400    87004904.00748
 15 02 21 01 50  0.0000000  0  7G04G16G18G19G21G22G27
  24515126.160   128827865.23108  24515126.100   100385338.02444
  20493494.680   107694054.60609  20493491.120    83917435.02149
  21648460.100   113763467.85509  21648456.860    88646866.98248
  22984861.400   120786281.74008  22984856.780    94119164.57447
  23042953.980   121091536.41408  23042949.700    94357027.32646
  21303929.160   111952965.50209  21303924.160    87236066.84548
  21238572.260   111609483.98209  21238571.460    86968439.89348
 15 02 21 01 50 30.0000000  0  7G04G16G18G19G21G22G27
  24496948.100   128732339.24308  24496948.320   100310902.41145
  20493266.180   107692853.84909  20493262.640    83916499.36049
  21650897.360   113776276.26609  21650894.240    88656847.55547
  22971339.540   120715224.05409  22971335.100    94063794.99047
  23055947.140   121159816.25408  23055942.860    94410232.38846
  21293322.720   111897229.31309  21293317.860    87192636.06948
  21229696.860   111562843.42709  21229696.040    86932096.61048
 15 02 21 01 51  0.0000000  0  7G04G16G18G19G21G22G27
  24478799.000   128636965.32907  24478798.780   100236585.13245
  20493144.080   107692212.25409  20493140.560    83915999.41349
  21653429.340   113789582.32609  21653426.320    88667215.92648
  22957832.820   120644245.95409  22957828.300    94008487.42047
  23068952.260   121228158.61808  23068948.120    94463486.16846
  21282799.500   111841929.83709  21282794.640    87149545.57848
  21220852.160   111516364.09409  21220851.320    86895878.95848
 15 02 21 01 51 30.0000000  0  7G04G16G18G19G21G22G27
  24460679.260   128541746.07708  24460679.280   100162388.48945
  20493128.800   107692131.81209  20493125.240    83915936.71749
  21656056.260   113803387.45709  21656053.340    88677973.17248
  22944341.700   120573349.86809  22944337.240    93953243.75047
  23081969.360   121296564.26108  23081965.420    94516789.25046
  21272359.980   111787069.99109  21272355.140    87106797.66748
  21212038.620   111470048.59709  21212037.760    86859788.96048
 15 02 21 01 52  0.0000000  0  7G04G16G18G19G21G22G27
  24442588.320   128446678.88108  24442588.380   100088310.30545
  20493219.740   107692609.53209  20493216.140    83916308.96249
  21658777.440   113817687.90609  21658774.640    88689116.38048
  22930865.760   120502533.24909  22930861.420    93898061.97947
  23094997.580   121365028.84108  23094993.820    94570138.26046
  21262004.060   111732648.97809  21261999.160    87064391.69348
  21203255.840   111423894.62109  21203254.980    86823824.82449
 15 02 21 01 52 30.0000000  0  7G04G16G18G19G21G22G27
  24424526.900   128351766.80808  24424527.140   100014353.01044
  20493417.500   107693648.41509  20493413.880    83917118.48249
  21661593.160   113832485.25809  21661590.400    88700646.78047
  22917405.380   120431798.36709  22917401.040    93842943.91847
  23108037.260   121433553.05308  23108033.540    94623533.73346
  21251732.380   111678670.41209  21251727.400    87022330.48748
  21194504.360   111377905.10509  21194503.520    86787988.84148
 15 02 21 01 53  0.0000000  0  7G04G16G18G19G21G22G27
  24406494.520   128257007.07008  24406494.900    99940514.37045
  20493721.460   107695245.44709  20493717.860    83918362.90849
  21664502.740   113847775.41909  21664499.900    88712561.19148
  22903959.960   120361142.20309  22903955.480    93787887.18547
  23121087.520   121502132.38308  23121083.720    94676972.15146
  21241544.600   111625132.89409  21241539.560    86980612.95948
  21185783.700   111332077.61209  21185782.860    86752279.10648
 15 02 21 01 53 30.0000000  0  7G04G16G18G19G21G22G27
  24388492.000   128162404.15308  24388492.280    99866797.93645
  20494132.320   107697404.48609  20494128.800    83920045.27649
  21667506.640   113863561.09409  21667503.660    88724861.73348
  22890530.280   120290568.56409  22890525.860    93732894.75547
  23134148.640   121570768.89808  23134145.000    94730455.13446
  21231441.720   111572041.43409  21231436.640    86939243.00248
  21177094.640   111286416.42509  21177093.840    86716698.97048
 15 02 21 01 54  0.0000000  0  7G04G16G18G19G21G22G27
  24370518.640   128067954.13707  24370518.960    99793200.65245
  20494649.300   107700121.42309  20494645.820    83922162.36849
  21670603.920   113879837.50809  21670600.800    88737544.65548
  22877115.560   120220073.47209  22877111.060    93677963.53347
  23147219.640   121639456.87809  23147215.960    94783978.20846
  21221423.140   111519393.22209  21221418.060    86898218.45348
  21168436.520   111240917.99109  21168435.800    86681245.64649
 15 02 21 01 54 30.0000000  0  7G04G16G18G19G21G22G27
  24352575.280   127973661.49608  24352575.620    99719725.95944
  20495273.000   107703399.39109  20495269.520    83924716.61649
  21673795.340   113896607.61909  21673792.040    88750612.27247
  22863716.480   120149660.76509  22863711.880    93623096.51747
  23160300.920   121708198.79608  23160296.940    94837543.34146
  21211489.860   111467193.32609  21211484.740    86857543.21548
  21159810.160   111195586.56309  21159809.560    86645922.44848
 15 02 21 01 55  0.0000000  0  7G04G16G18G19G21G22G27
  24334662.280   127879527.70908  24334662.560    99646375.02645
  20496003.900   107707240.53809  20496000.420    83927709.71048
  21677080.780   113913871.51109  21677077.180    88764064.65647
  22850333.360   120079332.01608  22850328.640    93568294.90547
  23173392.300   121776994.73308  23173388.320    94891150.56146
  21201642.400   111415444.37209  21201637.280    86817219.36748
  21151216.040   111150424.17009  21151215.480    86610730.97249
 15 02 21 01 55 30.0000000  0  7G04G16G18G19G21G22G27
  24316779.980   127785556.15608  24316780.080    99573150.55545
  20496842.460   107711647.39509  20496839.000    83931143.61648
  21680460.520   113931631.24009  21680456.680    88777903.40347
  22836966.740   120009090.20909  22836961.980    93513561.07047
  23186494.080   121845845.60609  23186490.220    94944800.55146
  21191881.520   111364150.75409  21191876.460    86777250.31848
  21142654.740   111105434.26709  21142654.220    86575673.90848
 15 02 21 01 56  0.0000000  0  7G04G16G18G19G21G22G27
  24298927.760   127691743.18108  24298927.940    99500049.67144
  20497787.860   107716615.67109  20497784.440    83935014.99449
  21683933.460   113949881.54409  21683929.760    88792124.42647
  22823615.840   119938931.35709  22823610.920    93458891.86447
  23199605.320   121914745.66008  23199601.640    94998488.89346
  21182206.760   111313309.71509  21182201.720    86737633.93848
  21134125.600   111060613.36009  21134125.080    86540748.53249
 15 02 21 01 56 30.0000000  0  7G04G16G18G19G21G22G27
  24281106.020   127598089.88108  24281106.360    99427073.18045
  20498840.300   107722146.26809  20498836.920    83939324.53949
  21687499.540   113968621.98109  21687496.020    88806727.35547
  22810280.940   119868856.30008  22810276.060    93404287.90747
  23212725.840   121983693.98808  23212722.140    95052214.83846
  21172618.460   111262923.20009  21172613.340    86698371.71948
  21125628.840   111015962.61409  21125628.300    86505955.73948
 15 02 21 01 57  0.0000000  0  7G04G16G18G19G21G22G27
  24263315.400   127504599.93608  24263315.540    99354223.90145
  20500000.460   107728242.56109  20499997.000    83944074.89449
  21691159.320   113987854.89609  21691156.020    88821714.04247
  22796962.560   119798868.36608  22796957.920    93349751.89747
  23225855.960   122052692.65608  23225852.220    95105980.00746
  21163117.560   111212995.80709  21163112.320    86659467.27148
  21117165.220   110971486.07209  21117164.660    86471298.69749
 15 02 21 01 57 30.0000000  0  7G04G16G18G19G21G22G27
  24245555.720   127411272.51908  24245556.120    99281501.37545
  20501267.940   107734902.68009  20501264.360    83949264.59549
  21694912.360   114007577.94009  21694909.340    88837082.66948
  22783660.600   119728966.48909  22783656.120    93295282.92247
  23238995.080   122121738.90108  23238991.260    95159782.27246
  21153704.100   111163527.65409  21153698.780    86620920.66448
  21108734.600   110927183.03009  21108734.060    86436776.84949
 15 02 21 01 58  0.0000000  0  7G04G16G18G19G21G22G27
  24227827.020   127318108.21008  24227827.360    99208905.91045
  20502642.840   107742127.31009  20502639.120    83954894.16949
  21698758.540   114027790.40609  21698755.720    88852832.63848
  22770375.120   119659151.09609  22770370.640    93240881.34247
  23252143.020   122190831.70508  23252139.160    95213620.79446
  21144378.260   111114519.87409  21144372.940    86582732.79648
  21100337.180   110883054.38509  21100336.620    86402390.89449
 15 02 21 01 58 30.0000000  0  7G04G16G18G19G21G22G27
  24210132.060   127225120.85708  24210132.220    99136448.30245
  20504127.560   107749929.25109  20504123.800    83960973.59749
  21702700.300   114048504.50809  21702697.440    88868973.50748
  22757108.680   119589435.56709  22757104.160    93186557.56647
  23265301.960   122259982.90908  23265298.100    95267504.82446
  21135142.840   111065987.38509  21135137.560    86544915.28748
  21091975.640   110839114.10409  21091975.040    86368151.71549
 15 02 21 01 59  0.0000000  0  7G04G16G18G19G21G22G27
  24192465.140   127132279.78508  24192465.100    99064104.64945
  20505716.160   107758277.10909  20505712.380    83967478.40749
  21706731.520   114069688.13709  21706728.580    88885480.23348
  22743855.360   119519788.88509  22743850.880    93132287.43447
  23278465.780   122329159.38408  23278461.800    95321408.57146
  21125992.160   111017900.50309  21125986.940    86507444.99948
  21083644.180   110795331.74109  21083643.520    86334035.59949
 15 02 21 01 59 30.0000000  0  7G04G16G18G19G21G22G27
  24174830.340   127039607.92808  24174830.180    98991892.92145
  20507412.760   107767192.98909  20507409.040    83974425.84649
  21710856.240   114091362.70709  21710853.140    88902369.50648
  22730619.640   119450234.56809  22730615.020    93078089.27147
  23291638.640   122398383.18308  23291634.780    95375349.17746
  21116930.760   110970282.76109  21116925.600    86470340.27748
  21075347.260   110751730.74909  21075346.540    86300060.81249
 15 02 21 02 00  0.0000000  0  7G04G16G18G19G21G22G27
  24157227.080   126947102.62708  24157227.000    98919810.97045
  20509217.060   107776674.85409  20509213.380    83981814.30249
  21715073.580   114113524.22109  21715070.300    88919638.22147
  22717400.840   119380769.16309  22717396.260    93023960.42947
  23304819.680   122467649.39009  23304815.860    95429322.82346
  21107958.300   110923132.35409  21107953.220    86433599.72148
  21067084.380   110708308.37009  21067083.560    86266225.19649
 15 02 21 02 00 30.0000000  0  7G04G16G18G19G21G22G27
  24139656.180   126854767.51508  24139655.940    98847861.59845
  20511129.520   107786725.05409  20511125.840    83989645.61749
  21719383.860   114136174.42509  21719380.440    88937287.73448
  22704199.680   119311396.19909  22704195.080    92969903.55247
  23318009.080   122536959.70908  23318005.300    95483330.83246
  21099075.640   110876453.87109  21099070.620    86397226.87948
  21058856.260   110665068.65309  21058855.400    86232531.91349
 15 02 21 02 01  0.0000000  0  7G04G16G18G19G21G22G27
  24122116.780   126762597.65108  24122116.500    98776041.01545
  20513149.080   107797338.00309  20513145.420    83997915.43949
  21723785.780   114159306.75809  21723782.260    88955312.91448
  22691015.100   119242110.33008  22691010.340    92915914.56547
  23331205.480   122606307.35108  23331201.840    95537367.94646
  21090282.000   110830243.01309  21090276.980    86361218.42448
  21050661.960   110622006.84609  21050661.040    86198977.25949
 15 02 21 02 01 30.0000000  0  7G04G16G18G19G21G22G27
  24104609.940   126670598.99608  24104609.820    98704353.83345
  20515276.700   107808518.80109  20515273.100    84006627.74049
  21728280.320   114182925.75609  21728276.640    88973717.33947
  22677848.280   119172917.80909  22677843.460    92861998.35047
  23344409.760   122675696.79608  23344406.240    95591437.62746
  21081578.660   110784506.53709  21081573.600    86325579.62448
  21042502.720   110579129.47409  21042501.780    86165566.32549
 15 02 21 02 02  0.0000000  0  7G04G16G18G19G21G22G27
  24087135.140   126578768.53908  24087134.780    98632797.71445
  20517511.700   107820263.85209  20517508.120    84015779.71649
  21732866.580   114207026.88309  21732862.880    88992497.44248
  22664698.560   119103815.41208  22664693.780    92808152.32648
  23357621.140   122745123.04108  23357617.700    95645535.96246
  21072965.120   110739242.01309  21072960.000    86290308.57748
  21034378.020   110536433.72209  21034377.060    86132296.90949
 15 02 21 02 02 30.0000000  0  7G04G16G18G19G21G22G27
  24069692.980   126487109.78708  24069692.640    98561375.43545
  20519854.680   107832576.21409  20519851.140    84025373.76249
  21737544.900   114231612.06709  21737541.280    89011654.72847
  22651566.560   119034806.24909  22651561.840    92754378.99747
  23370839.840   122814587.81508  23370836.380    95699664.36846
  21064442.280   110694454.18909  21064437.100    86255408.98248
  21026288.600   110493923.52509  21026287.640    86099172.08149
 15 02 21 02 03  0.0000000  0  7G04G16G18G19G21G22G27
  24052283.300   126395621.99708  24052282.960    98490086.32945
  20522305.280   107845454.05409  20522301.740    84035408.43749
  21742314.940   114256679.15409  21742311.340    89031187.54247
  22638452.100   118965889.41208  22638447.400    92700677.57647
  23384065.360   122884088.83008  23384061.980    95753820.97946
  21056010.040   110650142.71809  21056004.880    86220880.57648
  21018234.380   110451598.32909  21018233.440    86066191.41549
 15 02 21 02 03 30.0000000  0  7G04G16G18G19G21G22G27
  24034906.520   126304306.61208  24034906.200    98418931.54946
  20524863.720   107858898.47309  20524860.100    84045884.60849
  21747176.640   114282227.85409  21747173.220    89051095.61447
  22625355.420   118897066.37309  22625350.720    92647049.27747
  23397297.560   122953625.61208  23397294.560    95808005.46146
  21047668.820   110606309.58709  21047663.700    86186724.90748
  21010215.700   110409459.88109  21010214.800    86033356.27549
 15 02 21 02 04  0.0000000  0  7G04G16G18G19G21G22G27
  24017562.880   126213165.10108  24017562.460    98347912.26745
  20527530.080   107872909.85909  20527526.400    84056802.55849
  21752129.900   114308257.65809  21752126.660    89071378.57447
  22612276.860   118828338.58608  22612272.200    92593495.12848
  23410536.600   123023197.93008  23410533.700    95862217.61746
  21039419.160   110562957.20509  21039414.000    86152943.83048
  21002232.900   110367510.05009  21002232.040    86000668.08849
 15 02 21 02 04 30.0000000  0  7G04G16G18G19G21G22G27
  24000251.760   126122194.52508  24000251.060    98277026.17545
  20530303.700   107887484.82109  20530299.940    84068159.66949
  21757173.940   114334764.32509  21757170.700    89092033.13047
  22599215.900   118759703.14809  22599211.340    92540013.03547
  23423781.680   123092801.30808  23423778.760    95916454.01146
  21031260.520   110520083.33909  21031255.340    86119535.63948
  20994285.500   110325746.39409  20994284.680    85968124.98449
 15 02 21 02 05  0.0000000  0  7G04G16G18G19G21G22G27
  23982973.860   126031398.88608  23982973.300    98206276.44045
  20533185.120   107902626.70609  20533181.360    84079958.53149
  21762309.140   114361749.93609  21762305.940    89113060.89148
  22586173.280   118691163.94109  22586168.700    92486605.88147
  23437033.200   123162438.02708  23437030.180    95970716.37146
  21023193.880   110477692.83809  21023188.620    86086504.09748
  20986374.340   110284173.27209  20986373.540    85935730.34649
 15 02 21 02 05 30.0000000  0  7G04G16G18G19G21G22G27
  23965728.820   125940776.14708  23965728.240    98135661.38145
  20536173.840   107918332.67209  20536170.120    84092196.93649
  21767534.860   114389211.31209  21767531.720    89134459.37148
  22573148.600   118622718.90609  22573144.040    92433272.10647
  23450290.360   123232104.15908  23450287.100    96025001.64846
  21015218.960   110435784.27209  21015213.660    86053848.07548
  20978499.140   110242789.10609  20978498.320    85903482.94949
 15 02 21 02 06  0.0000000  0  7G04G16G18G19G21G22G27
  23948517.800   125850331.87308  23948516.920    98065185.37146
  20539270.600   107934606.70809  20539266.980    84104878.00049
  21772851.780   114417151.97509  21772848.720    89156231.31148
  22560142.860   118554373.26009  22560138.300    92380015.77548
  23463553.820   123301803.65908  23463550.540    96079312.93546
  21007336.920   110394363.77209  21007331.600    86021572.37248
  20970661.020   110201599.62809  20970660.160    85871387.26149
 15 02 21 02 06 30.0000000  0  7G04G16G18G19G21G22G27
  23931340.460   125760064.69408  23931339.700    97994847.41645
  20542475.180   107951447.61209  20542471.760    84118000.77949
  21778259.420   114445569.21009  21778256.400    89178374.63348
  22547155.840   118486125.74709  22547151.200    92326835.91748
  23476823.120   123371534.03608  23476819.880    96133648.26746
  20999547.720   110353430.99309  20999542.400    85989676.71848
  20962859.860   110160604.31309  20962858.980    85839442.87249
 15 02 21 02 07  0.0000000  0  7G04G16G18G19G21G22G27
  23914196.660   125669974.06308  23914196.060    97924647.00745
  20545787.300   107968853.45109  20545784.020    84131563.76449
  21783757.180   114474460.19209  21783754.160    89200887.08848
  22534187.300   118417975.52009  22534182.620    92273731.86848
  23490097.820   123441292.46708  23490094.500    96188005.47546
  20991851.240   110312985.42009  20991845.880    85958160.68748
  20955095.560   110119802.53409  20955094.660    85807649.28849
 15 02 21 02 07 30.0000000  0  7G04G16G18G19G21G22G27
  23897086.660   125580060.93208  23897086.080    97854584.91645
  20549207.040   107986824.32209  20549203.760    84145567.02949
  21789345.060   114503824.59409  21789342.000    89223768.43547
  22521237.500   118349924.00309  22521232.760    92220704.74348
  23503377.720   123511078.26908  23503374.200    96242384.02246
  20984247.800   110273028.60809  20984242.320    85927025.51748
  20947368.380   110079195.95809  20947367.420    85776007.81249
 15 02 21 02 08  0.0000000  0  7G04G16G18G19G21G22G27
  23880010.680   125490326.78708  23880010.360    97784662.30045
  20552734.500   108005361.07809  20552731.180    84160011.25349
  21795022.960   114533661.86609  21795019.700    89247018.27347
  22508306.720   118281972.57709  22508302.000    92167755.60447
  23516662.800   123580891.58808  23516659.140    96296783.98346
  20976737.780   110233563.22409  20976732.320    85896273.29048
  20939678.700   110038786.53209  20939677.720    85744519.96449
 15 02 21 02 08 30.0000000  0  7G04G16G18G19G21G22G27
  23862968.520   125400769.82408  23862968.000    97714877.70945
  20556369.000   108024460.28709  20556365.600    84174893.74949
  21800790.160   114563968.57509  21800786.780    89270633.87447
  22495394.580   118214119.16709  22495390.000    92114882.85347
  23529952.640   123650729.08608  23529948.820    96351202.80246
  20969320.920   110194587.96609  20969315.600    85865902.96948
  20932026.220   109998572.76209  20932025.260    85713184.56149
 15 02 21 02 09  0.0000000  0  7G04G16G18G19G21G22G27
  23845961.000   125311394.74508  23845960.620    97645234.88045
  20560111.420   108044126.68909  20560108.000    84190218.20549
  21806647.300   114594747.67809  21806643.720    89294617.60947
  22482502.080   118146368.89308  22482497.500    92062090.43548
  23543247.640   123720593.98908  23543243.800    96405642.96446
  20961998.360   110156107.92109  20961993.140    85835918.52548
  20924412.020   109958560.11609  20924411.060    85682005.87149
 15 02 21 02 09 30.0000000  0  7G04G16G18G19G21G22G27
  23828988.080   125222201.59308  23828987.760    97575733.78445
  20563961.500   108064359.07809  20563958.120    84205983.69649
  21812594.000   114625998.05509  21812590.400    89318968.54047
  22469629.240   118078721.76809  22469624.540    92009378.39948
  23556547.320   123790484.46308  23556543.640    96460103.04746
  20954770.260   110118123.85709  20954765.020    85806320.57248
  20916836.180   109918748.93909  20916835.220    85650984.18249
 15 02 21 02 10  0.0000000  0  7G04G16G18G19G21G22G27
  23812049.580   125133189.12508  23812048.820    97506373.47145
  20567918.840   108085155.17109  20567915.460    84222188.42848
  21818629.780   114657716.12409  21818626.200    89343683.93147
  22456775.760   118011176.58409  22456771.200    91956745.81647
  23569851.260   123860397.64208  23569847.820    96514580.82146
  20947636.420   110080634.97809  20947631.040    85777108.46848
  20909298.500   109879138.45509  20909297.580    85620118.86749
 15 02 21 02 10 30.0000000  0  7G04G16G18G19G21G22G27
  23795145.580   125044357.93908  23795144.640    97437154.44945
  20571983.360   108106514.36309  20571979.920    84238831.94949
  21824754.240   114689900.69409  21824750.760    89368762.82147
  22443941.840   117943733.76909  22443937.300    91904193.01048
  23583159.500   123930332.89908  23583156.120    96569075.80746
  20940596.960   110043642.25109  20940591.520    85748282.97248
  20901799.300   109839729.84009  20901798.360    85589410.86249
 15 02 21 02 11  0.0000000  0  7G04G16G18G19G21G22G27
  23778276.780   124955711.96808  23778275.920    97368079.76245
  20576155.720   108128440.12109  20576152.260    84255916.94549
  21830967.840   114722554.08909  21830964.480    89394207.00747
  22431128.260   117876397.81009  22431123.660    91851723.42548
  23596472.460   124000292.55308  23596469.060    96623589.81746
  20933652.780   110007150.33309  20933647.340    85719847.71648
  20894339.400   109800527.59409  20894338.440    85558863.65749
 15 02 21 02 11 30.0000000  0  7G04G16G18G19G21G22G27
  23761442.440   124867246.94008  23761441.580    97299146.03245
  20580434.800   108150926.90309  20580431.320    84273439.10849
  21837269.560   114755670.05709  21837266.300    89420011.66647
  22418334.160   117809164.23509  22418329.580    91799333.62448
  23609788.980   124070270.63408  23609785.460    96678118.17946
  20926803.180   109971155.55509  20926797.780    85691799.84348
  20886918.080   109761527.80309  20886917.040    85528474.20949
 15 02 21 02 12  0.0000000  0  7G04G16G18G19G21G22G27
  23744643.440   124778967.92808  23744642.500    97230357.25745
  20584821.380   108173978.75809  20584817.920    84291401.57949
  21843659.940   114789251.85609  21843656.740    89446179.29948
  22405560.420   117742038.00409  22405555.800    91747027.50148
  23623109.740   124140271.00408  23623105.980    96732663.88346
  20920049.220   109935663.15309  20920043.740    85664143.43948
  20879536.340   109722736.19709  20879535.240    85498246.98749
 15 02 21 02 12 30.0000000  0  7G04G16G18G19G21G22G27
  23727879.620   124690874.06908  23727878.640    97161712.75946
  20589315.160   108197593.86209  20589311.720    84309802.95348
  21850138.600   114823296.82709  21850135.300    89472707.85147
  22392806.960   117675018.49509  22392802.340    91694804.53148
  23636434.160   124210290.70208  23636430.300    96787224.66845
  20913390.840   109900673.04409  20913385.300    85636878.43748
  20872194.100   109684152.37709  20872192.980    85468181.67649
 15 02 21 02 13  0.0000000  0  7G04G16G18G19G21G22G27
  23711150.720   124602963.91808  23711149.680    97093211.43245
  20593915.540   108221769.17709  20593912.100    84328640.85748
  21856704.780   114857802.14609  21856701.420    89499595.10547
  22380073.640   117608104.83009  22380069.080    91642664.03048
  23649761.780   124280327.48108  23649757.820    96841798.78246
  20906827.880   109866184.69809  20906822.340    85610004.40948
  20864891.160   109645775.61709  20864890.140    85438277.71749
 15 02 21 02 13 30.0000000  0  7G04G16G18G19G21G22G27
  23694457.620   124515241.49308  23694456.740    97024856.35945
  20598623.220   108246508.19709  20598619.840    84347918.00349
  21863358.900   114892769.58109  21863355.480    89526842.46047
  22367361.200   117541300.85709  22367356.760    91590608.97948
  23663093.020   124350383.71208  23663089.100    96896388.04146
  20900361.200   109832202.03109  20900355.640    85583524.41948
  20857628.460   109607610.38309  20857627.560    85408538.57449
 15 02 21 02 14  0.0000000  0  7G04G16G18G19G21G22G27
  23677800.000   124427705.37408  23677799.360    96956646.47745
  20603437.680   108271808.36609  20603434.360    84367632.41049
  21870100.400   114928195.96409  21870096.860    89554447.44047
  22354669.420   117474605.22109  22354665.040    91538638.39948
  23676427.320   124420456.77808  23676423.740    96950990.40346
  20893990.580   109798724.21009  20893984.960    85557437.81448
  20850405.880   109569655.94509  20850405.100    85378963.69749
 15 02 21 02 14 30.0000000  0  7G04G16G18G19G21G22G27
  23661178.320   124340357.89308  23661177.640    96888583.55845
  20608359.180   108297671.08109  20608355.920    84387785.16349
  21876929.300   114964082.03909  21876925.740    89582410.61147
  22341998.840   117408020.96309  22341994.500    91486754.55747
  23689764.880   124490547.15308  23689761.520    97005606.23546
  20887716.520   109765753.82609  20887710.940    85531746.61748
  20843224.000   109531915.22109  20843223.280    85349555.34149
 15 02 21 02 15  0.0000000  0  7G04G16G18G19G21G22G27
  23644591.800   124253195.32308  23644591.200    96820664.72745
  20613386.780   108324091.52609  20613383.580    84408372.51448
  21883844.680   115000421.99609  21883841.060    89610727.47047
  22329348.660   117341544.01309  22329344.300    91434954.33948
  23703104.840   124560649.61608  23703101.720    97060231.51646
  20881538.480   109733287.87009  20881532.940    85506448.48848
  20836082.220   109494385.01109  20836081.520    85320311.03649
 15 02 21 02 15 30.0000000  0  7G04G16G18G19G21G22G27
  23628041.800   124166224.59908  23628041.020    96752895.37545
  20618521.500   108351074.89809  20618518.260    84429398.49848
  21890847.240   115037220.70309  21890843.640    89639401.78247
  22316720.300   117275181.40709  22316715.820    91383243.22948
  23716448.260   124630769.85608  23716445.080    97114870.64346
  20875457.760   109701333.29709  20875452.240    85481548.81748
  20828981.960   109457072.82709  20828981.260    85291236.60549
 15 02 21 02 16  0.0000000  0  7G04G16G18G19G21G22G27
  23611527.800   124079443.06408  23611526.720    96685273.42745
  20623762.700   108378617.54509  20623759.340    84450860.29748
  21897936.140   115074473.70209  21897932.620    89668430.08947
  22304113.280   117208930.68109  22304108.680    91331619.31448
  23729794.260   124700903.59308  23729791.060    97169520.29746
  20869473.900   109669887.73209  20869468.420    85457045.79248
  20821922.760   109419976.51509  20821922.060    85262330.40449
 15 02 21 02 16 30.0000000  0  7G04G16G18G19G21G22G27
  23595049.940   123992851.56208  23595048.820    96617799.58845
  20629110.360   108406719.17309  20629106.840    84472757.65948
  21905111.380   115112180.30209  21905107.960    89697811.86647
  22291527.880   117142793.49509  22291523.200    91280083.85448
  23743142.900   124771051.34808  23743139.740    97224180.85946
  20863587.240   109638953.27509  20863581.820    85432941.02248
  20814904.960   109383097.94209  20814904.280    85233593.86049
 15 02 21 02 17  0.0000000  0  7G04G16G18G19G21G22G27
  23578608.400   123906450.85208  23578607.460    96550474.42145
  20634564.360   108435379.33809  20634560.620    84495090.24948
  21912372.540   115150338.94609  21912369.320    89727545.86447
  22278964.160   117076770.33009  22278959.340    91228637.23148
  23756493.860   124841211.64208  23756490.720    97278851.19946
  20857797.900   109608530.71109  20857792.540    85409235.14048
  20807928.840   109346438.34709  20807928.180    85205027.93849
 15 02 21 02 17 30.0000000  0  7G04G16G18G19G21G22G27
  23562203.280   123820241.52508  23562202.320    96483298.38545
  20640124.520   108464597.62909  20640120.680    84517857.75148
  21919719.560   115188948.15909  21919716.460    89757630.98447
  22266422.260   117010862.10609  22266417.400    91177280.22048
  23769847.040   124911383.75508  23769844.140    97333530.75345
  20852106.060   109578620.57809  20852100.760    85385928.56248
  20800994.600   109309998.85409  20800993.960    85176633.54449
 15 02 21 02 18  0.0000000  0  7G04G16G18G19G21G22G27
  23545834.580   123734223.74908  23545833.340    96416271.58345
  20645790.620   108494373.14409  20645786.820    84541059.43648
  21927152.240   115228007.03309  21927149.180    89788066.46347
  22253902.360   116945069.53509  22253897.440    91126013.31048
  23783202.260   124981566.61108  23783199.680    97388218.64246
  20846511.960   109549223.52409  20846506.640    85363021.77448
  20794102.460   109273780.46109  20794101.840    85148411.41949
 15 02 21 02 18 30.0000000  0  7G04G16G18G19G21G22G27
  23529501.840   123648395.14908  23529500.840    96349392.25145
  20651562.000   108524701.97709  20651558.260    84564692.28948
  21934669.620   115267510.76609  21934666.560    89818848.59347
  22241404.000   116879390.20509  22241399.020    91074834.61948
  23796559.100   125051756.53808  23796556.340    97442912.08946
  20841015.120   109520337.26109  20841009.740    85340513.00648
  20787252.040   109237781.30809  20787251.420    85120360.13849
 15 02 21 02 19  0.0000000  0  7G04G16G18G19G21G22G27
  23513206.080   123562761.12508  23513205.060    96282664.49345
  20657439.440   108555588.08809  20657435.780    84588759.38248
  21942272.280   115307462.70409  21942269.120    89849979.98247
  22228928.300   116813830.06909  22228923.300    91023748.81848
  23809918.060   125121957.27208  23809915.220    97497613.92346
  20835616.540   109491967.64209  20835611.160    85318406.82648
  20780444.480   109202007.54909  20780443.860    85092484.48749
 15 02 21 02 19 30.0000000  0  7G04G16G18G19G21G22G27
  23496947.580   123477322.64308  23496946.440    96216089.10445
  20663422.820   108587031.14609  20663419.280    84613260.45048
  21949959.880   115347861.21709  21949956.580    89881459.33047
  22216475.500   116748390.25009  22216470.540    90972756.76148
  23823279.220   125192168.88608  23823276.080    97552324.27646
  20830316.580   109464116.44809  20830311.200    85296704.59948
  20773680.160   109166460.82609  20773679.520    85064785.74849
 15 02 21 02 20  0.0000000  0  7G04G16G18G19G21G22G27
  23480725.520   123392075.36808  23480724.460    96149662.70545
  20669511.080   108619025.66709  20669507.700    84638191.23848
  21957731.520   115388701.42209  21957728.160    89913282.88347
  22204044.800   116683066.76509  22204039.900    90921855.36648
  23836641.180   125262385.39108  23836637.720    97607038.39445
  20825114.440   109436779.18809  20825109.060    85275402.85948
  20766958.360   109131137.52609  20766957.700    85037261.10749
 15 02 21 02 20 30.0000000  0  7G04G16G18G19G21G22G27
  23464540.680   123307023.37608  23464539.620    96083388.48345
  20675704.880   108651574.86609  20675701.620    84663554.24148
  21965587.540   115429984.94909  21965584.060    89945451.85147
  22191637.100   116617864.00509  22191632.220    90871048.03048
  23850004.640   125332610.03008  23850001.020    97661758.86846
  20820010.920   109409960.15209  20820005.540    85254504.91448
  20760280.060   109096042.38109  20760279.320    85009914.23749
 15 02 21 02 21  0.0000000  0  7G04G16G18G19G21G22G27
  23448393.360   123222168.37408  23448392.220    96017267.73945
  20682004.260   108684678.62009  20682001.000    84689349.35848
  21973527.800   115471710.84509  21973524.220    89977965.53047
  22179252.760   116552783.92809  22179247.900    90820336.28348
  23863369.620   125402843.08008  23863366.060    97716485.90545
  20815006.360   109383661.33509  20815001.020    85234012.34448
  20753645.660   109061177.86409  20753644.860    84982747.09149
 15 02 21 02 21 30.0000000  0  7G04G16G18G19G21G22G27
  23432283.580   123137510.84008  23432282.500    95951300.88345
  20688409.140   108718336.22109  20688405.780    84715576.05848
  21981552.040   115513878.22409  21981548.460    90010823.23047
  22166891.920   116487827.41709  22166887.120    90769720.84348
  23876735.900   125473084.04608  23876732.440    97771219.07146
  20810100.980   109357883.50209  20810095.680    85213925.73548
  20747055.400   109026545.29109  20747054.500    84955760.67149
 15 02 21 02 22  0.0000000  0  7G04G16G18G19G21G22G27
  23416211.060   123053049.48708  23416210.140    95885486.91446
  20694918.860   108752544.31809  20694915.360    84742231.70649
  21989659.620   115556483.90809  21989656.060    90044022.46247
  22154554.360   116422993.51409  22154549.640    90719200.93148
  23890103.080   125543329.73408  23890099.820    97825955.95646
  20805294.560   109332625.57609  20805289.240    85194244.24749
  20740509.120   108992143.94009  20740508.160    84928954.42349
 15 02 21 02 22 30.0000000  0  7G04G16G18G19G21G22G27
  23400175.840   122968784.27108  23400175.120    95819825.75345
  20701533.280   108787302.35809  20701529.580    84769315.88048
  21997850.160   115599525.71209  21997846.560    90077561.53447
  22142240.160   116358282.54209  22142235.540    90668776.82348
  23903471.060   125613579.14108  23903467.800    97880695.74146
  20800587.100   109307887.47309  20800581.760    85174967.80148
  20734006.980   108957974.64009  20734005.960    84902329.00349
 15 02 21 02 23  0.0000000  0  7G04G16G18G19G21G22G27
  23384178.260   122884716.74908  23384177.480    95754318.64745
  20708252.360   108822610.71509  20708248.560    84796828.88048
  22006123.680   115643003.74509  22006120.220    90111440.50847
  22129949.780   116293696.78209  22129945.260    90618450.26548
  23916839.860   125683832.98208  23916836.640    97935438.97546
  20795978.960   109283671.28109  20795973.600    85156098.04748
  20727549.380   108924039.85509  20727548.360    84875886.31149
 15 02 21 02 23 30.0000000  0  7G04G16G18G19G21G22G27
  23368218.380   122800847.14808  23368217.560    95688965.75945
  20715075.740   108858467.47009  20715071.940    84824769.20448
  22014479.760   115686915.58309  22014476.280    90145657.51947
  22117683.400   116229236.70209  22117678.920    90568221.64348
  23930209.440   125754090.52308  23930206.260    97990185.08045
  20791470.160   109259977.31209  20791464.800    85137635.22448
  20721136.520   108890340.40309  20721135.540    84849627.00849
 15 02 21 02 24  0.0000000  0  7G04G16G18G19G21G22G27
  23352295.540   122717171.96908  23352294.540    95623764.36546
  20722002.460   108894867.62409  20721998.680    84853132.94448
  22022917.420   115731255.35209  22022913.900    90180208.01147
  22105440.360   116164899.03209  22105435.880    90518088.40848
  23943578.740   125824346.23808  23943575.320    98044929.77746
  20787060.020   109236802.05309  20787054.700    85119576.59648
  20714767.880   108856873.49409  20714766.960    84823548.89549
 15 02 21 02 24 30.0000000  0  7G04G16G18G19G21G22G27
  23336411.260   122633699.43308  23336409.900    95558720.85945
  20729033.940   108931818.66809  20729030.260    84881925.95848
  22031437.680   115776029.73109  22031434.260    90215097.12947
  22093222.300   116100692.57509  22093217.820    90468057.40948
  23956949.160   125894607.84808  23956945.880    98099679.04946
  20782750.140   109214153.99409  20782744.920    85101928.76748
  20708445.240   108823648.24809  20708444.360    84797659.10149
 15 02 21 02 25  0.0000000  0  7G04G16G18G19G21G22G27
  23320564.860   122550426.38608  23320563.440    95493832.82545
  20736169.160   108969315.20109  20736165.660    84911144.02548
  22040039.620   115821233.55909  22040036.200    90250320.88747
  22081028.640   116036614.47009  22081024.160    90418126.42248
  23970319.700   125964870.19208  23970316.220    98154428.90145
  20778539.980   109192029.79209  20778534.840    85084689.13248
  20702168.140   108790662.17509  20702167.300    84771955.67249
 15 02 21 02 25 30.0000000  0  7G04G16G18G19G21G22G27
  23304756.680   122467354.58308  23304755.380    95429101.60845
  20743408.220   109007357.45709  20743404.920    84940787.33148
  22048723.300   115866866.65809  22048719.840    90285879.14847
  22068859.880   115972667.22509  22068855.400    90368297.42148
  23983690.620   126035134.42008  23983686.900    98209180.21545
  20774430.060   109170431.80909  20774424.820    85067859.54148
  20695937.120   108757918.00709  20695936.280    84746440.73649
 15 02 21 02 26  0.0000000  0  7G04G16G18G19G21G22G27
  23288986.080   122384480.16208  23288984.820    95364524.18446
  20750750.260   109045940.70009  20750747.080    84970852.18748
  22057487.480   115912922.91909  22057483.960    90321767.14447
  22056715.360   115908847.32909  22056710.860    90318567.66248
  23997060.940   126105395.75808  23997057.000    98263929.29145
  20770419.560   109149356.03809  20770414.200    85051436.87449
  20689751.560   108725412.48109  20689750.680    84721111.76449
 15 02 21 02 26 30.0000000  0  7G04G16G18G19G21G22G27
  23273254.120   122301808.87108  23273252.880    95300105.04346
  20758196.120   109085069.17409  20758192.980    85001341.89748
  22066332.920   115959406.09609  22066329.340    90357987.80747
  22044596.220   115845160.77909  22044591.740    90268941.80048
  24010431.760   126175659.37608  24010427.880    98318680.15045
  20766509.440   109128808.09809  20766504.000    85035425.50648
  20683612.720   108693152.40409  20683611.800    84695974.03849
 15 02 21 02 27  0.0000000  0  7G04G16G18G19G21G22G27
  23257560.680   122219339.65808  23257559.460    95235843.36046
  20765745.260   109124740.03309  20765742.100    85032254.24248
  22075259.020   116006313.21809  22075255.480    90394538.79547
  22032502.400   115781607.26009  22032497.840    90219419.57948
  24023802.460   126245922.56908  24023798.480    98373430.66145
  20762699.560   109108787.27409  20762694.160    85019824.87148
  20677520.540   108661137.56709  20677519.580    84671027.42049
 15 02 21 02 27 30.0000000  0  7G04G16G18G19G21G22G27
  23241905.880   122137073.42608  23241904.800    95171739.84146
  20773397.440   109164952.28409  20773394.240    85063588.45248
  22084265.500   116053642.46309  22084261.960    90431418.72747
  22020434.140   115718188.14709  22020429.560    90170002.11148
  24037172.840   126316184.05408  24037168.940    98428179.83345
  20758990.120   109089294.21409  20758984.720    85004635.48648
  20671475.280   108629369.36609  20671474.300    84646272.97249
 15 02 21 02 28  0.0000000  0  7G04G16G18G19G21G22G27
  23226289.200   122055007.45708  23226288.280    95107792.40346
  20781151.880   109205701.93609  20781148.660    85095341.41748
  22093351.560   116101389.92109  22093348.080    90468624.53747
  22008391.060   115654901.47909  22008386.480    90120687.82448
  24050542.520   126386441.74208  24050538.440    98482926.05145
  20755380.660   109070326.87609  20755375.380    84989855.74548
  20665476.680   108597846.30009  20665475.700    84621709.54649
 15 02 21 02 28 30.0000000  0  7G04G16G18G19G21G22G27
  23210711.500   121973146.28808  23210710.680    95044004.52846
  20789009.120   109246991.75409  20789005.880    85127515.29948
  22102517.620   116149558.08309  22102514.240    90506158.16047
  21996374.080   115591751.89909  21996369.480    90071480.36948
  24063912.020   126456698.09808  24063907.720    98537671.24945
  20751872.000   109051889.19509  20751866.820    84975488.73448
  20659525.700   108566573.61109  20659524.740    84597341.21849
 15 02 21 02 29  0.0000000  0  7G04G16G18G19G21G22G27
  23195172.640   121891489.19108  23195171.760    94980375.65446
  20796968.780   109288819.89209  20796965.520    85160108.63548
  22111763.060   116198143.68109  22111759.740    90544017.07447
  21984383.180   115528739.44409  21984378.540    90022379.75548
  24077280.800   126526951.66908  24077276.940    98592414.23146
  20748463.980   109033980.12909  20748458.840    84961533.63148
  20653622.380   108535551.40509  20653621.420    84573168.06449
 15 02 21 02 29 30.0000000  0  7G04G16G18G19G21G22G27
  23179672.420   121810034.93208  23179671.460    94916904.84846
  20805030.220   109331183.02109  20805026.920    85193118.86648
  22121087.420   116247143.62109  22121084.120    90582198.86047
  21972418.260   115465863.36509  21972413.540    89973385.42448
  24090648.580   126597200.52308  24090644.840    98647153.59045
  20745156.500   109016599.24909  20745151.380    84947990.10548
  20647766.680   108504779.44609  20647765.720    84549189.92149
 15 02 21 02 30  0.0000000  0  7G04G16G18G19G21G22G27
  23164211.000   121728784.59308  23164209.980    94853592.94446
  20813193.360   109374080.77409  20813190.080    85226545.68048
  22130490.400   116296556.57009  22130487.180    90620702.45647
  21960479.660   115403125.25709  21960474.840    89924498.58948
  24104015.300   126667443.88608  24104011.720    98701888.68645
  20741949.760   108999747.30609  20741944.500    84934858.73648
  20641958.940   108474259.64809  20641958.020    84525408.26649
 15 02 21 02 30 30.0000000  0  7G04G16G18G19G21G22G27
  23148789.100   121647742.00908  23148788.000    94790442.90546
  20821458.600   109417515.29809  20821455.400    85260390.75148
  22139972.340   116346384.34909  22139969.120    90659529.27647
  21948568.140   115340529.48909  21948563.220    89875722.67248
  24117381.540   126737684.92608  24117378.420    98756621.90545
  20738844.280   108983427.50709  20738838.840    84922142.00548
  20636200.080   108443996.57709  20636199.160    84501826.64049
 15 02 21 02 31  0.0000000  0  7G04G16G18G19G21G22G27
  23133405.980   121566903.04908  23133404.660    94727451.53546
  20829824.960   109461481.13409  20829821.860    85294649.83248
  22149532.240   116396621.04009  22149528.860    90698674.75247
  21936683.040   115278072.80909  21936678.100    89827055.15448
  24130746.500   126807918.99508  24130743.460    98811349.72945
  20735839.380   108967636.24909  20735833.820    84909837.14348
  20630489.480   108413987.29209  20630488.580    84478442.78049
 15 02 21 02 31 30.0000000  0  7G04G16G18G19G21G22G27
  23118061.620   121486267.59608  23118060.380    94664618.72546
  20838292.060   109505976.03209  20838289.020    85329321.17748
  22159169.460   116447264.40509  22159165.920    90738137.11747
  21924824.440   115215755.84009  21924819.560    89778496.48548
  24144109.860   126878144.73508  24144107.360    98866071.03145
  20732935.060   108952373.40609  20732929.400    84897944.02648
  20624827.320   108384232.46709  20624826.440    84455257.19749
 15 02 21 02 32  0.0000000  0  7G04G16G18G19G21G22G27
  23102756.980   121405840.98708  23102755.760    94601948.68046
  20846860.480   109551003.09709  20846857.400    85364407.18948
  22168884.580   116498316.99609  22168880.820    90777918.35047
  21912993.520   115153584.18809  21912988.700    89730051.04248
  24157472.240   126948365.69308  24157469.800    98920788.63645
  20730132.240   108937643.74909  20730126.440    84886466.38048
  20619214.720   108354738.03909  20619213.820    84432274.52649
 15 02 21 02 32 30.0000000  0  7G04G16G18G19G21G22G27
  23087491.600   121325620.93408  23087490.280    94539439.59746
  20855529.780   109596559.69009  20855526.500    85399905.82148
  22178676.860   116549775.48309  22178673.100    90818015.86247
  21901189.940   115091556.35609  21901185.220    89681717.67448
  24170833.540   127018579.90608  24170830.700    98975500.98244
  20727430.460   108923445.31609  20727424.600    84875402.66848
  20613651.500   108325503.09909  20613650.580    84409494.05049
 15 02 21 02 33  0.0000000  0  7G04G16G18G19G21G22G27
  23072265.820   121245609.15608  23072264.480    94477092.79446
  20864299.620   109642644.53809  20864296.100    85435816.08648
  22188546.180   116601638.51909  22188542.320    90858428.61747
  21889414.180   115029674.40109  21889409.480    89633497.97548
  24184193.540   127088787.33808  24184190.140    99030208.02245
  20724829.900   108909779.32309  20724824.080    84864753.85448
  20608138.120   108296529.87409  20608137.180    84386917.51349
 15 02 21 02 33 30.0000000  0  7G04G16G18G19G21G22G27
  23057079.160   121165802.90109  23057077.900    94414906.12046
  20873169.200   109689253.99909  20873165.560    85472135.13848
  22198491.500   116653901.54109  22198487.660    90899153.06947
  21877665.820   114967936.41309  21877661.140    89585390.46048
  24197551.780   127158985.15508  24197548.260    99084907.60345
  20722330.100   108896643.06109  20722324.340    84854517.81248
  20602674.180   108267816.79409  20602673.240    84364543.68649
 15 02 21 02 34  0.0000000  0  7G04G16G18G19G21G22G27
  23041932.040   121086204.52108  23041931.000    94352881.44946
  20882138.520   109736388.30409  20882134.980    85508863.16448
  22208512.880   116706564.90809  22208509.140    90940189.45447
  21865945.580   114906345.92809  21865940.860    89537397.89948
  24210908.220   127229174.12808  24210904.600    99139600.27345
  20719931.520   108884039.04509  20719925.880    84844696.50748
  20597260.320   108239367.11109  20597259.400    84342375.10449
 15 02 21 02 34 30.0000000  0  7G04G16G18G19G21G22G27
  23026824.600   121006814.59008  23026823.540    94291019.19446
  20891207.480   109784046.56009  20891204.100    85545999.45148
  22218610.200   116759627.03709  22218606.600    90981536.55447
  21854253.560   114844903.63009  21854248.740    89489520.78848
  24224262.940   127299353.32508  24224259.660    99194285.33645
  20717634.240   108871967.25109  20717628.700    84835289.91548
  20591896.860   108211182.47009  20591896.000    84320413.04649
 15 02 21 02 35  0.0000000  0  7G04G16G18G19G21G22G27
  23011757.260   120927635.18908  23011756.040    94229320.98946
  20900376.100   109832228.74209  20900372.860    85583543.99848
  22228783.320   116813087.69009  22228779.960    91023194.19747
  21842590.320   114783612.40209  21842585.400    89441761.40448
  24237616.120   127369524.53308  24237613.260    99248964.14345
  20715438.520   108860429.19509  20715433.020    84826299.23448
  20586584.400   108183265.71909  20586583.620    84298659.73649
 15 02 21 02 35 30.0000000  0  7G04G16G18G19G21G22G27
  22996729.480   120848663.81708  22996728.260    94167784.88946
  20909643.560   109880929.89609  20909640.340    85621492.93848
  22239031.460   116866942.13709  22239028.000    91065158.70547
  21830955.480   114722470.30809  21830950.480    89394118.22048
  24250967.200   127439684.36708  24250964.440    99303634.16045
  20713343.940   108849422.43409  20713338.460    84817722.54548
  20581322.700   108155615.31709  20581321.960    84277113.96249
 15 02 21 02 36  0.0000000  0  7G04G16G18G19G21G22G27
  22981741.880   120769903.77808  22981740.780    94106413.49046
  20919010.360   109930152.56309  20919007.060    85659848.25048
  22249354.820   116921191.78109  22249351.360    91107431.16847
  21819349.840   114661481.51509  21819344.700    89346594.49148
  24264316.660   127509836.18208  24264313.840    99358297.87545
  20711351.160   108838950.45409  20711345.720    84809562.57548
  20576112.540   108128235.62909  20576111.800    84255779.14049
 15 02 21 02 36 30.0000000  0  8G04G16G18G19G21G22G27G32
  22966793.980   120691352.26008  22966792.860    94045204.53946
  20928475.500   109979891.84909  20928472.140    85698606.12548
  22259752.400   116975831.66109  22259749.000    91150007.68547
  21807772.900   114600643.83009  21807767.680    89299188.50548
  24277663.840   127579975.25108  24277661.060    99412951.66245
  20709459.480   108829009.56209  20709454.040    84801816.42749
  20570953.560   108101124.78509  20570952.800    84234653.80549
  24499068.000   128743466.68908  24499069.840   100319596.92445
 15 02 21 02 37  0.0000000  0  9G04G11G16G18G19G21G22G27G32
  22951885.480   120613007.59508  22951884.220    93984156.78346
  24646427.360   129517850.25808  24646425.300   100922991.64344
  20938038.200   110030143.83009  20938034.820    85737763.49248
  22270223.520   117030857.65009  22270220.020    91192885.07347
  21796224.500   114539956.43709  21796219.240    89251899.63348
  24291007.980   127650098.76708  24291004.980    99467593.30245
  20707668.560   108819597.94309  20707663.060    84794482.70048
  20565845.560   108074282.06409  20565844.820    84213737.39749
  24476430.880   128624511.78508  24476432.740   100226905.26645
 15 02 21 02 37 30.0000000  0  9G04G11G16G18G19G21G22G27G32
  22937018.200   120534879.46108  22937016.820    93923277.74446
  24629599.740   129429422.66707  24629597.780   100854087.09444
  20947699.980   110080916.82709  20947696.580    85777326.86048
  22280769.580   117086277.63809  22280766.000    91236069.46947
  21784706.600   114479429.76809  21784701.360    89204736.00048
  24304350.960   127720216.11708  24304347.720    99522230.19345
  20705980.240   108810725.52809  20705974.720    84787569.14248
  20560790.600   108047718.22009  20560789.900    84193038.30449
  24453801.120   128505594.50807  24453802.780   100134242.81545
 15 02 21 02 38  0.0000000  0  9G04G11G16G18G19G21G22G27G32
  22922190.580   120456959.60308  22922189.160    93862561.01346
  24612784.380   129341057.74807  24612782.140   100785231.27844
  20957458.900   110132200.40309  20957455.480    85817288.08248
  22291388.600   117142081.16209  22291385.120    91279552.72847
  21773217.800   114419056.21609  21773212.600    89157691.66548
  24317691.280   127790318.46408  24317687.920    99576855.34545
  20704392.780   108802383.54809  20704387.260    84781068.91148
  20555787.340   108021425.94809  20555786.620    84172550.82349
  24431177.480   128386709.09108  24431179.220   100041605.46145
 15 02 21 02 38 30.0000000  0  9G04G11G16G18G19G21G22G27G32
  22907403.500   120379252.74509  22907401.960    93802010.26346
  24595981.660   129252759.85207  24595979.760   100716427.82344
  20967315.480   110183997.28009  20967312.000    85857649.27548
  22302081.140   117198270.72809  22302077.700    91323336.78147
  21761759.260   114358841.63709  21761754.100    89110771.22248
  24331029.360   127860409.18108  24331025.960    99631471.46045
  20702907.060   108794576.18609  20702901.560    84774985.25448
  20550836.840   107995410.93109  20550836.120    84152279.38649
  24408561.260   128267862.12608  24408562.900    99948997.99745
 15 02 21 02 39  0.0000000  0  9G04G11G16G18G19G21G22G27G32
  22892656.420   120301756.29309  22892654.800    93741623.46046
  24579191.320   129164526.57408  24579189.420   100647674.61544
  20977268.880   110236303.03409  20977265.420    85898406.99348
  22312846.300   117254841.72909  22312842.780    91367418.09147
  21750330.560   114298784.13509  21750325.520    89063973.18148
  24344364.660   127930485.35708  24344360.780    99686076.23044
  20701522.540   108787300.51109  20701517.040    84769315.90348
  20545938.840   107969671.75709  20545938.140    84132222.88949
  24385952.460   128149053.45707  24385953.900    99856420.23944
 15 02 21 02 39 30.0000000  0  9G04G11G16G18G19G21G22G27G32
  22877949.740   120224472.36509  22877948.080    93681402.23246
  24562413.560   129076359.63307  24562411.740   100578973.14643
  20987319.280   110289118.44509  20987315.920    85939561.85248
  22323683.940   117311793.79909  22323680.440    91411796.32947
  21738932.260   114238886.31909  21738927.340    89017299.56248
  24357697.340   128000548.32308  24357693.340    99740670.76045
  20700239.580   108780558.31109  20700234.040    84764062.25748
  20541093.920   107944211.44109  20541093.200    84112383.68449
  24363351.900   128030287.50608  24363352.960    99763875.72845
 15 02 21 02 40  0.0000000  0  9G04G11G16G18G19G21G22G27G32
  22863283.640   120147401.77508  22863282.140    93621347.26246
  24545648.900   128988260.32408  24545646.860   100510324.36944
  20997466.340   110342441.85209  20997463.120    85981112.54348
  22334593.760   117369125.37409  22334590.340    91456470.27747
  21727564.720   114179149.99009  21727559.900    88970751.79948
  24371027.380   128070597.98208  24371022.840    99795254.86845
  20699058.220   108774350.31909  20699052.660    84759224.86948
  20536302.340   107919031.72909  20536301.660    84092763.12849
  24340759.940   127911567.18508  24340761.000    99671366.82844
 15 02 21 02 40 30.0000000  0  9G04G11G16G18G19G21G22G27G32
  22848658.080   120070544.32209  22848656.760    93561458.37346
  24528896.760   128900227.84908  24528894.880   100441727.72345
  21007709.720   110396271.18709  21007706.560    86023057.46548
  22345575.420   117426834.55709  22345572.060    91501438.47047
  21716228.140   114119576.19609  21716223.360    88924330.67448
  24384354.580   128140633.00908  24384349.840    99849827.57545
  20697978.340   108768675.84309  20697972.820    84754803.20749
  20531564.400   107894133.62609  20531563.720    84073362.00949
  24318177.160   127792894.87308  24318178.080    99578895.23745
 15 02 21 02 41  0.0000000  0  9G04G11G16G18G19G21G22G27G32
  22834073.060   119993899.41209  22834071.700    93501735.10746
  24512157.580   128812261.90808  24512155.460   100373182.79944
  21018048.840   110450603.54009  21018045.700    86065394.34748
  22356628.240   117484918.28009  22356625.080    91546698.50647
  21704922.460   114060164.54409  21704917.680    88878035.89248
  24397678.800   128210652.23108  24397674.300    99904387.96545
  20696999.760   108763533.43309  20696994.280    84750796.14949
  20526880.140   107869517.32909  20526879.380    84054180.46549
  24295603.840   127674272.12208  24295604.460    99486462.23045
 15 02 21 02 41 30.0000000  0  9G04G11G16G18G19G21G22G27G32
  22819529.220   119917470.62309  22819527.660    93442180.22746
  24495431.580   128724366.18808  24495429.600   100304692.73845
  21028484.000   110505440.69209  21028480.900    86108124.57348
  22367752.620   117543377.99109  22367749.740    91592251.52147
  21693648.500   114000919.58409  21693643.720    88831871.00948
  24411000.440   128280658.39507  24410995.980    99958938.20044
  20696123.180   108758926.59009  20696117.600    84747206.41448
  20522250.440   107845187.42409  20522249.540    84035222.09349
  24273041.000   127555704.71708  24273041.560    99394072.42745
 15 02 21 02 42  0.0000000  0  9G04G11G16G18G19G21G22G27G32
  22805025.880   119841254.53109  22805024.080    93382791.09946
  24478718.460   128636537.25608  24478716.220   100236254.65444
  21039014.260   110560777.39009  21039011.100    86151244.06148
  22378947.500   117602207.82609  22378944.740    91638092.95147
  21682405.860   113941838.98609  21682400.980    88785834.19448
  24424319.000   128350648.34407  24424315.060   100013475.75944
  20695347.740   108754851.37109  20695342.040    84744030.92048
  20517674.840   107821141.82409  20517673.840    84016485.26249
  24250488.500   127437191.92508  24250488.860    99301725.09345
 15 02 21 02 42 30.0000000  0  9G04G11G16G18G19G21G22G27G32
  22790563.360   119765253.00009  22790561.320    93323569.16446
  24462018.380   128548776.95808  24462016.020   100167870.07444
  21049639.520   110616613.35609  21049636.300    86194752.59448
  22390212.820   117661407.72709  22390210.020    91684222.73047
  21671195.000   113882925.40109  21671190.060    88739927.52448
  24437634.400   128420622.56008  24437630.540   100068001.14344
  20694673.780   108751309.48009  20694667.980    84741271.01148
  20513153.820   107797383.35709  20513152.780    83997972.16849
  24227947.220   127318737.91308  24227947.600    99209423.61245
 15 02 21 02 43  0.0000000  0  9G04G11G16G18G19G21G22G27G32
  22776141.600   119689466.19009  22776139.480    93264514.53746
  24445331.180   128461085.02708  24445328.600   100099538.81244
  21060359.420   110672946.69209  21060356.140    86238648.68648
  22401548.280   117720975.71109  22401545.380    91730639.35347
  21660016.080   113824179.66709  21660011.120    88694151.63048
  24450946.540   128490580.29107  24450943.400   100122513.56844
  20694101.160   108748299.91809  20694095.280    84738925.90749
  20508687.540   107773912.97009  20508686.520    83979683.56249
  24205417.520   127200344.88808  24205417.620    99117169.57145
 15 02 21 02 43 30.0000000  0  9G04G11G16G18G19G21G22G27G32
  22761760.760   119613894.76509  22761758.540    93205627.73546
  24428657.140   128373462.55308  24428654.420   100031261.58644
  21071173.760   110729776.23809  21071170.460    86282931.43948
  22412953.480   117780910.25009  22412950.500    91777341.57347
  21648869.460   113765603.60209  21648864.460    88648507.95548
  24464255.720   128560521.20008  24464252.700   100177013.00645
  20693630.040   108745823.80809  20693624.100    84736996.46649
  20504276.420   107750732.65709  20504275.460    83961620.97649
  24182900.100   127082016.31908  24182900.040    99024965.74145
 15 02 21 02 44  0.0000000  0  9G04G11G16G18G19G21G22G27G32
  22747420.400   119538536.15309  22747418.300    93146906.75546
  24411995.760   128285906.90108  24411993.260    99963036.49545
  21082081.540   110787096.87809  21082078.240    86327596.86848
  22424427.520   117841206.26709  22424424.320    91824325.49847
  21637754.780   113707195.35109  21637749.740    88602995.04948
  24477561.240   128630442.33707  24477558.820   100231496.95445
  20693259.660   108743877.37009  20693253.760    84735479.76748
  20499920.200   107727840.71909  20499919.260    83943783.10249
  24160394.880   126963751.66508  24160394.820    98932811.73545
 15 02 21 02 44 30.0000000  0  9G04G11G16G18G19G21G22G27G32
  22733121.640   119463396.41109  22733119.680    93088356.33746
  24395348.100   128198424.15308  24395345.480    99894868.14245
  21093083.660   110844913.42409  21093080.420    86372648.70048
  22435971.000   117901867.80809  22435967.760    91871594.20946
  21626673.400   113648962.23009  21626668.340    88557618.59748
  24490864.120   128700349.31208  24490861.620   100285969.88345
  20692991.140   108742466.56609  20692985.340    84734380.44648
  20495620.280   107705244.49209  20495619.360    83926175.64249
  24137903.500   126845559.53708  24137903.380    98840714.18845
 15 02 21 02 45  0.0000000  0  9G04G11G16G18G19G21G22G27G32
  22718863.820   119388471.91209  22718862.140    93029973.63846
  24378713.760   128111010.92308  24378711.640    99826754.01545
  21104179.020   110903219.74309  21104175.800    86418082.17448
  22447583.040   117962889.20909  22447579.840    91919143.34747
  21615624.740   113590901.26409  21615619.720    88512376.30248
  24504163.720   128770238.02308  24504161.240   100340428.60244
  20692823.680   108741586.92809  20692818.000    84733695.02248
  20491376.160   107682941.24609  20491375.200    83908796.48649
  24115425.680   126727438.66308  24115425.400    98748672.19245
 15 02 21 02 45 30.0000000  0  9G04G11G16G18G19G21G22G27G32
  22704646.560   119313760.10909  22704645.040    92971756.66246
  24362092.000   128023664.41208  24362090.000    99758691.85145
  21115366.720   110962010.93809  21115363.440    86463893.48148
  22459262.700   118024265.37209  22459259.400    91966968.91247
  21604608.500   113533010.77109  21604603.540    88467266.84048
  24517459.200   128840105.04607  24517456.280   100394870.33845
  20692756.620   108741235.38509  20692751.100    84733421.10048
  20487187.500   107660929.41609  20487186.460    83891644.40649
  24092961.440   126609388.78408  24092960.960    98656685.49745
 15 02 21 02 46  0.0000000  0  9G04G11G16G18G19G21G22G27G32
  22690471.280   119239268.87009  22690469.920    92913711.56646
  24345484.620   127936392.37708  24345482.620    99690687.69145
  21126647.900   111021292.99309  21126644.460    86510087.28448
  22471010.880   118086002.21709  22471007.500    92015075.52647
  21593626.400   113475299.71409  21593621.500    88422297.19548
  24530752.040   128909957.59507  24530748.760   100449300.86144
  20692791.480   108741419.36109  20692786.180    84733564.47049
  20483056.020   107639218.20809  20483054.980    83874726.58249
  24070512.700   126491420.41608  24070511.960    98564762.28244
 15 02 21 02 46 30.0000000  0  9G04G11G16G18G19G21G22G27G32
  22676336.920   119164992.54309  22676335.680    92855833.93146
  24328890.520   127849189.62208  24328888.780    99622737.56645
  21138020.980   111081058.22009  21138017.400    86556657.57448
  22482826.200   118148091.69609  22482822.800    92063456.92847
  21582677.520   113417763.24309  21582672.700    88377463.58148
  24544040.760   128979789.49908  24544036.880   100503715.32544
  20692927.080   108742132.46709  20692921.940    84734120.15549
  20478980.800   107617802.91409  20478979.780    83858039.33849
  24048078.820   126373530.17208  24048078.040    98472899.94945
 15 02 21 02 47  0.0000000  0  9G04G11G16G18G19G21G22G27G32
  22662244.120   119090934.32909  22662242.800    92798126.25046
  24312310.160   127762059.25308  24312308.160    99554843.83145
  21149486.020   111141306.94409  21149482.400    86603604.62248
  22494708.720   118210534.55809  22494705.300    92112113.69347
  21571762.700   113360405.56609  21571757.960    88332769.29948
  24557325.840   129049602.86607  24557322.600   100558115.30044
  20693163.900   108743377.27909  20693158.800    84735090.13748
  20474962.700   107596687.69509  20474961.700    83841585.92349
  24025660.820   126255723.53608  24025659.820    98381102.72744
 15 02 21 02 47 30.0000000  0  9G04G11G16G18G19G21G22G27G32
  22648192.260   119017091.01009  22648190.740    92740586.03046
  24295743.180   127674998.38408  24295741.220    99487004.22245
  21161042.260   111202035.14609  21161038.620    86650925.29848
  22506657.660   118273325.90209  22506653.920    92161042.01346
  21560881.560   113303224.92309  21560876.880    88288212.96148
  24570606.780   129119394.58708  24570603.000   100612498.45144
  20693501.360   108745150.48309  20693496.180    84736471.86149
  20471001.340   107575870.72909  20471000.380    83825364.91249
  24003258.620   126138000.14208  24003257.620    98289370.36645
 15 02 21 02 48  0.0000000  0  9G04G11G16G18G19G21G22G27G32
  22634182.380   118943468.36509  22634180.700    92683217.75846
  24279190.420   127588012.60908  24279188.280    99419223.15044
  21172690.280   111263245.84309  21172686.640    86698621.92548
  22518673.380   118336469.10209  22518669.620    92210244.49946
  21550035.320   113246227.78109  21550030.700    88243799.60948
  24583884.540   129189169.70308  24583881.340   100666868.58544
  20693940.360   108747456.82109  20693935.000    84738268.99548
  20467098.020   107555358.77309  20467097.060    83809381.56349
  23980873.720   126020367.94908  23980872.680    98197709.06345
 15 02 21 02 48 30.0000000  0  9G04G11G16G18G19G21G22G27G32
  22620213.620   118870062.11409  22620211.820    92626018.10346
  24262651.000   127501097.63308  24262648.740    99351497.22645
  21184428.740   111324932.27209  21184425.220    86746689.26048
  22530754.740   118399957.18809  22530751.200    92259715.71047
  21539223.400   113189410.73709  21539218.740    88199526.59848
  24597158.260   129258923.29407  24597155.160   100721221.99244
  20694479.840   108750291.42709  20694474.340    84740477.78348
  20463252.080   107535148.60309  20463251.200    83793633.38149
  23958505.900   125902825.16308  23958504.940    98106117.41245
 15 02 21 02 49  0.0000000  0  9G04G11G16G18G19G21G22G27G32
  22606286.960   118796877.14609  22606285.160    92568990.88546
  24246126.160   127414258.58008  24246123.940    99283830.49445
  21196258.220   111387097.23109  21196254.840    86795129.47448
  22542902.280   118463793.24109  22542898.700    92309458.07746
  21528446.760   113132779.14309  21528442.060    88155398.09048
  24610428.520   129328659.30907  24610425.700   100775561.70544
  20695120.500   108753657.93709  20695114.840    84743101.03748
  20459464.680   107515245.87609  20459463.840    83778124.76249
  23936156.320   125785378.65508  23936155.620    98014600.84145
 15 02 21 02 49 30.0000000  0  9G04G11G16G18G19G21G22G27G32
  22592401.420   118723908.52709  22592399.740    92512132.26846
  24229614.560   127327490.44008  24229612.240    99216219.01045
  21208177.500   111449733.91509  21208174.220    86843937.26048
  22555114.800   118527970.11809  22555111.220    92359466.03247
  21517704.840   113076329.79109  21517700.060    88111411.58248
  24623694.460   129398372.65407  24623691.820   100829883.76045
  20695861.440   108757551.55009  20695855.700    84746135.02448
  20455735.140   107495647.21309  20455734.360    83762853.07349
  23913824.820   125668026.54508  23913824.200    97923157.78145
 15 02 21 02 50  0.0000000  0  9G04G11G16G18G19G21G22G27G32
  22578557.420   118651158.01809  22578555.720    92455443.60147
  24213116.960   127240795.15108  24213114.840    99148664.30245
  21220186.520   111512841.77709  21220183.220    86893112.21248
  22567392.100   118592487.42809  22567388.660    92409739.24747
  21506998.120   113020065.31109  21506993.220    88067569.13248
  24636956.180   129468064.27207  24636953.620   100884188.88444
  20696702.760   108761972.81409  20696697.020    84749580.17048
  20452064.000   107476355.42309  20452063.280    83747820.51249
  23891512.040   125550772.96908  23891511.560    97831791.48645
 15 02 21 02 50 30.0000000  0  9G04G11G16G18G19G21G22G27G32
  22564755.360   118578627.91109  22564753.660    92398926.67947
  24196633.660   127154175.03508  24196631.440    99081168.12445
  21232285.160   111576420.36509  21232281.760    86942653.95748
  22579734.140   118657344.88709  22579730.660    92460277.52447
  21496327.360   112963989.76609  21496322.340    88023873.91048
  24650214.300   129537736.47307  24650211.940   100938478.82944
  20697644.900   108766923.88209  20697639.180    84753438.15249
  20448451.880   107457373.76809  20448451.180    83733029.61549
  23869218.880   125433622.54508  23869218.480    97740505.57445
 15 02 21 02 51  0.0000000  0  9G04G11G16G18G19G21G22G27G32
  22550994.780   118506315.63808  22550993.040    92342579.45847
  24180164.320   127067627.76908  24180162.100    99013728.76445
  21244472.500   111640465.11209  21244469.000    86992558.94248
  22592140.120   118722537.92909  22592136.440    92511077.31847
  21485692.080   112908100.79509  21485686.960    87980324.06948
  24663468.000   129607385.61007  24663465.740   100992750.85645
  20698687.120   108772401.14009  20698681.540    84757706.14749
  20444898.560   107438700.84809  20444897.780    83718479.28849
  23846945.460   125316575.29308  23846945.020    97649300.00946
 15 02 21 02 51 30.0000000  0  9G04G11G16G18G19G21G22G27G32
  22537276.180   118434223.92409  22537274.480    92286404.12547
  24163709.300   126981156.27108  24163706.780    98946348.38445
  21256748.760   111704977.16509  21256745.220    87042828.06048
  22604609.800   118788066.78209  22604606.180    92562138.73146
  21475093.040   112852402.38009  21475087.900    87936922.71248
  24676717.880   129677014.38307  24676715.520   101047007.03345
  20699829.800   108778406.38909  20699824.380    84762385.57448
  20441404.700   107420340.52609  20441403.860    83704172.54449
  23824692.600   125199636.37108  23824692.200    97558178.91645
 15 02 21 02 52  0.0000000  0  9G04G11G16G18G19G21G22G27G32
  22523599.180   118362350.66209  22523597.500    92230399.02747
  24147268.480   126894758.49308  24147265.960    98879025.45945
  21269113.000   111769951.93109  21269109.600    87093457.73248
  22617142.640   118853927.55509  22617139.140    92613458.81247
  21464530.140   112796893.89009  21464525.000    87893669.36048
  24689963.580   129746620.08907  24689960.760   101101245.23044
  20701072.420   108784937.28709  20701067.260    84767474.58848
  20437970.140   107402291.91309  20437969.240    83690108.69549
  23802460.460   125082806.29608  23802460.020    97467142.60745
 15 02 21 02 52 30.0000000  0  9G04G11G16G18G19G21G22G27G32
  22509964.280   118290698.61109  22509962.580    92174566.28647
  24130842.120   126808437.60708  24130839.340    98811762.42245
  21281565.360   111835389.75609  21281562.080    87144448.23248
  22629738.740   118920120.67309  22629735.260    92665037.86347
  21454004.000   112741578.61409  21453998.860    87850566.54948
  24703205.420   129816205.17007  24703201.840   101155467.34344
  20702415.440   108791995.63309  20702410.460    84772974.59549
  20434595.640   107384559.03209  20434594.780    83676290.86849
  23780250.020   124966090.35808  23780249.580    97376195.24645
 15 02 21 02 53  0.0000000  0  9G04G11G16G18G19G21G22G27G32
  22496371.240   118219266.69809  22496369.620    92118905.08647
  24114429.920   126722191.83808  24114427.280    98744557.99345
  21294105.160   111901286.75509  21294101.940    87195796.53348
  22642397.420   118986642.42009  22642393.920    92716872.98447
  21443514.660   112686456.51609  21443509.460    87807614.27748
  24716442.740   129885767.28807  24716438.600   101209671.56544
  20703858.460   108799579.16109  20703853.560    84778883.84049
  20431281.160   107367141.41409  20431280.340    83662718.70049
  23758061.540   124849489.57608  23758060.980    97285337.59045
 15 02 21 02 53 30.0000000  0  9G04G11G16G18G19G21G22G27G32
  22482820.000   118148054.47709  22482818.400    92063415.06747
  24098032.280   126636021.56908  24098029.480    98677412.32745
  21306731.980   111967640.95309  21306728.800    87247501.08448
  22655118.160   119053490.60109  22655114.680    92768962.47447
  21433062.300   112631528.79609  21433057.040    87764813.45748
  24729675.620   129955306.01407  24729671.420   101263857.55844
  20705401.320   108807687.00009  20705396.400    84785201.63748
  20428026.880   107350040.10209  20428026.120    83649393.00349
  23735895.460   124733006.37108  23735894.880    97194571.59145
 15 02 21 02 54  0.0000000  0  9G04G11G16G18G19G21G22G27G32
  22469310.760   118077063.23909  22469309.200    92008097.23547
  24081649.060   126549927.98408  24081646.640    98610326.50845
  21319445.540   112034450.85209  21319442.320    87299560.72348
  22667900.800   119120663.96509  22667897.460    92821305.32646
  21422647.240   112576797.33409  21422641.940    87722165.56848
  24742904.140   130024822.28507  24742900.460   101318026.04044
  20707043.980   108816319.33709  20707038.980    84791928.13348
  20424833.220   107333257.42109  20424832.500    83636315.59149
  23713752.500   124616644.37308  23713751.800    97103899.98045
 15 02 21 02 54 30.0000000  0  9G04G11G16G18G19G21G22G27G32
  22455843.520   118006292.85409  22455841.980    91952951.51747
  24065280.600   126463911.29608  24065277.820    98543300.47545
  21332245.340   112101714.07109  21332242.120    87351973.61948
  22680744.820   119188160.41509  22680741.700    92873899.95147
  21412269.740   112522263.34809  21412264.420    87679671.57048
  24756128.320   130094315.31008  24756125.040   101372176.38845
  20708786.300   108825475.15109  20708781.240    84799062.54848
  20421700.400   107316794.28809  20421699.680    83623487.17849
  23691633.060   124500406.00708  23691632.160    97013324.73145
 15 02 21 02 55  0.0000000  0  9G04G11G16G18G19G21G22G27G32
  22442418.180   117935742.71509  22442416.660    91897977.38347
  24048926.640   126377970.63308  24048924.320    98476333.81045
  21345130.860   112169427.49909  21345127.560    87404737.31748
  22693649.860   119255976.81609  22693646.560    92926743.88946
  21401929.820   112467927.11609  21401924.560    87637331.65948
  24769347.980   130163783.89707  24769344.960   101426307.71345
  20710628.020   108835153.19209  20710622.920    84806603.87448
  20418628.540   107300651.17409  20418627.780    83610908.13049
  23669537.520   124384293.08208  23669536.460    96922847.22545
 15 02 21 02 55 30.0000000  0  9G04G11G16G18G19G21G22G27G32
  22429035.320   117865415.64009  22429033.800    91843177.08747
  24032587.740   126292109.35708  24032585.160    98409428.93845
  21358102.200   112237592.10409  21358098.840    87457852.57948
  22706615.840   119324113.72409  22706612.420    92979837.56946
  21391628.320   112413793.07509  21391623.180    87595149.30448
  24782563.240   130233230.55907  24782560.780   101480421.96745
  20712569.480   108845355.47609  20712564.360    84814553.71248
  20415618.400   107284832.26609  20415617.560    83598581.70449
  23647466.820   124268311.06008  23647465.700    96832471.72345
 15 02 21 02 56  0.0000000  0  9G04G11G16G18G19G21G22G27G32
  22415694.720   117795310.68909  22415693.240    91788549.86347
  24016263.940   126206326.54208  24016261.480    98342585.25645
  21371158.680   112306204.36409  21371155.340    87511316.66648
  22719642.220   119392567.95209  22719638.780    93033178.53947
  21381365.320   112359861.40609  21381360.340    87553124.63948
  24795773.880   130302654.69907  24795771.880   101534518.65445
  20714610.280   108856079.95209  20714605.200    84822910.44949
  20412669.940   107269337.73609  20412669.060    83586508.04349
  23625421.360   124152461.68008  23625420.180    96742199.54545
 15 02 21 02 56 30.0000000  0  9G04G11G16G18G19G21G22G27G32
  22402396.200   117725426.74709  22402394.720    91734094.87047
  23999954.500   126120620.87508  23999951.940    98275801.65245
  21384299.720   112375261.32109  21384296.440    87565127.26348
  22732728.460   119461336.39209  22732724.900    93086764.32646
  21371140.880   112306132.05209  21371135.980    87511257.61848
  24808979.980   130372054.29207  24808978.020   101588596.20045
  20716750.180   108867324.79309  20716745.040    84831672.66449
  20409783.160   107254167.47109  20409782.260    83574687.05749
  23603401.300   124036746.02708  23603400.120    96652031.60445
 15 02 21 02 57  0.0000000  0  9G04G11G16G18G19G21G22G27G32
  22389139.760   117655763.75609  22389138.240    91679812.02647
  23983660.080   126034993.11308  23983657.620    98209078.73744
  21397524.680   112444759.54109  21397521.520    87619281.69448
  22745873.820   119530416.71608  22745870.480    93140593.11746
  21360955.180   112252605.81909  21360950.280    87469548.86748
  24822181.540   130441428.89507  24822179.180   101642654.28345
  20718989.060   108879089.21909  20718983.700    84840839.75848
  20406958.300   107239322.62409  20406957.380    83563119.63949
  23581407.260   123921166.86708  23581405.980    96561969.99045
 15 02 21 02 57 30.0000000  0  9G04G11G16G18G19G21G22G27G32
  22375925.940   117586324.38709  22375924.400    91625703.44147
  23967380.780   125949445.86508  23967378.340    98142418.57645
  21410833.900   112514700.31409  21410830.820    87673780.97448
  22759078.640   119599809.15209  22759075.400    93194665.14746
  21350808.960   112199286.89409  21350804.020    87428001.65348
  24835378.940   130510780.62507  24835376.320   101696694.56444
  20721327.100   108891374.85909  20721321.580    84850412.97848
  20404196.060   107224807.00709  20404195.160    83551808.76749
  23559440.180   123805729.36608  23559438.860    96472018.76345
 15 02 21 02 58  0.0000000  0  9G04G11G16G18G19G21G22G27G32
  22362754.440   117517107.54309  22362752.880    91571768.26247
  23951116.540   125863978.25408  23951114.180    98075820.52644
  21424226.560   112585079.25909  21424223.460    87728621.69748
  22772342.160   119669510.22108  22772339.080    93248977.65446
  21340702.240   112146175.31509  21340697.220    87386615.99948
  24848571.860   130580107.97008  24848568.700   101750715.80245
  20723763.760   108904179.30509  20723758.180    84860390.47448
  20401496.460   107210620.54209  20401495.600    83540754.37749
  23537500.280   123690434.72808  23537498.960    96382178.87545
 15 02 21 02 58 30.0000000  0  9G04G11G16G18G19G21G22G27G32
  22349624.520   117448109.27709  22349622.920    91518003.40447
  23934867.040   125778586.34007  23934864.740    98009281.38946
  21437701.500   112655890.47009  21437698.380    87783799.25448
  22785663.440   119739513.91509  22785660.320    93303525.98746
  21330634.420   112093268.08809  21330629.340    87345389.59248
  24861759.260   130649406.75107  24861755.660   101804714.80845
  20726298.120   108917497.67209  20726292.540    84870768.42348
  20398858.960   107196760.46509  20398858.060    83529954.31249
  23515587.320   123575281.69608  23515586.000    96292449.33045
 15 02 21 02 59  0.0000000  0  9G04G11G16G18G19G21G22G27G32
  22336537.460   117379336.05709  22336535.800    91464413.91747
  23918633.280   125693277.00808  23918630.540    97942806.58745
  21451259.520   112727138.20209  21451256.340    87839316.94648
  22799043.060   119809824.72608  22799039.840    93358313.63646
  21320606.940   112040573.14909  21320601.860    87304328.60148
  24874942.340   130718683.17408  24874938.440   101858696.43344
  20728931.340   108931335.74109  20728925.800    84881551.33848
  20396285.060   107183234.53209  20396284.120    83519414.62049
  23493703.080   123460279.46208  23493701.760    96202837.26946
 15 02 21 02 59 30.0000000  0 10G04G11G14G16G18G19G21G22G27G32
  22323493.160   117310787.57009  22323491.460    91410999.53647
  23902414.880   125608049.94508  23902412.800    97876395.99445
  24684920.860   129720135.48807  24684918.840   101080618.20345
  21464900.020   112798819.25809  21464896.760    87895172.31148
  22812480.540   119880439.84908  22812477.500    93413338.38846
  21310619.960   111988091.36709  21310614.940    87263433.71248
  24888121.140   130787936.65108  24888116.800   101912660.16544
  20731663.180   108945691.98809  20731657.680    84892738.03248
  20393774.920   107170043.44709  20393773.920    83509135.85349
  23471847.940   123345430.02108  23471846.580    96113344.26145
 15 02 21 03 00  0.0000000  0 10G04G11G14G16G18G19G21G22G27G32
  22310491.020   117242460.64209  22310489.240    91357757.78447
  23886211.640   125522902.18507  23886208.940    97810047.12145
  24670872.760   129646315.97707  24670871.480   101023096.53044
  21478621.960   112870928.29809  21478618.680    87951361.15948
  22825975.060   119951353.84609  22825972.280    93468596.01046
  21300673.100   111935820.45509  21300668.140    87222703.12748
  24901294.700   130857163.22207  24901290.260   101966602.90344
  20734492.880   108960562.18309  20734487.360    84904325.20548
  20391328.080   107157185.13209  20391327.140    83499116.38449
  23450021.800   123230732.88309  23450020.380    96023969.95145
 15 02 21 03 00 30.0000000  0 10G04G11G14G16G18G19G21G22G27G32
  22297531.200   117174356.17309  22297529.360    91304689.40647
  23870024.220   125437835.22608  23870021.800    97743761.18745
  24656828.680   129572513.66007  24656827.580   100965588.25845
  21492424.980   112943463.62909  21492421.740    88007882.18548
  22839526.340   120022565.60908  22839523.440    93524085.69146
  21290766.940   111883763.36409  21290762.080    87182139.16848
  24914463.140   130926364.35907  24914459.040   102020525.83444
  20737420.520   108975946.59409  20737414.940    84916313.06248
  20388944.980   107144661.81509  20388944.080    83489357.96049
  23428225.360   123116191.71308  23428223.800    95934717.16245
 15 02 21 03 01  0.0000000  0 10G04G11G14G16G18G19G21G22G27G32
  22284614.100   117106476.29209  22284612.140    91251795.99447
  23853852.180   125352850.92608  23853849.160    97677539.69245
  24642788.740   129498733.51607  24642787.480   100908097.23944
  21506309.120   113016425.28009  21506305.900    88064735.40348
  22853134.320   120094074.87909  22853131.200    93579807.17746
  21280902.080   111831923.29009  21280897.300    87141744.30348
  24927626.840   130995541.31007  24927623.220   102074429.92244
  20740446.140   108991846.00609  20740440.540    84928702.21048
  20386626.240   107132476.63809  20386625.320    83479863.00949
  23406459.420   123001811.05008  23406457.720    95845589.42046
 15 02 21 03 01 30.0000000  0 10G04G11G14G16G18G19G21G22G27G32
  22271739.660   117038820.77909  22271737.560    91199077.42747
  23837695.700   125267949.63508  23837693.940    97611382.99645
  24628753.420   129424977.68007  24628752.200   100850625.15044
  21520273.900   113089810.94609  21520270.720    88121919.01948
  22866798.460   120165879.15309  22866795.180    93635758.55846
  21271078.600   111780300.72809  21271073.880    87101518.93648
  24940785.720   131064693.65107  24940782.780   102128314.80644
  20743569.560   109008259.44909  20743563.900    84941491.90248
  20384372.040   107120630.73709  20384371.100    83470632.43949
  23384724.500   122887593.35308  23384722.720    95756588.68346
 15 02 21 03 02  0.0000000  0 10G04G11G14G16G18G19G21G22G27G32
  22258906.800   116971384.28309  22258904.660    91146529.53847
  23821554.740   125183126.40207  23821552.020    97545286.82945
  24614722.180   129351243.26507  24614721.060   100793169.80244
  21534317.780   113163612.18609  21534314.600    88179426.46048
  22880517.160   120237970.98509  22880513.740    93691933.98946
  21261295.820   111728891.94009  21261291.100    87061460.14748
  24953938.920   131133815.66807  24953936.260   102182176.06744
  20746789.520   109025180.36709  20746783.820    84954677.03948
  20382181.560   107109119.72709  20382180.600    83461662.81649
  23363020.000   122773535.78308  23363018.180    95667712.73446
 15 02 21 03 02 30.0000000  0 10G04G11G14G16G18G19G21G22G27G32
  22246117.060   116904174.46309  22246115.020    91094158.28347
  23805429.740   125098388.81108  23805427.720    97479257.67445
  24600697.160   129277541.07507  24600695.880   100735739.54044
  21548441.640   113237833.87909  21548438.500    88237261.53548
  22894291.620   120310355.72509  22894288.220    93748337.67446
  21251555.380   111677705.76609  21251550.700    87021574.81748
  24967087.860   131202914.81507  24967085.700   102236019.49144
  20750107.280   109042615.21909  20750101.600    84968262.64248
  20380056.500   107097952.38209  20380055.540    83452960.99149
  23341347.880   122659648.52208  23341346.120    95578969.49846
 15 02 21 03 03  0.0000000  0 10G04G11G14G16G18G19G21G22G27G32
  22233370.000   116837188.94409  22233368.060    91041961.76247
  23789320.280   125013734.50708  23789318.180    97413293.30346
  24586678.420   129203871.09007  24586677.120   100678334.38345
  21562644.640   113312471.10809  21562641.460    88295420.39348
  22908121.020   120383028.71609  22908117.520    93804965.96746
  21241857.080   111626741.02909  21241852.400    86981862.04148
  24980232.020   131271988.19407  24980230.160   102289842.86844
  20753522.100   109060560.45809  20753516.500    84982245.94149
  20377996.520   107087127.35309  20377995.620    83444525.90349
  23319708.160   122545931.63108  23319706.420    95490358.98245
 15 02 21 03 03 30.0000000  0 10G04G11G14G16G18G19G21G22G27G32
  22220665.220   116770425.61209  22220663.500    90989938.42647
  23773226.640   124929161.64208  23773224.520    97347392.43144
  24572666.000   129130233.99907  24572664.620   100620954.85444
  21576926.060   113387519.91209  21576922.760    88353899.97048
  22922004.260   120455985.64308  22922000.640    93861815.50146
  21232200.780   111575996.79609  21232196.040    86942321.08648
  24993370.940   131341033.44807  24993369.060   102343644.31044
  20757033.440   109079013.05009  20757027.940    84996624.58648
  20376001.500   107076643.74909  20376000.620    83436356.85749
  23298100.980   122432385.75408  23298099.300    95401881.72246
 15 02 21 03 04  0.0000000  0 10G04G11G14G16G18G19G21G22G27G32
  22208003.400   116703887.70409  22208001.860    90938090.71947
  23757149.280   124844674.10108  23757147.100    97281557.96346
  24558660.940   129056636.14007  24558659.280   100563605.88745
  21591286.020   113462981.01009  21591282.620    88412700.80948
  22935941.620   120529227.40809  22935937.940    93918886.98846
  21222587.340   111525477.77609  21222582.560    86902955.62948
  25006505.140   131410053.97207  25006503.320   102397426.47344
  20760641.660   109097974.90709  20760636.300    85011400.05748
  20374072.300   107066506.04809  20374071.460    83428457.34349
  23276527.460   122319016.73508  23276525.820    95313542.27646
 15 02 21 03 04 30.0000000  0 10G04G11G14G16G18G19G21G22G27G32
  22195384.240   116637573.83809  22195382.800    90886417.60447
  23741087.660   124760270.63308  23741084.980    97215789.09245
  24544663.620   128983078.80207  24544661.680   100506288.48945
  21605723.620   113538850.23209  21605720.140    88471819.68248
  22949932.700   120602750.46509  22949929.060    93976177.67046
  21213016.780   111475184.04109  21213011.960    86863765.70648
  25019634.380   131479047.98207  25019632.120   102451188.00844
  20764346.320   109117443.63109  20764341.060    85026570.49449
  20372208.920   107056714.04109  20372208.080    83420827.20249
  23254987.800   122205825.88208  23254986.300    95225341.66546
 15 02 21 03 05  0.0000000  0 10G04G11G14G16G18G19G21G22G27G32
  22182808.060   116571485.60309  22182806.680    90834920.29647
  23725042.440   124675953.06808  23725040.500    97150087.15445
  24530674.660   128909566.15507  24530672.800   100449005.94545
  21620238.620   113615126.76709  21620235.180    88531255.92448
  22963977.040   120676554.12709  22963973.500    94033687.00546
  21203489.620   111425118.43009  21203484.780    86824753.55448
  25032758.740   131548016.84907  25032756.360   102504929.90645
  20768147.560   109137419.55309  20768142.360    85042136.15548
  20370411.860   107047270.37109  20370411.020    83413468.49649
  23233482.760   122092817.21208  23233481.500    95137283.02446
 15 02 21 03 05 30.0000000  0  9G04G11G14G16G18G19G22G27G32
  22170274.480   116505620.66809  22170272.980    90783596.99347
  23709013.400   124591719.46608  23709010.880    97084450.52945
  24516694.220   128836098.59207  24516692.260   100391758.51344
  21634830.040   113691805.28909  21634826.680    88591005.40748
  22978073.980   120750633.75009  22978070.360    94091411.37846
  21194005.600   111375279.75509  21194000.800    86785918.23148
  20772044.600   109157899.06009  20772039.460    85058094.21449
  20368680.820   107038173.76309  20368680.020    83406380.22849
  23212012.520   121979990.96708  23212011.480    95049366.52546
 15 02 21 03 06  0.0000000  0  9G04G11G14G16G18G19G22G27G32
  22157783.640   116439980.18809  22157782.000    90732448.58547
  23693000.660   124507571.40608  23692998.140    97018880.67644
  24502723.120   128762680.26007  24502721.320   100334549.43545
  21649497.840   113768885.56109  21649494.600    88651067.93448
  22992223.300   120824988.57109  22992219.640    94149350.18346
  21184565.280   111325670.75409  21184560.520    86747261.87348
  20776037.540   109178882.85809  20776032.540    85074445.22148
  20367016.260   107029426.74609  20367015.500    83399564.36349
  23190577.840   121867351.16308  23190576.880    94961595.29446
 15 02 21 03 06 30.0000000  0  9G04G11G14G16G18G19G22G27G32
  22145336.160   116374567.55809  22145334.380    90681477.73047
  23677004.600   124423512.17908  23677002.100    96953380.04145
  24488762.460   128689316.83508  24488761.120   100277383.17044
  21664242.060   113846367.36209  21664238.820    88711443.35548
  23006425.040   120899619.51008  23006421.640    94207504.12946
  21175169.560   111276296.01209  21175164.820    86708788.06048
  20780126.800   109200372.41309  20780121.840    85091190.33048
  20365419.120   107021033.60309  20365418.340    83393024.24949
  23169179.800   121754903.51709  23169178.840    94873973.78946
 15 02 21 03 07  0.0000000  0  9G04G11G14G16G18G19G22G27G32
  22132930.840   116309376.67309  22132929.000    90630679.65647
  23661024.420   124339536.10308  23661021.880    96887944.19045
  24474811.760   128616005.19708  24474810.360   100220257.22144
  21679061.040   113924241.69309  21679057.800    88772124.64048
  23020677.800   120974518.48509  23020674.440    94265866.94646
  21165817.460   111227150.63409  21165812.780    86670492.97148
  20784310.940   109222360.53809  20784306.020    85108323.94448
  20363888.480   107012989.49409  20363887.620    83386756.10249
  23147817.760   121642644.69809  23147816.720    94786499.42846
 15 02 21 03 07 30.0000000  0 10G01G04G11G14G16G18G19G22G27G32
  24592519.020   129234554.53008  24592520.480   100702266.54845
  22120568.380   116244411.57309  22120566.540    90580057.51847
  23645061.080   124255647.46508  23645058.420    96822576.39245
  24460872.180   128542752.46907  24460870.740   100163177.22744
  21693955.280   114002511.25309  21693952.000    88833113.89748
  23034981.940   121049687.16909  23034978.580    94324439.93646
  21156510.100   111178240.14509  21156505.420    86632380.90648
  20788590.580   109244850.15609  20788585.620    85125848.32148
  20362425.260   107005299.55109  20362424.300    83380763.94749
  23126492.900   121530581.31608  23126491.680    94699177.36546
 15 02 21 03 08  0.0000000  0 10G01G04G11G14G16G18G19G22G27G32
  24577442.100   129155326.31007  24577443.680   100640530.27545
  22108249.060   116179673.74509  22108247.260    90529612.46647
  23629114.740   124171848.03408  23629111.580    96757278.15745
  24446944.640   128469562.71608  24446943.060   100106146.29244
  21708924.440   114081174.61409  21708921.200    88894410.00748
  23049337.240   121125124.65609  23049333.860    94383222.37146
  21147247.980   111129567.43709  21147243.300    86594454.12848
  20792965.740   109267841.35109  20792960.680    85143763.54748
  20361029.960   106997966.36209  20361028.860    83375049.77649
  23105205.940   121418717.42408  23105204.580    94612010.74146
 15 02 21 03 08 30.0000000  0 10G01G04G11G14G16G18G19G22G27G32
  24562388.920   129076224.20308  24562391.080   100578892.31246
  22095973.480   116115165.49209  22095971.700    90479346.30047
  23613185.580   124088140.59708  23613182.900    96692051.66945
  24433030.020   128396441.24907  24433027.960   100049168.53844
  21723968.500   114160231.33609  21723965.300    88956012.63148
  23063743.840   121200831.21409  23063740.300    94442214.50946
  21138031.820   111081136.15509  21138027.120    86556715.46948
  20797436.620   109291335.08609  20797431.360    85162070.35148
  20359703.200   106990993.47909  20359701.940    83369616.35649
  23083957.920   121307058.05208  23083956.480    94525003.46646
 15 02 21 03 09  0.0000000  0 10G01G04G11G14G16G18G19G22G27G32
  24547358.460   128997239.23607  24547361.040   100517345.61346
  22083739.920   116050877.82609  22083738.100    90429252.04647
  23597272.200   124004516.26708  23597269.300    96626889.84945
  24419127.180   128323381.47108  24419125.180    99992238.86545
  21739085.140   114239669.60309  21739081.980    89017912.55848
  23078199.440   121276795.90508  23078195.960    94501407.74046
  21128860.080   111032938.21009  21128855.320    86519158.63348
  20802001.160   109315321.33809  20801995.760    85180760.94148
  20358443.400   106984372.86809  20358442.060    83364457.43049
  23062747.580   121195596.62108  23062746.120    94438150.44146
 15 02 21 03 09 30.0000000  0 10G01G04G11G14G16G18G19G22G27G32
  24532351.240   128918376.51108  24532353.800   100455894.14745
  22071549.340   115986815.90109  22071547.460    90379333.66947
  23581375.800   123920980.85108  23581373.200    96561797.38345
  24405237.500   128250391.65007  24405235.760    99935363.72344
  21754274.820   114319491.82109  21754271.680    89080111.66548
  23092704.660   121353021.36909  23092701.260    94560804.18546
  21119734.140   110984980.91909  21119729.320    86481789.31548
  20806660.080   109339804.36709  20806654.680    85199838.62248
  20357251.800   106978110.93309  20357250.520    83359577.98649
  23041576.440   121084341.03008  23041574.900    94351457.81146
 15 02 21 03 10  0.0000000  0 10G01G04G11G14G16G18G19G22G27G32
  24517367.140   128839634.19507  24517369.580   100394536.49046
  22059401.340   115922977.79309  22059399.420    90329589.70747
  23565495.980   123837532.46508  23565493.720    96496772.69045
  24391361.400   128177472.52908  24391359.420    99878543.61444
  21769536.840   114399694.22209  21769533.680    89142607.02848
  23107258.740   121429503.35509  23107255.380    94620400.52346
  21110653.840   110937263.34709  21110648.980    86444606.79848
  20811412.760   109364780.14709  20811407.360    85219300.27348
  20356128.200   106972206.65909  20356127.040    83354977.24949
  23020444.540   120973291.83308  23020443.000    94264926.01746
 15 02 21 03 10 30.0000000  0 10G01G04G11G14G16G18G19G22G27G32
  24502406.580   128761016.20607  24502408.960   100333275.81145
  22047296.660   115859367.41509  22047294.760    90280023.21447
  23549633.440   123754175.32608  23549630.840    96431819.09745
  24377500.220   128104631.03208  24377498.420    99821784.06145
  21784871.380   114480277.76309  21784868.220    89205399.38148
  23121862.020   121506243.62609  23121858.460    94680198.12646
  21101620.200   110889790.80409  21101615.260    86407615.21248
  20816259.820   109390251.83209  20816254.480    85239148.35548
  20355073.580   106966665.32709  20355072.580    83350659.33249
  22999353.180   120862455.71509  22999351.580    94178560.27846
 15 02 21 03 11  0.0000000  0 10G01G04G11G14G16G18G19G22G27G32
  24487469.160   128682519.07407  24487471.300   100272109.23046
  22035234.600   115795981.23209  22035232.740    90230631.39347
  23533787.740   123670906.26508  23533785.800    96366934.22045
  24363653.680   128031866.29508  24363651.720    99765084.26845
  21800277.180   114561235.62309  21800273.980    89268483.41648
  23136513.280   121583236.53508  23136509.800    94740192.60346
  21092632.780   110842561.06809  21092627.760    86370812.83148
  20821200.360   109416214.32209  20821195.000    85259378.86748
  20354087.500   106961484.35009  20354086.660    83346622.21049
  22978302.140   120751831.66209  22978300.380    94092359.74946
 15 02 21 03 11 30.0000000  0 10G01G04G11G14G16G18G19G22G27G32
  24472554.600   128604143.74307  24472557.140   100211037.65446
  22023215.380   115732820.24409  22023213.600    90181415.05947
  23517959.200   123587726.71808  23517957.180    96302119.00146
  24349822.560   127959182.27008  24349820.380    99708447.36844
  21815754.020   114642567.09009  21815750.800    89331858.57248
  23151212.460   121660481.16909  23151209.000    94800383.19046
  21083692.040   110795576.62909  21083686.900    86334201.58148
  20826234.240   109442667.44509  20826228.940    85279991.68448
  20353170.460   106956665.97409  20353169.720    83342867.62249
  22957292.120   120641423.43209  22957290.260    94006327.39346
 15 02 21 03 12  0.0000000  0 10G01G04G11G14G16G18G19G22G27G32
  24457663.960   128525891.53008  24457665.880   100150061.87146
  22011239.280   115669885.50309  22011237.500    90132375.01147
  23502148.120   123504638.21708  23502145.640    96237374.72545
  24336007.260   127886582.68908  24336005.160    99651876.30044
  21831301.500   114724270.07109  21831298.340    89395523.21548
  23165959.180   121737975.92608  23165955.640    94860768.71545
  21074798.480   110748840.11209  21074793.260    86297783.52448
  20831361.520   109469610.84009  20831356.140    85300986.54148
  20352322.900   106952212.32909  20352322.200    83339397.25649
  22936323.820   120531234.66609  22936321.920    93920466.06046
 15 02 21 03 12 30.0000000  0 10G01G04G11G14G16G18G19G22G27G32
  24442796.700   128447764.04308  24442798.860   100089183.40646
  21999306.640   115607179.07009  21999304.840    90083512.90147
  23486354.780   123421642.92208  23486352.440    96172703.11845
  24322209.000   127814072.49808  24322206.860    99595374.87644
  21846919.620   114806344.29009  21846916.540    89459477.13748
  23180753.500   121815720.69708  23180749.920    94921349.05446
  21065952.660   110702354.75909  21065947.400    86261561.17848
  20836582.240   109497045.13109  20836576.740    85322363.91348
  20351545.360   106948126.52609  20351544.640    83336213.50749
  22915398.160   120421270.02709  22915396.260    93834779.35746
 15 02 21 03 13  0.0000000  0 10G01G04G11G14G16G18G19G22G27G32
  24427952.560   128369756.28908  24427954.680   100028398.19446
  21987416.480   115544695.55709  21987414.560    90034824.47047
  23470578.160   123338735.63108  23470575.760    96108100.03645
  24308427.200   127741649.18908  24308425.060    99538941.14345
  21862606.840   114888781.64209  21862603.880    89523714.01648
  23195594.000   121893708.11108  23195590.720    94982118.44946
  21057153.820   110656116.57909  21057148.600    86225531.44048
  20841895.020   109524963.43209  20841889.460    85344118.43948
  20350837.000   106944404.17909  20350836.260    83333312.98349
  22894514.500   120311526.49908  22894512.700    93749264.95546
 15 02 21 03 13 30.0000000  0 10G01G04G11G14G16G18G19G22G27G32
  24413132.300   128291875.98808  24413134.260    99967712.32746
  21975570.300   115482442.78909  21975568.220    89986315.81147
  23454819.820   123255924.75108  23454816.920    96043572.10045
  24294664.020   127669323.62608  24294662.100    99482583.57145
  21878364.080   114971586.97309  21878361.240    89588237.63048
  23210481.560   121971943.72608  23210478.420    95043081.21546
  21048403.780   110610135.15309  21048398.660    86189701.76148
  20847301.080   109553372.31609  20847295.500    85366255.23649
  20350199.560   106941054.42009  20350198.760    83330702.77549
  22873674.880   120202014.78908  22873673.280    93663931.19046
 15 02 21 03 14  0.0000000  0 10G01G04G11G14G16G18G19G22G27G32
  24398335.060   128214115.69408  24398337.000    99907119.91346
  21963766.620   115420413.26409  21963764.380    89937981.13347
  23439078.500   123173203.42508  23439075.560    95979113.98345
  24280918.500   127597091.15607  24280916.420    99426298.55944
  21894189.660   115054750.94609  21894186.820    89653040.72248
  23225414.780   122050417.68609  23225411.420    95104229.78646
  21039701.340   110564404.08209  21039696.340    86154067.16848
  20852798.840   109582263.19009  20852793.320    85388767.61448
  20349631.780   106938070.78409  20349630.960    83328377.86849
  22852878.480   120092730.04208  22852877.160    93578774.27846
 15 02 21 03 14 30.0000000  0 10G01G04G11G14G16G18G19G22G27G32
  24383561.380   128136480.68208  24383563.260    99846625.20346
  21952006.360   115358612.40309  21952004.040    89889824.63247
  23423355.220   123090577.11708  23423352.420    95914729.89045
  24267192.360   127524959.91908  24267190.400    99370092.42745
  21910084.040   115138275.90409  21910081.080    89718125.08948
  23240393.960   122129133.21208  23240390.700    95165566.53646
  21031047.860   110518930.25809  21031042.980    86118633.03648
  20858388.940   109611639.65609  20858383.480    85411658.36848
  20349134.880   106935459.68109  20349134.120    83326343.24049
  22832126.780   119983680.10508  22832125.660    93493800.34446
 15 02 21 03 15  0.0000000  0 10G01G04G11G14G16G18G19G22G27G32
  24368811.220   128058968.21308  24368813.040    99786225.93546
  21940288.980   115297037.29409  21940286.700    89841844.04247
  23407649.640   123008043.76608  23407646.720    95850418.20845
  24253485.440   127452929.82107  24253483.620    99313965.09745
  21926045.980   115222155.64809  21926042.860    89783485.92048
  23255418.100   122208085.55009  23255415.000    95227087.78446
  21022443.120   110473712.42809  21022438.300    86083398.36348
  20864070.620   109641497.39009  20864065.200    85434924.14148
  20348708.600   106933219.39909  20348707.880    83324597.56849
  22811419.780   119874864.88708  22811418.780    93409009.28846
 15 02 21 03 15 30.0000000  0 10G01G04G11G14G16G18G19G22G27G32
  24354084.380   127981578.88708  24354086.400    99725922.71246
  21928614.700   115235688.64709  21928612.480    89794039.93247
  23391961.860   122925604.09908  23391958.860    95786179.54645
  24239798.420   127381004.40008  24239796.680    99257919.34245
  21942075.140   115306388.85609  21942071.900    89849122.16348
  23270487.120   122287272.96009  23270483.700    95288792.27745
  21013887.500   110428752.41509  21013882.680    86048364.59349
  20869843.840   109671835.80809  20869838.380    85458564.47348
  20348353.300   106931351.63309  20348352.540    83323142.17249
  22790758.040   119766287.54808  22790757.140    93324403.61746
 15 02 21 03 16  0.0000000  0 10G01G04G11G14G16G18G19G22G27G32
  24339380.940   127904310.95608  24339382.480    99665713.93846
  21916983.140   115174564.84309  21916981.000    89746411.01147
  23376291.640   122843256.55808  23376288.580    95722012.67845
  24226131.660   127309184.83908  24226129.800    99201956.04545
  21958170.640   115390971.17209  21958167.420    89915030.44748
  23285599.960   122366691.44108  23285596.400    95350676.81246
  21005380.940   110384050.09509  21005376.100    86013531.62149
  20875707.940   109702651.68009  20875702.400    85482576.84348
  20348068.700   106929855.65309  20348067.960    83321976.47949
  22770141.800   119657948.94608  22770140.860    93239983.96246
 15 02 21 03 16 30.0000000  0 10G01G04G11G14G16G18G19G22G27G32
  24324701.220   127827168.77208  24324703.020    99605603.24846
  21905395.140   115113669.87309  21905393.140    89698960.41347
  23360639.920   122761006.14408  23360636.680    95657921.47645
  24212486.380   127237478.35908  24212484.300    99146080.89344
  21974332.800   115475903.67009  21974329.560    89981211.59848
  23300757.100   122446343.19108  23300753.640    95412743.07246
  20996924.560   110339611.42709  20996919.700    85978904.08748
  20881663.460   109733947.87609  20881657.780    85506963.49348
  20347855.840   106928736.96909  20347855.140    83321104.77649
  22749572.420   119549856.07209  22749571.360    93155755.77746
 15 02 21 03 17  0.0000000  0 10G01G04G11G14G16G18G19G22G27G32
  24310044.840   127750149.10407  24310046.560    99545587.98846
  21893850.100   115053000.64109  21893848.200    89651685.71847
  23345005.980   122678849.87808  23345002.960    95593903.65445
  24198862.640   127165884.66208  24198860.280    99090293.60344
  21990560.480   115561180.57709  21990557.240    90047661.12248
  23315957.580   122526222.90708  23315954.280    95474986.98446
  20988518.000   110295434.46909  20988513.100    85944480.49248
  20887709.420   109765719.48909  20887703.720    85531720.59548
  20347714.280   106927993.30809  20347713.680    83320525.29549
  22729049.680   119442008.19108  22729048.500    93071718.48546
 15 02 21 03 17 30.0000000  0 10G01G04G11G14G16G18G19G22G27G32
  24295411.820   127673253.21608  24295413.760    99485669.23946
  21882348.300   114992558.49009  21882346.480    89604587.95847
  23329390.340   122596789.67208  23329387.320    95529960.68446
  24185261.100   127094407.97108  24185258.820    99034597.50745
  22006853.480   115646800.91009  22006850.280    90114378.25448
  23331201.400   122606329.70808  23331198.240    95537407.85446
  20980161.720   110251521.86309  20980156.780    85910262.88348
  20893845.880   109797966.54709  20893840.140    85556848.17448
  20347644.500   106927627.08709  20347644.020    83320239.93749
  22708574.320   119334409.34509  22708573.020    92987875.26846
 15 02 21 03 18  0.0000000  0 10G01G04G11G14G16G18G19G22G27G32
  24280802.540   127596482.11908  24280804.560    99425847.68746
  21870889.900   114932344.38309  21870888.100    89557667.87948
  23313793.240   122514826.85008  23313790.200    95466093.58645
  24171682.540   127023051.91508  24171680.060    98978995.40745
  22023211.440   115732762.62809  22023208.320    90181361.39648
  23346488.240   122686662.16908  23346484.960    95600004.54045
  20971856.180   110207876.08509  20971851.220    85876253.18948
  20900072.680   109830688.47309  20900066.900    85582345.77948
  20347647.000   106927640.27209  20347646.500    83320250.21149
  22688147.080   119227063.03009  22688145.660    92904228.82547
 15 02 21 03 18 30.0000000  0 10G01G04G11G14G16G18G19G22G27G32
  24266216.480   127519832.27607  24266218.520    99366120.60746
  21859474.240   114872354.73209  21859472.380    89510922.70947
  23298214.100   122432958.09808  23298211.360    95402299.82145
  24158126.820   126951815.94208  24158124.180    98923486.87745
  22039633.100   115819059.04409  22039630.080    90248605.33748
  23361817.080   122767214.72108  23361813.440    95662772.78746
  20963600.960   110164495.00009  20963596.040    85842449.74748
  20906388.760   109863879.98109  20906382.980    85608209.29448
  20347721.340   106928030.45009  20347720.720    83320554.22749
  22667767.780   119119968.41308  22667766.220    92820778.50147
 15 02 21 03 19  0.0000000  0 10G01G04G11G14G16G18G19G22G27G32
  24251653.740   127443305.22608  24251655.740    99306489.22546
  21848101.660   114812591.32609  21848099.700    89464353.83747
  23282653.380   122351185.47408  23282650.360    95338580.90946
  24144594.820   126880704.70208  24144592.020    98868075.52844
  22056118.420   115905689.89109  22056115.360    90316109.90148
  23377187.660   122847987.18108  23377183.960    95725712.33146
  20955396.720   110121381.82709  20955391.840    85808855.07349
  20912794.200   109897541.41309  20912788.480    85634438.99148
  20347867.900   106928800.25009  20347867.180    83321154.07749
  22647437.160   119013129.60409  22647435.440    92737527.51147
 15 02 21 03 19 30.0000000  0 10G01G04G11G14G16G18G19G22G27G32
  24237114.980   127366903.73108  24237117.200    99246955.65046
  21836772.520   114753056.64909  21836770.540    89417963.19447
  23267111.620   122269512.29308  23267108.440    95274939.48445
  24131087.680   126809723.82108  24131084.680    98812765.73245
  22072667.240   115992654.67909  22072664.160    90383874.65248
  23392600.020   122928979.51408  23392596.260    95788823.21745
  20947244.320   110078540.89409  20947239.480    85775472.52548
  20919289.240   109931673.91409  20919283.640    85661035.75148
  20348087.360   106929953.42809  20348086.560    83322052.65449
  22627156.200   118906551.88209  22627154.340    92654479.96147
 15 02 21 03 20  0.0000000  0 10G01G04G11G14G16G18G19G22G27G32
  24222600.120   127290626.84708  24222601.700    99187519.13545
  21825486.800   114693749.86109  21825484.800    89371750.13347
  23251588.580   122187937.61008  23251585.700    95211374.84845
  24117605.400   126738875.09208  24117602.900    98757558.99545
  22089278.820   116079949.30809  22089275.740    90451896.42747
  23408053.640   123010188.73208  23408049.620    95852103.14845
  20939143.720   110035972.09309  20939138.920    85742302.03348
  20925873.440   109966274.55709  20925867.900    85687997.29648
  20348379.800   106931490.03709  20348378.920    83323250.01349
  22606925.220   118800237.04409  22606923.220    92571637.26146
 15 02 21 03 20 30.0000000  0 10G01G04G11G14G16G18G19G22G27G32
  24208108.600   127214473.89508  24208110.580    99128179.25846
  21814244.260   114634670.21609  21814242.240    89325714.04647
  23236084.340   122106462.06908  23236081.320    95147887.40346
  24104148.860   126668160.81708  24104146.520    98702456.95745
  22105952.760   116167571.53009  22105949.720    90520173.46048
  23423548.000   123091612.38808  23423543.880    95915550.15346
  20931095.200   109993677.13209  20931090.480    85709344.91648
  20932546.380   110001341.66909  20932540.920    85715322.31648
  20348745.260   106933410.52709  20348744.360    83324746.49549
  22586744.640   118694187.07309  22586742.540    92489000.95246
 15 02 21 03 21  0.0000000  0 10G01G04G11G14G16G18G19G22G27G32
  24193640.780   127138444.36508  24193642.520    99068935.48545
  21803044.860   114575817.31609  21803042.860    89279854.65247
  23220598.740   122025085.07309  23220595.340    95084476.79546
  24090718.200   126597583.52808  24090715.940    98647461.69645
  22122688.240   116255517.13109  22122685.220    90588702.48048
  23439082.540   123173247.56708  23439078.540    95979161.92145
  20923098.960   109951656.94909  20923094.340    85676601.92349
  20939307.780   110036873.27409  20939302.420    85743009.27848
  20349183.860   106935715.26709  20349182.940    83326542.39049
  22566614.820   118588403.83209  22566612.580    92406572.48546
 15 02 21 03 21 30.0000000  0 10G01G04G11G14G16G18G19G22G27G32
  24179196.600   127062540.40608  24179198.720    99009789.60946
  21791889.060   114517193.33409  21791887.060    89234173.62647
  23205132.300   121943809.14409  23205129.180    95021144.96845
  24077314.680   126527148.04408  24077312.860    98592576.92745
  22139485.320   116343786.14909  22139482.300    90657483.51248
  23454657.420   123255094.13708  23454653.460    96042938.46145
  20915155.700   109909915.16109  20915151.160    85644075.85948
  20946157.700   110072869.93809  20946152.360    85771058.63148
  20349696.200   106938407.53209  20349695.220    83328640.24949
  22546536.540   118482892.13409  22546534.280    92324355.62146
 15 02 21 03 22  0.0000000  0 10G01G04G11G14G16G18G19G22G27G32
  24164775.740   126986758.09708  24164777.900    98950738.48945
  21780776.120   114458794.25809  21780774.120    89188667.85347
  23189684.500   121862630.98009  23189681.560    94957889.29346
  24063938.060   126456853.47608  24063936.100    98537801.96444
  22156342.660   116432371.50109  22156339.580    90726511.04747
  23470271.420   123337146.22708  23470267.300    96106875.16545
  20907264.900   109868449.08009  20907260.420    85611764.63048
  20953094.960   110109325.65409  20953089.680    85799465.68448
  20350281.740   106941484.34509  20350280.680    83331037.75949
  22526509.640   118377650.67409  22526507.420    92242349.32746
 15 02 21 03 22 30.0000000  0 10G01G04G11G14G16G18G19G22G27G32
  24150378.400   126911099.11007  24150380.540    98891783.43946
  21769706.300   114400621.76509  21769704.280    89143338.63547
  23174255.760   121781552.84008  23174252.680    94894711.54645
  24050589.280   126386704.30208  24050587.300    98483140.29445
  22173259.960   116521272.25709  22173256.800    90795784.34947
  23485924.440   123419403.23909  23485920.420    96170971.51345
  20899427.100   109827261.44109  20899422.660    85579670.36448
  20960119.620   110146240.54909  20960114.380    85828230.54448
  20350940.940   106944948.44909  20350939.840    83333737.05649
  22506534.940   118272683.75309  22506532.780    92160556.95046
 15 02 21 03 23  0.0000000  0 10G01G04G11G14G16G18G19G22G27G32
  24136004.680   126835564.54908  24136006.760    98832925.38846
  21758679.860   114342677.06109  21758677.760    89098186.92647
  23158846.360   121700576.28809  23158843.200    94831612.98745
  24037268.940   126316704.78108  24037267.120    98428595.23145
  22190236.840   116610486.32209  22190233.660    90865301.80047
  23501616.280   123501864.48308  23501612.400    96235227.00445
  20891642.860   109786355.21809  20891638.420    85547795.38748
  20967231.560   110183614.21409  20967226.380    85857352.88948
  20351674.220   106948801.94509  20351673.060    83336739.77549
  22486613.180   118167995.07709  22486611.160    92078981.38346
 15 02 21 03 23 30.0000000  0 10G01G04G11G14G16G18G19G22G27G32
  24121654.540   126760154.70908  24121656.460    98774164.53746
  21747696.800   114284960.36809  21747694.620    89053212.87647
  23143456.480   121619701.85708  23143453.640    94768593.99745
  24023977.600   126246857.86608  24023975.680    98374169.08045
  22207272.840   116700011.49009  22207269.700    90935061.65747
  23517346.560   123584527.86008  23517342.600    96299640.03445
  20883912.540   109745732.37509  20883908.120    85516141.22849
  20974430.580   110221445.54809  20974425.520    85886831.85648
  20352481.860   106953046.13009  20352480.660    83340046.92849
  22466744.920   118063587.44208  22466743.080    91997624.80646
 15 02 21 03 24  0.0000000  0 10G01G04G11G14G16G18G19G22G27G32
  24107328.320   126684868.87407  24107329.760    98715500.21645
  21736756.940   114227470.84209  21736754.780    89008415.85347
  23128086.000   121538929.29008  23128083.160    94705654.31446
  24010715.600   126177165.89008  24010713.700    98319863.69445
  22224367.380   116789844.50009  22224364.340    91005061.38547
  23533114.760   123667390.40708  23533111.000    96364208.25146
  20876236.240   109705393.28809  20876231.840    85484708.17348
  20981716.160   110259731.90809  20981711.200    85916665.37548
  20353363.900   106957681.15509  20353362.660    83343658.62349
  22446930.520   117959462.70009  22446928.800    91916488.67946
 15 02 21 03 24 30.0000000  0 10G01G04G11G14G16G18G19G22G27G32
  24093025.780   126609709.23408  24093027.500    98656934.37546
  21725860.740   114170211.00609  21725858.680    88963797.82747
  23112735.400   121458261.57308  23112732.120    94642796.37446
  23997484.220   126107634.30108  23997482.100    98265683.24945
  22241520.520   116879985.15409  22241517.540    91075300.84147
  23548920.780   123750452.59408  23548917.280    96428931.97745
  20868614.820   109665342.51609  20868610.420    85453499.78348
  20989088.460   110298473.84209  20989083.520    85946853.90448
  20354321.000   106962710.37409  20354319.740    83347577.48549
  22427170.980   117855625.78508  22427169.340    91835576.82746
 15 02 21 03 25  0.0000000  0 10G01G04G11G14G16G18G19G22G27G32
  24078746.500   126534671.62607  24078747.840    98598463.52446
  21715007.340   114113176.37209  21715005.420    88919355.27047
  23097404.060   121377694.87708  23097400.760    94580017.14646
  23984283.020   126038261.54508  23984280.560    98211626.57444
  22258730.740   116970425.48609  22258727.820    91145773.81547
  23564763.600   123833707.88408  23564760.240    96493806.21145
  20861047.760   109625577.13909  20861043.320    85422513.78248
  20996546.420   110337665.62609  20996541.420    85977392.95648
  20355352.460   106968130.49609  20355351.220    83351800.95149
  22407465.900   117752074.88209  22407464.240    91754887.85247
 15 02 21 03 25 30.0000000  0 10G01G04G11G14G16G18G19G22G27G32
  24064490.760   126459757.46707  24064492.020    98540088.90645
  21704197.040   114056368.52109  21704195.320    88875089.43147
  23082092.320   121297231.20108  23082089.100    94517318.18246
  23971112.940   125969051.94508  23971110.220    98157697.05344
  22275997.860   117061164.73009  22275994.980    91216479.70147
  23580643.160   123917155.43308  23580639.560    96558830.28345
  20853535.580   109586099.72909  20853531.040    85391752.17249
  21004090.000   110377306.86809  21004084.860    86008282.24048
  20356458.780   106973943.94209  20356457.540    83356330.90049
  22387816.040   117648814.21109  22387814.360    91674425.02347
 15 02 21 03 26  0.0000000  0 10G01G04G11G14G16G18G19G22G27G32
  24050258.840   126384968.39808  24050259.860    98481811.69545
  21693430.260   113999789.23409  21693428.660    88831001.69848
  23066800.620   121216872.59608  23066797.160    94454701.10846
  23957974.760   125900010.27708  23957971.840    98103898.39045
  22293321.740   117152202.12109  22293318.920    91287417.92147
  23596559.220   124000794.97408  23596555.940    96624003.91745
  20846078.900   109546913.66209  20846074.200    85361217.58549
  21011719.300   110417398.14309  21011714.000    86039522.20748
  20357640.360   106980153.32609  20357639.240    83361169.38449
  22368222.220   117545847.80809  22368220.440    91594191.51447
 15 02 21 03 26 30.0000000  0 10G01G04G11G14G16G18G19G22G27G32
  24036050.760   126310305.41108  24036052.120    98423632.82645
  21682707.180   113943439.40209  21682705.620    88787092.74047
  23051529.220   121136620.70808  23051525.500    94392167.17946
  23944869.120   125831140.20008  23944866.200    98050233.39644
  22310702.000   117243535.51509  22310699.160    91358586.78147
  23612511.600   124084625.34408  23612508.380    96689326.26345
  20838678.160   109508021.64109  20838673.280    85330912.11049
  21019434.000   110457938.38209  21019428.580    86071111.99148
  20358897.600   106986760.65109  20358896.680    83366317.94249
  22348685.060   117443179.46209  22348683.280    91514190.23447
 15 02 21 03 27  0.0000000  0 10G01G04G11G14G16G18G19G22G27G32
  24021866.040   126235764.72507  24021867.520    98365549.21346
  21672027.120   113887315.30209  21672025.460    88743359.67847
  23036277.420   121056472.39708  23036274.020    94329713.99545
  23931795.840   125762440.91308  23931793.040    97996701.50744
  22328137.180   117335157.60009  22328134.340    91429980.59147
  23628499.260   124168640.89608  23628496.040    96754792.90245
  20831332.880   109469421.10909  20831327.800    85300833.77348
  21027233.040   110498922.06209  21027227.520    86103047.32648
  20360230.000   106993763.03309  20360229.180    83371774.34649
  22329204.360   117340807.82209  22329202.600    91434420.15747
 15 02 21 03 27 30.0000000  0 10G01G04G11G14G16G18G19G22G27G32
  24007704.820   126161346.26507  24007706.100    98307560.77046
  21661389.980   113831416.72309  21661388.240    88699802.36847
  23021045.360   120976427.72108  23021042.060    94267341.53446
  23918755.800   125693915.36708  23918753.120    97943304.99845
  22345626.960   117427066.79009  22345624.080    91501598.12647
  23644521.780   124252839.28108  23644518.240    96820402.06245
  20824043.300   109431113.68009  20824038.120    85270983.83648
  21035116.000   110540347.25509  21035110.440    86135326.69748
  20361637.720   107001161.21909  20361636.980    83377539.16049
  22309780.600   117238735.24809  22309778.840    91354883.12247
 15 02 21 03 28  0.0000000  0 10G01G04G11G14G16G18G19G22G27G32
  23993567.100   126087052.44708  23993568.520    98249669.55745
  21650796.260   113775746.26709  21650794.440    88656422.78447
  23005833.660   120896490.00009  23005830.360    94205052.43246
  23905750.060   125625569.14808  23905747.200    97890048.22645
  22363171.160   117519262.29409  22363168.260    91573438.76047
  23660579.180   124337221.09908  23660575.760    96886154.10345
  20816810.220   109393103.26409  20816804.940    85241365.34149
  21043083.140   110582214.98909  21043077.580    86167950.92248
  20363121.480   107008958.80909  20363120.780    83383615.20649
  22290414.760   117136966.91609  22290412.980    91275583.16647
 15 02 21 03 28 30.0000000  0 10G01G04G11G14G16G18G19G22G27G32
  23979453.100   126012882.80808  23979454.300    98191875.09346
  21640245.840   113720303.38309  21640243.940    88613220.55548
  22990642.220   120816659.22408  22990639.160    94142846.66146
  23892779.000   125557404.40908  23892776.040    97836932.85445
  22380769.220   117611740.70509  22380766.260    91645499.84347
  23676670.900   124421783.25608  23676667.500    96952046.66545
  20809633.820   109355391.13009  20809628.540    85211979.25849
  21051133.920   110624522.82809  21051128.540    86200918.06348
  20364681.320   107017156.04909  20364680.640    83390002.65649
  22271107.160   117035504.77509  22271105.380    91196521.78647
 15 02 21 03 29  0.0000000  0 10G01G04G11G14G16G18G19G22G27G32
  23965362.660   125938836.36808  23965363.760    98134176.65445
  21629738.540   113665087.04609  21629736.640    88570194.86148
  22975471.060   120736935.02609  22975468.280    94080723.96445
  23879842.800   125489423.41008  23879839.600    97783960.66745
  22398420.380   117704498.03509  22398417.320    91717778.26347
  23692796.500   124506522.98408  23692792.960    97018077.62045
  20802514.220   109317977.71909  20802509.020    85182825.96549
  21059267.920   110667268.16409  21059262.760    86234226.10748
  20366317.280   107025753.02409  20366316.580    83396701.60149
  22251858.100   116934350.44309  22251856.320    91117700.27347
 15 02 21 03 29 30.0000000  0 10G01G04G11G14G16G18G19G22G27G32
  23951296.140   125864915.98108  23951297.260    98076576.35945
  21619275.020   113610100.61509  21619273.140    88527348.30348
  22960320.860   120657320.77909  22960318.260    94018686.90946
  23866942.500   125421631.84208  23866939.560    97731136.10745
  22416124.700   117797534.73309  22416121.600    91790274.38147
  23708956.020   124591441.22808  23708952.660    97084247.65745
  20795452.300   109280867.63609  20795447.240    85153909.02348
  21067485.500   110710452.33209  21067480.500    86267876.11248
  20368030.080   107034753.52109  20368029.320    83403714.96949
  22232668.660   116833509.39909  22232666.840    91039122.85947
 15 02 21 03 30  0.0000000  0 10G01G04G11G14G16G18G19G22G27G32
  23937253.220   125791120.72408  23937254.560    98019073.61446
  21608855.000   113555342.69609  21608853.140    88484679.80948
  22945191.660   120577816.24908  22945188.800    93956735.34646
  23854078.380   125354031.69908  23854075.920    97678460.68845
  22433881.420   117890846.77709  22433878.300    91862985.05747
  23725148.920   124676535.30808  23725145.580    97150554.68146
  20788448.220   109244061.54309  20788443.260    85125228.95948
  21075786.160   110754072.55309  21075781.200    86301865.88848
  20369819.640   107044157.48509  20369818.840    83411042.73249
  22213539.120   116732983.20609  22213537.320    90960790.79047
 15 02 21 03 30 30.0000000  0 10G01G04G11G14G16G18G19G22G27G32
  23923233.960   125717449.40207  23923235.200    97961667.38746
  21598478.240   113500812.16809  21598476.360    88442188.50748
  22930083.240   120498420.50908  22930080.040    93894868.56445
  23841250.880   125286624.74108  23841248.560    97625935.79445
  22451689.840   117984430.43209  22451686.720    91935907.37947
  23741374.720   124761801.46908  23741371.180    97216995.87945
  20781502.060   109207559.57009  20781497.200    85096785.88049
  21084169.320   110798125.72809  21084164.220    86336193.05648
  20371685.880   107053964.63009  20371685.080    83418684.66249
  22194469.740   116632773.20109  22194467.960    90882705.10847
 15 02 21 03 31  0.0000000  0 10G01G04G11G14G16G18G19G22G27G32
  23909237.700   125643898.65407  23909238.780    97904355.14046
  21588144.100   113446505.80409  21588142.200    88399871.87248
  22914995.060   120419131.09108  22914991.940    93833084.63545
  23828460.260   125219410.29708  23828458.160    97573560.94545
  22469548.680   118078279.20709  22469545.620    92009036.28247
  23757632.240   124847234.34108  23757628.360    97283566.95645
  20774613.460   109171359.99609  20774608.660    85068578.42149
  21092633.880   110842606.80009  21092628.700    86370853.62748
  20373628.360   107064172.39909  20373627.560    83426638.76149
  22175460.380   116532878.46309  22175458.580    90804865.08147
 15 02 21 03 31 30.0000000  0 10G01G04G11G14G16G18G19G22G27G32
  23895265.480   125570475.18208  23895267.000    97847142.12246
  21577853.880   113392430.28309  21577851.960    88357735.11848
  22899928.500   120339955.22408  22899925.400    93771389.16546
  23815708.280   125152398.18208  23815706.200    97521343.73145
  22487458.740   118172397.52309  22487455.800    92082375.22047
  23773922.140   124932838.64608  23773918.500    97350271.52545
  20767783.980   109135470.89709  20767779.160    85040612.89648
  21101180.720   110887520.74709  21101175.520    86405851.51048
  20375648.540   107074788.48809  20375647.720    83434911.03949
  22156512.700   116433308.32609  22156510.980    90727278.00147
 15 02 21 03 32  0.0000000  0 10G01G04G11G14G16G18G19G22G27G32
  23881316.540   125497174.90208  23881317.960    97790025.11245
  21567606.880   113338581.55309  21567604.860    88315775.09448
  22884882.880   120260889.46908  22884879.600    93709779.51246
  23802994.720   125085587.65508  23802992.740    97469283.59545
  22505418.700   118266778.14409  22505415.940    92155918.53647
  23790243.540   125018608.20508  23790239.980    97417104.95245
  20761013.220   109099890.22909  20761008.380    85012887.70648
  21109808.720   110932861.36409  21109803.440    86441181.84748
  20377745.820   107085809.69009  20377744.920    83443498.98149
  22137626.480   116334061.29309  22137624.880    90649942.68747
 15 02 21 03 32 30.0000000  0 10G01G04G11G14G16G18G19G22G27G32
  23867391.180   125423997.41708  23867393.040    97733003.74245
  21557402.880   113284959.10809  21557400.780    88273991.38348
  22869858.160   120181933.74808  22869854.580    93648255.58246
  23790319.980   125018980.89208  23790317.840    97417382.22545
  22523428.000   118361418.01709  22523425.380    92229663.87747
  23806596.100   125104540.64709  23806592.400    97484065.29845
  20754301.340   109064618.75109  20754296.440    84985403.44049
  21118517.640   110978626.79309  21118512.220    86476843.22048
  20379920.240   107097236.32809  20379919.260    83452402.85349
  22118802.140   116235139.20709  22118800.580    90572860.57747
 15 02 21 03 33  0.0000000  0 10G01G04G11G14G16G18G19G22G27G32
  23853489.760   125350944.43608  23853491.420    97676079.34646
  21547242.300   113231564.85009  21547240.140    88232385.48648
  22854854.700   120103090.38108  22854851.060    93586819.22445
  23777684.780   124952582.49408  23777682.460    97365643.25145
  22541486.440   118456315.79609  22541483.860    92303610.18247
  23822979.460   125190635.43808  23822975.580    97551152.13644
  20747648.940   109029659.79609  20747643.980    84958162.69549
  21127307.420   111024817.03609  21127301.820    86512835.61148
  20382172.340   107109071.14409  20382171.280    83461624.78149
  22100040.560   116136546.56309  22100038.980    90496035.18047
 15 02 21 03 33 30.0000000  0 10G01G04G11G14G16G18G19G22G27G32
  23839612.100   125278016.32308  23839613.820    97619252.29446
  21537125.220   113178399.32509  21537123.040    88190957.82748
  22839872.840   120024360.56708  22839869.460    93525471.37545
  23765089.860   124886395.82208  23765087.520    97314069.23745
  22559593.580   118551469.16509  22559590.940    92377755.65847
  23839393.280   125276891.30408  23839389.460    97618364.51445
  20741056.380   108995015.44609  20741051.380    84931167.10549
  21136177.820   111071430.70309  21136172.040    86549157.97448
  20384502.380   107121315.24009  20384501.260    83471165.64149
  22081342.260   116038286.12509  22081340.620    90419468.62647
 15 02 21 03 34  0.0000000  0 10G01G04G11G14G16G18G19G22G27G32
  23825757.960   125205212.24208  23825759.460    97562521.89646
  21527051.400   113125461.41709  21527049.220    88149707.53548
  22824912.540   119945744.06908  22824909.380    93464211.76246
  23752535.540   124820423.08208  23752533.320    97262661.94445
  22577748.700   118646874.61709  22577745.940    92452097.54747
  23855837.320   125363305.32008  23855833.680    97685700.08845
  20734523.800   108960686.49409  20734518.800    84904417.27149
  21145128.140   111118465.03109  21145122.340    86585808.09548
  20386910.320   107133968.75809  20386909.220    83481025.52649
  22062707.620   115940359.58209  22062705.840    90343162.25047
 15 02 21 03 34 30.0000000  0 10G01G04G11G14G16G18G19G22G27G32
  23811926.920   125132529.24208  23811928.220    97505885.89145
  21517020.380   113072748.47409  21517018.220    88108632.51547
  22809973.380   119867238.57408  22809970.260    93403038.67046
  23740022.020   124754664.21708  23740019.820    97211421.28045
  22595950.620   118742526.03709  22595947.740    92526631.12147
  23872310.440   125449872.22108  23872306.840    97753154.81645
  20728050.940   108926671.52709  20728045.940    84877912.10449
  21154157.520   111165915.31109  21154151.800    86622782.33748
  20389395.680   107147029.50809  20389394.700    83491202.73149
  22044136.420   115842766.52409  22044134.500    90267115.74447
 15 02 21 03 35  0.0000000  0 10G01G04G11G14G16G18G19G22G27G32
  23798120.260   125059973.70008  23798121.460    97449349.09146
  21507033.300   113020266.62609  21507031.240    88067737.58748
  22795056.640   119788851.18308  22795053.460    93341957.59246
  23727550.920   124689128.68208  23727548.680    97160354.64045
  22614200.140   118838427.27909  22614197.080    92601359.34147
  23888813.400   125536596.69908  23888810.060    97820732.30545
  20721639.280   108892978.33909  20721634.320    84851657.67249
  21163266.900   111213785.83109  21163261.320    86660084.03748
  20391959.840   107160504.61209  20391959.020    83501702.81649
  22025630.300   115745515.61909  22025628.300    90191335.84247
 15 02 21 03 35 30.0000000  0 10G01G04G11G14G16G18G19G22G27G32
  23784336.520   124987539.23208  23784337.760    97392906.67646
  21497089.000   112968009.86809  21497087.120    88027018.05048
  22780161.340   119710576.05308  22780158.180    93280964.02746
  23715121.720   124623812.77708  23715119.120    97109459.13745
  22632495.440   118934569.16709  22632492.280    92676275.09247
  23905344.880   125623470.53408  23905341.640    97888426.18145
  20715288.000   108859602.21809  20715283.040    84825650.30649
  21172454.720   111262068.50809  21172449.240    86697706.90248
  20394601.800   107174388.64409  20394601.140    83512521.54249
  22007188.440   115648603.15609  22007186.480    90115819.66047
 15 02 21 03 36  0.0000000  0 10G01G04G11G14G16G18G19G22G27G32
  23770576.320   124915229.31108  23770577.560    97336561.34746
  21487188.220   112915981.51709  21487186.420    87986476.49447
  22765288.260   119632417.25708  22765285.160    93220061.10546
  23702735.480   124558723.13008  23702732.900    97058739.96345
  22650836.560   119030951.94609  22650833.300    92751378.55447
  23921904.980   125710494.61208  23921901.880    97956237.11945
  20708998.060   108826548.30009  20708993.060    84799894.01249
  21181721.320   111310765.10309  21181715.900    86735652.30148
  20397322.340   107188685.81409  20397321.780    83523662.19449
  21988811.980   115552035.01909  21988810.120    90040571.79747
 15 02 21 03 36 30.0000000  0 10G01G04G11G14G16G18G19G22G27G32
  23756839.460   124843042.07408  23756840.740    97280311.60146
  21477330.520   112864179.38709  21477328.740    87946111.21448
  22750437.100   119554373.52408  22750434.020    93159247.82646
  23690392.580   124493860.67908  23690389.920    97008197.79945
  22669222.680   119127571.64309  22669219.440    92826666.61147
  23938493.120   125797665.47108  23938489.860    98024162.49245
  20702769.400   108793816.15009  20702764.300    84774388.43649
  21191066.000   111359871.90709  21191060.680    86773917.34748
  20400121.300   107203394.99709  20400120.780    83535123.89449
  21970501.080   115455811.71709  21970499.300    89965592.61647
 15 02 21 03 37  0.0000000  0 10G01G04G11G14G16G18G19G22G27G32
  23743126.180   124770979.96407  23743127.700    97224159.35346
  21467516.460   112812606.58809  21467514.660    87905924.64848
  22735608.540   119476448.21408  22735605.280    93098526.81746
  23678093.940   124429230.91608  23678091.420    96957836.97245
  22687653.760   119224427.76109  22687650.620    92902138.89647
  23955109.260   125884983.76608  23955105.800    98092202.68344
  20696602.780   108761409.91309  20696597.540    84749136.81649
  21200488.820   111409389.56209  21200483.660    86812502.51748
  20402999.340   107218519.54609  20402998.800    83546909.24649
  21952256.800   115359938.27709  21952255.120    89890886.06447
 15 02 21 03 37 30.0000000  0 10G01G04G11G14G16G18G19G22G27G32
  23729436.360   124699039.42408  23729437.820    97168101.81046
  21457745.320   112761259.17609  21457743.520    87865913.70247
  22720801.920   119398638.26508  22720798.500    93037895.68846
  23665839.520   124364833.16508  23665837.100    96907656.93746
  22706128.540   119321513.48309  22706125.500    92977790.09847
  23971752.440   125972443.74408  23971749.020    98160353.34245
  20690497.820   108729327.60109  20690492.460    84724137.61049
  21209988.960   111459312.70609  21209983.760    86851403.66448
  20405955.940   107234056.55809  20405955.380    83559016.00249
  21934078.980   115264413.48809  21934077.360    89816451.19347
 15 02 21 03 38  0.0000000  0 10G01G04G11G14G16G18G19G22G27G32
  23715770.240   124627223.42408  23715771.640    97112141.32946
  21448017.740   112710140.40609  21448015.880    87826080.88848
  22706017.900   119320947.30009  22706014.340    92977357.28446
  23653630.440   124300673.30508  23653628.040    96857662.24246
  22724647.080   119418828.89409  22724644.060    93053620.27847
  23988422.680   126060046.39408  23988419.300    98228615.11645
  20684455.240   108697573.37909  20684449.860    84699394.06349
  21219566.480   111509641.97809  21219561.120    86890621.27848
  20408991.800   107250009.84709  20408991.180    83571447.13349
  21915968.660   115169242.90309  21915967.000    89742292.31947
 15 02 21 03 38 30.0000000  0 10G01G04G11G14G16G18G19G22G27G32
  23702127.740   124555532.23308  23702128.940    97056278.11046
  21438333.760   112659250.58209  21438331.880    87786426.49748
  22691256.720   119243376.45808  22691253.100    92916912.47446
  23641467.120   124236754.66408  23641464.940    96807855.56446
  22743208.980   119516371.99809  22743205.920    93129627.90447
  24005119.680   126147789.94508  24005116.440    98296986.67544
  20678475.520   108666149.77509  20678470.180    84674908.14849
  21229220.980   111560376.34309  21229215.440    86930154.54948
  20412107.080   107266380.50509  20412106.420    83584203.49349
  21897926.260   115074429.00709  21897924.500    89668411.38447
 15 02 21 03 39  0.0000000  0 10G01G04G11G14G16G18G19G22G27G32
  23688508.460   124483962.96408  23688509.820    97000509.89446
  21428692.860   112608586.83309  21428690.920    87746948.26048
  22676517.800   119165923.16308  22676514.280    92856559.25946
  23629349.820   124173077.12608  23629347.520    96758236.68945
  22761813.020   119614136.75409  22761809.960    93205808.21747
  24021842.640   126235669.60308  24021839.300    98365464.35244
  20672558.360   108635055.14909  20672553.100    84650678.57449
  21238951.520   111611510.60209  21238945.980    86969999.42248
  20415301.400   107283166.29909  20415300.680    83597283.32549
  21879951.660   114979971.53409  21879949.820    89594808.19347
 15 02 21 03 39 30.0000000  0 10G01G04G11G14G16G18G19G22G27G32
  23674913.020   124412518.57408  23674914.240    96944838.94846
  21419095.580   112558152.03709  21419093.540    87707648.43248
  22661801.980   119088591.31109  22661798.540    92796300.70846
  23617279.300   124109646.67808  23617277.060    96708810.41945
  22780459.180   119712123.29309  22780456.200    93282161.37946
  24038591.560   126323686.37908  24038588.100    98434048.90844
  20666704.580   108604293.92409  20666699.460    84626708.79649
  21248758.480   111663046.07009  21248752.760    87010156.94448
  20418575.460   107300370.89109  20418574.680    83610689.50149
  21862045.840   114885875.79909  21862043.960    89521486.86147
 15 02 21 03 40  0.0000000  0 10G01G04G11G14G16G18G19G22G27G32
  23661341.200   124341198.35208  23661342.500    96889264.78046
  21409541.660   112507945.44609  21409539.580    87668526.41547
  22647109.260   119011380.97209  22647105.700    92736136.80646
  23605256.140   124046465.42008  23605253.980    96659578.29745
  22799146.800   119810328.13209  22799143.980    93358684.60547
  24055365.960   126411837.76508  24055362.900    98502738.21145
  20660914.380   108573867.01109  20660909.400    84602999.51549
  21258641.140   111714980.01909  21258635.540    87050624.95348
  20421929.220   107317994.32009  20421928.380    83624422.03649
  21844209.120   114792143.39209  21844207.320    89448448.64947
 15 02 21 03 40 30.0000000  0 10G01G04G11G14G16G18G19G22G27G32
  23647792.560   124269999.63108  23647793.680    96833785.30146
  21400030.640   112457964.58609  21400028.580    87629580.30347
  22632439.240   118934290.01409  22632435.720    92676065.94646
  23593280.500   123983533.48808  23593278.460    96610540.44245
  22817874.920   119908745.76909  22817872.280    93435373.66247
  24072165.240   126500118.80608  24072162.460    98571528.63145
  20655187.660   108543773.39109  20655182.800    84579549.95149
  21268598.760   111767307.87909  21268593.200    87091399.90848
  20425362.280   107336034.67009  20425361.380    83638479.45249
  21826441.500   114698774.15809  21826439.780    89375693.42647
 15 02 21 03 41  0.0000000  0 10G01G04G11G14G16G18G19G22G27G32
  23634267.420   124198924.46208  23634268.720    96778402.07246
  21390562.840   112408211.56809  21390560.920    87590811.71348
  22617792.500   118857321.31509  22617788.860    92616090.36346
  23581353.360   123920856.06308  23581351.380    96561700.91346
  22836643.400   120007375.25409  22836640.860    93512227.79247
  24088989.240   126588529.90908  24088986.760    98640420.34645
  20649525.160   108514016.69209  20649520.320    84556362.91349
  21278631.460   111820029.92809  21278625.840    87132482.02548
  20428875.060   107354494.71609  20428874.160    83652863.89349
  21808743.860   114605772.62109  21808742.220    89303224.71847
 15 02 21 03 41 30.0000000  0 10G01G04G11G14G16G18G19G22G27G32
  23620765.680   124127972.24808  23620766.560    96723114.64946
  21381138.260   112358685.83309  21381136.520    87552220.24848
  22603169.060   118780474.94209  22603165.280    92556210.09746
  23569475.080   123858435.51408  23569472.780    96513061.55745
  22855451.720   120106213.62209  22855449.120    93589244.69647
  24105837.560   126677068.41008  24105835.020    98709411.42044
  20643927.040   108484597.84009  20643922.140    84533439.13049
  21288738.680   111873143.62609  21288733.100    87173869.32548
  20432467.660   107373374.50609  20432466.840    83667575.41449
  21791116.480   114513140.32209  21791114.880    89231043.72647
 15 02 21 03 42  0.0000000  0 10G01G04G11G14G16G18G19G22G27G32
  23607286.780   124057140.39408  23607288.080    96667921.08346
  21371756.480   112309384.85909  21371754.860    87513803.89848
  22588568.520   118703748.97608  22588564.840    92496423.63746
  23557645.820   123796272.00208  23557643.660    96464622.48746
  22874298.700   120205254.97309  22874296.020    93666419.75947
  24122709.340   126765730.53507  24122706.500    98778498.81844
  20638393.000   108455515.76909  20638388.040    84510777.78549
  21298919.420   111926644.07009  21298913.880    87215557.97948
  20436139.740   107392672.15009  20436139.040    83682612.53749
  21773559.460   114420877.25709  21773557.780    89159150.46047
 15 02 21 03 42 30.0000000  0 10G01G04G11G14G16G18G19G22G27G32
  23593831.720   123986433.53208  23593832.960    96612824.81246
  21362418.400   112260313.24609  21362416.780    87475566.28348
  22573991.880   118627148.76208  22573988.380    92436735.18446
  23545866.940   123734373.03408  23545864.620    96416389.51945
  22893184.680   120304500.99509  22893181.920    93743754.31547
  24139604.920   126854517.86208  24139602.080    98847683.69244
  20632924.240   108426776.87909  20632919.200    84488383.84449
  21309174.320   111980534.73409  21309168.940    87257550.70548
  20439892.360   107412392.92909  20439891.760    83697979.37649
  21756074.020   114328990.32909  21756072.280    89087550.27447
 15 02 21 03 43  0.0000000  0 10G01G04G11G14G16G18G19G22G27G32
  23580399.940   123915848.53908  23580400.820    96557823.50546
  21353123.380   112211467.93809  21353121.780    87437505.02348
  22559438.700   118550671.77408  22559435.380    92377142.77946
  23534138.200   123672738.25508  23534136.100    96368362.45546
  22912108.600   120403946.38508  22912105.760    93821244.22347
  24156523.720   126943425.66308  24156520.640    98916962.54345
  20627520.480   108398379.45609  20627515.300    84466255.99049
  21319502.520   112034810.25709  21319497.300    87299843.31548
  20443725.060   107432534.39709  20443724.520    83713674.01849
  21738660.040   114237478.76009  21738658.160    89016242.58548
 15 02 21 03 43 30.0000000  0 10G01G04G11G14G16G18G19G22G27G32
  23566991.740   123845387.83908  23566993.020    96502919.14146
  21343871.900   112162851.45509  21343870.320    87399622.06448
  22544909.640   118474321.48708  22544906.500    92317649.07946
  23522460.720   123611373.11708  23522458.460    96320545.49345
  22931070.260   120503590.17108  22931067.400    93898888.72147
  24173465.600   127032454.74008  24173462.660    98986335.80545
  20622182.440   108370327.37209  20622177.080    84444397.23649
  21329904.020   112089470.98609  21329898.920    87342436.09848
  20447638.440   107453099.61109  20447637.900    83729698.85849
  21721318.340   114146347.34609  21721316.380    88945231.13548
 15 02 21 03 44  0.0000000  0 10G01G04G11G14G16G18G19G22G27G32
  23553606.900   123775050.40008  23553607.920    96448110.76846
  21334663.800   112114462.72909  21334662.220    87361916.57948
  22530404.660   118398097.56808  22530401.620    92258253.82246
  23510835.100   123550279.64008  23510832.780    96272940.18746
  22950069.020   120603429.03409  22950066.160    93976685.22847
  24190429.840   127121602.28908  24190426.800    99055801.44844
  20616910.240   108342621.37509  20616904.720    84422808.15149
  21340378.220   112144513.74409  21340373.260    87385326.55448
  20451632.440   107474088.25109  20451631.880    83746053.64949
  21704049.200   114055597.39809  21704047.140    88874516.91847
 15 02 21 03 44 30.0000000  0 10G01G04G11G14G16G18G19G22G27G32
  23540245.440   123704835.85408  23540246.660    96393398.18346
  21325499.000   112066301.53509  21325497.440    87324388.37448
  22515923.780   118322000.23209  22515920.800    92198957.21546
  23499261.420   123489460.08008  23499258.880    96225548.35045
  22969104.240   120703459.50109  22969101.400    94054631.04147
  24207416.100   127210865.58508  24207413.080    99125357.21045
  20611704.080   108315262.63509  20611698.460    84401489.64749
  21350924.660   112199936.62709  21350919.800    87428513.21048
  20455707.080   107495500.51609  20455706.500    83762738.52649
  21686853.000   113965230.91409  21686850.900    88804101.49147
 15 02 21 03 45  0.0000000  0 10G01G04G11G14G16G18G19G22G27G32
  23526907.220   123634742.78508  23526908.540    96338780.22246
  21316377.260   112018366.36509  21316375.640    87287036.29248
  22501466.940   118246029.07208  22501463.960    92139758.93146
  23487740.200   123428916.18808  23487737.980    96178371.32546
  22988175.120   120803677.32109  22988172.220    94132722.84247
  24224423.900   127300241.50708  24224420.480    99195000.80444
  20606563.980   108288251.18509  20606558.280    84380441.77649
  21361542.900   112255736.32009  21361538.160    87471993.49148
  20459862.220   107517335.55109  20459861.600    83779752.84349
  21669729.900   113875248.66609  21669727.820    88733985.48647
 15 02 21 03 45 30.0000000  0 10G01G04G11G14G16G18G19G22G27G32
  23513592.060   123564771.60708  23513593.140    96284257.28346
  21307298.620   111970657.86409  21307297.000    87249860.84848
  22487034.240   118170184.80109  22487031.240    92080659.52146
  23476272.060   123368651.05508  23476269.440    96131411.46245
  23007281.140   120904079.86609  23007278.200    94210958.57947
  24241452.780   127389728.53908  24241449.120    99264731.01444
  20601490.300   108261588.98809  20601484.560    84359666.03649
  21372232.580   112311910.98809  21372227.800    87515765.96248
  20464098.040   107539594.41209  20464097.300    83797097.40449
  21652680.420   113785653.35109  21652678.400    88664170.98848
 15 02 21 03 46  0.0000000  0 10G01G04G11G14G16G18G19G22G27G32
  23500300.900   123494926.68108  23500302.160    96229832.72146
  21298264.000   111923180.32309  21298262.320    87212865.38148
  22472626.760   118094472.86409  22472623.620    92021663.23046
  23464858.260   123308671.72808  23464856.060    96084674.38146
  23026422.540   121004668.72809  23026419.580    94289339.49446
  24258503.220   127479329.39508  24258499.780    99334549.83245
  20596484.120   108235281.90509  20596478.460    84339167.01849
  21382994.080   112368463.09209  21382989.280    87559832.53048
  20468415.400   107562282.07409  20468414.600    83814776.10649
  21635705.880   113696451.75409  21635703.900    88594663.28748
 15 02 21 03 46 30.0000000  0 10G01G04G11G14G16G18G19G22G27G32
  23487032.460   123425200.62308  23487033.880    96175500.73646
  21289271.980   111875926.51609  21289270.180    87176044.24748
  22458243.220   118018886.59109  22458239.880    91962764.85446
  23453498.060   123248973.86808  23453496.020    96038156.58546
  23045597.440   121105433.96008  23045594.600    94367857.85046
  24275573.500   127569034.64308  24275570.080    99404450.02944
  20591544.400   108209324.24409  20591538.900    84318940.27449
  21393825.720   112425383.24309  21393820.740    87604185.90048
  20472813.000   107585391.73409  20472812.240    83832783.62949
  21618805.220   113607638.67009  21618803.340    88525458.30247
 15 02 21 03 47  0.0000000  0 10G01G04G11G14G16G18G19G22G27G32
  23473787.140   123355596.09208  23473788.480    96121263.44546
  21280323.080   111828899.15109  21280321.160    87139399.54948
  22443884.280   117943429.54508  22443880.840    91903967.17146
  23442192.640   123189563.16208  23442190.780    95991862.53645
  23064805.880   121206375.41909  23064803.120    94446513.51646
  24292663.860   127658845.33208  24292660.320    99474432.41444
  20586671.980   108183720.17509  20586666.600    84298989.04849
  21404727.580   112482672.01009  21404722.520    87648826.48048
  20477291.520   107608926.53909  20477290.780    83851122.42249
  21601979.460   113519219.08009  21601977.640    88456559.93548
 15 02 21 03 47 30.0000000  0 10G01G04G11G14G16G18G19G22G27G32
  23460565.500   123286116.13008  23460566.660    96067123.30746
  21271417.840   111782101.21109  21271415.780    87102933.63348
  22429550.560   117868105.30109  22429547.060    91845272.98846
  23430943.060   123130445.41108  23430940.980    95945796.75246
  23084047.900   121307492.94309  23084045.060    94525306.38847
  24309774.500   127748762.23408  24309771.080    99544497.52043
  20581867.740   108158474.26209  20581862.480    84279316.92349
  21415699.900   112540330.77409  21415694.640    87693755.39948
  20481851.700   107632890.20209  20481850.940    83869795.40049
  21585229.660   113431198.17409  21585227.780    88387972.24948
 15 02 21 03 48  0.0000000  0 10G01G04G11G14G16G18G19G22G27G32
  23447367.360   123216759.76508  23447368.680    96013079.43646
  21262556.100   111735531.93809  21262553.960    87066645.88648
  22415242.120   117792913.89909  22415238.600    91786682.29246
  23419749.240   123071622.26508  23419747.360    95899960.59445
  23103322.760   121408783.01809  23103319.840    94604233.71746
  24326904.840   127838782.89908  24326901.700    99614643.56445
  20577131.860   108133587.17309  20577126.620    84259924.39249
  21426741.960   112598356.40809  21426736.540    87738970.17348
  20486493.400   107657282.28509  20486492.580    83888802.21149
  21568556.000   113343577.42309  21568554.020    88319696.35347
 15 02 21 03 48 30.0000000  0 10G01G04G11G14G16G18G19G22G27G32
  23434192.020   123147523.41408  23434193.200    95959129.06346
  21253737.160   111689187.70409  21253734.960    87030533.49648
  22400958.320   117717852.43108  22400954.900    91728192.83646
  23408611.480   123013093.27708  23408609.620    95854353.62146
  23122629.240   121510239.25809  23122626.320    94683290.51746
  24344053.820   127928901.67308  24344050.700    99684866.02445
  20572463.900   108109056.73609  20572458.640    84240809.77049
  21437852.740   112656743.49709  21437847.200    87784466.60348
  20491215.980   107682099.71309  20491215.240    83908140.46349
  21551958.160   113256355.45309  21551956.200    88251731.20447
 15 02 21 03 49  0.0000000  0 10G01G04G11G14G16G18G19G22G27G32
  23421040.020   123078409.18808  23421041.040    95905273.86946
  21244961.480   111643070.82109  21244959.280    86994598.28548
  22386699.780   117642923.85209  22386696.520    91669806.96346
  23397530.740   122954863.17508  23397528.320    95808979.48946
  23141967.260   121611861.07309  23141964.280    94762476.35446
  24361221.500   128019118.86108  24361218.560    99755165.05445
  20567864.560   108084886.81009  20567859.240    84221976.06849
  21449032.200   112715492.10309  21449026.740    87830244.73348
  20496019.980   107707345.07409  20496019.340    83927812.16549
  21535436.920   113169536.46909  21535435.000    88184080.07048
 15 02 21 03 49 30.0000000  0 10G01G04G11G14G16G18G19G22G27G32
  23407911.360   123009417.98408  23407912.620    95851514.53647
  21236229.220   111597182.05109  21236226.980    86958840.81348
  22372466.920   117568129.87009  22372463.820    91611525.96146
  23386507.540   122896935.33208  23386505.520    95763840.99446
  23161336.400   121713646.33108  23161333.440    94841789.53547
  24378407.780   128109433.52208  24378404.660    99825540.17444
  20563334.200   108061079.46509  20563328.860    84203424.89449
  21460280.200   112774601.03609  21460274.740    87876303.64948
  20500905.660   107733019.73209  20500905.100    83947818.38649
  21518992.980   113083123.60309  21518991.160    88116745.40948
 15 02 21 03 50  0.0000000  0 10G01G04G11G14G16G18G19G22G27G32
  23394805.420   122940546.53208  23394806.720    95797848.49747
  21227539.740   111551518.47109  21227537.500    86923258.82248
  22358259.240   117493468.10809  22358256.180    91553347.98046
  23375541.740   122839309.81108  23375539.240    95718937.98546
  23180735.500   121815588.95108  23180732.520    94921225.34346
  24395611.740   128199840.53708  24395608.540    99895987.19245
  20558872.540   108037633.21309  20558867.240    84185155.08349
  21471595.740   112834065.50409  21471590.400    87922639.58148
  20505872.560   107759121.02009  20505872.040    83968157.05049
  21502626.220   112997115.82809  21502624.420    88049726.37748
 15 02 21 03 50 30.0000000  0 10G01G04G11G14G16G18G19G22G27G32
  23381723.200   122871799.24708  23381724.360    95744279.20647
  21218893.840   111506084.17209  21218891.580    86887855.48148
  22344077.740   117418943.64109  22344074.640    91495276.99246
  23364634.920   122781993.84108  23364632.740    95674276.21846
  23200164.760   121917690.42208  23200161.820    95000784.91746
  24412833.780   128290342.45908  24412830.400    99966508.18645
  20554480.580   108014553.54109  20554475.380    84167170.92349
  21482979.320   112893887.25609  21482974.060    87969253.92248
  20510921.640   107785653.77909  20510921.040    83988831.91449
  21486337.800   112911519.74809  21486336.000    87983028.14147
 15 02 21 03 51  0.0000000  0 10G01G04G11G14G16G18G19G22G27G32
  23368664.200   122803173.30808  23368665.500    95690804.50946
  21210291.080   111460876.83909  21210288.900    86852629.02048
  22329922.000   117344554.72209  22329918.960    91437311.61746
  23353786.860   122724987.09508  23353784.840    95629855.39246
  23219623.200   122019945.19908  23219620.200    95080463.94746
  24430072.900   128380934.79808  24430069.700   100037099.53846
  20550158.280   107991839.66409  20550153.140    84149471.80949
  21494430.060   112954061.51909  21494424.880    88016142.96048
  20516052.400   107812615.56809  20516051.680    84009841.09149
  21470127.620   112826334.64009  21470125.800    87916650.14948
 15 02 21 03 51 30.0000000  0 10G01G04G11G14G16G18G19G22G27G32
  23355628.360   122734669.64808  23355629.660    95637425.06547
  21201731.640   111415897.08509  21201729.560    86817579.87848
  22315792.340   117270302.86809  22315789.240    91379453.06946
  23342998.380   122668293.53108  23342996.420    95585678.60546
  23239110.300   122122350.59508  23239107.280    95160260.36046
  24447329.080   128471616.83308  24447326.020   100107760.78244
  20545906.080   107969494.14209  20545901.000    84132059.72249
  21505947.700   113014587.37309  21505942.560    88063305.95248
  20521265.040   107840007.91609  20521264.220    84031185.76749
  21453996.220   112741563.64709  21453994.420    87850594.85148
 15 02 21 03 52  0.0000000  0 10G01G04G11G14G16G18G19G22G27G32
  23342615.280   122666285.56708  23342616.360    95584138.82146
  21193215.080   111371142.41009  21193213.020    86782706.12448
  22301688.360   117196185.95609  22301685.140    91321699.61846
  23332269.520   122611912.99708  23332267.560    95541745.73346
  23258625.260   122224902.58908  23258622.260    95240170.99046
  24464601.440   128562383.80308  24464598.120   100178488.34845
  20541723.640   107947515.42109  20541718.620    84114933.44849
  21517531.440   113075460.23809  21517526.380    88110739.34948
  20526559.160   107867828.49409  20526558.240    84052864.12949
  21437943.580   112657206.32609  21437941.740    87784861.89648
 15 02 21 03 52 30.0000000  0 10G01G04G11G14G16G18G19G22G27G32
  23329625.400   122598023.35508  23329626.620    95530947.51846
  21184741.800   111326615.19909  21184739.780    86748009.62048
  22287610.740   117122207.47908  22287607.400    91264054.08147
  23321601.280   122555851.00908  23321599.360    95498061.09045
  23278167.980   122327600.30708  23278164.960    95320195.19246
  24481890.180   128653236.30008  24481886.660   100249282.48443
  20537611.720   107925907.27009  20537606.720    84098095.93149
  21529181.240   113136680.10309  21529176.160    88158443.14248
  20531935.320   107896080.00709  20531934.320    84074878.29549
  21421970.520   112573267.03209  21421968.580    87719454.68548
 15 02 21 03 53  0.0000000  0 10G01G04G11G14G16G18G19G22G27G32
  23316658.740   122529882.94708  23316660.040    95477851.14147
  21176311.800   111282315.37909  21176309.740    86713490.29448
  22273559.620   117048368.33209  22273556.200    91206517.10346
  23310994.060   122500109.87908  23310991.980    95454626.46346
  23297737.820   122430440.49708  23297734.740    95400330.38746
  24499194.780   128744172.54508  24499191.020   100320141.97144
  20533570.580   107904671.07509  20533565.580    84081548.24949
  21540896.840   113198245.09309  21540891.580    88206415.86248
  20537393.540   107924762.83609  20537392.480    84097228.53949
  21406077.400   112489747.80809  21406075.360    87654374.77548
 15 02 21 03 53 30.0000000  0 10G01G04G11G14G16G18G19G22G27G32
  23303715.100   122461863.54408  23303716.220    95424849.03646
  21167924.940   111238242.28209  21167922.800    86679147.63548
  22259535.000   116974668.46508  22259531.620    91149088.63547
  23300448.280   122444691.47508  23300445.960    95411443.30846
  23317333.980   122533419.41508  23317330.840    95480573.68946
  24516514.760   128835189.70708  24516511.300   100391064.37744
  20529600.420   107883807.82009  20529595.420    84065291.17749
  21552677.600   113260152.46909  21552672.060    88254655.38048
  20542933.680   107953876.51609  20542932.640    84119914.51549
  21390264.400   112406649.95609  21390262.340    87589623.21747
 15 02 21 03 54  0.0000000  0 10G01G04G11G14G16G18G19G22G27G32
  23290794.580   122393965.89008  23290795.540    95371941.83646
  21159581.300   111194396.66809  21159579.200    86644982.23848
  22245537.260   116901109.76809  22245533.980    91091770.21546
  23289964.660   122389599.59908  23289962.260    95368514.60046
  23336956.220   122636535.20008  23336953.100    95560923.64346
  24533850.060   128926286.89209  24533846.000   100462049.31842
  20525701.620   107863319.59309  20525696.640    84049326.33749
  21564523.200   113322400.55309  21564517.400    88303160.39448
  20548556.000   107983422.28809  20548555.000    84142937.19549
  21374532.060   112323976.33709  21374530.040    87525202.23848
 15 02 21 03 54 30.0000000  0 10G01G04G11G14G16G18G19G22G27G32
  23277896.900   122326187.81408  23277897.920    95319127.76347
  21151280.640   111150776.76209  21151278.560    86610992.71648
  22231566.000   116827690.15709  22231562.640    91034560.13946
  23279543.140   122334834.52808  23279540.780    95325840.53945
  23356603.520   122739782.57108  23356600.320    95641376.14946
  24551199.800   129017459.95808  24551195.720   100533093.33543
  20521874.080   107843205.52909  20521869.060    84033653.04149
  21576432.800   113384985.52109  21576426.940    88351927.90648
  20554260.200   108013398.21109  20554259.260    84166295.04549
  21358880.400   112241726.80509  21358878.420    87461111.70848
 15 02 21 03 55  0.0000000  0 10G01G04G11G14G16G18G19G22G27G32
  23265022.860   122258534.68408  23265023.640    95266411.10246
  21143023.860   111107387.43509  21143021.800    86577182.86248
  22217622.460   116754416.32009  22217618.980    90977463.68646
  23269185.320   122280404.44408  23269183.080    95283427.50445
  23376276.440   122843164.24108  23376273.040    95721933.28145
  24568564.660   129108712.86308  24568560.400   100604199.56643
  20518119.080   107823472.47709  20518113.980    84018276.63549
  21588407.020   113447910.74809  21588401.240    88400960.52448
  20560047.360   108043810.06809  20560046.500    84189992.58549
  21343310.920   112159908.80109  21343308.920    87397357.43148
 15 02 21 03 55 30.0000000  0 10G01G04G11G14G16G18G19G22G27G32
  23252171.220   122190999.79308  23252172.280    95213786.57947
  21134809.820   111064222.40509  21134807.700    86543547.79148
  22203705.480   116681282.27008  22203701.900    90920476.10047
  23258890.600   122226305.41208  23258888.240    95241272.42446
  23395973.180   122946671.06608  23395969.660    95802587.96546
  24585943.040   129200037.12408  24585938.780   100675361.38545
  20514435.640   107804115.43309  20514430.460    84003193.23449
  21600444.320   113511167.30209  21600438.680    88450251.35448
  20565916.300   108074651.52209  20565915.540    84214024.88549
  21327822.760   112078517.67109  21327820.720    87333935.78448
 15 02 21 03 56  0.0000000  0 10G01G04G11G14G16G18G19G22G27G32
  23239342.720   122123586.00408  23239343.740    95161256.36846
  21126639.020   111021284.66709  21126636.920    86510089.83348
  22189815.820   116608291.88209  22189812.280    90863600.52446
  23248660.020   122172542.79208  23248657.440    95199379.50045
  23415693.640   123050302.56208  23415690.040    95883339.78646
  24603335.120   129291433.63608  24603331.300   100746579.35544
  20510824.560   107785138.67509  20510819.240    83988406.15249
  21612544.760   113574756.01409  21612539.320    88499800.99148
  20571867.580   108105925.67309  20571866.880    84238394.33949
  21312416.800   111997558.38209  21312414.780    87270850.64048
 15 02 21 03 56 30.0000000  0 10G01G04G11G14G16G18G19G22G27G32
  23226537.520   122056294.13408  23226538.880    95108821.20547
  21118511.660   110978575.03609  21118509.580    86476809.61648
  22175953.820   116535446.75709  22175950.320    90806838.08446
  23238494.220   122119120.45608  23238491.460    95157751.72446
  23435437.480   123154057.20508  23435433.940    95964187.54345
  24620740.720   129382901.58306  24620736.880   100817853.27245
  20507286.220   107766544.40209  20507280.820    83973917.11249
  21624708.240   113638675.91109  21624702.860    88549608.70548
  20577901.420   108137633.75809  20577900.740    84263101.93449
  21297093.560   111917033.74009  21297091.540    87208104.19448
 15 02 21 03 57  0.0000000  0 10G01G04G11G14G16G18G19G22G27G32
  23213755.940   121989126.69908  23213757.140    95056482.97846
  21110428.200   110936096.11709  21110426.120    86443709.18648
  22162120.100   116462750.31209  22162116.640    90750191.53746
  23228393.920   122066043.37908  23228391.180    95116392.98946
  23455204.540   123257934.52608  23455201.200    96045130.90446
  24638159.860   129474441.67807  24638156.840   100889183.03645
  20503821.360   107748336.55009  20503815.960    83959729.18249
  21636934.800   113702927.30609  21636929.560    88599674.72348
  20584018.400   108169778.57309  20584017.680    84288149.84649
  21281853.900   111836948.26009  21281851.860    87145699.94048
 15 02 21 03 57 30.0000000  0 10G01G04G11G14G16G18G19G22G27G32
  23200996.900   121922077.67208  23200998.060    95004236.99647
  21102387.480   110893841.77209  21102385.440    86410783.72048
  22148313.720   116390197.63109  22148310.340    90693656.98347
  23218358.700   122013308.40408  23218356.080    95075300.82546
  23474993.200   123361925.60608  23474990.160    96126162.90446
  24655591.180   129566046.28707  24655588.680   100960563.22445
  20500429.100   107730510.50809  20500423.820    83945838.75949
  21649222.820   113767501.75209  21649217.700    88649992.46948
  20590217.460   108202354.34109  20590216.600    84313533.54549
  21266696.960   111757297.94309  21266694.900    87083634.77648
 15 02 21 03 58  0.0000000  0 10G01G04G11G14G16G18G19G22G27G32
  23188260.460   121855147.15808  23188261.640    94952083.38546
  21094389.640   110851812.33509  21094387.580    86378033.52448
  22134534.840   116317789.38809  22134531.520    90637235.00446
  23208389.060   121960918.06008  23208386.520    95034477.18946
  23494803.100   123466027.83708  23494800.200    96207281.52246
  24673034.820   129657713.45208  24673032.560   101031992.17846
  20497109.780   107713067.89709  20497104.600    83932247.12349
  21661571.980   113832397.50909  21661566.900    88700560.58448
  20596498.580   108235361.44009  20596497.560    84339253.35349
  21251623.120   111678084.86209  21251621.120    87021910.32348
 15 02 21 03 58 30.0000000  0 10G01G04G11G14G16G18G19G22G27G32
  23175547.020   121788337.63708  23175548.300    94900024.06746
  21086435.040   110810010.24109  21086432.920    86345460.48048
  22120784.200   116245529.07509  22120780.840    90580928.27647
  23198486.020   121908877.60708  23198483.640    94993926.19546
  23514634.100   123570240.76908  23514631.280    96288486.37946
  24690490.720   129749444.18808  24690488.380   101103470.67945
  20493864.160   107696012.40309  20493859.020    83918957.12149
  21673982.500   113897615.13809  21673977.460    88751379.51548
  20602862.240   108268802.64909  20602861.140    84365311.43249
  21236633.260   111599313.49109  21236631.280    86960530.03848
 15 02 21 03 59  0.0000000  0 10G01G04G11G14G16G18G19G22G27G32
  23162856.540   121721648.66508  23162857.760    94848058.66547
  21078523.640   110768435.46609  21078521.540    86313064.56248
  22107061.800   116173417.28709  22107058.420    90524737.30547
  23188650.020   121857189.05908  23188647.640    94953649.42746
  23534485.680   123674561.06108  23534482.860    96369774.90845
  24707958.240   129841236.38608  24707955.680   101174997.04344
  20490692.480   107679345.41009  20490687.400    83905969.85849
  21686453.800   113963151.95409  21686448.780    88802447.17048
  20609308.380   108302677.67409  20609307.320    84391707.55849
  21221727.720   111520985.23309  21221725.780    86899495.04748
 15 02 21 03 59 30.0000000  0 10G01G04G11G14G16G18G19G22G27G32
  23150188.700   121655078.29908  23150189.580    94796185.66346
  21070655.060   110727085.91209  21070652.920    86280844.13848
  22093367.420   116101452.77609  22093364.000    90468661.05547
  23178881.240   121805853.34608  23178878.760    94913647.58246
  23554356.980   123778984.58509  23554354.060    96451143.89445
  24725436.760   129933086.45208  24725434.060   101246568.57245
  20487594.600   107663066.17409  20487589.540    83893284.74949
  21698985.100   114029004.06209  21698980.040    88853760.48948
  20615836.620   108336984.83209  20615835.760    84418440.39449
  21206906.660   111443100.12109  21206904.640    86838805.37248
 15 02 21 04 00  0.0000000  0 10G01G04G11G14G16G18G19G22G27G32
  23137543.820   121588629.53408  23137545.020    94744407.45646
  21062829.980   110685964.74709  21062827.740    86248801.70148
  22079701.820   116029639.63409  22079698.400    90412702.78947
  23169180.580   121754876.14908  23169177.980    94873925.11446
  23574247.900   123883511.22708  23574244.920    96532593.22146
  24742926.520   130024995.52708  24742923.620   101318185.99944
  20484571.420   107647179.21109  20484566.340    83880905.30449
  21711576.580   114095172.33409  21711571.460    88905320.17948
  20622447.680   108371727.38709  20622447.100    84445512.50749
  21192170.920   111365663.08709  21192168.860    86778464.83748
 15 02 21 04 00 30.0000000  0 10G01G04G11G14G16G18G19G22G27G32
  23124921.900   121522302.30508  23124922.860    94692723.91547
  21055048.400   110645071.70909  21055046.000    86216936.99448
  22066065.220   115957978.88909  22066061.800    90356863.25547
  23159548.520   121704260.01508  23159546.060    94834483.97546
  23594157.760   123988137.57708  23594154.780    96614120.25246
  24760427.180   130116961.57308  24760422.760   101389848.03843
  20481623.140   107631685.50109  20481617.920    83868832.27749
  21724227.840   114161654.88609  21724222.620    88957124.75148
  20629141.720   108406905.41209  20629141.300    84472923.95449
  21177520.780   111288675.94809  21177518.780    86718474.85248
 15 02 21 04 01  0.0000000  0 10G01G04G11G14G16G18G19G22G27G32
  23112323.040   121456095.19808  23112324.040    94641134.00346
  21047309.980   110604405.79809  21047307.520    86185249.27348
  22052457.440   115886469.63209  22052454.080    90301141.79247
  23149985.360   121654005.76408  23149983.000    94795324.84346
  23614085.920   124092860.13408  23614082.940    96695722.25046
  24777938.160   130208981.68908  24777934.000   101461551.98245
  20478749.760   107616585.19109  20478744.400    83857065.80349
  21736938.280   114228448.21609  21736932.860    89009171.50548
  20635918.480   108442517.66809  20635918.140    84500673.75649
  21162956.300   111212139.21809  21162954.400    86658835.87448
 15 02 21 04 01 30.0000000  0 10G01G04G11G14G16G18G19G22G27G32
  23099746.740   121390005.85908  23099747.680    94589635.82146
  21039614.260   110563964.61909  21039611.800    86153736.66248
  22038878.240   115815110.63609  22038874.960    90245537.39446
  23140491.160   121604113.63008  23140488.880    94756447.87146
  23634031.300   124197673.61108  23634028.420    96777395.08546
  24795458.760   130301052.06007  24795455.100   101533295.11843
  20475951.080   107601877.42909  20475945.640    83845605.21849
  21749706.860   114295547.64009  21749701.400    89061456.76148
  20642777.540   108478561.96909  20642777.160    84528760.21749
  21148477.400   111136052.28709  21148475.560    86599547.38648
 15 02 21 04 02  0.0000000  0 10G01G04G11G14G16G18G19G22G27G32
  23087193.880   121324039.92708  23087194.720    94538233.82446
  21031962.360   110523753.85709  21031959.980    86122403.60748
  22025328.840   115743908.29209  22025325.560    90190055.04647
  23131067.580   121554592.25108  23131065.260    94717859.78446
  23653994.480   124302580.59108  23653991.680    96859140.76246
  24812989.360   130393176.58707  24812985.380   101605080.52343
  20473228.400   107587569.11609  20473222.900    83834455.87949
  21762534.400   114362956.59209  21762528.880    89113983.21748
  20649719.960   108515044.08909  20649719.480    84557187.82449
  21134085.580   111060422.74109  21134083.720    86540615.29548
 15 02 21 04 02 30.0000000  0 10G01G04G11G14G16G18G19G22G27G32
  23074663.300   121258191.10408  23074664.220    94486923.09447
  21024353.160   110483767.38109  21024350.820    86091245.32448
  22011808.300   115672857.66209  22011805.040    90134690.95347
  23121713.920   121505437.57208  23121711.400    94679557.45346
  23673973.680   124407572.13208  23673970.940    96940952.35446
  24830528.780   130485347.10508  24830525.000   101676901.67744
  20470580.680   107573655.15109  20470575.180    83823613.83849
  21775419.320   114430666.99109  21775413.880    89166744.56348
  20656744.560   108551957.90109  20656743.920    84585951.83249
  21119779.840   110985246.15909  21119777.980    86482036.15648
 15 02 21 04 03  0.0000000  0 10G01G04G11G14G16G18G19G22G27G32
  23062155.840   121192463.77908  23062156.380    94435707.00347
  21016787.440   110444009.61409  21016785.180    86060265.26048
  21998317.580   115601963.66809  21998314.300    90079448.87347
  23112431.480   121456656.81708  23112428.760    94641546.50046
  23693969.180   124512649.52808  23693966.460    97022830.83646
  24848077.480   130577566.62707  24848074.180   101748760.98844
  20468009.120   107560141.53309  20468003.680    83813083.74949
  21788361.900   114498681.00509  21788356.600    89219742.48548
  20663852.200   108589307.93509  20663851.360    84615055.74749
  21105561.420   110910528.67509  21105559.600    86423814.75848
 15 02 21 04 03 30.0000000  0 10G01G04G11G14G16G18G19G22G27G32
  23049671.000   121126855.35008  23049671.760    94384583.58446
  21009264.720   110404477.91109  21009262.560    86029461.35648
  21984856.400   115531224.75509  21984853.020    90024327.67747
  23103220.040   121408249.68208  23103217.260    94603826.67946
  23713980.100   124617807.83808  23713977.360    97104772.37446
  24865634.640   130669830.58308  24865630.520   101820655.13343
  20465513.480   107547026.99809  20465508.160    83802864.63349
  21801361.380   114566993.90909  21801356.260    89272973.30448
  20671042.320   108627091.56909  20671041.320    84644497.53249
  21091430.280   110836269.46409  21091428.520    86365950.45248
 15 02 21 04 04  0.0000000  0 10G01G04G11G14G16G18G19G22G27G32
  23037209.120   121061367.92008  23037209.840    94333554.44047
  21001785.500   110365174.64409  21001783.380    85998835.45248
  21971425.360   115460643.99509  21971421.840    89969329.71147
  23094080.400   121360220.78308  23094077.660    94566401.56546
  23734006.360   124723046.52108  23734003.640    97186776.54045
  24883200.460   130762139.25907  24883196.320   101892584.04743
  20463094.360   107534314.64709  20463089.140    83792958.90849
  21814417.820   114635606.07809  21814412.780    89326437.31848
  20678315.340   108665311.06109  20678314.200    84674278.94649
  21077387.220   110762472.40909  21077385.420    86308446.27248
 15 02 21 04 04 30.0000000  0 11G01G03G04G11G14G16G18G19G22G27G32
  23024770.300   120996001.81308  23024770.860    94282619.86347
  24624830.440   129404359.79008  24624832.720   100834574.52246
  20994349.880   110326100.20709  20994347.760    85968387.85648
  21958024.620   115390222.46609  21958021.080    89914455.81547
  23085013.220   121312573.00108  23085010.520    94529273.44846
  23754047.440   124828362.81808  23754044.500    97268841.17345
  24900774.200   130854491.88006  24900770.580   101964546.99344
  20460752.140   107522006.45009  20460746.980    83783368.11649
  21827530.820   114704515.33409  21827525.860    89380132.83748
  20685671.320   108703966.83409  20685670.180    84704400.32149
  21063432.620   110689139.66909  21063430.660    86251303.89648
 15 02 21 04 05  0.0000000  0 10G01G03G04G11G14G16G19G22G27G32
  23012354.100   120930754.57808  23012354.900    94231777.87047
  24604791.820   129299056.14107  24604794.120   100752519.87045
  20986957.340   110287252.18209  20986955.180    85938116.67748
  21944653.940   115319959.00509  21944650.440    89859705.07647
  23076018.460   121265306.53208  23076015.880    94492442.44746
  23774102.380   124933751.57908  23774099.180    97350962.28446
  20458486.620   107510101.30609  20458481.480    83774091.36849
  21840699.500   114773717.25109  21840694.480    89434056.39248
  20693109.840   108743056.48809  20693108.780    84734859.78149
  21049566.220   110616270.54909  21049564.100    86194522.76348
 15 02 21 04 05 30.0000000  0 10G01G03G04G11G14G16G19G22G27G32
  22999960.620   120865626.04408  22999961.120    94181028.36347
  24584776.520   129193875.18207  24584778.880   100670560.82246
  20979607.800   110248630.40909  20979605.600    85908021.79748
  21931313.420   115249854.22309  21931310.040    89805077.98247
  23067096.740   121218423.54408  23067094.540    94455910.26146
  23794170.360   125039209.50208  23794167.000    97433137.30845
  20456297.940   107498600.07809  20456292.880    83765129.38249
  21853923.480   114843209.59909  21853918.340    89488206.27348
  20700630.800   108782579.86509  20700629.900    84765657.20349
  21035788.260   110543866.55509  21035786.080    86138104.08348
 15 02 21 04 06  0.0000000  0 10G01G03G04G11G14G16G19G22G27G32
  22987589.360   120800614.20808  22987589.840    94130369.81447
  24564784.560   129088816.79707  24564786.700   100588697.21946
  20972301.000   110210232.98109  20972298.780    85878101.74048
  21918002.940   115179907.13909  21917999.620    89750573.77347
  23058248.200   121171924.13908  23058246.080    94419676.97546
  23814250.460   125144731.89908  23814247.240    97515362.52346
  20454186.020   107487502.10009  20454181.040    83756481.60349
  21867201.980   114912988.30909  21867196.800    89542579.28248
  20708233.880   108822534.94509  20708233.100    84796791.01549
  21022098.640   110471927.31809  21022096.500    86082047.53748
 15 02 21 04 06 30.0000000  0 10G01G03G04G11G14G16G19G22G27G32
  22975240.820   120735722.17209  22975241.480    94079804.61547
  24544816.920   128983886.08507  24544818.760   100506933.12945
  20965037.560   110172063.30709  20965035.340    85848359.14148
  21904723.300   115110122.02309  21904720.020    89696195.77147
  23049473.860   121125814.34308  23049471.720    94383747.29446
  23834342.980   125250319.71408  23834339.960    97597638.74045
  20452151.740   107476812.11809  20452146.800    83748151.75349
  21880535.260   114983054.42709  21880530.040    89597176.26148
  20715919.740   108862924.92709  20715919.100    84828263.71449
  21008498.320   110400457.74309  21008496.340    86026356.97948
 15 02 21 04 07  0.0000000  0 10G01G03G04G11G14G16G19G22G27G32
  22962915.140   120670950.71408  22962915.620    94029333.38547
  24524873.940   128879085.49607  24524875.820   100425270.47145
  20957817.620   110134122.19809  20957815.420    85818794.64748
  21891474.760   115040500.39609  21891471.480    89641945.18747
  23040774.220   121080097.26308  23040772.000    94348123.59646
  23854447.560   125355970.51208  23854444.620    97679964.03245
  20450195.520   107466531.99409  20450190.560    83740141.26949
  21893922.800   115053406.49609  21893917.500    89651996.04348
  20723688.520   108903750.54409  20723687.940    84860075.87849
  20994987.860   110329460.36909  20994986.000    85971034.36548
 15 02 21 04 07 30.0000000  0 10G01G03G04G11G14G16G19G22G27G32
  22950612.340   120606299.53408  22950612.980    93978955.88547
  24504956.060   128774416.63508  24504957.800   100343710.43945
  20950641.140   110096409.38109  20950638.940    85789408.03648
  21878257.440   114971042.86909  21878254.140    89587822.47447
  23032149.660   121034774.75508  23032147.340    94312807.37646
  23874563.540   125461681.08208  23874560.700    97762335.89845
  20448317.440   107456662.52209  20448312.440    83732450.78649
  21907364.380   115124042.35709  21907359.020    89707036.96748
  20731540.240   108945011.42209  20731539.620    84892227.20849
  20981567.560   110258936.38009  20981565.680    85916080.62348
 15 02 21 04 08  0.0000000  0 10G01G03G04G11G14G16G19G22G27G32
  22938332.100   120541767.02108  22938332.920    93928670.82647
  24485063.240   128669879.68907  24485064.820   100262253.15545
  20943507.760   110058923.03709  20943505.520    85760197.89248
  21865071.240   114901748.91209  21865067.900    89533827.19347
  23023600.380   120989847.81008  23023598.020    94277799.39546
  23894690.180   125567447.42008  23894687.360    97844751.24145
  20446517.480   107447203.53709  20446512.380    83725080.14449
  21920859.220   115194958.08809  21920853.880    89762295.97348
  20739474.560   108986705.94809  20739473.840    84924716.42849
  20968237.480   110188885.94509  20968235.460    85861495.90148
 15 02 21 04 08 30.0000000  0 10G01G03G04G11G14G16G19G22G27G32
  22926074.620   120477353.86808  22926075.340    93878478.77747
  24465195.940   128565477.12408  24465197.320   100180900.60045
  20936417.680   110021664.36609  20936415.380    85731165.17348
  21851916.440   114832620.05309  21851913.060    89479960.57847
  23015127.080   120945319.80508  23015124.620    94243102.25546
  23914827.000   125673267.15008  23914824.140    97927208.15745
  20444795.920   107438156.61309  20444790.760    83718030.59749
  21934407.000   115266152.07109  21934401.640    89817771.79848
  20747491.540   109028834.69009  20747490.700    84957544.01749
  20954997.940   110119311.20109  20954995.740    85807281.83848
 15 02 21 04 09  0.0000000  0 10G01G03G04G11G14G16G19G22G27G32
  22913839.980   120413060.42208  22913840.780    93828380.02647
  24445354.700   128461211.14508  24445356.120   100099654.49146
  20929370.960   109984633.57609  20929368.660    85702310.03448
  21838793.320   114763657.76009  21838789.940    89426223.74147
  23006729.960   120901193.21508  23006727.560    94208717.92546
  23934973.680   125779138.19008  23934970.720    98009705.08745
  20443153.180   107429523.80909  20443147.940    83711303.74749
  21948007.420   115337622.88209  21948002.080    89873463.34248
  20755591.140   109071398.00709  20755590.280    84990710.23549
  20941849.240   110050214.30309  20941846.980    85753440.13248
 15 02 21 04 09 30.0000000  0 10G01G03G04G11G14G16G19G22G27G32
  22901627.920   120348885.68108  22901628.860    93778373.76447
  24425539.600   128357082.58608  24425541.200   100018515.48545
  20922367.480   109947830.04509  20922365.160    85673631.97148
  21825701.840   114694861.88909  21825698.500    89372616.60147
  22998409.400   120857469.37008  22998407.080    94174647.41346
  23955129.320   125885056.24608  23955126.140    98092238.63245
  20441589.260   107421305.06409  20441583.940    83704899.52649
  21961659.840   115409367.38709  21961654.520    89929368.12148
  20763773.140   109114394.78309  20763772.300    85024214.21249
  20928791.460   109981595.62909  20928789.280    85699971.04548
 15 02 21 04 10  0.0000000  0 10G01G03G04G11G14G16G19G22G27G32
  22889438.440   120284829.66808  22889439.320    93728459.99647
  24405751.160   128253093.29808  24405752.580    99937484.92645
  20915407.200   109911253.65809  20915404.900    85645130.91748
  21812642.260   114626233.85609  21812639.000    89319140.24947
  22990165.960   120814150.65708  22990163.800    94140892.56446
  23975293.380   125991019.03608  23975290.220    98174807.03745
  20440104.360   107413501.59409  20440098.980    83698818.90249
  21975364.040   115481383.52109  21975358.680    89985484.59148
  20772037.620   109157824.90609  20772036.740    85058055.85849
  20915825.000   109913456.85009  20915822.920    85646875.90548
 15 02 21 04 10 30.0000000  0 10G01G03G04G11G14G16G19G22G27G32
  22877271.520   120220892.15108  22877272.440    93678638.57247
  24385989.500   128149244.83208  24385990.700    99856564.14846
  20908490.120   109874904.22309  20908487.800    85616806.70048
  21799614.780   114557774.19409  21799611.520    89265795.08647
  22982000.060   120771239.24108  22981998.160    94107455.12946
  23995465.340   126097023.59308  23995462.300    98257407.96845
  20438698.660   107406114.66409  20438693.300    83693062.85949
  21989119.440   115553668.52309  21989114.000    90041810.57048
  20780384.560   109201688.08809  20780383.560    85092234.95449
  20902950.120   109845799.31709  20902948.120    85594155.75848
 15 02 21 04 11  0.0000000  0 10G01G03G04G11G14G16G19G22G27G32
  22865127.160   120157072.96908  22865128.120    93628909.36847
  24366254.920   128045538.75208  24366255.860    99775754.30746
  20901616.240   109838781.76609  20901613.940    85588659.34448
  21786619.500   114489483.69709  21786616.300    89212581.74047
  22973912.020   120728737.11308  22973910.140    94074336.60746
  24015644.680   126203066.67808  24015641.600    98340038.93945
  20437372.300   107399145.17409  20437367.000    83687632.08949
  22002925.720   115626220.73809  22002920.140    90098344.75448
  20788813.740   109245983.92209  20788812.720    85126751.18349
  20890167.160   109778624.31209  20890165.160    85541811.61448
 15 02 21 04 11 30.0000000  0 10G01G03G04G11G14G16G19G22G27G32
  22853005.600   120093373.60708  22853006.280    93579273.52047
  24346547.940   127941978.31708  24346548.840    99695058.00245
  20894785.900   109802887.89809  20894783.580    85560690.11048
  21773656.920   114421364.78209  21773653.680    89159502.07947
  22965902.660   120686648.09108  22965900.700    94041539.98346
  24035831.060   126309147.22008  24035828.060    98422699.09045
  20436125.860   107392595.43109  20436120.560    83682528.39849
  22016782.700   115699039.57309  22016777.100    90155086.68848
  20797325.420   109290713.77009  20797324.560    85161605.60149
  20877476.680   109711934.87109  20877474.560    85489845.83748
 15 02 21 04 12  0.0000000  0 10G01G03G04G11G14G16G19G22G27G32
  22840906.100   120029790.09608  22840906.660    93529727.93947
  24326868.280   127838561.41308  24326869.280    99614473.50045
  20887998.320   109767218.68809  20887995.960    85532895.94548
  21760726.440   114353414.55709  21760723.220    89106553.85347
  22957971.780   120644970.79908  22957969.560    94009064.18146
  24056023.240   126415258.00708  24056020.220    98505382.82045
  20434958.820   107386462.77609  20434953.520    83677749.70849
  22030689.180   115772118.56809  22030683.580    90212031.36348
  20805918.880   109335873.46909  20805918.260    85196794.98349
  20864878.200   109645728.53209  20864875.820    85438256.49248
 15 02 21 04 12 30.0000000  0 10G01G03G04G11G14G16G19G22G27G32
  22828829.480   119966326.69009  22828829.880    93480275.97247
  24307216.960   127735294.03008  24307218.060    99534005.52645
  20881254.280   109731778.34509  20881251.840    85505280.10148
  21747829.120   114285638.37209  21747825.800    89053741.25647
  22950120.520   120603711.29808  22950118.160    93976913.94346
  24076221.660   126521401.19808  24076218.520    98588091.79645
  20433872.260   107380752.91209  20433866.940    83673300.46749
  22044645.540   115845459.91409  22044639.920    90269180.45548
  20814595.000   109381467.08409  20814594.460    85232322.46849
  20852372.680   109580010.88709  20852370.160    85387047.94448
 15 02 21 04 13  0.0000000  0 10G01G03G04G11G14G16G19G22G27G32
  22816775.440   119902982.05909  22816775.700    93430916.55247
  24287594.160   127632176.62108  24287595.320    99453654.39446
  20874553.600   109696565.90009  20874551.100    85477841.84548
  21734964.880   114218035.87809  21734961.460    89001064.00047
  22942349.060   120562870.85408  22942346.620    93945090.22546
  24096425.500   126627572.74108  24096422.260    98670822.85845
  20432866.120   107375465.49009  20432860.800    83669180.40849
  22058651.240   115919060.34309  22058645.640    90326531.43048
  20823353.540   109427493.16509  20823352.920    85268186.93449
  20839960.060   109514782.24209  20839957.580    85336220.45248
 15 02 21 04 13 30.0000000  0 10G01G03G04G11G14G16G19G22G27G32
  22804743.960   119839756.05009  22804744.340    93381649.54647
  24268000.280   127529210.80908  24268001.460    99373421.39745
  20867896.320   109661581.21609  20867893.700    85450581.06648
  21722133.820   114150607.95509  21722130.340    88948522.78447
  22934657.720   120522451.38708  22934655.100    93913594.56246
  24116634.160   126733769.67708  24116631.000    98753573.71545
  20431940.540   107370601.32109  20431935.220    83665390.14149
  22072705.760   115992917.35709  22072700.220    90384082.34248
  20832194.300   109473951.21009  20832193.640    85304388.01249
  20827640.600   109450043.73409  20827638.280    85285774.88648
 15 02 21 04 14  0.0000000  0 10G01G03G04G11G14G16G19G22G27G32
  22792734.900   119776647.97209  22792735.240    93332474.44247
  24248435.500   127426397.56708  24248436.640    99293307.27446
  20861282.280   109626823.71309  20861279.520    85423497.31248
  21709336.020   114083355.12609  21709332.500    88896118.00547
  22927046.600   120482454.17908  22927043.940    93882427.92546
  24136846.920   126839988.37208  24136843.820    98836341.51545
  20431095.580   107366160.89009  20431090.240    83661930.06049
  22086808.600   116067028.23209  22086803.040    90441831.06348
  20841117.040   109520840.32509  20841116.360    85340924.98149
  20815414.520   109385796.11109  20815412.380    85235711.84348
 15 02 21 04 14 30.0000000  0 10G01G03G04G11G14G16G19G22G27G32
  22780748.740   119713660.43609  22780748.940    93283393.26247
  24228900.720   127323741.36408  24228901.900    99213315.51545
  20854711.920   109592296.13809  20854709.140    85396592.72748
  21696572.120   114016280.73009  21696568.600    88843852.24847
  22919516.700   120442884.40808  22919514.020    93851594.34246
  24157063.720   126946228.28408  24157060.700    98919125.86845
  20430332.020   107362148.13409  20430326.640    83658803.23849
  22100959.860   116141393.68409  22100954.400    90499778.16548
  20850122.200   109568162.90809  20850121.560    85377799.71049
  20803282.660   109322043.33709  20803280.540    85186034.37348
 15 02 21 04 15  0.0000000  0 10G01G03G04G11G14G16G19G22G27G32
  22768785.140   119650791.63009  22768785.460    93234404.61947
  24209395.720   127221242.04108  24209396.900    99133446.02645
  20848184.900   109557996.67409  20848182.200    85369865.88848
  21683842.080   113949384.08409  21683838.560    88791725.00647
  22912068.120   120403742.33508  22912065.400    93821094.03546
  24177283.780   127052485.66808  24177280.800    99001923.82245
  20429649.680   107358562.32909  20429644.320    83656009.09849
  22115158.660   116216009.81709  22115153.380    90557920.59448
  20859209.420   109615916.82109  20859208.860    85415010.53749
  20791244.920   109258784.97009  20791242.760    85136742.14348
