     2.11           OBSERVATION DATA    G                   RINEX VERSION / TYPE
SPIDER V4,0,0,3554                      2015 03 18 01:43    PGM / RUN BY / DATE 
CKTS                                                        MARKER NAME         
CKTS                                                        MARKER NUMBER       
                                                            OBSERVER / AGENCY   
496659              LEICA GRX1200+GNSS  8.10/4.007          REC # / TYPE / VERS 
10321004            LEIAR25         NONE                    ANT # / TYPE        
  5190783.6897   517202.7561  3658836.0979                  APPROX POSITION XYZ 
        0.0720        0.0000        0.0000                  ANTENNA: DELTA H/E/N
     1     1                                                WAVELENGTH FACT L1/2
     4    C1    L1    P2    L2                              # / TYPES OF OBSERV 
    30.000                                                  INTERVAL            
  2015    02    21    00    00    0.0000000     GPS         TIME OF FIRST OBS   
  2015    02    21    23    59   30.0000000     GPS         TIME OF LAST OBS    
    16                                                      LEAP SECONDS        
    30                                                      # OF SATELLITES     
   G 1   816   816   815   815                              PRN / # OF OBS      
   G 2   767   766   766   766                              PRN / # OF OBS      
   G 3   851   851   851   851                              PRN / # OF OBS      
   G 4   841   841   841   841                              PRN / # OF OBS      
   G 5   516   516   516   516                              PRN / # OF OBS      
   G 6   637   637   637   637                              PRN / # OF OBS      
   G 7   667   667   667   667                              PRN / # OF OBS      
   G 9   806   806   806   806                              PRN / # OF OBS      
   G10   657   657   656   656                              PRN / # OF OBS      
   G11   780   779   778   778                              PRN / # OF OBS      
   G12   814   814   814   814                              PRN / # OF OBS      
   G13   797   797   797   797                              PRN / # OF OBS      
   G14   764   764   764   764                              PRN / # OF OBS      
   G15   592   592   592   592                              PRN / # OF OBS      
   G16   553   553   553   553                              PRN / # OF OBS      
   G17   775   775   775   775                              PRN / # OF OBS      
   G18   724   723   722   722                              PRN / # OF OBS      
   G19   667   667   667   667                              PRN / # OF OBS      
   G20   781   780   780   780                              PRN / # OF OBS      
   G21   734   734   734   734                              PRN / # OF OBS      
   G22   651   651   651   651                              PRN / # OF OBS      
   G23   750   750   749   749                              PRN / # OF OBS      
   G24   830   830   830   830                              PRN / # OF OBS      
   G25   859   859   859   859                              PRN / # OF OBS      
   G27   815   814   814   814                              PRN / # OF OBS      
   G28   609   608   608   608                              PRN / # OF OBS      
   G29   760   760   760   760                              PRN / # OF OBS      
   G30   713   713   713   713                              PRN / # OF OBS      
   G31   691   691   691   691                              PRN / # OF OBS      
   G32   766   765   765   765                              PRN / # OF OBS      
BIT 2 OF LLI FLAGS DATA COLLECTED UNDER A/S CONDITION       COMMENT             
SNR is mapped to RINEX snr flag value [2-9]                 COMMENT             
Lx:     = 25dBHz -> 1; 26-27dBHz -> 2; 28-31dBHz -> 3       COMMENT             
       32-35dBHz -> 4; 36-38dBHz -> 5; 39-41dBHz -> 6       COMMENT             
       42-44dBHz -> 7; 45-48dBHz -> 8; >=49dBHz -> 9        COMMENT             
                                                            END OF HEADER       
 15 02 21 00 00  0.0000000  0  6G18G21G25G27G29G31
  23219348.840   122018529.58108  23219345.840    95079374.36345
  20971779.860   110207449.95709  20971775.920    85875921.44048
  23901858.720   125605105.40908  23901858.800    97874104.07545
  23701455.140   124551997.27908  23701454.720    97053512.04046
  23082020.760   121296829.59309  23082018.500    94516994.51446
  22068659.520   115971582.59909  22068656.300    90367449.98348
 15 02 21 00 00 30.0000000  0  7G16G18G21G25G27G29G31
  22558501.160   118545724.03905  22558495.300    92373276.31043
  23205452.680   121945504.94908  23205449.700    95022472.08345
  20975051.280   110224641.43508  20975047.280    85889317.42448
  23919571.580   125698187.28508  23919571.800    97946635.37646
  23688071.920   124481668.64208  23688071.940    96998710.54946
  23095481.460   121367568.44508  23095479.200    94572115.60546
  22082990.580   116046891.85009  22082987.220    90426132.49448
 15 02 21 00 01  0.0000000  0  7G16G18G21G25G27G29G31
  22542722.400   118462805.37305  22542719.140    92308644.42743
  23191585.920   121872635.39008  23191583.160    94965690.65146
  20978399.000   110242233.84308  20978394.980    85903025.79448
  23937321.040   125791462.51908  23937321.620    98019317.33046
  23674705.940   124411430.26908  23674705.900    96943979.37146
  23108948.740   121438339.28509  23108945.920    94627261.73147
  22097385.200   116122535.64209  22097381.720    90485075.69448
 15 02 21 00 01 30.0000000  0  7G16G18G21G25G27G29G31
  22526972.320   118380038.43606  22526968.720    92244150.68743
  23177750.560   121799930.59208  23177747.940    94909037.58345
  20981824.040   110260232.39708  20981820.040    85917050.64248
  23955108.420   125884936.53908  23955109.220    98092154.19045
  23661358.400   124341288.62808  23661358.240    96889323.58847
  23122423.480   121509148.26808  23122421.020    94682437.53147
  22111844.160   116198517.75109  22111840.640    90544282.49148
 15 02 21 00 02  0.0000000  0  7G16G18G21G25G27G29G31
  22511251.320   118297423.86607  22511247.640    92179775.71444
  23163946.840   121727391.33308  23163944.040    94852513.51145
  20985325.860   110278634.45708  20985321.840    85931389.92548
  23972933.280   125978606.50008  23972933.740    98165143.74445
  23648028.960   124271242.06608  23648029.080    96834741.90347
  23135905.000   121579993.47908  23135902.800    94737641.52046
  22126366.700   116274833.84809  22126363.140    90603749.57248
 15 02 21 00 02 30.0000000  0  7G16G18G21G25G27G29G31
  22495559.360   118214961.84407  22495555.700    92115519.57945
  23150174.760   121655018.58308  23150171.800    94796119.17546
  20988903.780   110297436.62408  20988899.720    85946040.95248
  23990794.960   126072469.49008  23990795.020    98238283.72945
  23634717.360   124201288.72608  23634717.500    96780232.80747
  23149393.000   121650873.10108  23149389.700    94792872.43946
  22140951.920   116351479.33409  22140948.280    90663473.31148
 15 02 21 00 03  0.0000000  0  7G16G18G21G25G27G29G31
  22479896.960   118132655.01108  22479893.280    92051384.39445
  23136434.940   121582815.73608  23136431.860    94739857.23445
  20992557.920   110316639.02109  20992553.780    85961003.85548
  24008693.360   126166525.29508  24008693.200    98311573.91545
  23621423.740   124131429.50108  23621423.860    96725797.09047
  23162887.320   121721787.52108  23162884.560    94848130.39047
  22155599.460   116428452.54209  22155595.660    90723452.42848
 15 02 21 00 03 30.0000000  0  7G16G18G21G25G27G29G31
  22464264.820   118050507.05709  22464261.100    91987373.00746
  23122728.340   121510787.39008  23122725.300    94683731.28746
  20996288.180   110336241.73008  20996284.100    85976278.68948
  24026628.320   126260774.17208  24026628.460    98385014.54646
  23608148.340   124061665.72308  23608148.240    96671435.72947
  23176388.460   121792738.01708  23176386.640    94903416.40746
  22170309.140   116505752.36109  22170305.300    90783686.03148
 15 02 21 00 04  0.0000000  0  7G16G18G21G25G27G29G31
  22448663.380   117968520.91509  22448659.700    91923487.70647
  23109055.680   121438936.90608  23109052.660    94627743.92646
  21000094.580   110356244.38109  21000090.560    85991865.16048
  24044599.920   126355215.78008  24044600.500    98458605.37246
  23594891.020   123991998.30708  23594890.860    96617149.48046
  23189896.780   121863725.36409  23189895.460    94958731.17646
  22185080.540   116583376.91309  22185076.780    90844172.67648
 15 02 21 00 04 30.0000000  0  7G16G18G21G25G27G29G31
  22433092.540   117886695.59309  22433088.860    91859727.72447
  23095416.740   121367263.54809  23095413.720    94571894.58945
  21003976.240   110376642.61608  21003972.260    86007759.91148
  24062607.320   126449845.78108  24062608.020    98532342.99745
  23581651.380   123922423.95508  23581651.240    96562935.77746
  23203411.440   121934746.23308  23203409.940    95014072.16247
  22199912.520   116661320.14609  22199909.020    90904907.64048
 15 02 21 00 05  0.0000000  0  7G16G18G21G25G27G29G31
  22417553.580   117805037.88909  22417549.880    91796098.34348
  23081812.940   121295774.98309  23081809.820    94516189.24146
  21007933.760   110397439.72908  21007929.780    86023965.45348
  24080651.180   126544667.80408  24080651.980    98606230.27745
  23568430.160   123852947.38108  23568430.100    96508798.21347
  23216933.380   122005804.98308  23216932.320    95069442.55546
  22214805.600   116739584.02509  22214802.300    90965892.46048
 15 02 21 00 05 30.0000000  0  7G16G18G21G25G27G29G31
  22402045.760   117723543.73909  22402042.020    91732596.42548
  23068243.680   121224468.21909  23068240.560    94460625.55146
  21011965.860   110418628.78809  21011961.840    86040476.39348
  24098730.180   126639674.90708  24098731.220    98680261.74545
  23555226.680   123783562.83308  23555226.560    96454732.34447
  23230461.600   122076895.75708  23230460.200    95124837.91847
  22229758.240   116818160.17109  22229755.000    91027120.59348
 15 02 21 00 06  0.0000000  0  7G16G18G21G25G27G29G31
  22386569.340   117642214.76408  22386565.620    91669223.22447
  23054709.420   121153345.37108  23054706.340    94405205.17246
  21016072.240   110440208.06608  21016068.200    86057291.41648
  24116844.320   126734865.24708  24116845.580    98754435.99545
  23542040.660   123714269.70408  23542040.580    96400737.70647
  23243995.860   122148017.75708  23243994.180    95180257.58947
  22244769.820   116897045.21909  22244766.380    91088589.43748
 15 02 21 00 06 30.0000000  0  7G16G18G21G25G27G29G31
  22371125.440   117561056.60809  22371121.700    91605983.12546
  23041211.200   121082411.98308  23041208.120    94349932.42346
  21020253.240   110462179.17808  21020249.160    86074411.75948
  24134993.980   126830240.94108  24134995.120    98828754.69345
  23528872.700   123645071.16808  23528872.680    96346816.83547
  23257536.900   122219174.07208  23257534.240    95235704.08646
  22259840.200   116976239.45509  22259836.540    91150299.23148
 15 02 21 00 07  0.0000000  0  7G16G18G21G25G27G29G31
  22355714.300   117480070.84109  22355710.540    91542877.30247
  23027749.600   121011670.76808  23027746.600    94294809.41346
  21024508.480   110484540.21508  21024504.380    86091835.95448
  24153178.680   126925800.39208  24153179.760    98903216.57445
  23515722.480   123575966.85808  23515722.640    96292969.38047
  23271084.040   122290364.13708  23271081.360    95291176.82546
  22274968.680   117055740.21209  22274965.000    91212247.85048
 15 02 21 00 07 30.0000000  0  7G16G18G21G25G27G29G31
  22340336.120   117399258.48509  22340332.380    91479906.61947
  23014324.880   120941123.18609  23014321.840    94239837.28946
  21028837.420   110507289.38708  21028833.440    86109562.57448
  24171397.780   127021541.19808  24171398.600    98977819.74845
  23502590.060   123506955.53808  23502590.040    96239194.36246
  23284637.520   122361586.24009  23284635.240    95346674.50847
  22290154.480   117135543.43009  22290151.020    91274432.15048
 15 02 21 00 08  0.0000000  0  7G16G18G21G25G27G29G31
  22324991.340   117318620.98309  22324987.560    91417072.22047
  23000937.420   120870771.47009  23000934.440    94185017.78645
  21033239.660   110530424.20008  21033235.820    86127589.67448
  24189650.980   127117461.65208  24189651.520    99052562.92445
  23489475.340   123438036.72308  23489475.040    96185491.39546
  23298196.880   122432840.30908  23298194.340    95402197.12546
  22305397.120   117215645.64409  22305393.960    91336849.41248
 15 02 21 00 08 30.0000000  0  7G16G18G21G25G27G29G31
  22309681.320   117238166.42909  22309677.700    91354380.35847
  22987588.840   120800624.00609  22987585.700    94130357.45846
  21037716.200   110553949.26208  21037712.540    86145920.90648
  24207939.080   127213566.32107  24207939.560    99127449.65346
  23476379.120   123369216.07108  23476378.600    96131864.94746
  23311763.140   122504131.68309  23311760.040    95457748.82946
  22320697.360   117296049.92309  22320694.260    91399502.07948
 15 02 21 00 09  0.0000000  0  8G16G18G21G22G25G27G29G31
  22294405.500   117157892.50508  22294402.160    91291829.25847
  22974278.860   120730679.22409  22974275.440    94075855.05546
  21042266.100   110577859.47108  21042262.480    86164552.23148
  24551428.860   129018621.46308  24551426.140   100533972.70645
  24226261.120   127309849.78008  24226261.680    99202475.67445
  23463300.640   123300489.46408  23463300.120    96078311.74646
  23325335.820   122575455.91508  23325332.640    95513326.08746
  22336054.080   117376749.67309  22336050.800    91462384.98748
 15 02 21 00 09 30.0000000  0  8G16G18G21G22G25G27G29G31
  22279162.980   117077793.03609  22279159.680    91229414.13547
  22961006.340   120660931.32409  22961002.760    94021506.06246
  21046887.460   110602144.55408  21046883.800    86183475.69248
  24533743.880   128925687.47408  24533740.680   100461556.93144
  24244615.340   127406302.25608  24244615.940    99277633.42345
  23450238.520   123231848.27208  23450238.380    96024825.15647
  23338912.920   122646804.35108  23338909.540    95568922.21146
  22351464.880   117457733.11509  22351461.440    91525488.95948
 15 02 21 00 10  0.0000000  0  8G16G18G21G22G25G27G29G31
  22263957.360   116997886.47309  22263953.920    91167149.26247
  22947774.740   120591398.96508  22947771.340    93967325.00946
  21051583.040   110626819.51808  21051579.280    86202702.92748
  24516044.460   128832678.62808  24516041.260   100389082.81045
  24263004.660   127502938.83008  24263005.120    99352934.62945
  23437196.060   123163308.89208  23437195.920    95971417.85147
  23352497.800   122718193.57708  23352494.320    95624550.16946
  22366932.240   117539014.01209  22366928.720    91588824.70548
 15 02 21 00 10 30.0000000  0  8G16G18G21G22G25G27G29G31
  22248787.020   116918165.10709  22248783.460    91105028.73947
  22934582.740   120522075.34108  22934579.500    93913306.64846
  21056350.700   110651873.42708  21056346.740    86222225.45648
  24498329.540   128739587.67108  24498326.280   100316544.71444
  24281426.960   127599748.53008  24281427.440    99428370.72246
  23424171.060   123094861.44008  23424170.520    95918082.19546
  23366088.280   122789613.32708  23366085.580    95680201.82447
  22382453.680   117620580.03709  22382450.380    91652382.62048
 15 02 21 00 11  0.0000000  0  8G16G18G21G22G25G27G29G31
  22233652.820   116838633.15609  22233648.900    91043055.78147
  22921431.400   120452965.38708  22921428.320    93859454.75746
  21061190.520   110677306.94208  21061186.560    86242043.78348
  24480599.920   128646419.15308  24480596.720   100243946.12045
  24299882.280   127696732.22508  24299882.980    99503942.38345
  23411163.640   123026508.09508  23411162.960    95864819.88946
  23379685.400   122861065.43509  23379682.820    95735878.80146
  22398028.940   117702430.13108  22398026.080    91716161.87948
 15 02 21 00 11 30.0000000  0  8G16G18G21G22G25G27G29G31
  22218554.500   116759291.71609  22218550.640    90981231.30447
  22908321.180   120384070.81909  22908318.040    93805770.68946
  21066102.160   110703117.68008  21066098.240    86262156.01548
  24462855.780   128553174.51808  24462852.640   100171288.21745
  24318370.300   127793887.64907  24318371.220    99579647.86846
  23398173.900   122958247.82508  23398173.500    95811630.08746
  23393288.640   122932549.08308  23393285.600    95791580.38146
  22413657.560   117784560.43709  22413654.940    91780159.47148
 15 02 21 00 12  0.0000000  0  8G16G18G21G22G25G27G29G31
  22203493.540   116680145.87109  22203489.880    90919559.23047
  22895253.020   120315396.34909  22895249.720    93752258.13646
  21071085.720   110729306.44308  21071081.840    86282562.85048
  24445098.100   128459858.74408  24445095.040   100098574.90745
  24336891.320   127891216.02508  24336892.360    99655488.13345
  23385202.600   122890083.14908  23385202.400    95758514.79846
  23406897.540   123004066.86608  23406895.300    95847308.41247
  22429339.780   117866970.91509  22429337.080    91844375.41348
 15 02 21 00 12 30.0000000  0  8G16G18G21G22G25G27G29G31
  22188468.860   116601190.26909  22188465.100    90858035.39847
  22882225.940   120246937.91209  22882222.480    93698913.91046
  21076139.700   110755865.14308  21076135.820    86303257.95548
  24427326.180   128366467.31508  24427323.160   100025802.58845
  24355443.800   127988709.07207  24355444.600    99731456.70745
  23372248.460   122822007.02909  23372247.780    95705468.46647
  23420512.140   123075611.15509  23420510.180    95903057.16847
  22445073.680   117949651.65109  22445070.640    91908801.93648
 15 02 21 00 13  0.0000000  0  8G16G18G21G22G25G27G29G31
  22173481.740   116522431.97309  22173477.960    90796665.28747
  22869241.100   120178702.41708  22869237.680    93645743.42246
  21081264.680   110782796.90808  21081260.720    86324243.73248
  24409541.160   128273007.42108  24409538.120    99952976.97945
  24374028.360   128086370.02308  24374028.580    99807556.13544
  23359311.920   122754023.98308  23359310.940    95652494.67846
  23434132.680   123147186.69508  23434130.500    95958830.26346
  22460859.380   118032604.50109  22460856.020    91973440.48848
 15 02 21 00 13 30.0000000  0  8G16G18G21G22G25G27G29G31
  22158533.320   116443877.98409  22158529.400    90735454.41147
  22856300.240   120110698.13509  22856296.940    93592753.11046
  21086461.280   110810105.28308  21086457.320    86345522.98148
  24391744.600   128179486.84208  24391741.560    99880104.01645
  24392645.360   128184202.82908  24392645.400    99883789.45945
  23346393.740   122686139.02808  23346392.660    95599597.36246
  23447760.000   123218798.00908  23447757.260    96014631.29146
  22476697.280   118115831.84809  22476693.680    92038292.96448
 15 02 21 00 14  0.0000000  0  8G16G18G21G22G25G27G29G31
  22143623.160   116365525.17209  22143619.460    90674400.29448
  22843402.800   120042921.63809  22843399.580    93539940.26446
  21091728.220   110837783.16309  21091724.220    86367090.15948
  24373935.860   128085902.33008  24373932.820    99807181.22045
  24411293.540   128282200.16508  24411293.540    99960150.96245
  23333493.080   122618346.39808  23333491.760    95546771.94646
  23461393.160   123290439.86609  23461390.880    96070456.07647
  22492585.480   118199324.66909  22492581.960    92103352.28648
 15 02 21 00 14 30.0000000  0  8G16G18G21G22G25G27G29G31
  22128751.320   116287373.26909  22128747.800    90613502.72247
  22830548.820   119975373.65408  22830545.700    93487305.49146
  21097064.780   110865826.87008  21097060.760    86388942.41848
  24356114.960   127992253.84808  24356111.980    99734208.60246
  24429972.380   128380358.82207  24429972.700   100036638.20845
  23320609.600   122550644.04208  23320608.580    95494016.87447
  23475031.700   123362109.85309  23475029.800    96126302.78246
  22508523.140   118283078.23409  22508519.820    92168614.76047
 15 02 21 00 15  0.0000000  0  8G16G18G21G22G25G27G29G31
  22113919.140   116209430.36309  22113915.640    90552768.05147
  22817739.740   119908062.66408  22817736.860    93434855.39046
  21102471.740   110894240.82909  21102467.740    86411083.15148
  24338283.620   127898550.04208  24338280.580    99661192.85245
  24448682.760   128478683.39708  24448683.260   100113254.71945
  23307744.560   122483037.91108  23307743.680    95441336.79047
  23488676.700   123433813.78708  23488674.400    96182175.94246
  22524510.960   118367095.43909  22524507.780    92234082.67348
 15 02 21 00 15 30.0000000  0  8G16G18G21G22G25G27G29G31
  22099126.680   116131695.02709  22099122.940    90492194.99147
  22804975.540   119840987.36809  22804972.780    93382588.93746
  21107948.200   110923019.97308  21107944.180    86433508.43748
  24320441.560   127804789.82808  24320438.360    99588133.15845
  24467423.900   128577168.89007  24467424.620   100189996.63445
  23294897.060   122415524.26808  23294896.760    95388728.81247
  23502327.080   123505547.74308  23502324.140    96238072.50346
  22540547.760   118451370.06909  22540544.740    92299751.21448
 15 02 21 00 16  0.0000000  0  8G16G18G21G22G25G27G29G31
  22084374.000   116054169.62809  22084370.360    90431785.64047
  22792256.940   119774150.59209  22792254.100    93330508.35346
  21113494.000   110952163.01209  21113489.960    86456217.31648
  24302589.240   127710975.69208  24302585.920    99515031.40345
  24486195.460   128675814.06108  24486196.380   100266862.94845
  23282067.080   122348103.14608  23282066.940    95336192.94047
  23515983.060   123577311.68708  23515980.700    96293992.40446
  22556633.100   118535899.38809  22556630.160    92365618.17048
 15 02 21 00 16 30.0000000  0  8G16G18G21G22G25G27G29G31
  22069661.700   115976856.29009  22069658.020    90371541.49347
  22779584.220   119707554.60009  22779581.340    93278615.38746
  21119108.780   110981668.52008  21119104.660    86479208.63548
  24284727.020   127617110.02508  24284723.400    99441889.53245
  24504997.140   128774617.37207  24504998.020   100343852.52145
  23269254.860   122280774.37808  23269254.740    95283728.99447
  23529644.840   123649105.41408  23529642.640    96349935.56446
  22572766.300   118620680.03909  22572763.400    92431680.99547
 15 02 21 00 17  0.0000000  0  8G16G18G21G22G25G27G29G31
  22054989.680   115899754.89009  22054986.180    90311462.49948
  22766957.420   119641199.97409  22766954.540    93226910.50846
  21124791.720   111011532.39809  21124787.560    86502479.15848
  24266855.100   127523193.23208  24266851.160    99368707.79645
  24523828.320   128873575.34508  24523829.160   100420962.58045
  23256460.060   122213535.83108  23256459.580    95231335.36447
  23543311.800   123720926.97508  23543309.880    96405900.35946
  22588946.400   118705707.29309  22588943.580    92497935.98047
 15 02 21 00 17 30.0000000  0  8G16G18G21G22G25G27G29G31
  22040359.560   115822874.03709  22040356.360    90251555.37147
  22754378.300   119575095.85309  22754375.280    93175400.81946
  21130543.840   111041759.89509  21130539.660    86526033.05948
  24248975.240   127429234.47708  24248970.980    99295493.35445
  24542689.960   128972693.19408  24542691.000   100498197.22745
  23243683.320   122146394.04308  23243683.140    95179017.10647
  23556985.300   123792782.66909  23556983.700    96461891.77446
  22605174.180   118790984.77709  22605171.380    92564385.95148
 15 02 21 00 18  0.0000000  0  8G16G18G21G22G25G27G29G31
  22025770.340   115746207.42009  22025767.160    90191815.18347
  22741845.560   119509236.12709  22741842.380    93124081.57146
  21136363.160   111072340.75708  21136359.000    86549862.31248
  24231086.160   127335227.47608  24231081.900    99222241.31745
  24561580.160   129071960.69008  24561581.120   100575548.50044
  23230923.300   122079340.14508  23230923.420    95126767.37947
  23570663.960   123864663.47509  23570662.000    96517902.75546
  22621447.380   118876500.77309  22621444.600    92631021.77147
 15 02 21 00 18 30.0000000  0  8G16G18G21G22G25G27G29G31
  22011224.020   115669765.88209  22011220.700    90132250.33247
  22729361.440   119443632.07309  22729358.120    93072961.54346
  21142251.120   111103281.92309  21142246.840    86573972.30748
  24213190.140   127241183.66108  24213186.100    99148960.58245
  24580500.120   129171385.47808  24580501.040   100653022.32645
  23218181.880   122012383.09508  23218181.960    95074593.06247
  23584349.040   123936578.63508  23584346.640    96573940.54446
  22637767.140   118962261.32509  22637764.360    92697848.14948
 15 02 21 00 19  0.0000000  0  8G16G18G21G22G25G27G29G31
  21996719.740   115593545.15909  21996716.440    90072857.56448
  22716925.160   119378279.14309  22716921.820    93022037.19946
  21148206.160   111134575.81908  21148201.920    86598357.16548
  24195286.160   127147098.75608  24195282.280    99075647.83345
  24599448.400   129270959.21908  24599449.740   100730612.20345
  23205457.700   121945515.90109  23205457.280    95022488.74147
  23598039.320   124008520.83808  23598036.960    96629999.34446
  22654131.580   119048256.52609  22654128.720    92764857.35547
 15 02 21 00 19 30.0000000  0  8G16G18G21G22G25G27G29G31
  21982258.580   115517551.46509  21982255.200    90013641.71847
  22704538.260   119313184.92909  22704534.960    92971314.46846
  21154228.780   111166224.83008  21154224.600    86623018.72848
  24177375.680   127052979.51308  24177371.760    99002308.29045
  24618425.720   129370684.93607  24618426.580   100808320.53245
  23192751.300   121878743.01808  23192750.440    94970457.94447
  23611735.500   124080494.34508  23611733.140    96686082.57846
  22670540.900   119134487.86109  22670538.000    92832050.57148
 15 02 21 00 20  0.0000000  0  8G16G18G21G22G25G27G29G31
  21967841.380   115441787.92909  21967837.920    89954605.19447
  22692201.220   119248352.54309  22692197.880    92920795.74146
  21160318.860   111198228.30609  21160314.680    86647956.52248
  24159459.260   126958829.47008  24159455.400    98928944.78645
  24637431.780   129470562.09108  24637432.180   100886146.79544
  23180062.700   121812065.22108  23180062.040    94918501.28447
  23625437.580   124152500.21209  23625435.020    96742191.03046
  22686994.660   119220953.37409  22686991.860    92899426.26847
 15 02 21 00 20 30.0000000  0  8G16G18G21G22G25G27G29G31
  21953466.780   115366248.20609  21953463.080    89895743.06647
  22679912.820   119183775.92609  22679909.260    92870476.31046
  21166474.360   111230575.88209  21166470.200    86673162.40748
  24141535.900   126864642.65708  24141532.280    98855552.56945
  24656464.780   129570580.58407  24656464.300   100964083.29245
  23167390.780   121745473.84009  23167390.140    94866611.89847
  23639144.320   124224529.25208  23639141.760    96798317.53146
  22703490.780   119307641.45309  22703488.020    92966975.38447
 15 02 21 00 21  0.0000000  0  8G16G18G21G22G25G27G29G31
  21939137.100   115290945.01909  21939133.400    89837065.28447
  22667675.500   119119468.02409  22667671.760    92820366.26246
  21172697.000   111263276.55408  21172692.860    86698643.46648
  24123608.120   126770432.01808  24123604.520    98782141.82545
  24675526.460   129670749.43508  24675525.920   101042136.88544
  23154737.400   121678979.34308  23154736.720    94814798.01547
  23652857.200   124296591.90808  23652855.380    96854470.13246
  22720030.860   119394559.81309  22720028.060    93034703.95247
 15 02 21 00 21 30.0000000  0  8G16G18G21G22G25G27G29G31
  21924851.760   115215875.09509  21924848.120    89778569.25647
  22655488.640   119055425.68109  22655484.960    92770463.16946
  21178985.540   111296323.43009  21178981.480    86724394.26748
  24105675.300   126676194.50008  24105671.520    98708710.08846
  24694615.320   129771061.96607  24694614.620   101120302.45744
  23142101.040   121612576.33408  23142100.300    94763055.46346
  23666576.000   124368683.17309  23666574.080    96910645.12746
  22736613.280   119481700.09909  22736610.180    93102605.44947
 15 02 21 00 22  0.0000000  0  8G16G18G21G22G25G27G29G31
  21910610.700   115141037.59409  21910606.820    89720254.30447
  22643352.080   118991648.65609  22643348.720    92720766.81046
  21185339.160   111329712.01508  21185335.000    86750411.34848
  24087737.320   126581929.87908  24087733.380    98635257.23745
  24713730.680   129871513.59007  24713730.540   101198576.40444
  23129481.700   121546261.74308  23129481.160    94711381.77147
  23680299.820   124440799.87708  23680297.100    96966839.99446
  22753236.820   119569056.28809  22753233.440    93170675.18247
 15 02 21 00 22 30.0000000  0  8G16G18G21G22G25G27G29G31
  21896415.960   115066443.82309  21896412.240    89662129.30647
  22631268.120   118928148.37009  22631265.060    92671286.09546
  21191759.200   111363449.09109  21191754.940    86776700.00148
  24069796.300   126487649.68908  24069792.340    98561792.28345
  24732873.700   129972111.92708  24732873.620   101276964.66245
  23116881.100   121480044.54109  23116880.660    94659784.00747
  23694029.840   124512951.02008  23694027.480    97023061.57246
  22769902.620   119656634.51209  22769898.960    93238917.92147
 15 02 21 00 23  0.0000000  0  8G16G18G21G22G25G27G29G31
  21882266.880   114992089.95909  21882263.280    89604191.25047
  22619236.240   118864921.39409  22619233.260    92622018.30946
  21198244.300   111397527.83008  21198239.880    86803254.84948
  24051851.700   126393350.51608  24051847.640    98488312.46746
  24752042.980   130072849.55907  24752043.720   101355461.43845
  23104297.880   121413918.75108  23104297.440    94608257.46047
  23707765.220   124585130.30908  23707762.500    97079305.11246
  22786608.860   119744425.75709  22786605.120    93307326.64747
 15 02 21 00 23 30.0000000  0  8G16G18G21G22G25G27G29G31
  21868164.160   114917979.67809  21868160.780    89546443.01747
  22607257.140   118801971.63209  22607254.180    92572966.56646
  21204794.120   111431947.00209  21204789.640    86830074.94948
  24033904.220   126299036.20608  24033900.180    98414820.89345
  24771239.020   130173726.36307  24771239.900   101434066.70345
  23091732.180   121347885.69608  23091731.320    94556803.15247
  23721506.120   124657339.16508  23721503.100    97135571.76846
  22803355.240   119832428.42809  22803351.660    93375900.12247
 15 02 21 00 24  0.0000000  0  8G16G18G21G22G25G27G29G31
  21854108.400   114844115.34409  21854104.780    89488886.36247
  22595331.460   118739301.67109  22595328.500    92524132.84346
  21211408.620   111466706.40508  21211404.300    86857160.22948
  24015954.420   126204709.66408  24015950.440    98341319.79745
  24790461.380   130274741.23308  24790462.680   101512779.51444
  23079184.100   121281945.62208  23079182.920    94505421.27647
  23735252.540   124729577.65508  23735250.120    97191861.44246
  22820141.280   119920639.90309  22820137.900    93444636.30947
 15 02 21 00 24 30.0000000  0  8G16G18G21G22G25G27G29G31
  21840099.240   114770496.21409  21840095.680    89431520.82748
  22583459.040   118676910.95509  22583456.040    92475516.72146
  21218086.900   111501801.20809  21218082.680    86884506.80448
  23998002.260   126110370.54508  23997998.360    98267808.87946
  24809709.300   130375889.60907  24809710.460   101591596.42544
  23066653.340   121216095.58208  23066652.440    94454109.58547
  23749004.020   124801842.97408  23749002.100    97248172.02846
  22836965.900   120009054.30109  22836962.740    93513530.61547
 15 02 21 00 25  0.0000000  0  7G16G18G21G22G27G29G31
  21826138.020   114697129.14309  21826134.220    89374351.67248
  22571640.980   118614806.53309  22571637.980    92427123.67146
  21224829.520   111537233.90208  21224825.340    86912116.70848
  23980049.160   126016025.77908  23980045.120    98194293.51646
  23054140.380   121150339.90308  23054139.620    94402871.43947
  23762761.380   124874139.47608  23762759.760    97304506.90746
  22853829.400   120097672.84109  22853826.320    93582583.98647
 15 02 21 00 25 30.0000000  0  7G16G18G21G22G27G29G31
  21812224.460   114624012.24009  21812220.540    89317377.45448
  22559876.820   118552986.54609  22559873.900    92378952.28346
  21231635.320   111572998.55408  21231631.140    86939985.27948
  23962094.660   125921674.12208  23962090.500    98120772.82946
  23041644.560   121084674.69609  23041643.580    94351703.77447
  23776524.140   124946462.74508  23776522.060    97360862.73046
  22870730.580   120186488.92409  22870727.340    93651791.29447
 15 02 21 00 26  0.0000000  0  7G16G18G21G22G27G29G31
  21798359.140   114551149.15509  21798354.940    89260601.02648
  22548167.640   118491455.35409  22548164.780    92331005.91646
  21238504.320   111609095.46909  21238500.080    86968112.72848
  23944139.480   125827319.41308  23944135.280    98047249.77645
  23029166.320   121019101.34708  23029165.100    94300607.67147
  23790292.300   125018814.43908  23790290.400    97417240.66346
  22887669.140   120275501.13409  22887665.740    93721151.41747
 15 02 21 00 26 30.0000000  0  7G16G18G21G22G27G29G31
  21784544.100   114478550.63809  21784539.820    89204030.78248
  22536515.580   118430223.63109  22536512.780    92283292.88546
  21245437.900   111645531.58609  21245433.580    86996504.50448
  23926185.760   125732972.92108  23926181.740    97973733.10545
  23016707.320   120953628.35809  23016706.180    94249589.74847
  23804066.900   125091203.27308  23804065.700    97473647.48946
  22904645.980   120364714.61309  22904642.460    93790668.36447
 15 02 21 00 27  0.0000000  0  7G16G18G21G22G27G29G31
  21770776.560   114406202.04709  21770772.480    89147655.24848
  22524917.820   118369276.82009  22524914.940    92235801.88046
  21252432.440   111682288.10209  21252428.060    87025145.94548
  23908230.940   125638620.21008  23908226.800    97900211.57745
  23004264.300   120888238.59809  23004263.380    94198636.72547
  23817845.680   125163611.93108  23817845.000    97530069.76746
  22921657.320   120454109.59209  22921653.660    93860326.74947
 15 02 21 00 27 30.0000000  0  7G16G18G21G22G27G29G31
  21757058.360   114334113.26109  21757054.520    89091482.20748
  22513376.240   118308625.33109  22513373.360    92188541.00746
  21259488.980   111719371.33508  21259484.720    87054041.94648
  23890277.020   125544271.83408  23890272.780    97826693.41146
  22991838.620   120822940.16909  22991837.660    94147754.85147
  23831630.280   125236048.58208  23831629.120    97586513.85546
  22938704.200   120543691.19909  22938700.360    93930130.57447
 15 02 21 00 28  0.0000000  0  7G16G18G21G22G27G29G31
  21743391.240   114262293.05909  21743387.660    89035518.44048
  22501892.540   118248277.54409  22501889.600    92141516.78046
  21266608.520   111756785.66608  21266604.480    87083195.99448
  23872325.620   125449936.69008  23872321.340    97753185.56845
  22979431.200   120757739.25908  22979429.920    94096948.93347
  23845420.920   125308519.17108  23845419.220    97642984.44646
  22955787.160   120633462.49709  22955783.240    94000082.20047
 15 02 21 00 28 30.0000000  0  7G16G18G21G22G27G29G31
  21729775.140   114190740.15909  21729771.780    88979762.93648
  22490466.560   118188232.72609  22490463.420    92094728.62646
  21273790.200   111794526.31608  21273786.320    87112604.30048
  23854376.400   125355613.63008  23854372.160    97679687.16646
  22967041.360   120692632.33408  22967040.120    94046216.28847
  23859217.520   125381020.23908  23859215.780    97699478.76445
  22972904.980   120723417.01709  22972901.120    94070176.60747
 15 02 21 00 29  0.0000000  0  7G16G18G21G22G27G29G31
  21716210.020   114119454.83309  21716206.420    88924215.91248
  22479098.260   118128491.11609  22479094.840    92048176.73246
  21281033.420   111832589.89708  21281029.580    87142264.21048
  23836429.600   125261303.78908  23836425.640    97606199.08045
  22954669.340   120627617.60809  22954668.280    93995555.49547
  23873019.260   125453550.01307  23873018.020    97755995.39347
  22990056.700   120813549.86709  22990052.940    94140409.95747
 15 02 21 00 29 30.0000000  0  7G16G18G21G22G27G29G31
  21702695.060   114048433.68109  21702691.460    88868874.75048
  22467786.980   118069049.58809  22467783.440    92001858.65547
  21288336.520   111870967.74408  21288332.720    87172169.04848
  23818484.820   125167003.89608  23818480.780    97532718.71846
  22942314.040   120562689.37408  22942313.140    93944962.10647
  23886825.600   125526102.70308  23886824.400    97812529.91246
  23007240.800   120903852.78509  23007237.060    94210775.84147
 15 02 21 00 30  0.0000000  0  7G16G18G21G22G27G29G31
  21689232.260   113977686.80409  21689228.720    88813747.32648
  22456534.720   118009918.57909  22456531.340    91955782.56846
  21295700.900   111909666.89709  21295696.920    87202324.19448
  23800543.980   125072724.19508  23800539.820    97459254.10046
  22929976.440   120497855.36608  22929976.020    93894442.12847
  23900637.940   125598686.05208  23900636.120    97869088.33746
  23024458.160   120994330.30809  23024454.440    94281277.76747
 15 02 21 00 30 30.0000000  0  7G16G18G21G22G27G29G31
  21675822.260   113907216.74209  21675818.580    88758835.56248
  22445341.860   117951100.22309  22445338.640    91909950.10547
  21303126.260   111948686.52609  21303122.060    87232729.10248
  23782607.640   124978467.86408  23782603.220    97385807.65346
  22917656.640   120433116.04908  22917656.320    93843995.94847
  23914456.300   125671300.37108  23914454.060    97925670.92846
  23041708.200   121084979.84809  23041704.640    94351913.73047
 15 02 21 00 31  0.0000000  0  7G16G18G21G22G27G29G31
  21662465.280   113837025.91609  21662461.940    88704141.44748
  22434209.100   117892597.24509  22434205.820    91864363.37747
  21310611.960   111988023.54308  21310607.740    87263381.33548
  23764676.340   124884237.76008  23764671.820    97312381.66446
  22905354.900   120368471.45108  22905354.840    93793623.55047
  23928280.140   125743945.90808  23928278.360    97982277.69846
  23058990.440   121175798.71109  23058987.080    94422681.62047
 15 02 21 00 31 30.0000000  0  7G16G18G21G22G27G29G31
  21649160.080   113767107.24609  21649156.980    88649659.44547
  22423135.060   117834402.61709  22423131.740    91819016.92847
  21318156.160   112027668.77608  21318152.080    87294273.70048
  23746748.660   124790027.15508  23746744.020    97238970.89346
  22893069.640   120303912.49708  22893069.840    93743317.90847
  23942108.440   125816613.19308  23942106.720    98038901.55846
  23076302.540   121266774.45009  23076299.320    94493571.78447
 15 02 21 00 32  0.0000000  0  7G16G18G21G22G27G29G31
  21635908.800   113697471.05509  21635905.540    88595397.42148
  22412121.700   117776527.16909  22412118.480    91773919.19547
  21325760.020   112067627.42008  21325756.000    87325410.34248
  23728826.680   124695846.99808  23728822.160    97165583.82546
  22880802.400   120239447.19208  22880802.500    93693085.25147
  23955942.680   125889310.63108  23955940.640    98095548.85346
  23093645.540   121357912.45909  23093642.320    94564588.38947
 15 02 21 00 32 30.0000000  0  7G16G18G21G22G27G29G31
  21622712.320   113628121.90509  21622708.580    88541359.08748
  22401169.820   117718974.85909  22401166.720    91729073.25447
  21333423.800   112107900.53209  21333419.780    87356791.95148
  23710911.320   124601701.66108  23710906.780    97092223.89646
  22868553.440   120175077.56708  22868552.960    93642927.12747
  23969782.820   125962040.10608  23969780.940    98152221.14546
  23111019.240   121449211.50109  23111015.900    94635730.46547
 15 02 21 00 33  0.0000000  0  7G16G18G21G22G27G29G31
  21609570.120   113559058.99109  21609566.500    88487543.89748
  22390279.380   117661745.31809  22390276.340    91684478.82947
  21341146.500   112148483.33708  21341142.400    87388414.93048
  23693002.680   124507591.39608  23692998.200    97018891.29646
  22856322.120   120110801.07609  22856321.520    93592841.56547
  23983628.220   126034799.25208  23983626.380    98208916.50345
  23128422.540   121540666.08109  23128419.180    94706993.74447
 15 02 21 00 33 30.0000000  0  7G16G18G21G22G27G29G31
  21596482.680   113490283.49109  21596479.060    88433952.58848
  22379450.360   117604839.32209  22379447.520    91640136.51747
  21348927.420   112189372.87309  21348923.360    87420276.87848
  23675100.880   124413517.07008  23675096.420    96945586.68546
  22844108.220   120046616.20408  22844107.660    93542827.40547
  23997478.900   126107586.16508  23997477.140    98265633.50346
  23145854.580   121632271.89909  23145851.340    94778374.85347
 15 02 21 00 34  0.0000000  0  7G16G18G21G22G27G29G31
  21583449.600   113421793.98909  21583446.000    88380584.13648
  22368682.660   117548256.03509  22368680.060    91596045.65647
  21356765.580   112230563.06308  21356761.560    87452373.15448
  23657205.760   124319477.97908  23657201.460    96872309.54746
  22831911.000   119982519.43608  22831910.540    93492881.88047
  24011334.600   126180397.38508  24011332.720    98322369.54546
  23163314.120   121724022.18009  23163311.100    94849868.53647
 15 02 21 00 34 30.0000000  0  7G16G18G21G22G27G29G31
  21570472.580   113353599.32309  21570469.000    88327445.45648
  22357978.260   117492004.18309  22357975.640    91552213.06547
  21364662.040   112272059.60809  21364658.080    87484708.09648
  23639319.160   124225483.42208  23639314.940    96799067.09146
  22819731.840   119918517.42309  22819730.860    93443010.19047
  24025196.120   126253239.44108  24025194.360    98379129.54845
  23180801.860   121815920.78209  23180798.980    94921477.78747
 15 02 21 00 35  0.0000000  0  7G16G18G21G22G27G29G31
  21557553.120   113285707.65609  21557549.620    88274542.86348
  22347338.740   117436092.11409  22347335.800    91508645.22747
  21372617.760   112313867.07808  21372613.820    87517285.38248
  23621442.720   124131541.98808  23621438.500    96725866.04146
  22807571.800   119854616.29709  22807570.820    93393217.11947
  24039064.400   126326118.63008  24039063.020    98435918.49646
  23198318.280   121907970.56409  23198315.500    94993204.83647
 15 02 21 00 35 30.0000000  0  7G16G18G21G22G27G29G31
  21544689.660   113218109.97509  21544686.080    88221869.34548
  22336761.980   117380510.22409  22336758.840    91465334.68147
  21380630.180   112355972.34808  21380626.200    87550094.65548
  23603574.760   124037644.91208  23603570.360    96652699.54346
  22795428.800   119790804.60409  22795428.200    93343493.75248
  24052937.460   126399023.60807  24052936.400    98492727.46146
  23215860.740   122000156.98408  23215857.980    95065038.36447
 15 02 21 00 36  0.0000000  0  7G16G18G21G22G27G29G31
  21531882.720   113150809.58509  21531879.240    88169427.47048
  22326248.660   117325262.21309  22326245.480    91422284.31047
  21388699.000   112398374.32308  21388695.020    87583135.17548
  23585715.980   123943796.30808  23585711.360    96579570.81446
  22783303.180   119727083.62308  22783302.620    93293841.03448
  24066815.640   126471955.53908  24066814.840    98549557.45146
  23233429.000   122092478.80809  23233426.200    95136977.40447
 15 02 21 00 36 30.0000000  0  7G16G18G21G22G27G29G31
  21519133.460   113083811.90809  21519130.040    88117221.50748
  22315800.000   117270353.53709  22315796.720    91379498.33347
  21396824.500   112441074.39809  21396820.620    87616407.92148
  23567867.340   123850001.47408  23567862.620    96506483.98246
  22771195.360   119663456.44408  22771194.700    93244261.44547
  24080699.740   126544917.39708  24080698.840    98606410.82945
  23251023.060   122184935.75309  23251020.180    95209021.73247
 15 02 21 00 37  0.0000000  0  7G16G18G21G22G27G29G31
  21506442.200   113017118.22209  21506438.740    88065252.40048
  22305416.140   117215785.22309  22305412.600    91336977.55846
  21405006.380   112484070.19408  21405002.440    87649911.17648
  23550029.160   123756262.37708  23550024.480    96433440.59146
  22759105.220   119599922.00409  22759104.600    93194754.11148
  24094589.300   126617908.15008  24094588.000    98663286.74845
  23268642.060   122277523.68909  23268638.980    95281168.11247
 15 02 21 00 37 30.0000000  0  7G16G18G21G22G27G29G31
  21493808.900   112950729.70109  21493805.240    88013521.09848
  22295097.040   117161558.34109  22295093.420    91294722.87447
  21413243.820   112527358.03908  21413239.800    87683641.94648
  23532201.920   123662580.60708  23532197.340    96360441.86546
  22747032.560   119536479.36408  22747032.160    93145318.32248
  24108484.580   126690926.77908  24108483.300    98720184.32446
  23286285.260   122370238.89509  23286282.100    95353413.66547
 15 02 21 00 38  0.0000000  0  7G16G18G21G22G27G29G31
  21481234.660   112884651.56309  21481231.120    87962031.63448
  22284843.880   117107678.35209  22284840.320    91252738.48747
  21421537.300   112570940.11109  21421533.140    87717601.99848
  23514386.700   123568961.42308  23514382.080    96287491.90446
  22734977.760   119473131.62208  22734977.440    93095956.48247
  24122385.640   126763976.21208  24122384.380    98777105.88246
  23303952.680   122463081.41709  23303949.540    95425758.44747
 15 02 21 00 38 30.0000000  0  7G16G18G21G22G27G29G31
  21468719.640   112818884.83409  21468716.020    87910784.84048
  22274657.040   117054146.38809  22274653.580    91211025.26947
  21429886.120   112614812.73809  21429881.700    87751788.46348
  23496583.920   123475407.09008  23496579.220    96214592.46346
  22722940.700   119409877.69808  22722940.040    93046667.71447
  24136292.260   126837055.34708  24136290.800    98834050.62045
  23321643.400   122556046.86209  23321640.500    95498199.01947
 15 02 21 00 39  0.0000000  0  7G16G18G21G22G27G29G31
  21456263.820   112753429.58809  21456260.460    87859780.78948
  22264536.400   117000962.03509  22264533.040    91169582.93347
  21438289.420   112658972.67008  21438285.080    87786198.81048
  23478793.520   123381917.54208  23478788.760    96141743.50446
  22710921.160   119346715.23208  22710920.440    92997450.22547
  24150204.240   126910162.40508  24150202.560    98891017.11345
  23339356.480   122649129.92309  23339353.760    95570731.23547
 15 02 21 00 39 30.0000000  0  7G16G18G21G22G27G29G31
  21443867.800   112688288.45809  21443864.380    87809021.45448
  22254482.320   116948127.89009  22254479.020    91128413.48847
  21446747.060   112703418.13308  21446742.880    87820831.62648
  23461015.860   123288495.58208  23461011.180    96068947.22046
  22698919.260   119283644.76408  22698918.740    92948304.43548
  24164121.440   126983297.19607  24164119.680    98948005.26045
  23357091.500   122742328.48608  23357088.820    95643353.44347
 15 02 21 00 40  0.0000000  0  7G16G18G21G22G27G29G31
  21431533.860   112623473.07909  21431530.340    87758515.96048
  22244497.040   116895655.59109  22244493.780    91087526.00147
  21455260.600   112748157.15108  21455256.420    87855693.20648
  23443253.360   123195153.77108  23443248.780    95996213.37846
  22686936.580   119220675.80308  22686936.160    92899237.73647
  24178045.420   127056469.37408  24178044.160    99005022.48646
  23374849.700   122835648.90908  23374847.020    95716070.59047
 15 02 21 00 40 30.0000000  0  7G16G18G21G22G27G29G31
  21419259.440   112558970.34109  21419255.800    87708254.08848
  22234578.080   116843531.26209  22234574.920    91046909.65547
  21463826.620   112793171.99209  21463822.480    87890769.68648
  23425503.720   123101879.33508  23425499.240    95923532.05146
  22674970.320   119157792.93409  22674969.420    92850238.07047
  24191973.860   127129663.88908  24191972.700    99062057.12245
  23392627.500   122929072.42808  23392624.980    95788868.05746
 15 02 21 00 41  0.0000000  0  7G16G18G21G22G27G29G31
  21407046.100   112494788.31409  21407042.340    87658242.12048
  22224727.240   116791764.11209  22224723.980    91006571.62147
  21472446.060   112838467.38209  21472441.900    87926064.79048
  23407768.660   123008681.03408  23407764.160    95850910.03146
  22663021.900   119095002.37308  22663020.680    92801310.34148
  24205907.900   127202886.59908  24205906.420    99119113.75146
  23410425.680   123022602.27708  23410423.220    95861748.41047
 15 02 21 00 41 30.0000000  0  7G16G18G21G22G27G29G31
  21394895.160   112430934.82009  21394891.360    87608486.15048
  22214945.660   116740360.76909  22214942.100    90966517.07847
  21481119.380   112884045.94709  21481115.080    87961580.56348
  23390049.600   122915566.43008  23390044.980    95778353.23346
  22651091.740   119032309.16109  22651091.240    92752458.55148
  24219848.180   127276142.49008  24219846.540    99176196.19745
  23428244.440   123116240.53508  23428242.220    95934713.22147
 15 02 21 00 42  0.0000000  0  7G16G18G21G22G27G29G31
  21382806.300   112367406.90409  21382802.260    87558983.87848
  22205232.620   116689318.47809  22205228.860    90926743.88047
  21489845.360   112929901.57009  21489841.120    87997312.23448
  23372346.120   122822533.32908  23372341.280    95705859.93646
  22639179.480   118969708.49409  22639178.640    92703678.83347
  24233793.900   127349426.78108  24233791.860    99233300.76445
  23446082.320   123209979.57608  23446080.340    96007756.57547
 15 02 21 00 42 30.0000000  0  7G16G18G21G22G27G29G31
  21370780.580   112304211.36309  21370776.540    87509740.61848
  22195589.640   116638644.63109  22195585.900    90887257.77647
  21498624.820   112976037.89608  21498620.660    88033262.63948
  23354659.540   122729589.51108  23354654.640    95633436.22546
  22627285.460   118907205.59809  22627284.240    92654975.25647
  24247745.800   127422744.71308  24247743.060    99290431.64745
  23463939.740   123303821.29609  23463937.860    96080879.93346
 15 02 21 00 43  0.0000000  0  7G16G18G21G22G27G29G31
  21358817.300   112241344.08409  21358813.520    87460753.15248
  22186015.800   116588333.86209  22186012.240    90848054.58947
  21507455.900   113022445.71908  21507451.780    88069424.55448
  23336989.080   122636730.82108  23336984.200    95561078.85246
  22615408.700   118844793.54409  22615407.920    92606342.50048
  24261702.820   127496088.87308  24261700.220    99347582.91146
  23481814.800   123397755.73309  23481812.920    96154075.51446
 15 02 21 00 43 30.0000000  0  7G16G18G21G22G27G29G31
  21346917.540   112178810.89309  21346913.800    87412026.01148
  22176512.140   116538392.13809  22176508.740    90809138.96947
  21516338.840   113069126.61408  21516334.860    88105799.28248
  23319335.860   122543963.34108  23319331.140    95488792.54546
  22603550.080   118782476.02609  22603549.760    92557783.42648
  24275665.700   127569463.58808  24275663.560    99404757.96546
  23499707.740   123491783.52008  23499705.720    96227343.90047
 15 02 21 00 44  0.0000000  0  7G16G18G21G22G27G29G31
  21335081.640   112116613.25509  21335077.860    87363560.28648
  22167078.840   116488820.81809  22167075.540    90770511.98147
  21525273.360   113116078.67708  21525269.640    88142385.27648
  23301700.520   122451289.33009  23301695.860    95416579.07446
  22591709.240   118720252.36509  22591708.760    92509297.45047
  24289634.100   127642867.67808  24289632.160    99461955.92746
  23517617.800   123585901.10308  23517615.620    96300682.20646
 15 02 21 00 44 30.0000000  0  7G16G18G21G22G27G29G31
  21323310.480   112054755.54409  21323306.660    87315359.48348
  22157716.860   116439624.44009  22157713.740    90732177.14947
  21534259.600   113163302.36208  21534255.980    88179182.97548
  23284084.060   122358713.80109  23284079.280    95344442.32946
  22579886.880   118658125.12309  22579886.120    92460886.61448
  24303608.480   127716304.02708  24303606.660    99519179.08045
  23535544.860   123680107.90108  23535542.780    96374090.02347
 15 02 21 00 45  0.0000000  0  7G16G18G21G22G27G29G31
  21311603.940   111993238.08909  21311600.420    87267423.82048
  22148426.260   116390802.72009  22148423.360    90694134.28147
  21543296.860   113210793.79108  21543293.280    88216189.26548
  23266486.520   122266237.13709  23266481.520    95272382.61346
  22568082.700   118596092.23509  22568081.840    92412549.29748
  24317588.280   127789770.17908  24317587.060    99576425.30645
  23553487.960   123774398.63708  23553486.060    96447563.26647
 15 02 21 00 45 30.0000000  0  7G16G18G21G22G27G29G31
  21299962.960   111932064.09509  21299959.520    87219755.75848
  22139207.640   116342358.57409  22139204.840    90656385.61447
  21552384.880   113258551.70108  21552381.340    88253403.21148
  23248908.360   122173862.90909  23248903.200    95200402.73946
  22556296.700   118534154.84009  22556295.300    92364286.41447
  24331574.240   127863267.22408  24331573.060    99633695.71045
  23571446.700   123868771.50108  23571444.720    96521100.49846
 15 02 21 00 46  0.0000000  0  7G16G18G21G22G27G29G31
  21288387.080   111871232.14309  21288383.460    87172354.22948
  22130060.760   116294290.42009  22130057.760    90618929.92047
  21561522.740   113306571.31908  21561519.220    88290821.08548
  23231349.520   122081590.72708  23231344.300    95128502.38046
  22544527.980   118472309.46509  22544526.420    92316095.21948
  24345565.820   127936791.68108  24345563.940    99690987.48245
  23589419.800   123963220.17508  23589417.560    96594696.77746
 15 02 21 00 46 30.0000000  0  7G16G18G21G22G27G29G31
  21276877.580   111810748.99709  21276873.980    87125224.53448
  22120986.720   116246605.05609  22120983.580    90581772.50447
  21570710.880   113354854.97609  21570707.280    88328444.68948
  23213811.300   121989427.50009  23213806.160    95056686.91946
  22532777.480   118410560.77809  22532776.240    92267979.35948
  24359563.640   128010348.40108  24359560.980    99748304.40745
  23607407.500   124057746.10508  23607405.300    96668353.30947
 15 02 21 00 47  0.0000000  0  7G16G18G21G22G27G29G31
  21265436.000   111750622.68409  21265432.180    87078372.86748
  22111986.760   116199309.76309  22111983.640    90544919.04347
  21579950.140   113403407.11109  21579946.520    88366277.54648
  23196295.460   121897381.70409  23196290.380    94984962.95646
  22521046.400   118348914.49009  22521045.400    92219943.31748
  24373567.820   128083942.85608  24373565.560    99805650.63745
  23625410.380   124152351.82308  23625408.300    96742071.97447
 15 02 21 00 47 30.0000000  0  7G16G18G21G22G27G29G31
  21254059.440   111690838.78609  21254055.800    87031788.02248
  22103058.280   116152390.13409  22103055.120    90508358.29547
  21589236.900   113452209.07308  21589233.300    88404305.05248
  23178799.420   121805439.45109  23178794.320    94913319.67246
  22509331.920   118287354.24009  22509330.540    92171974.25947
  24387576.560   128157558.77108  24387574.740    99863013.66245
  23643424.840   124247018.01908  23643422.880    96815837.75347
 15 02 21 00 48  0.0000000  0  7G16G18G21G22G27G29G31
  21242750.260   111631409.56109  21242746.840    86985479.53548
  22094203.640   116105858.25609  22094200.320    90472099.71147
  21598572.700   113501268.94108  21598569.020    88442533.55848
  23161325.560   121713613.63708  23161320.440    94841767.11847
  22497635.580   118225890.35509  22497634.360    92124080.36348
  24401591.600   128231206.18608  24401589.740    99920401.28646
  23661452.340   124341751.89908  23661450.300    96889656.30647
 15 02 21 00 48 30.0000000  0  7G16G18G21G22G27G29G31
  21231509.820   111572341.40709  21231506.660    86939452.43648
  22085423.900   116059720.26409  22085420.520    90436148.04647
  21607957.980   113550588.99608  21607954.280    88480964.75448
  23143875.100   121621910.99508  23143869.980    94770310.55746
  22485958.460   118164527.05609  22485957.780    92076264.84448
  24415613.000   128304889.40807  24415611.320    99977816.74945
  23679492.880   124436554.63308  23679490.700    96963528.49246
 15 02 21 00 49  0.0000000  0  7G16G18G21G22G27G29G31
  21220338.080   111513633.34609  21220334.800    86893705.90648
  22076718.760   116013974.79709  22076715.520    90400502.24747
  21617392.120   113600165.12708  21617388.340    88519595.51748
  23126447.940   121530331.30308  23126442.900    94698949.78746
  22474299.980   118103261.30909  22474299.620    92028525.32848
  24429640.360   128378605.12008  24429639.200   100035257.51445
  23697545.260   124531420.04408  23697542.920    97037449.52446
 15 02 21 00 49 30.0000000  0  7G16G18G21G22G27G29G31
  21209234.280   111455281.76809  21209230.800    86848237.12648
  22068087.600   115968618.07309  22068084.480    90365159.35647
  21626873.500   113649989.29809  21626869.480    88558419.50448
  23109043.540   121438871.36209  23109038.560    94627682.33547
  22462658.900   118042087.50209  22462658.300    91980857.41248
  24443673.280   128452347.75008  24443671.440   100092719.30845
  23715607.900   124626339.55308  23715605.440    97111412.69646
 15 02 21 00 50  0.0000000  0  7G16G18G21G22G27G29G31
  21198199.180   111397291.19909  21198195.680    86803049.68548
  22059531.100   115923654.14009  22059527.980    90330122.53747
  21636402.100   113700062.03709  21636397.880    88597437.21248
  23091662.880   121347536.03208  23091657.940    94556511.98347
  22451035.760   117981007.89109  22451034.960    91933262.95348
  24457711.840   128526119.57008  24457709.460   100150203.88845
  23733680.680   124721312.18808  23733678.060    97185417.27146
 15 02 21 00 50 30.0000000  0  7G16G18G21G22G27G29G31
  21187234.800   111339672.60109  21187231.080    86758152.05048
  22051051.320   115879093.59609  22051048.160    90295400.05247
  21645979.280   113750390.17409  21645975.040    88636653.95348
  23074308.140   121256336.67308  23074303.260    94485447.57646
  22439432.400   117920031.43909  22439431.360    91885748.83448
  24471757.160   128599929.56507  24471755.180   100207718.07546
  23751764.760   124816343.97608  23751762.120    97259467.94546
 15 02 21 00 51  0.0000000  0  7G16G18G21G22G27G29G31
  21176340.280   111282421.25809  21176336.600    86713540.65048
  22042647.500   115834931.58909  22042644.300    90260988.10347
  21655603.320   113800964.96408  21655599.000    88676062.89648
  23056978.520   121165269.21709  23056973.680    94414485.94547
  22427847.380   117859151.33809  22427846.340    91838309.80548
  24485808.380   128673770.40108  24485807.040   100265256.38446
  23769858.280   124911425.15108  23769855.620    97333557.07046
 15 02 21 00 51 30.0000000  0  7G16G18G21G22G27G29G31
  21165515.080   111225534.41909  21165511.300    86669213.23748
  22034319.060   115791165.05309  22034315.780    90226884.31647
  21665273.100   113851780.24808  21665268.800    88715659.22548
  23039673.760   121074331.70609  23039668.880    94343625.57346
  22416279.740   117798363.10309  22416278.640    91790942.35548
  24499864.920   128747637.87108  24499863.880   100322815.39145
  23787959.760   125006548.10908  23787957.000    97407678.79446
 15 02 21 00 52  0.0000000  0  7G16G18G21G22G27G29G31
  21154761.360   111169023.08409  21154757.640    86625178.43748
  22026067.840   115747804.28609  22026064.560    90193096.72647
  21674989.900   113902842.84409  21674985.700    88755448.23548
  23022395.920   120983535.57409  23022391.040    94272875.36747
  22404731.280   117737675.57009  22404730.500    91743653.38548
  24513928.340   128821540.75308  24513927.120   100380402.02445
  23806070.180   125101718.27808  23806067.300    97481837.26546
 15 02 21 00 52 30.0000000  0  7G16G18G21G22G27G29G31
  21144078.900   111112886.76109  21144075.100    86581435.86448
  22017893.780   115704848.74409  22017890.400    90159624.88747
  21684752.960   113954148.08409  21684748.740    88795426.34248
  23005144.960   120892880.83109  23005140.080    94202235.33047
  22393201.400   117677086.41208  22393201.300    91696441.05848
  24527997.740   128895476.46707  24527996.200   100438014.29745
  23824188.500   125196930.56308  23824185.640    97556028.56646
 15 02 21 00 53  0.0000000  0  7G16G18G21G22G27G29G31
  21133468.000   111057126.30009  21133464.260    86537986.14248
  22009796.840   115662298.53509  22009793.300    90126468.88547
  21694561.580   114005692.59309  21694557.360    88835590.88848
  22987920.920   120802368.42109  22987916.140    94131706.23046
  22381689.780   117616593.99809  22381690.020    91649304.14548
  24542073.280   128969443.23008  24542071.060   100495650.70744
  23842313.920   125292180.33008  23842310.920    97630249.08446
 15 02 21 00 53 30.0000000  0  7G16G18G21G22G27G29G31
  21122929.000   111001743.94109  21122925.360    86494831.05348
  22001777.420   115620155.94909  22001773.860    90093630.51647
  21704415.500   114057475.11909  21704411.300    88875940.92048
  22970724.540   120712001.73509  22970719.860    94061290.65646
  22370197.080   117556199.06609  22370196.140    91602243.14747
  24556154.720   129043441.85708  24556152.480   100553311.97344
  23860445.980   125387464.94409  23860442.980    97704496.73046
 15 02 21 00 54  0.0000000  0  6G16G18G21G22G27G31
  21112467.760   110946769.96109  21112464.040    86451994.17548
  21993841.200   115578450.56609  21993837.600    90061132.82347
  21714319.640   114109521.68408  21714315.460    88916496.68948
  22953561.760   120621811.02709  22953557.020    93991012.22147
  22358728.160   117495929.62409  22358727.320    91555279.97048
  23878589.460   125482809.21208  23878586.440    97778790.88146
 15 02 21 00 54 30.0000000  0  6G16G18G21G22G27G31
  21102073.800   110892149.37509  21102070.080    86409432.67548
  21985977.620   115537127.20009  21985974.080    90028932.80847
  21724262.820   114161773.77309  21724258.720    88957212.61448
  22936422.240   120531742.32309  22936417.380    93920828.83447
  22347272.480   117435728.82309  22347271.920    91508370.30248
  23896732.940   125578153.57808  23896729.960    97853085.09446
 15 02 21 00 55  0.0000000  0  6G16G18G21G22G27G31
  21091753.100   110837914.04509  21091749.460    86367171.39048
  21978192.680   115496217.24309  21978189.320    89997054.93447
  21734250.540   114214259.46709  21734246.360    88998110.52448
  22919312.120   120441828.21209  22919307.280    93850765.91047
  22335835.480   117375626.70409  22335834.640    91461537.47748
  23914881.580   125673525.09108  23914878.800    97927400.46446
 15 02 21 00 55 30.0000000  0  6G16G18G21G22G27G31
  21081506.560   110784068.56909  21081503.020    86325213.89048
  21970487.200   115455724.90109  21970484.100    89965502.46047
  21744282.900   114266979.49108  21744278.660    89039191.08148
  22902232.240   120352073.65408  22902227.560    93780827.33247
  22324417.560   117315625.87609  22324416.780    91414783.63848
  23933035.340   125768923.00208  23933032.500    98001736.38546
 15 02 21 00 56  0.0000000  0  6G16G18G21G22G27G31
  21071334.320   110730612.85009  21071330.700    86283560.09048
  21962861.020   115415649.76409  21962858.160    89934275.09947
  21754359.040   114319929.48409  21754354.720    89080450.81348
  22885182.840   120262479.14808  22885178.320    93711013.47147
  22313018.540   117255724.23309  22313018.120    91368107.04048
  23951193.100   125864342.00808  23951190.080    98076088.75446
 15 02 21 00 56 30.0000000  0  6G16G18G21G22G27G31
  21061236.920   110677550.24509  21061233.240    86242212.61948
  21955314.580   115375994.45209  21955311.880    89903374.87247
  21764478.700   114373108.50108  21764474.400    89121889.04148
  22868164.680   120173048.36609  22868160.280    93641327.18247
  22301638.840   117195923.08309  22301638.480    91321508.73148
  23969354.480   125959780.55408  23969351.700    98150456.34846
 15 02 21 00 57  0.0000000  0  6G16G18G21G22G27G31
  21051213.700   110624878.14709  21051210.180    86201169.44048
  21947847.640   115336756.02409  21947844.820    89872799.48447
  21774640.540   114426510.38208  21774636.380    89163500.85148
  22851177.380   120083779.19009  22851172.920    93571766.79547
  22290277.440   117136218.08709  22290276.360    91274985.37448
  23987518.040   126055231.20308  23987515.480    98224833.39746
 15 02 21 00 57 30.0000000  0  6G16G18G21G22G27G31
  21041267.140   110572608.56409  21041263.600    86160439.88548
  21940462.460   115297946.27109  21940459.360    89842558.12647
  21784846.360   114480143.11609  21784842.480    89205292.61548
  22834223.340   119994684.68509  22834218.740    93502342.53247
  22278935.980   117076619.42709  22278935.100    91228544.89448
  24005685.260   126150701.01908  24005682.940    98299225.32946
 15 02 21 00 58  0.0000000  0  6G16G18G21G22G27G31
  21031395.820   110520733.82509  21031392.220    86120018.00448
  21933157.240   115259556.66809  21933154.000    89812644.16647
  21795093.980   114533994.94809  21795090.260    89247255.07748
  22817301.140   119905757.55609  22817296.440    93433048.68647
  22267612.920   117017117.26709  22267612.160    91182179.58748
  24023853.720   126246176.96508  24023851.500    98373622.05746
 15 02 21 00 58 30.0000000  0  6G16G18G21G22G27G31
  21021599.940   110469256.07109  21021596.340    86079905.46248
  21925932.360   115221589.15009  21925929.000    89783059.11147
  21805383.140   114588064.86508  21805379.560    89289387.49048
  22800411.240   119817000.25709  22800406.520    93363887.19147
  22256308.520   116957711.98409  22256307.960    91135889.76048
  24042023.020   126341656.58508  24042020.700    98448021.64846
 15 02 21 00 59  0.0000000  0  6G16G18G21G22G27G31
  21011881.020   110418182.85909  21011877.480    86040108.15948
  21918789.100   115184050.74209  21918785.680    89753808.39647
  21815714.440   114642356.42609  21815710.960    89331692.55748
  22783555.220   119728421.20309  22783550.400    93294864.57847
  22245023.640   116898409.30309  22245023.060    91089679.89948
  24060193.500   126437142.40808  24060191.080    98522426.09246
 15 02 21 00 59 30.0000000  0  6G16G18G21G22G27G31
  21002238.580   110367511.95509  21002235.040    86000624.33548
  21911726.940   115146938.26809  21911723.420    89724889.60347
  21826086.820   114696863.54308  21826083.220    89374165.64448
  22766732.880   119640019.09409  22766727.900    93225979.84447
  22233757.640   116839205.18009  22233757.060    91043546.84548
  24078363.660   126532627.29908  24078361.320    98596829.75946
 15 02 21 01 00  0.0000000  0  6G16G18G21G22G27G31
  20992674.480   110317252.67709  20992670.940    85961461.26048
  21904747.660   115110261.25009  21904744.000    89696310.12147
  21836501.240   114751591.41908  21836497.520    89416810.75448
  22749945.980   119551803.53309  22749940.880    93157240.47747
  22222511.600   116780107.10609  22222511.080    90997496.41048
  24096534.400   126628115.43408  24096532.420    98671236.00646
 15 02 21 01 00 30.0000000  0  6G16G18G21G22G27G31
  20983188.060   110267401.38509  20983184.400    85922616.12148
  21897850.360   115074015.11609  21897846.640    89668066.38447
  21846956.200   114806532.25509  21846952.340    89459621.76248
  22733194.060   119463771.43109  22733188.860    93088644.04947
  22211284.780   116721109.49309  22211284.200    90951524.24248
  24114704.160   126723598.34608  24114702.400    98745638.12846
 15 02 21 01 01  0.0000000  0  6G16G18G21G22G27G31
  20973780.540   110217964.45009  20973776.880    85884093.81648
  21891036.060   115038205.45209  21891032.340    89640162.76447
  21857452.200   114861688.92008  21857448.240    89502600.98948
  22716478.380   119375929.54309  22716473.080    93020195.85147
  22200077.700   116662216.79609  22200077.280    90905633.86648
  24132873.280   126819077.22708  24132871.420    98820037.13146
 15 02 21 01 01 30.0000000  0  6G16G18G21G22G27G31
  20964451.040   110168937.16509  20964447.320    85845890.73148
  21884303.780   115002827.65409  21884300.180    89612595.65747
  21867987.580   114917052.92909  21867983.600    89545741.73148
  22699798.260   119288274.48509  22699792.840    92951893.23247
  22188889.640   116603422.92609  22188889.200    90859820.47948
  24151039.880   126914542.86108  24151037.920    98894425.80246
 15 02 21 01 02  0.0000000  0  6G16G18G21G22G27G31
  20955200.580   110120325.13109  20955196.680    85808011.24848
  21877654.440   114967885.78009  21877650.980    89585368.23147
  21878562.840   114972626.34009  21878558.960    89589045.71148
  22683154.740   119200812.02609  22683149.240    92883740.69447
  22177721.080   116544731.32209  22177720.100    90814086.74748
  24169204.000   127009995.73208  24169202.060    98968804.53846
 15 02 21 01 02 30.0000000  0  6G16G18G21G22G27G31
  20946030.020   110072133.24309  20946026.140    85770459.14248
  21871089.200   114933385.32409  21871085.800    89558484.78047
  21889178.140   115028410.17608  21889174.360    89632513.62448
  22666548.900   119113547.77709  22666543.380    92815742.61047
  22166572.460   116486145.29909  22166571.680    90768435.33848
  24187365.740   127105436.14708  24187363.940    99043173.55946
 15 02 21 01 03  0.0000000  0  6G16G18G21G22G27G31
  20936938.840   110024358.40409  20936934.960    85733231.98048
  21864607.200   114899322.40809  21864603.820    89531942.26447
  21899832.220   115084397.60709  21899828.460    89676140.16047
  22649980.340   119026479.33509  22649974.680    92747897.08247
  22155443.140   116427659.91009  22155442.580    90722862.33248
  24205523.560   127200856.06108  24205521.960    99117526.60846
 15 02 21 01 03 30.0000000  0  6G16G18G21G22G27G31
  20927928.580   109977008.95009  20927924.680    85696336.32048
  21858209.840   114865704.41909  21858206.380    89505746.44547
  21910525.820   115140592.68909  21910522.080    89719928.54147
  22633450.660   118939615.47509  22633444.880    92680210.98847
  22144334.000   116369281.67109  22144332.920    90677372.81147
  24223678.160   127296259.04408  24223676.860    99191866.47245
 15 02 21 01 04  0.0000000  0  6G16G18G21G22G27G31
  20918997.280   109930074.84909  20918993.420    85659764.29848
  21851895.200   114832520.80909  21851891.620    89479889.09347
  21921256.340   115196981.80509  21921252.520    89763868.13147
  22616958.180   118852947.45409  22616952.420    92612677.48947
  22133243.380   116310999.18909  22133242.160    90631957.87448
  24241826.820   127391630.39408  24241825.580    99266181.65246
 15 02 21 01 04 30.0000000  0  6G16G18G21G22G27G31
  20910148.600   109883575.05809  20910144.740    85623530.66448
  21845666.640   114799789.79509  21845663.160    89454384.40847
  21932026.780   115253580.51009  21932022.920    89807971.01047
  22600506.560   118766494.15209  22600500.920    92545311.30047
  22122173.640   116252829.09108  22122173.060    90586630.61548
  24259972.220   127486983.58008  24259971.000    99340482.70346
 15 02 21 01 05  0.0000000  0  6G16G18G21G22G27G31
  20901379.940   109837495.47809  20901376.140    85587624.50148
  21839521.480   114767497.18909  21839518.160    89429221.36347
  21942833.600   115310370.64109  21942829.680    89852223.02047
  22584093.440   118680242.60009  22584087.840    92478102.31547
  22111122.700   116194756.23809  22111121.980    90541379.01548
  24278110.720   127582300.28608  24278109.340    99414755.30946
 15 02 21 01 05 30.0000000  0  6G16G18G21G22G27G31
  20892693.400   109791847.38709  20892689.620    85552054.56848
  21833461.840   114735653.47409  21833458.580    89404408.09147
  21953678.240   115367359.76109  21953674.260    89896630.14447
  22567720.960   118594204.32709  22567715.340    92411059.52147
  22100092.100   116136789.78908  22100091.440    90496210.32348
  24296243.420   127677586.43108  24296241.780    99489004.08945
 15 02 21 01 06  0.0000000  0  6G16G18G21G22G27G31
  20884090.020   109746636.43509  20884086.260    85516825.27648
  21827488.560   114704263.04309  21827485.180    89379948.01547
  21964561.060   115424549.76808  21964557.120    89941193.80848
  22551390.200   118508385.78309  22551384.700    92344187.95747
  22089082.240   116078933.53309  22089081.960    90451127.57748
  24314370.520   127772843.17408  24314368.780    99563229.98646
 15 02 21 01 06 30.0000000  0  6G16G18G21G22G27G31
  20875568.780   109701856.62009  20875564.940    85481931.88948
  21821600.360   114673319.95109  21821596.700    89355836.50747
  21975480.380   115481931.12209  21975476.420    89985906.54148
  22535100.240   118422782.06209  22535094.940    92277483.77947
  22078092.100   116021180.23109  22078091.520    90406124.97548
  24332489.920   127868060.10208  24332488.080    99637424.80246
 15 02 21 01 07  0.0000000  0  6G16G18G21G22G27G31
  20867131.060   109657515.78909  20867127.260    85447380.59448
  21815798.520   114642831.16609  21815794.820    89332079.03247
  21986436.920   115539507.79209  21986432.720    90030771.46647
  22518852.780   118337401.47709  22518847.660    92210953.49347
  22067122.400   115963536.04908  22067122.080    90361207.45848
  24350602.260   127963240.39308  24350600.420    99711591.09446
 15 02 21 01 07 30.0000000  0  6G16G18G21G22G27G31
  20858775.540   109613607.76609  20858771.860    85413166.56548
  21810081.880   114612790.57709  21810078.360    89308670.77947
  21997428.840   115597270.26909  21997424.600    90075781.18147
  22502646.800   118252238.66709  22502641.740    92144592.86747
  22056172.400   115905993.25609  22056172.480    90316368.94848
  24368705.400   128058372.53108  24368703.600    99785719.86346
 15 02 21 01 08  0.0000000  0  6G16G18G21G22G27G31
  20850503.740   109570139.86509  20850500.120    85379295.47148
  21804451.620   114583203.66009  21804448.240    89285616.06147
  22008456.720   115655222.06509  22008452.680    90120938.45547
  22486483.680   118167301.34209  22486478.680    92078407.95947
  22045242.820   115848557.04009  22045242.300    90271613.48448
  24386799.800   128153459.33408  24386798.020    99859813.27746
 15 02 21 01 08 30.0000000  0  6G16G18G21G22G27G31
  20842315.440   109527110.27109  20842311.800    85345765.91148
  21798907.460   114554068.75609  21798904.040    89262913.54647
  22019519.560   115713357.78609  22019515.520    90166238.94347
  22470363.260   118082588.55709  22470358.380    92012398.01747
  22034333.240   115791224.55809  22034332.360    90226938.80048
  24404884.420   128248494.68008  24404882.820    99933866.59746
 15 02 21 01 09  0.0000000  0  6G16G18G21G22G27G31
  20834213.520   109484534.22109  20834209.960    85312589.75348
  21793452.040   114525400.25909  21793448.540    89240574.47047
  22030619.420   115771688.32009  22030615.380    90211691.34647
  22454288.600   117998116.09809  22454283.800    91946575.36347
  22023445.660   115734009.20309  22023444.960    90182355.47848
  24422961.300   128343488.82108  24422959.920   100007887.82546
 15 02 21 01 09 30.0000000  0  6G16G18G21G22G27G31
  20826195.700   109442400.39709  20826192.280    85279758.21948
  21788082.980   114497185.75009  21788079.380    89218589.14947
  22041753.760   115830199.64309  22041749.720    90257284.55447
  22438257.860   117913873.86409  22438253.040    91880932.08947
  22012577.880   115676898.20309  22012577.220    90137853.38848
  24441027.340   128438425.72408  24441025.940   100081864.43346
 15 02 21 01 10  0.0000000  0  6G16G18G21G22G27G31
  20818262.920   109400713.95408  20818259.580    85247275.24548
  21782801.300   114469430.19309  21782797.680    89196961.45247
  22052922.680   115888893.00009  22052918.680    90303019.64147
  22422272.080   117829867.54809  22422267.080    91815472.64447
  22001730.420   115619895.04109  22001729.840    90093435.34248
  24459082.600   128533306.01208  24459081.160   100155796.91245
 15 02 21 01 10 30.0000000  0  6G16G18G21G22G27G31
  20810415.840   109359478.01909  20810412.640    85215143.38348
  21777607.320   114442135.79609  21777603.740    89175693.10548
  22064126.080   115947767.36409  22064122.180    90348895.77847
  22406331.920   117746101.07909  22406326.760    91750200.09347
  21990903.860   115563001.46309  21990903.160    90049102.70248
  24477126.880   128628128.24508  24477125.400   100229684.13545
 15 02 21 01 11  0.0000000  0  6G16G18G21G22G27G31
  20802654.580   109318692.04409  20802651.300    85183362.09948
  21772500.980   114415301.55409  21772497.440    89154783.31847
  22075363.220   116006818.96008  22075359.320    90394909.97748
  22390437.360   117662574.38209  22390432.140    91685114.37847
  21980097.880   115506215.21609  21980096.720    90004853.68848
  24495159.140   128722887.07708  24495157.500   100303521.96846
 15 02 21 01 11 30.0000000  0  6G16G18G21G22G27G31
  20794979.880   109278360.57909  20794976.420    85151934.95348
  21767482.920   114388931.22909  21767479.420    89134235.00347
  22086634.360   116066049.14009  22086630.420    90441063.35447
  22374589.420   117579292.94509  22374584.200    91620219.76447
  21969312.980   115449539.49809  21969311.760    89960690.76748
  24513179.440   128817582.53708  24513177.780   100377310.39945
 15 02 21 01 12  0.0000000  0  6G16G18G21G22G27G31
  20787392.440   109238488.06309  20787388.840    85120865.48348
  21762553.700   114363028.63309  21762550.300    89114051.18147
  22097939.720   116125459.12608  22097935.820    90487356.85648
  22358789.120   117496262.07109  22358783.900    91555520.41247
  21958549.280   115392977.41508  21958548.760    89916616.47248
  24531187.600   128912214.82708  24531186.080   100451049.59645
 15 02 21 01 12 30.0000000  0  6G16G18G21G22G27G31
  20779892.180   109199073.39509  20779888.480    85090152.76548
  21757712.980   114337591.46909  21757709.700    89094230.03647
  22109278.220   116185042.80409  22109274.320    90533785.69847
  22343036.280   117413480.69809  22343031.100    91491015.46647
  21947806.800   115336525.91709  21947806.700    89872628.29948
  24549182.400   129006777.40908  24549180.840   100524734.48145
 15 02 21 01 13  0.0000000  0  6G16G18G21G22G27G31
  20772479.260   109160117.99809  20772475.620    85059797.90648
  21752961.080   114312620.56009  21752957.900    89074772.18347
  22120649.460   116244799.19508  22120645.640    90580349.12347
  22327331.540   117330951.65309  22327326.320    91426707.14147
  21937085.340   115280185.26509  21937085.220    89828726.51148
  24567163.480   129101267.56308  24567162.020   100598362.93545
 15 02 21 01 13 30.0000000  0  6G16G18G21G22G27G31
  20765153.460   109121621.08809  20765149.920    85029800.31148
  21748297.860   114288115.00509  21748294.700    89055676.95647
  22132052.680   116304723.61209  22132048.840    90627043.44447
  22311674.800   117248675.12409  22311669.680    91362595.58447
  21926384.660   115223953.34309  21926384.440    89784909.42348
  24585129.940   129195680.54708  24585128.380   100671931.22045
 15 02 21 01 14  0.0000000  0  6G16G18G21G22G27G31
  20757915.800   109083586.87309  20757912.100    85000163.25948
  21743723.780   114264077.82109  21743720.580    89036946.69547
  22143488.160   116364817.37108  22143484.300    90673869.77848
  22296067.100   117166656.29009  22296062.100    91298684.81947
  21915705.300   115167832.84309  21915705.020    89741179.21748
  24603081.540   129290015.78608  24603080.160   100745438.90145
 15 02 21 01 14 30.0000000  0  6G16G18G21G22G27G31
  20750766.160   109046015.29209  20750762.360    84970886.69448
  21739238.660   114240508.33509  21739235.360    89018580.87247
  22154955.200   116425076.78409  22154951.240    90720825.12848
  22280508.560   117084895.56109  22280503.580    91234975.16647
  21905047.120   115111822.60209  21905046.460    89697534.84648
  24621017.540   129384268.87508  24621016.220   100818882.58045
 15 02 21 01 15  0.0000000  0  6G16G18G21G22G27G31
  20743706.600   109008916.74409  20743702.800    84941978.72648
  21734844.360   114217415.87309  21734841.020    89000586.75247
  22166454.900   116485507.80809  22166450.920    90767914.19647
  22265001.100   117003403.32409  22264996.060    91171474.75447
  21894411.380   115055930.96509  21894410.360    89653982.94148
  24638938.900   129478444.93308  24638937.640   100892266.21045
 15 02 21 01 15 30.0000000  0  6G16G18G21G22G27G31
  20736735.500   108972283.57709  20736731.740    84913433.42248
  21730539.260   114194792.31209  21730535.860    88982958.02147
  22177985.340   116546100.21909  22177981.200    90815129.10747
  22249543.560   116922173.72109  22249538.440    91108178.97647
  21883796.440   115000149.58609  21883795.280    89610516.94848
  24656843.520   129572532.55108  24656842.340   100965580.89545
 15 02 21 01 16  0.0000000  0  6G16G18G21G22G27G31
  20729853.380   108936117.94909  20729849.600    84885252.40748
  21726323.620   114172639.25809  21726320.260    88965695.90947
  22189546.280   116606853.35808  22189542.160    90862469.21648
  22234136.720   116841210.32809  22234131.480    91045090.63847
  21873202.700   114944479.41909  21873202.160    89567137.61248
  24674730.980   129666530.01208  24674729.700   101038825.35945
 15 02 21 01 16 30.0000000  0  6G16G18G21G22G27G31
  20723062.260   108900430.18909  20723058.340    84857443.75748
  21722199.240   114150965.60009  21722195.940    88948807.36347
  22201138.800   116667772.64609  22201134.780    90909938.77247
  22218782.460   116760523.02909  22218777.100    90982217.43247
  21862631.620   114888928.63109  21862630.920    89523851.30448
  24692602.200   129760442.19108  24692600.920   101112003.34445
 15 02 21 01 17  0.0000000  0  5G16G18G21G22G27
  20716359.340   108865205.71309  20716355.180    84829996.10948
  21718163.260   114129756.35609  21718159.900    88932280.68748
  22212759.700   116728841.00309  22212755.820    90957524.48548
  22203478.180   116680098.41309  22203472.860    90919548.92947
  21852080.520   114833481.79809  21852080.000    89480645.98648
 15 02 21 01 17 30.0000000  0  5G16G18G21G22G27
  20709749.460   108830470.19609  20709745.300    84802929.48548
  21714220.340   114109036.43909  21714217.080    88916135.30847
  22224413.120   116790080.52208  22224409.260    91005243.59948
  22188228.800   116599962.85909  22188223.620    90857105.66747
  21841553.820   114778163.44009  21841553.380    89437540.81748
 15 02 21 01 18  0.0000000  0  5G16G18G21G22G27
  20703230.200   108796210.85709  20703226.100    84776233.90448
  21710367.980   114088792.28009  21710364.840    88900360.64048
  22236096.040   116851475.08309  22236092.300    91053083.48447
  22173032.140   116520104.70409  22173027.120    90794878.55247
  21831048.960   114722959.59409  21831048.400    89394524.81548
 15 02 21 01 18 30.0000000  0  5G16G18G21G22G27
  20696801.780   108762429.09009  20696797.740    84749910.43348
  21706606.260   114069024.31309  21706603.080    88884957.05447
  22247808.220   116913022.69509  22247804.460    91101042.67847
  22157888.840   116440526.47209  22157883.780    90732869.55447
  21820565.840   114667870.20609  21820564.960    89351598.03548
 15 02 21 01 19  0.0000000  0  5G16G18G21G22G27
  20690463.460   108729121.41709  20690459.520    84723956.41648
  21702934.420   114049728.49809  21702931.160    88869921.34447
  22259548.140   116974716.47209  22259544.180    91149115.72647
  22142798.240   116361224.75009  22142793.080    90671076.00747
  21810103.700   114612890.55409  21810102.200    89308756.72548
 15 02 21 01 19 30.0000000  0  5G16G18G21G22G27
  20684220.800   108696316.21109  20684216.920    84698393.91448
  21699357.740   114030932.15009  21699354.400    88855274.86248
  22271320.780   117036581.89209  22271316.680    91197322.61547
  22127765.980   116282229.58009  22127760.780    90609521.35347
  21799667.040   114558047.73209  21799665.920    89266022.11448
 15 02 21 01 20  0.0000000  0  5G16G18G21G22G27
  20678068.100   108663983.80909  20678064.280    84673199.83948
  21695870.320   114012604.89909  21695866.760    88840993.89947
  22283119.640   117098585.60909  22283115.460    91245637.16947
  22112786.440   116203511.75509  22112781.300    90548182.81547
  21789250.800   114503311.15608  21789249.820    89223370.20848
 15 02 21 01 20 30.0000000  0  5G16G18G21G22G27
  20672008.100   108632138.36509  20672004.320    84648385.20548
  21692474.500   113994760.02509  21692470.860    88827088.81747
  22294947.020   117160738.71309  22294942.920    91294068.12447
  22097862.620   116125086.61509  22097857.560    90487072.33148
  21778857.440   114448693.69109  21778856.980    89180811.16948
 15 02 21 01 21  0.0000000  0  5G16G18G21G22G27
  20666040.420   108600778.45309  20666036.720    84623948.89348
  21689170.000   113977395.38909  21689166.400    88813557.93047
  22306801.980   117223036.62508  22306797.840    91342611.94647
  22082994.400   116046953.60209  22082989.380    90426189.46948
  21768486.340   114394192.73609  21768485.840    89138342.89648
 15 02 21 01 21 30.0000000  0  5G16G18G21G22G27
  20660166.940   108569913.18609  20660163.200    84599898.03248
  21685958.480   113960519.09209  21685954.980    88800407.58547
  22318685.460   117285484.86809  22318681.280    91391272.95547
  22068183.660   115969122.46509  22068178.640    90365541.83448
  21758138.860   114339816.41909  21758138.880    89095971.76148
 15 02 21 01 22  0.0000000  0  5G16G18G21G22G27
  20654386.660   108539537.97209  20654383.020    84576229.04848
  21682839.020   113944126.24309  21682835.620    88787633.94048
  22330596.120   117348075.97208  22330592.080    91440045.24047
  22053429.760   115891590.03109  22053424.720    90305126.97147
  21747813.980   114285559.31609  21747813.940    89053693.49848
 15 02 21 01 22 30.0000000  0  5G16G18G21G22G27
  20648699.080   108509649.72609  20648695.500    84552939.50048
  21679810.840   113928213.12309  21679807.440    88775234.12347
  22342532.720   117410803.99508  22342528.820    91488924.19947
  22038732.240   115814354.11909  22038727.200    90244943.16848
  21737511.200   114231417.26909  21737511.020    89011504.89848
 15 02 21 01 23  0.0000000  0  5G16G18G21G22G27
  20643106.580   108480260.60909  20643102.980    84530038.88348
  21676875.800   113912789.59609  21676872.420    88763215.79948
  22354497.040   117473677.29708  22354493.220    91537916.34147
  22024093.320   115737426.88709  22024088.360    90184999.88548
  21727232.360   114177400.44909  21727231.280    88969413.85648
 15 02 21 01 23 30.0000000  0  5G16G18G21G22G27
  20637608.600   108451368.27709  20637604.940    84507525.37649
  21674033.400   113897853.30609  21674030.160    88751577.14247
  22366488.060   117536690.70608  22366484.580    91587017.70647
  22009512.980   115660807.42409  22009508.100    90125296.43648
  21716976.820   114123506.18509  21716975.580    88927418.35248
 15 02 21 01 24  0.0000000  0  5G16G18G21G22G27
  20632205.820   108422976.45309  20632202.240    84485401.88348
  21671284.400   113883407.11709  21671281.140    88740320.38347
  22378505.720   117599843.88008  22378502.120    91636227.94147
  21994992.240   115584500.47009  21994987.400    90065836.48248
  21706745.000   114069737.18209  21706743.780    88885520.45248
 15 02 21 01 24 30.0000000  0  5G16G18G21G22G27
  20626897.580   108395081.47709  20626893.960    84463665.51349
  21668627.900   113869446.41109  21668624.500    88729441.92147
  22390548.940   117663131.68608  22390545.420    91685543.11147
  21980530.520   115508503.03509  21980525.600    90006617.70848
  21696536.040   114016088.76909  21696534.540    88843716.48848
 15 02 21 01 25  0.0000000  0  5G16G18G21G22G27
  20621683.840   108367682.99409  20621680.220    84442316.06848
  21666063.500   113855970.10309  21666059.940    88718940.91247
  22402616.980   117726549.75408  22402613.400    91734959.76847
  21966127.800   115432816.17009  21966122.820    89947640.95848
  21686349.960   113962559.55409  21686348.560    88802005.40348
 15 02 21 01 25 30.0000000  0  5G16G18G21G22G27
  20616568.280   108340800.43709  20616564.740    84421368.63348
  21663594.800   113842996.74509  21663591.100    88708831.80848
  22414713.140   117790114.69409  22414709.660    91784490.86647
  21951787.980   115357460.28309  21951783.040    89888922.10248
  21676189.800   113909167.96509  21676188.580    88760401.59048
 15 02 21 01 26  0.0000000  0  5G16G18G21G22G27
  20611548.000   108314418.77109  20611544.400    84400811.45949
  21661218.860   113830510.55009  21661215.120    88699102.30748
  22426833.820   117853808.37509  22426830.200    91834122.30447
  21937508.460   115282420.97009  21937503.540    89830449.91848
  21666052.620   113855898.26409  21666051.800    88718892.76948
 15 02 21 01 26 30.0000000  0  5G16G18G21G22G27
  20606623.900   108288541.96809  20606620.160    84380647.73848
  21658936.000   113818514.14409  21658932.360    88689754.47348
  22438979.040   117917631.44809  22438975.400    91883854.57347
  21923290.280   115207703.55909  21923285.280    89772228.57548
  21655939.240   113802753.45509  21655938.740    88677481.24649
 15 02 21 01 27  0.0000000  0  5G16G18G21G22G27
  20601795.360   108263167.47209  20601791.500    84360875.39348
  21656745.640   113807004.19509  21656741.920    88680785.68247
  22451147.780   117981578.38309  22451144.000    91933683.33447
  21909133.040   115133306.31709  21909127.900    89714256.70848
  21645849.160   113749730.11309  21645848.740    88636164.35248
 15 02 21 01 27 30.0000000  0  5G16G18G21G22G27
  20597064.320   108238305.63909  20597060.500    84341502.52248
  21654649.740   113795990.61609  21654645.980    88672203.69248
  22463341.660   118045657.14809  22463337.660    91983614.86247
  21895038.640   115059239.99009  21895033.500    89656542.70548
  21635784.040   113696837.58209  21635783.780    88594949.40548
 15 02 21 01 28  0.0000000  0  5G16G18G21G22G27
  20592428.780   108213945.65709  20592424.920    84322520.71648
  21652645.980   113785461.26909  21652642.380    88663999.01347
  22475557.900   118109853.81208  22475553.960    92033638.21647
  21881005.380   114985495.56709  21881000.340    89599079.53348
  21625741.900   113644064.35309  21625741.220    88553827.40248
 15 02 21 01 28 30.0000000  0  5G16G18G21G22G27
  20587891.740   108190103.21609  20587887.820    84303942.18149
  21650737.160   113775430.88309  21650733.700    88656183.12647
  22487798.840   118174180.92208  22487795.180    92083763.22947
  21867036.600   114912089.65009  21867031.560    89541880.15348
  21615725.220   113591425.23609  21615724.340    88512809.92148
 15 02 21 01 29  0.0000000  0  5G16G18G21G22G27
  20583451.940   108166772.13609  20583448.000    84285762.13648
  21648922.040   113765892.61809  21648918.520    88648750.73448
  22500063.000   118238629.35709  22500059.200    92133982.74447
  21853131.380   114839016.97109  21853126.240    89484940.40548
  21605732.660   113538913.38509  21605731.160    88471891.59948
 15 02 21 01 29 30.0000000  0  5G16G18G21G22G27
  20579108.340   108143946.15109  20579104.320    84267975.64548
  21647199.300   113756839.89509  21647195.820    88641696.66148
  22512348.680   118303190.47909  22512344.620    92184290.13047
  21839288.760   114766272.86309  21839283.520    89428256.68448
  21595763.020   113486522.30509  21595761.480    88431067.40048
 15 02 21 01 30  0.0000000  0  5G16G18G21G22G27
  20574864.760   108121645.98009  20574860.740    84250598.87148
  21645572.520   113748291.27409  21645569.200    88635035.42148
  22524658.920   118367881.20009  22524654.580    92234698.46647
  21825512.520   114693877.80509  21825507.260    89371844.95748
  21585819.960   113434271.04309  21585818.460    88390352.11848
 15 02 21 01 30 30.0000000  0  5G16G18G21G22G27
  20570721.700   108099873.99509  20570717.620    84233633.69248
  21644042.160   113740249.11509  21644039.040    88628768.80148
  22536993.860   118432701.77409  22536989.440    92285207.97147
  21811803.320   114621835.89109  21811798.260    89315708.43148
  21575903.660   113382161.45709  21575902.300    88349747.24048
 15 02 21 01 31  0.0000000  0  5G16G18G21G22G27
  20566676.440   108078615.72109  20566672.380    84217068.81448
  21642605.120   113732697.35509  21642602.020    88622884.32248
  22549350.220   118497634.76808  22549345.940    92335805.12447
  21798158.660   114550133.60409  21798153.880    89259836.54548
  21566011.600   113330178.54409  21566010.620    88309241.07248
 15 02 21 01 31 30.0000000  0  5G16G18G21G22G27
  20562729.480   108057874.15609  20562725.400    84200906.55048
  21641261.860   113725638.67109  21641258.740    88617384.05048
  22561727.920   118562680.35709  22561723.720    92386490.00047
  21784579.560   114478775.35109  21784574.940    89204232.73348
  21556144.120   113278324.65509  21556143.260    88268835.48148
 15 02 21 01 32  0.0000000  0  5G16G18G21G22G27
  20558880.740   108037649.35609  20558876.800    84185146.95749
  21640012.340   113719072.23109  21640009.180    88612267.35848
  22574126.540   118627835.98909  22574122.540    92437260.59047
  21771066.300   114407762.18309  21771061.500    89148897.80348
  21546301.180   113226599.50609  21546300.220    88228530.18748
 15 02 21 01 32 30.0000000  0  5G16G18G21G22G27
  20555132.980   108017954.99109  20555129.020    84169800.68248
  21638858.880   113713010.29509  21638855.740    88607543.76848
  22586547.960   118693111.72508  22586544.340    92488124.74647
  21757621.440   114337108.38909  21757616.380    89093842.91148
  21536485.000   113175015.58909  21536483.960    88188334.96648
 15 02 21 01 33  0.0000000  0  5G16G18G21G22G27
  20551484.480   107998781.97909  20551480.520    84154860.66249
  21637799.540   113707443.29709  21637796.380    88603205.86148
  22598990.160   118758496.92808  22598986.560    92539074.27847
  21744243.480   114266806.33309  21744238.220    89039062.09248
  21526694.000   113123563.67609  21526692.880    88148242.54348
 15 02 21 01 33 30.0000000  0  5G16G18G21G22G27
  20547936.620   107980138.13809  20547932.700    84140333.01248
  21636835.640   113702377.72709  21636832.380    88599258.66848
  22611454.120   118823995.94808  22611450.680    92590112.43247
  21730934.020   114196864.62209  21730928.700    88984562.08248
  21516929.340   113072250.72509  21516928.160    88108258.41348
 15 02 21 01 34  0.0000000  0  5G16G18G21G22G27
  20544488.160   107962016.73409  20544484.340    84126212.44448
  21635965.780   113697806.22109  21635962.400    88595696.48348
  22623938.120   118889599.76309  22623934.700    92641232.25547
  21717692.000   114127277.93109  21717686.840    88930338.71548
  21507189.940   113021069.74809  21507189.000    88068377.15948
 15 02 21 01 34 30.0000000  0  5G16G18G21G22G27
  20541139.780   107944421.03809  20541136.020    84112501.51048
  21635190.220   113693730.98909  21635186.840    88592520.99148
  22636442.360   118955309.16809  22636438.600    92692434.42447
  21704518.440   114058050.46909  21704513.400    88876395.26748
  21497476.200   112970023.26709  21497475.160    88028600.68848
 15 02 21 01 35  0.0000000  0  5G16G18G21G22G27
  20537892.720   107927357.69109  20537889.000    84099205.37349
  21634510.220   113690157.79309  21634506.880    88589736.66448
  22648967.220   119021127.40208  22648963.420    92743721.32347
  21691414.860   113989190.14509  21691409.800    88822737.86948
  21487789.080   112919117.45209  21487787.800    87988933.82548
 15 02 21 01 35 30.0000000  0  5G16G18G21G22G27
  20534745.360   107910817.92209  20534741.680    84086317.24148
  21633923.940   113687076.50609  21633920.460    88587335.67948
  22661510.880   119087044.07908  22661507.040    92795084.98547
  21678379.720   113920689.45409  21678374.520    88769360.71848
  21478127.380   112868343.32009  21478125.720    87949369.53848
 15 02 21 01 36  0.0000000  0  5G16G18G21G22G27
  20531701.420   107894821.56209  20531697.680    84073852.53949
  21633435.080   113684506.95609  21633431.400    88585333.43348
  22674076.500   119153076.41409  22674072.580    92846538.73047
  21665416.920   113852569.49909  21665411.620    88716280.24848
  21468494.000   112817720.26309  21468492.120    87909923.01048
 15 02 21 01 36 30.0000000  0  5G16G18G21G22G27
  20528758.600   107879356.67309  20528754.800    84061801.98048
  21633040.920   113682435.76009  21633037.260    88583719.52448
  22686661.300   119219209.05709  22686657.020    92898070.63947
  21652524.340   113784818.68609  21652518.980    88663487.41948
  21458886.840   112767235.55509  21458885.640    87870584.31048
 15 02 21 01 37  0.0000000  0  5G16G18G21G22G27
  20525916.680   107864422.32509  20525912.780    84050164.81448
  21632741.200   113680860.97109  21632737.700    88582492.43048
  22699264.520   119285439.23009  22699260.380    92949678.52046
  21639702.200   113717437.64709  21639696.780    88610982.73548
  21449305.920   112716888.17409  21449305.160    87831352.56048
 15 02 21 01 37 30.0000000  0  5G16G18G21G22G27
  20523176.420   107850022.30309  20523172.580    84038944.02648
  21632536.420   113679785.21509  21632533.120    88581654.17948
  22711886.280   119351767.10608  22711882.300    93001362.62347
  21626951.400   113650431.62509  21626945.940    88558770.26148
  21439751.840   112666681.46009  21439751.320    87792230.46349
 15 02 21 01 38  0.0000000  0  5G16G18G21G22G27
  20520538.080   107836157.96209  20520534.380    84028140.63049
  21632426.800   113679209.33109  21632423.520    88581205.44748
  22724526.700   119418193.08509  22724522.720    93053123.09847
  21614272.280   113583802.59709  21614266.880    88506851.55048
  21430224.860   112616616.29809  21430224.580    87753218.67448
 15 02 21 01 38 30.0000000  0  5G16G18G21G22G27
  20518002.560   107822833.69809  20517998.880    84017758.08748
  21632412.880   113679136.54909  21632409.660    88581148.74748
  22737186.100   119484718.97008  22737182.080    93104961.41547
  21601665.960   113517556.30609  21601660.660    88455231.07648
  21420725.620   112566696.94809  21420724.900    87714320.48748
 15 02 21 01 39  0.0000000  0  5G16G18G21G22G27
  20515568.520   107810042.65309  20515564.840    84007791.03549
  21632493.300   113679558.98309  21632490.020    88581477.91948
  22749862.860   119551335.02809  22749858.680    93156870.04247
  21589131.360   113451687.17909  21589126.180    88403904.50448
  21411252.900   112516916.42009  21411251.800    87675530.44948
 15 02 21 01 39 30.0000000  0  5G16G18G21G22G27
  20513237.520   107797792.97109  20513233.800    83998245.82249
  21632669.380   113680483.81209  21632665.900    88582198.57548
  22762557.680   119618046.25108  22762553.200    93208852.81147
  21576670.320   113386204.40309  21576665.180    88352878.96848
  21401807.960   112467282.16909  21401806.580    87636854.40348
 15 02 21 01 40  0.0000000  0  5G16G18G21G22G27
  20511011.760   107786096.30009  20511007.960    83989131.53149
  21632943.160   113681922.04909  21632939.560    88583319.30848
  22775272.500   119684863.09409  22775268.220    93260917.83447
  21564285.360   113321120.95909  21564280.240    88302164.61748
  21392392.720   112417805.95409  21392391.760    87598301.55148
 15 02 21 01 40 30.0000000  0  5G16G18G21G22G27
  20508888.460   107774937.85509  20508884.580    83980436.63949
  21633311.560   113683858.06209  21633307.860    88584827.87148
  22788004.080   119751768.20308  22787999.760    93313051.68846
  21551973.780   113256423.32009  21551968.760    88251750.88648
  21383004.640   112368472.88709  21383004.080    87559860.21348
 15 02 21 01 41  0.0000000  0  5G16G18G21G22G27
  20506867.820   107764318.79209  20506863.860    83972162.04249
  21633774.560   113686291.50309  21633770.880    88586724.05548
  22800752.020   119818759.96608  22800747.860    93365253.02246
  21539736.000   113192114.16409  21539731.140    88201639.87848
  21373644.140   112319283.83009  21373643.240    87521531.03649
 15 02 21 01 41 30.0000000  0  5G16G18G21G22G27
  20504950.160   107754241.27909  20504946.160    83964309.43449
  21634332.580   113689224.07609  21634328.900    88589009.17648
  22813516.540   119885838.42008  22813512.360    93417521.97747
  21527572.640   113128196.19209  21527567.820    88151833.68148
  21364311.460   112270240.68509  21364310.820    87483315.64049
 15 02 21 01 42  0.0000000  0  6G16G18G19G21G22G27
  20503135.880   107744707.01309  20503131.860    83956880.12249
  21634985.660   113692656.13709  21634982.120    88591683.53248
  23169168.280   121754801.12504  23169169.100    94873874.34053
  22826297.360   119953003.37509  22826293.520    93469858.24447
  21515484.400   113064672.67709  21515479.660    88102334.85948
  21355007.080   112221345.04509  21355006.540    87445215.14349
 15 02 21 01 42 30.0000000  0  6G16G18G19G21G22G27
  20501425.380   107735717.90709  20501421.260    83949875.60149
  21635733.920   113696588.61109  21635730.440    88594747.79848
  23155381.620   121682352.47704  23155374.500    94817391.86242
  22839094.900   120020254.56809  22839091.240    93522261.78747
  21503471.940   113001546.66409  21503467.160    88053145.76748
  21345730.960   112172598.57709  21345730.380    87407230.89848
 15 02 21 01 43  0.0000000  0  6G16G18G19G21G22G27
  20499818.120   107727271.50109  20499814.020    83943293.98949
  21636576.940   113701018.72709  21636573.460    88598199.84848
  23141608.760   121609976.19504  23141600.380    94760984.75853
  22851907.960   120087587.07508  22851904.280    93574728.65947
  21491535.080   112938817.25509  21491530.100    88004265.71348
  21336482.840   112123999.20509  21336482.340    87369361.26848
 15 02 21 01 43 30.0000000  0  6G16G18G19G21G22G27
  20498319.880   107719398.13609  20498315.820    83937158.89949
  21637520.160   113705975.49709  21637516.700    88602062.25248
  23127855.280   121537702.07304  23127850.480    94704685.26643
  22864741.720   120155028.49508  22864738.220    93627280.35647
  21479679.580   112876515.78009  21479674.500    87955719.12748
  21327268.520   112075577.03009  21327267.800    87331629.69548
 15 02 21 01 44  0.0000000  0  6G16G18G19G21G22G27
  20496919.540   107712039.23209  20496915.480    83931424.67349
  21638552.260   113711399.31909  21638548.820    88606288.62648
  23114109.900   121465470.96405  23114105.600    94648401.25843
  22877584.960   120222519.09908  22877581.340    93679870.43547
  21467894.440   112814584.68509  21467889.380    87907461.15448
  21318076.520   112027273.20909  21318075.740    87293990.37249
 15 02 21 01 44 30.0000000  0  6G16G18G19G21G22G27
  20495625.940   107705241.45209  20495621.880    83926127.69849
  21639681.880   113717335.91409  21639678.620    88610914.54848
  23100381.680   121393329.08905  23100377.240    94592186.78944
  22890445.800   120290102.81008  22890442.100    93732533.04246
  21456188.880   112753071.82309  21456183.800    87859529.06648
  21308916.200   111979134.63809  21308914.940    87256479.78148
 15 02 21 01 45  0.0000000  0  6G16G18G19G21G22G27
  20494436.540   107698991.69609  20494432.620    83921257.75249
  21640906.480   113723771.09709  21640903.160    88615928.97247
  23086668.000   121321263.06906  23086663.920    94536031.52344
  22903321.460   120357764.69209  22903317.600    93785256.58647
  21444560.800   112691965.77409  21444555.640    87811913.97148
  21299784.700   111931148.17609  21299783.820    87219087.77048
 15 02 21 01 45 30.0000000  0  6G16G18G19G21G22G27
  20493352.180   107693293.73709  20493348.360    83916817.78049
  21642226.480   113730707.78309  21642223.240    88621334.18848
  23072969.480   121249276.34307  23072965.260    94479937.93744
  22916212.400   120425506.25309  22916208.260    93838042.19447
  21433011.160   112631271.71709  21433005.920    87764619.91348
  21290682.940   111883317.84509  21290681.900    87181817.35549
 15 02 21 01 46  0.0000000  0  6G16G18G19G21G22G27
  20492372.880   107688147.54709  20492369.120    83912807.76848
  21643641.820   113738145.20109  21643638.500    88627129.60548
  23059285.960   121177368.44507  23059281.780    94423905.82745
  22929117.880   120493324.97108  22929113.660    93890887.93047
  21421540.060   112570990.63809  21421534.900    87717647.67448
  21281610.720   111835643.56109  21281609.900    87144668.59148
 15 02 21 01 46 30.0000000  0  6G16G18G19G21G22G27
  20491498.500   107683552.55109  20491494.740    83909227.24049
  21645152.140   113746081.52609  21645148.740    88633313.73448
  23045617.280   121105538.65008  23045613.040    94367934.59546
  22942037.860   120561219.88808  22942033.680    93943793.04947
  21410147.720   112511123.33709  21410142.660    87670997.84148
  21272568.240   111788124.93209  21272567.360    87107641.08448
 15 02 21 01 47  0.0000000  0  6G16G18G19G21G22G27
  20490729.740   107679512.40109  20490725.920    83906079.07749
  21646757.940   113754519.81509  21646754.480    88639889.04548
  23031964.060   121033790.32908  23031959.760    94312026.83846
  22954972.600   120629191.48009  22954968.420    93996757.92746
  21398835.060   112451674.88709  21398830.040    87624674.39848
  21263556.080   111740765.91909  21263555.440    87070737.99648
 15 02 21 01 47 30.0000000  0  6G16G18G19G21G22G27
  20490066.600   107676027.13309  20490062.820    83903363.28148
  21648459.080   113763459.06409  21648455.560    88646854.69348
  23018326.140   120962122.84708  23018321.820    94256182.06246
  22967921.420   120697237.86808  22967917.120    94049781.09846
  21387602.260   112392646.43909  21387597.280    87578678.22448
  21254574.340   111693566.58809  21254573.700    87033959.27048
 15 02 21 01 48  0.0000000  0  6G16G18G19G21G22G27
  20489508.940   107673096.21109  20489505.120    83901079.42749
  21650255.260   113772897.77009  21650251.580    88654209.51047
  23004703.480   120890535.90808  23004699.100    94200400.06746
  22980883.800   120765356.70709  22980880.060    94102860.62147
  21376449.540   112334038.78109  21376444.600    87533009.92748
  21245622.800   111646526.63709  21245622.080    86997304.78548
 15 02 21 01 48 30.0000000  0  7G04G16G18G19G21G22G27
  24570434.160   129118502.05908  24570432.420   100611814.33644
  20489056.440   107670718.05209  20489052.620    83899226.31748
  21652145.940   113782833.32309  21652142.220    88661951.51547
  22991095.820   120819027.12508  22991091.120    94144678.96846
  22993859.340   120833544.18708  22993855.620    94155993.73847
  21365376.840   112275851.42609  21365371.920    87487669.14148
  21236701.460   111599644.51609  21236700.500    86960773.26548
 15 02 21 01 49  0.0000000  0  7G04G16G18G19G21G22G27
  24552055.560   129021924.13408  24552054.680   100536558.94344
  20488711.720   107668906.15309  20488707.740    83897814.43349
  21654133.400   113793278.41009  21654129.980    88670090.54647
  22977505.700   120747609.95508  22977500.600    94089029.21346
  23006850.340   120901812.54708  23006846.340    94209189.84746
  21354386.960   112218099.64009  21354382.040    87442667.77248
  21227812.700   111552934.17509  21227811.560    86924375.59848
 15 02 21 01 49 30.0000000  0  7G04G16G18G19G21G22G27
  24533704.260   128925490.33908  24533703.820   100461415.84544
  20488472.280   107667647.89509  20488468.240    83896833.96849
  21656215.180   113804219.44709  21656212.040    88678616.02048
  22963930.520   120676271.72208  22963925.400    94033440.98546
  23019854.000   120970147.01008  23019850.300    94262437.47447
  21343477.800   112160771.95109  21343472.800    87397996.85648
  21218954.320   111506383.26509  21218953.280    86888102.16248
 15 02 21 01 50  0.0000000  0  7G04G16G18G19G21G22G27
  24515380.540   128829199.36808  24515380.300   100386384.04745
  20488337.880   107666941.47109  20488333.820    83896283.50049
  21658390.760   113815653.67609  21658387.840    88687525.82248
  22950369.940   120605010.91608  22950365.140    93977913.12347
  23032869.560   121038544.39709  23032865.740    94315734.10346
  21332649.400   112103868.11009  21332644.320    87353656.21248
  21210126.080   111459990.50909  21210125.100    86851951.95649
 15 02 21 01 50 30.0000000  0  7G04G16G18G19G21G22G27
  24497084.700   128733054.51908  24497084.800   100311466.12645
  20488309.040   107666790.01809  20488304.960    83896165.49148
  21660660.720   113827583.09509  21660657.860    88696821.46748
  22936824.540   120533830.43808  22936820.180    93922447.84747
  23045897.360   121107005.66708  23045893.680    94369080.55346
  21321902.460   112047392.19409  21321897.340    87309649.01548
  21201328.560   111413759.12109  21201327.760    86815927.51349
 15 02 21 01 51  0.0000000  0  7G04G16G18G19G21G22G27
  24478818.680   128637067.61508  24478818.800   100236671.27544
  20488388.060   107667205.37609  20488383.940    83896489.12848
  21663027.080   113840018.45409  21663024.040    88706511.35247
  22923296.640   120462741.33008  22923292.540    93867053.75947
  23058939.060   121175540.54708  23058935.680    94422484.29846
  21311239.420   111991357.57409  21311234.300    87265985.68248
  21192564.060   111367701.15609  21192563.280    86780038.18849
 15 02 21 01 51 30.0000000  0  7G04G16G18G19G21G22G27
  24460579.840   128541222.84408  24460579.820   100161987.12445
  20488571.760   107668170.82909  20488567.620    83897241.42048
  21665486.560   113852942.60709  21665483.480    88716582.12947
  22909783.180   120391727.36109  22909778.980    93811718.21947
  23071991.380   121244131.04608  23071988.200    94475931.41646
  21300657.320   111935748.62109  21300652.240    87222654.05448
  21183829.500   111321800.59909  21183828.440    86744271.53148
 15 02 21 01 52  0.0000000  0  7G04G16G18G19G21G22G27
  24442370.280   128445531.23408  24442370.800   100087422.38845
  20488862.160   107669697.07809  20488858.020    83898430.69348
  21668040.960   113866365.49409  21668037.740    88727041.51348
  22896286.140   120320799.60009  22896281.700    93756449.85547
  23085055.960   121312786.60008  23085052.080    94529429.27446
  21290158.720   111880578.17609  21290153.540    87179664.12048
  21175126.960   111276068.80009  21175125.960    86708636.38449
 15 02 21 01 52 30.0000000  0  7G04G16G18G19G21G22G27
  24424189.760   128349991.86408  24424190.020   100012976.25945
  20489259.000   107671783.08509  20489255.020    83900056.15549
  21670689.820   113880284.75309  21670686.560    88737887.70448
  22882805.060   120249956.46209  22882800.560    93701247.43448
  23098132.540   121381503.94808  23098128.680    94582975.23746
  21279743.580   111825845.97809  21279738.260    87137015.66848
  21166456.500   111230504.75709  21166455.520    86673131.93749
 15 02 21 01 53  0.0000000  0  7G04G16G18G19G21G22G27
  24406038.920   128254609.14207  24406039.000    99938652.16745
  20489763.200   107674432.92109  20489759.300    83902120.94848
  21673433.600   113894703.44109  21673430.460    88749123.04348
  22869340.840   120179202.03909  22869336.320    93646114.13848
  23111221.440   121450285.52308  23111217.340    94636571.27646
  21269412.920   111771557.71809  21269407.520    87094713.13848
  21157818.920   111185113.07709  21157817.860    86637761.79349
 15 02 21 01 53 30.0000000  0  7G04G16G18G19G21G22G27
  24387917.140   128159379.21808  24387917.200    99864447.13644
  20490373.820   107677642.04509  20490369.940    83904621.55049
  21676271.420   113909615.97509  21676268.280    88760743.20448
  22855892.780   120108531.76209  22855888.180    93591046.40248
  23124321.160   121519125.20208  23124317.040    94690212.53546
  21259166.040   111717710.07309  21259160.720    87052753.94348
  21149213.240   111139889.73709  21149212.480    86602522.83049
 15 02 21 01 54  0.0000000  0  7G04G16G18G19G21G22G27
  24369824.300   128064301.03607  24369824.480    99790360.32045
  20491090.600   107681409.19309  20491086.760    83907556.99248
  21679202.760   113925020.37309  21679199.560    88772746.63347
  22842460.600   120037944.54409  22842455.900    93536043.41048
  23137431.540   121588019.86608  23137427.420    94743896.70746
  21249002.860   111664303.13209  21248997.780    87011138.16548
  21140639.320   111094833.97509  21140638.760    86567414.46549
 15 02 21 01 54 30.0000000  0  7G04G16G18G19G21G22G27
  24351762.240   127969385.58408  24351762.880    99716400.42044
  20491915.360   107685744.08809  20491911.560    83910934.82848
  21682229.540   113940926.32009  21682226.180    88785140.88747
  22829046.120   119967450.82609  22829041.460    93481113.27348
  23150553.900   121656978.90808  23150550.020    94797630.95046
  21238925.760   111611348.58409  21238920.900    86969874.89548
  21132099.440   111049956.75009  21132098.940    86532445.19849
 15 02 21 01 55  0.0000000  0  7G04G16G18G19G21G22G27
  24333729.140   127874621.27207  24333729.360    99642558.10745
  20492846.060   107690635.54109  20492842.280    83914746.33748
  21685349.360   113957320.71409  21685345.900    88797915.71947
  22815647.100   119897038.98409  22815642.600    93426246.92348
  23163686.000   121725988.84908  23163682.240    94851404.96247
  21228932.920   111558835.87409  21228928.020    86928955.90248
  21123591.400   111005246.73709  21123590.820    86497606.24049
 15 02 21 01 55 30.0000000  0  7G04G16G18G19G21G22G27
  24315726.320   127780016.43208  24315726.740    99568840.19745
  20493884.120   107696091.06609  20493880.420    83918997.40048
  21688563.480   113974210.50309  21688559.900    88811076.59847
  22802265.280   119826716.93309  22802260.740    93371450.53948
  23176829.020   121795055.73508  23176825.580    94905223.28746
  21219026.100   111506774.32909  21219020.960    86888388.48548
  21115116.760   110960712.39809  21115115.940    86462904.17848
 15 02 21 01 56  0.0000000  0  7G04G16G18G19G21G22G27
  24297754.360   127685573.90908  24297754.860    99495248.73245
  20495030.000   107702112.81909  20495026.260    83923689.67348
  21691872.100   113991597.00909  21691868.380    88824624.56648
  22788901.100   119756487.18609  22788896.460    93316726.08448
  23189982.820   121864180.29308  23189979.320    94959086.54246
  21209205.840   111455167.73409  21209200.500    86848175.57248
  21106676.160   110916356.74309  21106675.180    86428341.30548
 15 02 21 01 56 30.0000000  0  7G04G16G18G19G21G22G27
  24279812.260   127591286.72008  24279812.520    99421778.26445
  20496282.320   107708693.55309  20496278.520    83928817.50649
  21695273.580   114009471.67309  21695269.900    88838552.88648
  22775552.960   119686342.45708  22775548.240    93262067.87647
  23203146.080   121933353.38108  23203142.820    95012987.68047
  21199470.900   111404009.93509  21199465.520    86808312.37248
  21098268.180   110872172.77009  21098267.420    86393912.24549
 15 02 21 01 57  0.0000000  0  7G04G16G18G19G21G22G27
  24261900.880   127497161.08108  24261900.760    99348433.69145
  20497642.120   107715839.22409  20497638.360    83934385.55548
  21698768.940   114027839.54609  21698765.180    88852865.50648
  22762221.900   119616288.75108  22762217.260    93207480.60247
  23216319.460   122002579.72608  23216316.120    95066930.27147
  21189822.720   111353308.21209  21189817.340    86768804.53148
  21089894.100   110828167.14009  21089893.240    86359622.12349
 15 02 21 01 57 30.0000000  0  7G04G16G18G19G21G22G27
  24244020.540   127403199.38108  24244020.400    99275216.87845
  20499109.640   107723550.94709  20499105.880    83940394.68348
  21702358.280   114046701.27209  21702354.420    88867562.96248
  22748908.520   119546327.99408  22748904.020    93152965.75447
  23229503.020   122071859.62809  23229499.720    95120914.57746
  21180261.840   111303065.67209  21180256.520    86729654.50548
  21081554.340   110784342.16709  21081553.480    86325472.80649
 15 02 21 01 58  0.0000000  0  7G04G16G18G19G21G22G27
  24226170.560   127309397.28708  24226170.680    99202124.44845
  20500684.140   107731824.59809  20500680.340    83946841.67449
  21706040.440   114066051.42909  21706036.660    88882640.99747
  22735612.300   119476455.91508  22735607.820    93098520.00747
  23242696.060   122141187.16509  23242692.220    95174936.04446
  21170787.740   111253278.73309  21170782.400    86690859.49648
  21073248.280   110740693.97109  21073247.560    86291461.21949
 15 02 21 01 58 30.0000000  0  7G04G16G18G19G21G22G27
  24208354.100   127215771.26308  24208353.940    99129169.18045
  20502368.440   107740675.41509  20502364.640    83953738.41748
  21709818.320   114085904.75809  21709814.620    88898111.13247
  22722336.200   119406688.27509  22722331.520    93044155.62547
  23255900.720   122210576.67108  23255897.160    95229005.74446
  21161403.660   111203964.80209  21161398.180    86652433.07748
  21064978.940   110697238.95809  21064978.420    86257600.20148
 15 02 21 01 59  0.0000000  0  7G04G16G18G19G21G22G27
  24190566.320   127122296.20508  24190566.260    99056331.57745
  20504157.680   107750077.68809  20504153.860    83961064.85548
  21713687.020   114106234.81409  21713683.260    88913952.73047
  22709075.220   119336999.86209  22709070.260    92989852.97447
  23269111.820   122280000.79208  23269108.080    95283102.44446
  21152104.940   111155099.93009  21152099.420    86614356.57048
  21056741.920   110653952.45309  21056741.280    86223870.42448
 15 02 21 01 59 30.0000000  0  7G04G16G18G19G21G22G27
  24172809.740   127028984.54308  24172809.260    98983621.25044
  20506054.020   107760042.73509  20506050.180    83968829.81948
  21717648.480   114127052.38009  21717644.760    88930174.21147
  22695831.600   119267403.40709  22695826.520    92935621.96447
  23282331.620   122349470.72708  23282327.020    95337234.89146
  21142894.080   111106696.93609  21142888.600    86576639.95548
  21048539.420   110610847.07109  21048538.600    86190281.84349
 15 02 21 02 00  0.0000000  0  7G04G16G18G19G21G22G27
  24155085.280   126935841.73808  24155084.440    98911042.52345
  20508058.560   107770576.69309  20508054.760    83977038.08948
  21721703.480   114148361.64109  21721699.800    88946778.82247
  22682606.220   119197903.72109  22682601.280    92881466.37447
  23295560.480   122418989.85408  23295556.380    95391405.56546
  21133772.380   111058762.26609  21133766.900    86539288.26848
  21040372.340   110567928.30609  21040371.340    86156838.64149
 15 02 21 02 00 30.0000000  0  7G04G16G18G19G21G22G27
  24137392.560   126842865.90308  24137391.220    98838593.87044
  20510170.740   107781676.31809  20510167.000    83985687.13449
  21725851.340   114170158.81809  21725847.620    88963763.63847
  22669398.800   119128498.74409  22669394.060    92827384.57647
  23308798.020   122488554.19708  23308794.400    95445611.53746
  21124739.680   111011294.95709  21124734.260    86502300.76748
  21032240.540   110525194.63809  21032239.580    86123539.69849
 15 02 21 02 01  0.0000000  0  7G04G16G18G19G21G22G27
  24119731.900   126750060.16708  24119731.100    98766277.83645
  20512391.040   107793344.15009  20512387.320    83994778.94449
  21730092.380   114192445.55209  21730088.640    88981129.94048
  22656210.060   119059191.33709  22656205.200    92773378.84647
  23322044.360   122558165.18508  23322040.220    95499853.86546
  21115796.660   110964298.87309  21115791.360    86465680.46248
  21024144.480   110482649.46109  21024143.500    86090387.59849
 15 02 21 02 01 30.0000000  0  7G04G16G18G19G21G22G27
  24102101.860   126657414.52708  24102101.500    98694086.51345
  20514717.380   107805569.07809  20514713.700    84004304.86048
  21734424.420   114215210.25009  21734420.660    88998868.68747
  22643037.860   118989971.53709  22643032.880    92719441.36247
  23335297.620   122627811.04809  23335293.800    95554123.34246
  21106941.500   110917764.69609  21106936.300    86429420.07048
  21016082.300   110440283.11309  21016081.280    86057374.87748
 15 02 21 02 02  0.0000000  0  7G04G16G18G19G21G22G27
  24084505.040   126564942.55308  24084504.440    98622030.49944
  20517152.260   107818364.20109  20517148.600    84014275.07849
  21738849.700   114238465.11509  21738845.840    89016989.34147
  22629884.840   118920852.78608  22629879.900    92665582.61148
  23348559.720   122697503.50708  23348555.840    95608429.13246
  21098176.920   110871706.65109  21098171.720    86393530.69748
  21008056.920   110398109.44909  21008055.960    86024512.29249
 15 02 21 02 02 30.0000000  0  7G04G16G18G19G21G22G27
  24066940.780   126472641.92808  24066940.000    98550108.01644
  20519695.100   107831726.62409  20519691.440    84024687.33748
  21743367.400   114262206.18209  21743363.660    89035488.87548
  22616750.480   118851832.39908  22616745.760    92611800.51947
  23361829.820   122767238.40308  23361825.880    95662768.01046
  21089502.740   110826123.64809  21089497.420    86358011.47648
  21000068.000   110356126.55009  21000066.880    85991798.33049
 15 02 21 02 03  0.0000000  0  7G04G16G18G19G21G22G27
  24049408.480   126380509.05708  24049407.320    98478316.25645
  20522344.880   107845651.53309  20522341.320    84035537.90549
  21747976.700   114286428.39109  21747972.840    89054363.33147
  22603634.300   118782906.54209  22603629.620    92558092.06848
  23375106.720   122837010.43608  23375103.380    95717135.77746
  21080918.440   110781012.41609  21080912.980    86322859.88148
  20992114.620   110314330.87809  20992113.300    85959230.27849
 15 02 21 02 03 30.0000000  0  7G04G16G18G19G21G22G27
  24031908.860   126288547.62008  24031907.200    98406658.05944
  20525102.360   107860142.39009  20525098.920    84046829.48049
  21752677.920   114311133.83109  21752674.120    89073614.31447
  22590537.020   118714079.00909  22590532.240    92504460.25948
  23388391.240   122906821.51708  23388387.860    95771533.99746
  21072424.820   110736377.36109  21072419.280    86288079.33548
  20984197.520   110272726.52509  20984196.220    85926811.29449
 15 02 21 02 04  0.0000000  0  7G04G16G18G19G21G22G27
  24014441.780   126196757.48508  24014440.400    98335133.38145
  20527967.320   107875197.75709  20527963.940    84058560.93349
  21757470.760   114336320.28409  21757466.960    89093240.14747
  22577458.360   118645349.54309  22577453.580    92450904.86148
  23401682.780   122976669.64608  23401679.520    95825961.09946
  21064021.900   110692219.15109  21064016.280    86253670.33848
  20976316.800   110231313.58809  20976315.840    85894541.49749
 15 02 21 02 04 30.0000000  0  7G04G16G18G19G21G22G27
  23997008.060   126105143.46408  23997007.120    98263745.95345
  20530940.640   107890822.05509  20530937.180    84070735.70049
  21762355.800   114361991.35009  21762351.940    89113243.59448
  22564399.200   118576723.01009  22564394.500    92397429.66148
  23414982.000   123046558.15508  23414978.740    95880419.65246
  21055710.740   110648543.35309  21055705.040    86219637.25748
  20968473.520   110190097.44309  20968472.700    85862425.02749
 15 02 21 02 05  0.0000000  0  7G04G16G18G19G21G22G27
  23979606.940   126013700.71308  23979606.000    98192491.87345
  20534021.160   107907009.58209  20534017.560    84083349.35149
  21767331.720   114388140.17009  21767327.960    89133619.28147
  22551358.680   118508194.30209  22551353.900    92344030.66847
  23428287.680   123116480.33008  23428284.680    95934904.38246
  21047490.560   110605345.91609  21047484.740    86185976.92948
  20960666.820   110149073.46209  20960666.140    85830458.30549
 15 02 21 02 05 30.0000000  0  7G04G16G18G19G21G22G27
  23962239.040   125922431.97908  23962238.260    98121373.46145
  20537209.160   107923762.36209  20537205.480    84096403.44749
  21772398.940   114414768.38109  21772395.120    89154368.56747
  22538337.380   118439766.32609  22538332.320    92290710.16748
  23441600.140   123186437.00208  23441596.800    95989416.09746
  21039361.940   110562630.27109  21039356.140    86152692.02148
  20952897.420   110108244.88509  20952896.600    85798643.80049
 15 02 21 02 06  0.0000000  0  7G04G16G18G19G21G22G27
  23944904.560   125831339.39208  23944903.820    98050392.33945
  20540504.740   107941080.92509  20540501.100    84109898.42549
  21777557.440   114441876.18709  21777553.640    89175491.52947
  22525335.440   118371440.80909  22525330.340    92237469.53148
  23454919.440   123256428.74808  23454915.940    96043955.13646
  21031325.460   110520399.17709  21031319.840    86119784.68748
  20945165.680   110067614.07509  20945164.840    85766983.44149
 15 02 21 02 06 30.0000000  0  7G04G16G18G19G21G22G27
  23927603.740   125740424.32508  23927602.760    97979549.47945
  20543908.280   107958966.60609  20543904.620    84123835.31849
  21782807.180   114469463.52009  21782803.480    89196988.16047
  22512353.180   118303219.09809  22512348.160    92184309.77748
  23468245.180   123326455.73208  23468242.380    96098521.53647
  21023381.700   110478654.94109  21023376.160    86087256.71548
  20937471.940   110027183.08309  20937471.040    85735478.75849
 15 02 21 02 07  0.0000000  0  7G04G16G18G19G21G22G27
  23910336.280   125649683.82808  23910335.420    97908842.70045
  20547418.920   107977415.07309  20547415.220    84138210.73448
  21788147.080   114497525.12609  21788143.460    89218854.34347
  22499389.980   118235097.97608  22499385.220    92131228.42648
  23481576.660   123396512.67808  23481573.600    96153111.37046
  21015530.060   110437394.62509  21015524.500    86055105.83648
  20929815.540   109986948.80509  20929814.760    85704127.38949
 15 02 21 02 07 30.0000000  0  7G04G16G18G19G21G22G27
  23893103.120   125559122.99708  23893102.280    97838275.89545
  20551037.500   107996430.53709  20551033.820    84153027.97349
  21793577.960   114526064.90309  21793574.280    89241093.13447
  22486447.000   118167083.06909  22486442.500    92078229.82448
  23494914.600   123466602.94808  23494911.300    96207727.15246
  21007771.540   110396623.98209  21007766.060    86023336.51848
  20922197.800   109946917.11909  20922196.960    85672933.86149
 15 02 21 02 08  0.0000000  0  7G04G16G18G19G21G22G27
  23875903.540   125468738.60508  23875902.900    97767846.57945
  20554763.160   108016009.03109  20554759.560    84168283.94049
  21799098.840   114555077.51008  21799095.240    89263700.38948
  22473523.720   118099170.97109  22473519.360    92025311.33348
  23508257.860   123536721.97508  23508254.560    96262365.33846
  21000105.820   110356340.93209  21000100.460    85991947.13748
  20914618.020   109907085.14909  20914617.060    85641896.00348
 15 02 21 02 08 30.0000000  0  7G04G16G18G19G21G22G27
  23858738.300   125378534.96208  23858737.480    97697558.11445
  20558596.460   108036153.28409  20558592.860    84183980.75349
  21804710.140   114584565.77609  21804706.660    89286678.23048
  22460620.820   118031365.78209  22460616.420    91972476.12648
  23521607.060   123606872.63908  23521603.420    96317028.16946
  20992533.860   110316550.42309  20992528.620    85960941.55048
  20907077.240   109867457.63309  20907076.120    85611017.41549
 15 02 21 02 09  0.0000000  0  7G04G16G18G19G21G22G27
  23841607.000   125288511.96608  23841606.420    97627410.44845
  20562537.400   108056863.16609  20562533.800    84200118.31149
  21810411.560   114614527.78609  21810408.220    89310025.23947
  22447738.200   117963667.73509  22447733.680    91919724.40848
  23534962.060   123677053.22508  23534957.940    96371714.34446
  20985055.720   110277252.69009  20985050.520    85930319.95448
  20899575.500   109828035.13209  20899574.160    85580298.58549
 15 02 21 02 09 30.0000000  0  7G04G16G18G19G21G22G27
  23824509.840   125198666.07608  23824508.860    97557400.66545
  20566585.020   108078133.63409  20566581.420    84216692.70748
  21816202.280   114644958.71109  21816199.120    89333737.66247
  22434875.360   117896073.13009  22434870.500    91867053.30048
  23548321.500   123747258.15508  23548317.240    96426419.46246
  20977670.860   110238444.77609  20977665.620    85900080.03948
  20892112.040   109788814.20409  20892110.720    85549736.82349
 15 02 21 02 10  0.0000000  0  7G04G16G18G19G21G22G27
  23807447.420   125109002.77108  23807446.920    97487533.27446
  20570740.140   108099969.34209  20570736.580    84233707.53849
  21822083.060   114675861.90409  21822079.740    89357818.07647
  22422033.280   117828587.65509  22422028.260    91814467.24647
  23561686.440   123817491.36208  23561682.740    96481146.62246
  20970380.380   110200132.78709  20970375.100    85870226.55448
  20884688.120   109749800.96509  20884686.880    85519336.90349
 15 02 21 02 10 30.0000000  0  7G04G16G18G19G21G22G27
  23790418.780   125019515.36108  23790417.840    97417802.87545
  20575001.280   108122362.13309  20574997.740    84251156.45449
  21828052.080   114707228.70309  21828048.500    89382259.74048
  22409210.740   117761204.37109  22409205.780    91761960.79947
  23575054.880   123887744.88008  23575051.200    96535889.60546
  20963182.940   110162310.29809  20963177.760    85840754.50048
  20877302.440   109710989.15909  20877301.240    85489093.96049
 15 02 21 02 11  0.0000000  0  7G04G16G18G19G21G22G27
  23773426.340   124930219.55708  23773425.520    97348221.80746
  20579371.360   108145327.26909  20579367.840    84269051.36348
  21834111.960   114739073.31709  21834108.400    89407073.69847
  22396410.800   117693939.45209  22396405.940    91709546.58148
  23588429.860   123958032.76408  23588427.120    96590659.29846
  20956081.740   110124993.77109  20956076.720    85811676.70148
  20869958.280   109672395.03309  20869957.100    85459020.62149
 15 02 21 02 11 30.0000000  0  7G04G16G18G19G21G22G27
  23756468.000   124841103.85908  23756467.440    97278781.09744
  20583847.960   108168851.99809  20583844.420    84287382.31448
  21840260.200   114771382.28709  21840256.760    89432249.54148
  22383631.020   117626781.23709  22383626.420    91657215.55148
  23601809.280   124028341.82008  23601805.920    96645445.62146
  20949074.880   110088172.42809  20949069.780    85782984.75448
  20862653.340   109634007.47209  20862652.100    85429108.23849
 15 02 21 02 12  0.0000000  0  7G04G16G18G19G21G22G27
  23739544.500   124752170.73408  23739543.940    97209482.59545
  20588431.260   108192937.60109  20588427.740    84306150.30948
  21846496.860   114804156.22709  21846493.480    89457787.64247
  22370871.860   117559732.08409  22370867.600    91604969.49048
  23615193.200   124098673.13108  23615189.200    96700249.20945
  20942162.720   110051848.77409  20942157.520    85754680.60848
  20855388.400   109595829.52409  20855387.040    85399359.18349
 15 02 21 02 12 30.0000000  0  7G04G16G18G19G21G22G27
  23722656.600   124663424.99308  23722656.080    97140330.16045
  20593122.020   108217587.90109  20593118.480    84325358.33148
  21852822.520   114837398.14409  21852819.040    89483690.45347
  22358134.360   117492796.95809  22358130.000    91552812.27247
  23628581.720   124169029.49008  23628577.920    96755072.33846
  20935346.380   110016028.47109  20935341.120    85726768.69648
  20848164.360   109557866.40209  20848162.900    85369777.53649
 15 02 21 02 13  0.0000000  0  7G04G16G18G19G21G22G27
  23705803.520   124574860.64208  23705802.680    97071319.00945
  20597918.840   108242795.25709  20597915.220    84345000.41048
  21859235.860   114871100.60009  21859232.520    89509952.12147
  22345417.780   117425970.45109  22345412.940    91500739.63648
  23641973.620   124239403.98508  23641970.160    96809909.55745
  20928624.900   109980706.35409  20928619.580    85699244.98048
  20840980.020   109520112.72609  20840978.440    85340359.09449
 15 02 21 02 13 30.0000000  0  7G04G16G18G19G21G22G27
  23688985.860   124486483.87108  23688985.680    97002454.09646
  20602822.740   108268565.34409  20602819.040    84365080.98548
  21865737.680   114905267.71609  21865734.500    89536575.86248
  22332723.200   117359258.66409  22332718.140    91448756.43548
  23655369.900   124309801.24608  23655365.480    96864764.61945
  20921999.400   109945888.67509  20921994.040    85672114.32648
  20833836.840   109482575.30109  20833835.320    85311109.15049
 15 02 21 02 14  0.0000000  0  7G04G16G18G19G21G22G27
  23672203.700   124398292.87708  23672203.100    96933733.88345
  20607833.060   108294895.08509  20607829.380    84385597.66248
  21872327.160   114939895.80909  21872324.000    89563558.77347
  22320049.900   117292659.66809  22320044.840    91396861.16947
  23668769.680   124380218.13608  23668765.180    96919634.85745
  20915469.560   109911574.12109  20915464.240    85645375.72748
  20826734.520   109445252.88309  20826733.240    85282026.74649
 15 02 21 02 14 30.0000000  0  7G04G16G18G19G21G22G27
  23655457.140   124310289.51509  23655456.720    96865159.93745
  20612949.980   108321785.39309  20612946.420    84406551.14348
  21879004.480   114974985.20209  21879001.080    89590901.16747
  22307398.520   117226176.06809  22307393.200    91345055.76448
  23682173.440   124450654.57408  23682169.660    96974520.38546
  20909035.840   109877764.82809  20909030.560    85619030.83148
  20819673.540   109408147.78209  20819672.380    85253113.68949
 15 02 21 02 15  0.0000000  0  7G04G16G18G19G21G22G27
  23638745.980   124222471.62708  23638744.980    96796730.45246
  20618173.020   108349232.96309  20618169.620    84427938.85048
  21885768.800   115010531.66709  21885765.400    89618599.71647
  22294768.560   117159805.40609  22294763.220    91293338.37448
  23695580.360   124521106.92708  23695575.960    97029418.39845
  20902698.060   109844459.41209  20902692.720    85593078.57348
  20812653.640   109371258.42409  20812652.580    85224368.77149
 15 02 21 02 15 30.0000000  0  7G04G16G18G19G21G22G27
  23622071.740   124134846.88808  23622070.940    96728451.48146
  20623503.300   108377243.57709  20623499.920    84449765.30048
  21892621.080   115046540.70509  21892617.740    89646658.69447
  22282161.420   117093555.31009  22282156.340    91241714.95148
  23708990.920   124591581.60308  23708987.220    97084333.62045
  20896457.640   109811665.43609  20896452.120    85567524.84548
  20805676.420   109334592.95609  20805675.500    85195798.26849
 15 02 21 02 16  0.0000000  0  7G04G16G18G19G21G22G27
  23605433.080   124047410.25709  23605432.240    96660319.07945
  20628939.620   108405811.26309  20628936.160    84472025.82048
  21899560.160   115083005.56709  21899556.680    89675072.86847
  22269576.220   117027421.02009  22269571.460    91190181.77348
  23722404.660   124662071.75508  23722401.240    97139261.02245
  20890313.600   109779378.26709  20890308.100    85542366.02248
  20798740.880   109298146.84109  20798739.900    85167398.70749
 15 02 21 02 16 30.0000000  0  7G04G16G18G19G21G22G27
  23588831.160   123960167.08608  23588830.620    96592337.46146
  20634482.700   108434940.16109  20634479.220    84494723.65948
  21906586.660   115119930.05309  21906583.120    89703845.20147
  22257014.280   116961408.64609  22257009.880    91138743.58448
  23735821.980   124732582.60508  23735818.720    97194204.49146
  20884267.300   109747604.52609  20884261.800    85517607.26048
  20791848.360   109261926.43309  20791847.320    85139175.01849
 15 02 21 02 17  0.0000000  0  7G04G16G18G19G21G22G27
  23572264.700   123873109.66708  23572263.920    96524500.54646
  20640130.960   108464621.28009  20640127.360    84517851.78948
  21913698.720   115157304.16209  21913695.320    89732967.88147
  22244474.100   116895510.20709  22244469.920    91087394.18648
  23749241.840   124803103.90408  23749239.340    97249156.12446
  20878317.260   109716336.51009  20878311.660    85493242.58948
  20784997.440   109225924.46909  20784996.240    85111121.50949
 15 02 21 02 17 30.0000000  0  7G04G16G18G19G21G22G27
  23555734.480   123786241.57409  23555733.460    96456811.19245
  20645884.840   108494857.11909  20645881.060    84541412.17548
  21920896.720   115195129.29009  21920893.240    89762442.02147
  22231956.560   116829729.50709  22231952.320    91036136.49648
  23762664.120   124873637.99108  23762660.920    97304117.73445
  20872464.020   109685577.69509  20872458.440    85469274.69348
  20778188.860   109190144.91909  20778187.620    85083241.35649
 15 02 21 02 18  0.0000000  0  7G04G16G18G19G21G22G27
  23539241.660   123699572.16808  23539240.540    96389276.64246
  20651745.860   108525655.96309  20651741.980    84565411.27448
  21928182.020   115233413.91209  21928178.480    89792274.18547
  22219463.420   116764076.54909  22219458.980    90984978.34748
  23776090.420   124944193.02508  23776086.700    97359095.66845
  20866709.540   109655338.02109  20866704.000    85445711.32348
  20771424.440   109154598.03509  20771423.360    85055542.51149
 15 02 21 02 18 30.0000000  0  7G04G16G18G19G21G22G27
  23522784.480   123613090.15208  23522783.420    96321888.15446
  20657711.480   108557004.85109  20657707.560    84589838.97948
  21935552.120   115272144.16009  21935548.540    89822453.62147
  22206992.180   116698539.83308  22206987.600    90933910.79048
  23789518.100   125014756.25907  23789515.020    97414079.98847
  20861051.760   109625606.22309  20861046.180    85422543.70348
  20764702.240   109119272.97509  20764701.200    85028016.45149
 15 02 21 02 19  0.0000000  0  7G04G16G18G19G21G22G27
  23506365.420   123526808.21908  23506364.200    96254655.49545
  20663783.900   108588915.07909  20663779.840    84614704.08148
  21943008.980   115311330.68309  21943005.640    89852988.57047
  22194545.460   116633132.68409  22194541.160    90882944.21348
  23802949.000   125085338.77908  23802946.520    97469079.25645
  20855493.160   109596395.48109  20855487.580    85399782.09448
  20758024.920   109084183.13009  20758023.860    85000673.74949
 15 02 21 02 19 30.0000000  0  7G04G16G18G19G21G22G27
  23489981.620   123440710.56609  23489980.260    96187566.49146
  20669959.860   108621369.45509  20669955.660    84639993.18948
  21950549.280   115350955.15609  21950545.900    89883864.77947
  22182120.600   116567839.45509  22182116.260    90832066.38048
  23816381.000   125155923.79008  23816377.720    97524080.60145
  20850030.840   109567690.81909  20850025.280    85377414.84548
  20751389.340   109049313.35009  20751388.380    84973502.50249
 15 02 21 02 20  0.0000000  0  7G04G16G18G19G21G22G27
  23473634.540   123354805.09308  23473633.160    96120627.17345
  20676240.600   108654374.61709  20676236.320    84665711.48748
  21958174.340   115391024.82309  21958170.660    89915087.87947
  22169718.920   116502668.26809  22169714.600    90781283.66848
  23829814.900   125226517.33308  23829811.140    97579088.54445
  20844666.200   109539499.93209  20844660.760    85355447.92448
  20744797.280   109014672.15609  20744796.280    84946509.35849
 15 02 21 02 20 30.0000000  0  7G04G16G18G19G21G22G27
  23457325.400   123269100.18609  23457323.960    96053844.19245
  20682627.520   108687938.13509  20682623.260    84691864.87748
  21965885.220   115431545.73409  21965881.520    89946662.63947
  22157342.100   116437627.95209  22157337.900    90730602.93348
  23843251.640   125297127.17408  23843248.740    97634109.15446
  20839401.000   109511831.50509  20839395.700    85333888.13448
  20738250.420   108980268.64009  20738249.600    84919701.44049
 15 02 21 02 21  0.0000000  0  7G04G16G18G19G21G22G27
  23441053.740   123183592.10408  23441052.520    95987214.56746
  20689119.580   108722054.32409  20689115.400    84718448.90548
  21973680.740   115472511.38909  21973676.900    89978583.94847
  22144989.500   116372714.85109  22144984.720    90680021.27348
  23856690.200   125367748.02208  23856687.280    97689138.36146
  20834234.640   109484682.05009  20834229.320    85312732.71848
  20731748.180   108946099.67709  20731747.560    84893076.27349
 15 02 21 02 21 30.0000000  0  7G04G16G18G19G21G22G27
  23424818.960   123098277.37308  23424817.280    95920735.58145
  20695715.920   108756718.49809  20695711.840    84745459.93148
  21981559.900   115513917.03509  21981556.120    90010848.07747
  22132660.660   116307925.96809  22132655.660    90629536.45048
  23870130.140   125438375.29608  23870126.900    97744172.61845
  20829166.340   109458048.41109  20829160.960    85291979.22948
  20725290.200   108912162.73909  20725289.500    84866631.90949
 15 02 21 02 22  0.0000000  0  7G04G16G18G19G21G22G27
  23408622.000   123013161.81109  23408620.700    95854411.82946
  20702417.320   108791934.33009  20702413.260    84772900.82348
  21989523.500   115555766.51408  21989519.720    90043458.08947
  22120356.540   116243267.38409  22120351.280    90579153.13348
  23883572.120   125509013.02908  23883569.600    97799214.93946
  20824197.320   109431936.62309  20824191.920    85271632.39248
  20718877.560   108878464.04909  20718876.760    84840373.15849
 15 02 21 02 22 30.0000000  0  7G04G16G18G19G21G22G27
  23392462.320   122928242.56308  23392461.120    95788241.07546
  20709222.980   108827698.49109  20709218.940    84800769.00448
  21997570.520   115598055.03009  21997567.140    90076410.16947
  22108076.880   116178736.67509  22108071.620    90528869.48948
  23897015.560   125579657.24808  23897013.200    97854262.40745
  20819327.080   109406343.85709  20819321.780    85251690.00548
  20712509.900   108845001.70909  20712509.040    84814298.60449
 15 02 21 02 23  0.0000000  0  7G04G16G18G19G21G22G27
  23376340.480   122843522.24809  23376339.460    95722225.28046
  20716133.120   108864012.18609  20716129.220    84829065.37848
  22005701.320   115640783.36109  22005698.200    90109704.94247
  22095822.180   116114336.93509  22095816.800    90478687.88848
  23910460.260   125650309.71308  23910457.640    97909316.23546
  20814556.200   109381273.06309  20814550.940    85232154.31748
  20706187.820   108811778.91509  20706187.060    84788410.77648
 15 02 21 02 23 30.0000000  0  7G04G16G18G19G21G22G27
  23360256.120   122758998.64908  23360254.920    95656362.77446
  20723146.980   108900871.13909  20723143.240    84857786.62748
  22013915.020   115683946.95309  22013911.860    90143338.93047
  22083591.940   116050066.35909  22083587.020    90428606.96948
  23923906.060   125720967.17508  23923903.060    97964374.00045
  20809884.280   109356722.32309  20809879.060    85213023.88548
  20699911.160   108778794.28209  20699910.480    84762708.44049
 15 02 21 02 24  0.0000000  0  7G04G16G18G19G21G22G27
  23344210.020   122674675.98208  23344208.680    95590656.85946
  20730265.080   108938277.98209  20730261.520    84886934.80648
  22022211.980   115727547.60109  22022208.680    90177313.46247
  22071387.180   115985929.36109  22071382.520    90378630.10348
  23937352.720   125791631.91308  23937350.120    98019437.35445
  20805312.240   109332695.79909  20805307.020    85194301.92648
  20693680.760   108746052.66509  20693679.920    84737195.47949
 15 02 21 02 24 30.0000000  0  7G04G16G18G19G21G22G27
  23328200.800   122590547.17608  23328199.360    95525101.99746
  20737486.020   108976224.83509  20737482.500    84916503.77648
  22030590.540   115771576.57409  22030587.100    90211621.75847
  22059206.580   115921919.38709  22059201.800    90328752.19748
  23950799.780   125862296.04408  23950796.020    98074500.35644
  20800838.720   109309186.66509  20800833.380    85175983.13148
  20687495.240   108713547.69109  20687494.300    84711866.95249
 15 02 21 02 25  0.0000000  0  7G04G16G18G19G21G22G27
  23312229.960   122506620.59408  23312228.500    95459704.69345
  20744810.960   109014717.80409  20744807.420    84946498.26748
  22039051.840   115816040.30209  22039048.400    90246268.81547
  22047051.620   115858045.06209  22047046.620    90278980.00648
  23964248.020   125932966.11308  23964244.000    98129567.91645
  20796465.180   109286203.11309  20796459.760    85158073.87448
  20681356.440   108681288.47309  20681355.660    84686729.92649
 15 02 21 02 25 30.0000000  0  7G04G16G18G19G21G22G27
  23296298.300   122422900.04708  23296296.860    95394467.95445
  20752240.280   109053759.02609  20752236.780    84976919.99648
  22047596.080   115860940.59909  22047592.800    90281256.03547
  22034923.200   115794310.90109  22034918.400    90229317.00148
  23977697.540   126003645.17607  23977693.600    98184642.43945
  20792192.440   109263749.50209  20792187.000    85140577.56448
  20675265.300   108649279.65809  20675264.540    84661787.98049
 15 02 21 02 26  0.0000000  0  7G04G16G18G19G21G22G27
  23280404.740   122339379.57409  23280403.440    95329387.12145
  20759772.740   109093341.77409  20759769.140    85007763.68048
  22056221.740   115906269.40509  22056218.460    90316577.18247
  22022820.320   115730711.31909  22022815.880    90179758.96748
  23991147.280   126074326.39408  23991143.720    98239718.68245
  20788019.420   109241819.90809  20788013.960    85123489.57548
  20669220.820   108617515.96909  20669220.180    84637037.08849
 15 02 21 02 26 30.0000000  0  7G04G16G18G19G21G22G27
  23264548.740   122256056.21508  23264547.580    95264459.90446
  20767407.360   109133461.40509  20767403.620    85039025.72048
  22064928.020   115952021.56209  22064924.920    90352228.20847
  22010742.720   115667243.62609  22010738.200    90130303.59948
  24004597.120   126145006.10308  24004594.160    98294793.81545
  20783945.480   109220411.09909  20783939.960    85106807.40448
  20663222.700   108585995.38609  20663221.960    84612475.57749
 15 02 21 02 27  0.0000000  0  7G04G16G18G19G21G22G27
  23248731.820   122172937.30108  23248730.560    95199691.95046
  20775145.200   109174123.41109  20775141.280    85070710.38848
  22073716.040   115998202.57509  22073712.700    90388213.39847
  21998691.900   115603915.70609  21998687.000    90080957.15848
  24018047.560   126215689.98508  24018045.520    98349872.05246
  20779972.060   109199530.75409  20779966.480    85090537.01648
  20657272.440   108554725.98609  20657271.600    84588109.79049
 15 02 21 02 27 30.0000000  0  7G04G16G18G19G21G22G27
  23232953.100   122090019.24708  23232951.720    95135080.52046
  20782985.200   109215322.35109  20782981.200    85102813.46048
  22082584.480   116044806.15809  22082580.920    90424527.88247
  21986666.840   115540724.54309  21986662.200    90031717.34248
  24031498.260   126286372.23508  24031496.040    98404949.08545
  20776098.580   109179175.15309  20776092.940    85074675.52348
  20651369.400   108523704.73709  20651368.340    84563937.42949
 15 02 21 02 28  0.0000000  0  7G04G16G18G19G21G22G27
  23217213.100   122007305.73709  23217211.700    95070628.50245
  20790927.800   109257060.53309  20790923.740    85135336.71048
  22091533.840   116091834.80809  22091530.380    90461173.60447
  21974668.780   115477674.57209  21974663.880    89982587.48048
  24044949.640   126357057.03108  24044946.240    98460028.21245
  20772325.740   109159348.61409  20772320.080    85059226.27648
  20645514.460   108492936.46409  20645513.240    84539962.13549
 15 02 21 02 28 30.0000000  0  7G04G16G18G19G21G22G27
  23201511.980   121924796.38309  23201510.680    95006335.49745
  20798972.560   109299335.68809  20798968.520    85168278.38148
  22100563.700   116139285.94709  22100560.180    90498148.49947
  21962697.440   115414765.38909  21962692.920    89933567.34848
  24058400.460   126427742.08308  24058396.460    98515107.37545
  20768653.260   109140050.07109  20768647.720    85044188.46748
  20639707.600   108462421.36409  20639706.340    84516184.12949
 15 02 21 02 29  0.0000000  0  7G04G16G18G19G21G22G27
  23185848.660   121842485.29408  23185847.300    94942196.98246
  20807118.080   109342140.79809  20807114.160    85201633.00448
  22109672.320   116187151.26109  22109668.640    90535446.14947
  21950752.180   115351991.90709  21950747.620    89884652.95648
  24071850.460   126498420.36008  24071846.580    98570181.39045
  20765080.040   109121273.39609  20765074.720    85029557.29348
  20633947.960   108432154.38009  20633946.840    84492599.44249
 15 02 21 02 29 30.0000000  0  7G04G16G18G19G21G22G27
  23170225.340   121760385.04508  23170224.540    94878222.84846
  20815366.360   109385486.32209  20815362.640    85235408.73548
  22118861.680   116235441.46109  22118858.160    90573074.86847
  21938835.380   115289367.16509  21938830.600    89835854.45248
  24085301.460   126569104.08408  24085298.300    98625259.49045
  20761608.800   109103032.01209  20761603.460    85015343.23448
  20628238.160   108402149.05509  20628237.160    84469218.69049
 15 02 21 02 30  0.0000000  0  7G04G16G18G19G21G22G27
  23154641.420   121678491.40008  23154640.440    94814409.62646
  20823716.360   109429366.48509  20823712.720    85269601.05648
  22128130.620   116284149.83109  22128126.900    90611029.44347
  21926946.160   115226887.36909  21926941.020    89787168.89648
  24098751.880   126639786.90507  24098748.340    98680337.04145
  20758238.680   109085321.29209  20758233.100    85001542.67748
  20622577.440   108372401.94509  20622576.460    84446039.12949
 15 02 21 02 30 30.0000000  0  7G04G16G18G19G21G22G27
  23139096.400   121596801.48208  23139095.160    94750755.17146
  20832167.220   109473776.68209  20832163.640    85304206.39848
  22137478.220   116333271.45309  22137474.220    90649306.05347
  21915083.880   115164550.25909  21915078.840    89738594.51948
  24112201.080   126710465.33208  24112198.180    98735411.06245
  20754968.820   109068137.77509  20754963.160    84988152.94448
  20616965.500   108342910.85609  20616964.500    84423059.05049
 15 02 21 02 31  0.0000000  0  7G04G16G18G19G21G22G27
  23123590.520   121515318.19709  23123589.480    94687261.76846
  20840719.260   109518718.50209  20840715.740    85339225.99448
  22146904.540   116382807.65409  22146900.620    90687905.67147
  21903249.400   115102359.46609  21903244.300    89690134.22448
  24125650.520   126781141.62808  24125647.920    98790483.48445
  20751799.840   109051484.96409  20751794.340    84975176.73248
  20611403.060   108313679.89209  20611401.900    84400281.69449
 15 02 21 02 31 30.0000000  0  7G04G16G18G19G21G22G27
  23108124.240   121434043.16208  23108123.380    94623930.61946
  20849372.400   109564191.31009  20849368.980    85374659.33448
  22156409.580   116432757.63509  22156405.880    90726827.76847
  21891443.340   115040317.42109  21891438.040    89641789.76448
  24139099.340   126851816.23008  24139096.820    98845554.51045
  20748732.140   109035364.41009  20748726.700    84962615.27548
  20605890.560   108284711.35709  20605889.360    84377708.79749
 15 02 21 02 32  0.0000000  0  7G04G16G18G19G21G22G27
  23092696.720   121352971.38608  23092695.940    94560757.82146
  20858125.260   109610187.75809  20858121.820    85410500.71248
  22165992.060   116483113.70309  22165988.280    90766066.25647
  21879664.480   114978419.22609  21879659.300    89593557.38148
  24152546.740   126922482.06908  24152543.000    98900618.85744
  20745764.700   109019770.46809  20745759.200    84950464.15648
  20600427.120   108256000.69409  20600425.820    84355336.82949
 15 02 21 02 32 30.0000000  0  7G04G16G18G19G21G22G27
  23077308.700   121272106.96008  23077307.480    94497746.58846
  20866978.440   109656711.61709  20866975.060    85446753.05348
  22175652.400   116533878.94609  22175648.560    90805623.56347
  21867913.980   114916669.82409  21867908.780    89545440.97048
  24165993.300   126993143.68708  24165990.060    98955679.83146
  20742898.300   109004707.67609  20742892.820    84938726.91148
  20595013.820   108227553.41109  20595012.500    84333170.12749
 15 02 21 02 33  0.0000000  0  7G04G16G18G19G21G22G27
  23061960.320   121191450.37709  23061959.080    94434897.35846
  20875931.420   109703760.37509  20875928.220    85483414.41748
  22185390.100   116585050.78909  22185386.340    90845497.74147
  21856191.820   114855070.08509  21856186.620    89497441.17648
  24179438.740   127063799.87307  24179435.640    99010736.49644
  20740133.000   108990176.04209  20740127.540    84927403.58748
  20589650.740   108199370.61609  20589649.660    84311209.49649
 15 02 21 02 33 30.0000000  0  7G04G16G18G19G21G22G27
  23046651.220   121110999.06609  23046649.920    94372208.04746
  20884983.640   109751330.52209  20884980.540    85520482.04348
  22195204.360   116636624.83209  22195200.560    90885685.31347
  21844497.800   114793618.16809  21844492.820    89449556.60048
  24192882.840   127134447.87308  24192878.840    99065786.92144
  20737468.240   108976173.06209  20737462.880    84916492.17848
  20584337.780   108171450.71209  20584336.600    84289453.74149
 15 02 21 02 34  0.0000000  0  7G04G16G18G19G21G22G27
  23031382.280   121030759.51108  23031380.480    94309683.74346
  20894135.920   109799426.28309  20894132.840    85557959.24748
  22205095.800   116688605.49009  22205092.020    90926189.69647
  21832833.280   114732321.73209  21832828.640    89401793.18448
  24206326.440   127205092.35807  24206322.580    99120834.58646
  20734905.340   108962705.30709  20734900.080    84905997.83248
  20579076.220   108143800.99109  20579075.060    84267908.50849
 15 02 21 02 34 30.0000000  0  7G04G16G18G19G21G22G27
  23016153.980   120950735.12408  23016151.960    94247327.11346
  20903388.720   109848049.59409  20903385.580    85595847.53448
  22215064.800   116740994.07709  22215061.260    90967011.97747
  21821198.940   114671184.29209  21821194.100    89354153.60848
  24219769.560   127275735.41607  24219765.920    99175881.06145
  20732444.900   108949775.63709  20732439.640    84895922.77248
  20573866.940   108116425.99309  20573865.800    84246577.33249
 15 02 21 02 35  0.0000000  0  7G04G16G18G19G21G22G27
  23000965.440   120870919.05209  23000963.500    94185132.82946
  20912740.280   109897191.48809  20912736.980    85634139.89648
  22225109.660   116793781.47809  22225106.440    91008145.00547
  21809593.680   114610199.76309  21809589.020    89306633.20248
  24233210.740   127346369.80108  24233207.620    99230920.78445
  20730085.440   108937376.66709  20730080.180    84886261.24348
  20568708.780   108089319.60509  20568707.580    84225455.44349
 15 02 21 02 35 30.0000000  0  7G04G16G18G19G21G22G27
  22985816.380   120791310.88509  22985814.580    94123100.51946
  20922189.920   109946849.01709  20922186.440    85672834.06848
  22235230.120   116846964.86809  22235227.220    91049586.57047
  21798017.700   114549368.25009  21798013.200    89259232.06048
  24246650.000   127416994.20908  24246646.660    99285952.73944
  20727826.900   108925508.03509  20727821.680    84877012.97148
  20563601.700   108062482.22609  20563600.660    84204543.20949
 15 02 21 02 36  0.0000000  0  7G04G16G18G19G21G22G27
  22970706.720   120711909.05209  22970705.060    94061228.98146
  20931737.220   109997019.78609  20931733.640    85711928.15848
  22245425.360   116900540.92109  22245422.320    91091334.16547
  21786470.860   114488689.01709  21786466.520    89211949.53548
  24260087.160   127487606.86408  24260083.560    99340975.61245
  20725669.040   108914168.34209  20725663.800    84868176.86248
  20558545.720   108035913.33709  20558544.800    84183840.16549
 15 02 21 02 36 30.0000000  0  8G04G11G16G18G19G21G22G27
  22955638.040   120632721.96809  22955636.300    93999524.79346
  24643004.840                                                  
  20941383.360   110047710.08709  20941379.660    85751427.09248
  22255696.480   116954515.80609  22255693.140    91133392.48847
  21774954.740   114428171.12509  21774950.480    89164792.72648
  24273523.540   127558214.42208  24273520.300    99395994.46245
  20723613.260   108903365.16609  20723607.960    84859758.81148
  20553542.660   108009622.28409  20553541.760    84163353.65949
 15 02 21 02 37  0.0000000  0  9G04G11G16G18G19G21G22G27G32
  22940609.020   120553743.03909  22940606.880    93937982.83246
  24626061.900   129410832.33004                                
  20951126.700   110098911.08509  20951122.840    85791323.96548
  22266041.940   117008880.45909  22266038.260    91175754.60847
  21763468.140   114367808.73509  21763463.860    89117757.13148
  24286957.220   127628809.10508  24286953.860    99451003.28545
  20721658.300   108893091.78209  20721653.000    84851753.57148
  20548591.440   107983603.41809  20548590.560    84143079.20849
  24508575.840                                                  
 15 02 21 02 37 30.0000000  0  8G04G16G18G19G21G22G27G32
  22925621.380   120474983.02909  22925619.360    93876611.41046
  20960968.960   110150632.04309  20960964.980    85831625.99248
  22276463.120   117063643.98508  22276459.500    91218427.47547
  21752013.740   114307613.41209  21752008.940    89070851.65748
  24300390.140   127699401.32908  24300386.900    99506010.12644
  20719806.300   108883359.17509  20719801.000    84844169.73848
  20543694.260   107957868.37709  20543693.320    84123025.92949
  24485922.320   128674397.29808  24485923.700   100265770.91245
 15 02 21 02 38  0.0000000  0  9G04G11G16G18G19G21G22G27G32
  22910674.020   120396435.07909  22910672.080    93815405.22146
  24592217.040   129232962.68305  24592212.960   100701007.58943
  20970908.380   110202863.89509  20970904.480    85872326.13248
  22286958.460   117118797.06609  22286954.720    91261403.90747
  21740589.820   114247578.76809  21740584.560    89024071.42248
  24313821.500   127769983.46308  24313818.760    99561009.15546
  20718055.760   108874159.94609  20718050.460    84837001.51848
  20538849.940   107932411.25909  20538849.100    84103189.22249
  24463275.260   128555388.42308  24463276.900   100173037.17745
 15 02 21 02 38 30.0000000  0  9G04G11G16G18G19G21G22G27G32
  22895765.700   120318092.11708  22895763.720    93754358.81646
  24575311.660   129144124.84206  24575307.860   100631783.28043
  20980943.180   110255597.57209  20980939.440    85913417.30148
  22297526.100   117174330.67809  22297522.420    91304676.79247
  21729195.380   114187699.06509  21729189.980    88977411.89248
  24327249.380   127840547.15407  24327245.920    99615993.90544
  20716405.280   108865486.62809  20716400.060    84830243.09148
  20534057.340   107907226.01809  20534056.540    84083564.36149
  24440633.020   128436405.04008  24440634.940   100080323.25044
 15 02 21 02 39  0.0000000  0  9G04G11G16G18G19G21G22G27G32
  22880898.680   120239966.51308  22880896.840    93693481.74546
  24558419.680   129055358.94006  24558416.740   100562615.06943
  20991075.380   110308843.52809  20991071.780    85954907.63748
  22308168.160   117230254.96809  22308164.660    91348254.18147
  21717832.640   114127987.14009  21717827.200    88930883.13748
  24340676.140   127911104.50008  24340672.700    99670973.52444
  20714857.140   108857351.12909  20714851.840    84823903.74348
  20529319.020   107882326.05209  20529318.220    84064161.80249
  24417998.540   128317461.93608  24418000.740    99987640.70845
 15 02 21 02 39 30.0000000  0  9G04G11G16G18G19G21G22G27G32
  22866073.460   120162059.97209  22866072.160    93632775.38646
  24541541.800   128966666.56906  24541539.500   100493504.19043
  21001305.160   110362602.09109  21001301.640    85996797.41748
  22318884.280   117286569.19009  22318880.720    91392135.38247
  21706502.060   114068445.27409  21706496.660    88884486.88648
  24354101.780   127981656.20207  24354097.560    99725948.96645
  20713411.580   108849754.89109  20713406.220    84817984.60448
  20524635.580   107857713.91509  20524634.680    84044983.48049
  24395372.540   128198562.99308  24395374.900    99894992.55745
 15 02 21 02 40  0.0000000  0  9G04G11G16G18G19G21G22G27G32
  22851288.180   120084362.88209  22851287.400    93572232.23846
  24524676.200   128878038.06006  24524674.040   100424443.03744
  21011630.240   110416861.09209  21011626.760    86039077.13948
  22329672.380   117343261.37908  22329668.900    91436311.12747
  21695202.060   114009064.69709  21695196.960    88838216.36448
  24367524.260   128052191.71608  24367521.020    99780911.57746
  20712066.800   108842688.19809  20712061.460    84812478.11349
  20520005.260   107833380.90709  20520004.260    84026022.70549
  24372753.560   128079700.76508  24372755.760    99802373.01445
 15 02 21 02 40 30.0000000  0  9G04G11G16G18G19G21G22G27G32
  22836542.920   120006876.22809  22836541.980    93511853.05246
  24507823.000   128789474.36407  24507820.960   100355432.41543
  21022050.480   110471619.66709  21022046.980    86081746.14748
  22340532.360   117400330.76009  22340528.900    91480780.74147
  21683933.560   113949847.77009  21683927.900    88792073.25548
  24380943.800   128122710.91808  24380939.860    99835861.58144
  20710822.940   108836151.61209  20710817.600    84807384.65748
  20515428.400   107809329.12409  20515427.300    84007281.04049
  24350142.380   127960878.75108  24350144.200    99709784.77145
 15 02 21 02 41  0.0000000  0  9G04G11G16G18G19G21G22G27G32
  22821839.220   119929607.46109  22821837.680    93451643.64346
  24490983.660   128700982.90407  24490981.820   100286478.05944
  21032566.700   110526882.82909  21032563.240    86124808.33948
  22351465.060   117457782.31009  22351461.480    91525548.19747
  21672697.340   113890801.97409  21672691.960    88746063.57048
  24394361.620   128193220.62208  24394357.240    99890804.22344
  20709681.220   108830151.67009  20709675.880    84802709.38548
  20510906.500   107785566.76809  20510905.520    83988764.94549
  24327540.580   127842106.38608  24327541.840    99617235.17244
 15 02 21 02 41 30.0000000  0  9G04G11G16G18G19G21G22G27G32
  22807176.440   119852552.97309  22807174.560    93391601.20446
  24474157.340   128612560.19207  24474155.540   100217577.36444
  21043177.820   110582645.18809  21043174.640    86168259.51148
  22362469.380   117515610.36208  22362465.860    91570609.00947
  21661493.080   113831924.72709  21661488.360    88700185.21848
  24407776.600   128263716.35808  24407772.380    99945735.95545
  20708640.960   108824684.73609  20708635.480    84798449.45748
  20506439.160   107762091.22709  20506438.220    83970472.30949
  24304947.920   127723382.33408  24304948.880    99524723.23444
 15 02 21 02 42  0.0000000  0  9G04G11G16G18G19G21G22G27G32
  22792553.960   119775711.47209  22792552.260    93331724.74846
  24457343.920   128524204.92407  24457342.000   100148729.18544
  21053883.360   110638903.52909  21053880.380    86212097.15748
  22373544.580   117573811.07309  22373541.160    91615960.16547
  21650320.940   113773215.75409  21650316.300    88654437.95748
  24421188.720   128334197.00708  24421184.800   100000655.80444
  20707701.780   108819748.97009  20707696.100    84794603.40248
  20502026.320   107738902.43409  20502025.560    83952403.10049
  24282364.780   127604707.97508  24282365.240    99432249.98545
 15 02 21 02 42 30.0000000  0  9G04G11G16G18G19G21G22G27G32
  22777972.960   119699088.44609  22777971.420    93272018.54146
  24440544.280   128435922.62207  24440542.400   100079937.84044
  21064684.100   110695661.20709  21064681.020    86256323.91548
  22384691.340   117632387.98909  22384687.960    91661604.53847
  21639182.040   113714681.34909  21639177.660    88608826.78948
  24434598.820   128404666.60608  24434595.240   100055567.23245
  20706864.740   108815349.73509  20706858.860    84791175.44348
  20497669.340   107716006.85409  20497668.780    83934562.41349
  24259792.700   127486091.03908  24259792.700    99339821.47945
 15 02 21 02 43  0.0000000  0  9G04G11G16G18G19G21G22G27G32
  22763433.040   119622680.95308  22763431.700    93212480.24746
  24423757.920   128347709.91208  24423756.020   100011200.71545
  21075578.980   110752913.15309  21075575.620    86300935.80648
  22395908.840   117691336.10509  22395905.420    91707538.13547
  21628076.080   113656319.21209  21628071.520    88563349.80748
  24448005.620   128475121.38207  24448002.340   100110466.94445
  20706129.040   108811482.97009  20706123.080    84788162.38148
  20493367.820   107693402.29609  20493367.240    83916948.47749
  24237231.380   127367530.65208  24237231.040    99247437.04745
 15 02 21 02 43 30.0000000  0  9G04G11G16G18G19G21G22G27G32
  22748934.360   119546490.73408  22748932.660    93153111.26846
  24406985.160   128259568.83407  24406983.240    99942519.40745
  21086567.860   110810659.23209  21086564.180    86345932.73348
  22407196.960   117750654.92509  22407193.220    91753760.57147
  21617003.280   113598132.16709  21616999.100    88518009.24948
  24461409.860   128545561.88208  24461406.600   100165355.67045
  20705494.980   108808150.82309  20705489.080    84785565.89548
  20489122.320   107671091.72509  20489121.720    83899563.61249
  24214681.620   127249031.20508  24214681.100    99155100.03645
 15 02 21 02 44  0.0000000  0  9G04G11G16G18G19G21G22G27G32
  22734476.580   119470515.66008  22734475.420    93093909.96546
  24390225.600   128171497.32008  24390223.680    99873892.32245
  21097649.760   110868894.72609  21097645.940    86391311.04048
  22418554.720   117810339.77809  22418550.780    91800268.26547
  21605963.700   113540118.80009  21605959.440    88472804.00648
  24474811.060   128615985.67408  24474807.760   100220231.32645
  20704961.920   108805349.99709  20704956.160    84783383.44148
  20484932.520   107649073.86709  20484931.860    83882406.84849
  24192143.380   127130592.64008  24192142.840    99062810.50145
 15 02 21 02 44 30.0000000  0  9G04G11G16G18G19G21G22G27G32
  22720060.880   119394760.78709  22720059.900    93034880.21246
  24373480.280   128083500.42908  24373478.180    99805323.33745
  21108825.420   110927623.36009  21108821.740    86437073.60648
  22429982.660   117870393.60909  22429978.680    91847063.46247
  21594958.260   113482285.28009  21594953.960    88427738.98648
  24488209.640   128686397.31908  24488206.560   100275097.49345
  20704530.800   108803085.42909  20704525.240    84781618.85948
  20480799.600   107627354.91309  20480798.880    83865482.96449
  24169617.920   127012222.53008  24169617.360    98970574.30045
 15 02 21 02 45  0.0000000  0  9G04G11G16G18G19G21G22G27G32
  22705686.160   119319221.63308  22705684.620    92976018.57146
  24356748.420   127995573.89308  24356746.160    99736809.22245
  21120093.660   110986838.18509  21120090.100    86483215.01548
  22441479.480   117930810.12609  22441475.520    91894141.24147
  21583986.460   113424628.00309  21583982.040    88382811.20348
  24501605.200   128756791.78507  24501602.720   100329950.25644
  20704200.780   108801351.89009  20704195.320    84780268.04548
  20476722.840   107605931.38709  20476722.020    83848789.28849
  24147104.980   126893918.77508  24147104.560    98878389.76545
 15 02 21 02 45 30.0000000  0  9G04G11G16G18G19G21G22G27G32
  22691353.300   119243902.09309  22691351.800    92917328.04646
  24340030.720   127907721.42608  24340028.240    99668352.79045
  21131454.700   111046540.64309  21131451.140    86529736.38848
  22453045.480   117991590.46509  22453041.760    91941502.51246
  21573049.160   113367151.47009  21573044.840    88338024.34848
  24514997.620   128827171.96506  24514995.560   100384791.95345
  20703972.520   108800152.64809  20703967.080    84779333.58449
  20472703.140   107584807.93909  20472702.260    83832329.47949
  24124605.760   126775687.40108  24124605.440    98786261.60945
 15 02 21 02 46  0.0000000  0  9G04G11G16G18G19G21G22G27G32
  22677061.960   119168800.35008  22677060.360    92858807.21446
  24323326.600   127819940.87508  24323324.180    99599952.38145
  21142907.800   111106726.99009  21142904.120    86576634.81848
  22464680.120   118052730.77509  22464676.600    91989144.33246
  21562146.160   113309855.02509  21562142.000    88293377.75948
  24528387.100   128897535.37908  24528385.920   100439620.50045
  20703845.520   108799485.51909  20703840.140    84778813.73548
  20468740.440   107563984.15709  20468739.640    83816103.14549
  24102120.600   126657529.32308  24102120.480    98694190.55845
 15 02 21 02 46 30.0000000  0  9G04G11G16G18G19G21G22G27G32
  22662811.180   119093911.91408  22662809.520    92800452.59546
  24306635.360   127732228.38408  24306633.140    99531605.03345
  21154451.660   111167390.65209  21154447.920    86623905.19848
  22476382.020   118114224.40609  22476378.320    92037061.43547
  21551276.700   113252734.87109  21551272.400    88248868.56648
  24541772.940   128967876.99808  24541771.640   100494432.12245
  20703818.780   108799345.26509  20703813.480    84778704.45248
  20464834.060   107543456.39309  20464833.340    83800107.47949
  24079649.220   126539442.26508  24079649.240    98602174.85545
 15 02 21 02 47  0.0000000  0  9G04G11G16G18G19G21G22G27G32
  22648602.760   119019245.50109  22648601.020    92742271.04346
  24289958.780   127644592.58808  24289956.640    99463317.46745
  21166087.420   111228537.51409  21166083.680    86671552.09348
  22488152.260   118176077.44809  22488148.700    92085258.63147
  21540442.760   113195800.83909  21540438.180    88204504.39048
  24555156.180   129038204.43608  24555154.260   100549232.67244
  20703893.980   108799740.03109  20703888.660    84779012.07648
  20460985.920   107523234.34409  20460985.180    83784350.05749
  24057193.620   126421437.24608  24057193.560    98510223.04645
 15 02 21 02 47 30.0000000  0  9G04G11G16G18G19G21G22G27G32
  22634435.760   118944796.58009  22634433.900    92684258.91446
  24273296.080   127557029.10408  24273293.820    99395086.21345
  21177814.140   111290162.04009  21177810.400    86719571.19748
  22499989.680   118238283.73609  22499986.240    92133731.02247
  21529643.500   113139049.67709  21529638.940    88160282.71548
  24568535.760   129108513.11407  24568533.160   100604018.62644
  20704070.080   108800665.08309  20704064.660    84779732.89848
  20457195.400   107503314.69109  20457194.580    83768828.23749
  24034753.280   126303512.38508  24034753.180    98418333.69745
 15 02 21 02 48  0.0000000  0  9G04G11G16G18G19G21G22G27G32
  22620310.600   118870567.18909  22620308.700    92626417.83646
  24256647.440   127469539.93708  24256645.060    99326912.88545
  21189631.640   111352263.54809  21189628.040    86767961.97048
  22511894.320   118300842.78108  22511890.880    92182478.34947
  21518879.440   113082484.11509  21518874.680    88116205.68348
  24581912.140   129178804.37108  24581908.940   100658791.02244
  20704347.260   108802121.49209  20704341.740    84780867.76648
  20453462.980   107483700.49909  20453462.120    83753544.47049
  24012329.000   126185671.97908  24012328.980    98326510.15445
 15 02 21 02 48 30.0000000  0  9G04G11G16G18G19G21G22G27G32
  22606227.520   118796559.50009  22606226.220    92568749.52346
  24240013.340   127382127.26708  24240010.840    99258799.18445
  21201539.820   111414841.74809  21201536.480    86816724.16448
  22523866.060   118363754.15609  22523862.540    92231500.16847
  21508151.280   113026107.29109  21508146.460    88072275.70048
  24595285.320   129249079.74208  24595281.500   100713550.96544
  20704725.840   108804110.92209  20704720.340    84782417.97648
  20449789.360   107464394.95209  20449788.380    83738501.17249
  23989921.460   126067920.66308  23989921.560    98234756.03545
 15 02 21 02 49  0.0000000  0  9G04G11G16G18G19G21G22G27G32
  22592186.220   118722771.48109  22592184.620    92511252.41346
  24223393.420   127294789.14208  24223390.820    99190743.54845
  21213538.020   111477892.36509  21213534.780    86865854.50548
  22535904.140   118427014.00709  22535900.340    92280793.56146
  21497458.660   112969917.46709  21497453.780    88028491.43048
  24608654.800   129319336.08007  24608649.780   100768296.27044
  20705205.100   108806630.02609  20705199.680    84784380.91248
  20446174.180   107445396.68809  20446173.140    83723697.31549
  23967530.800   125950258.42708  23967530.900    98143071.31945
 15 02 21 02 49 30.0000000  0  9G04G11G16G18G19G21G22G27G32
  22578186.460   118649202.65109  22578185.100    92453926.09047
  24206787.580   127207525.13208  24206784.920    99122745.66945
  21225625.600   111541413.07709  21225622.400    86915351.16148
  22548007.940   118490619.55109  22548003.940    92330356.33446
  21486801.860   112913915.89909  21486796.680    87984853.83248
  24622020.240   129389572.81907  24622015.580   100823026.08445
  20705785.100   108809678.45409  20705779.800    84786756.33049
  20442617.560   107426706.73109  20442616.580    83709133.72149
  23945157.580   125832687.64708  23945157.680    98051457.85445
 15 02 21 02 50  0.0000000  0  9G04G11G16G18G19G21G22G27G32
  22564228.880   118575855.95009  22564227.600    92396772.82246
  24190196.380   127120338.21308  24190193.920    99054807.85545
  21237802.660   111605404.41609  21237799.520    86965214.52648
  22560177.620   118554571.63309  22560173.640    92380189.08046
  21476181.600   112858106.32409  21476176.860    87941365.84448
  24635382.440   129459791.93508  24635378.620   100877742.18245
  20706466.140   108813257.94509  20706460.900    84789545.53848
  20439120.480   107408329.00009  20439119.420    83694813.39449
  23922802.880   125715213.73408  23922802.780    97959919.87445
 15 02 21 02 50 30.0000000  0  9G04G11G16G18G19G21G22G27G32
  22550313.420   118502730.04809  22550312.300    92339791.65446
  24173619.520   127033227.26108  24173617.420    98986929.24845
  21250068.540   111669862.37609  21250065.500    87015441.48848
  22572412.420   118618866.35608  22572408.760    92430288.88947
  21465597.820   112802489.21009  21465593.460    87898027.87748
  24648741.320   129529992.13008  24648737.300   100932443.61044
  20707248.040   108817367.11509  20707242.860    84792747.49748
  20435682.660   107390263.13909  20435681.660    83680736.11049
  23900466.840   125597837.67408  23900466.780    97868458.13445
 15 02 21 02 51  0.0000000  0  9G04G11G16G18G19G21G22G27G32
  22536439.700   118429823.68309  22536438.460    92282981.53546
  24157056.860   126946191.09608  24157054.980    98919108.87045
  21262422.600   111734783.54709  21262419.680    87066029.40948
  22584711.940   118683500.38909  22584708.600    92480653.03247
  21455050.660   112747063.47609  21455046.100    87854838.97948
  24662095.980   129600170.96606  24662091.660   100987128.43444
  20708130.380   108822003.62209  20708125.200    84796360.34948
  20432304.120   107372508.98109  20432303.240    83666901.67949
  23878149.760   125480560.65608  23878149.600    97777073.54745
 15 02 21 02 51 30.0000000  0  9G04G11G16G18G19G21G22G27G32
  22522608.100   118357138.04209  22522606.700    92226343.36947
  24140509.000   126859231.22408  24140506.880    98851347.96245
  21274864.760   111800167.51609  21274861.940    87116977.95248
  22597075.900   118748472.32309  22597072.120    92531280.52746
  21444540.540   112691831.50009  21444535.720    87811801.07048
  24675446.480   129670329.59207  24675442.500   101041797.46645
  20709113.180   108827167.65309  20709107.880    84800384.27648
  20428985.340   107355068.71609  20428984.500    83653311.88349
  23855852.300   125363386.33708  23855851.900    97685768.98145
 15 02 21 02 52  0.0000000  0  9G04G11G16G18G19G21G22G27G32
  22508818.980   118284675.57309  22508817.520    92169879.14447
  24123976.220   126772349.98308  24123973.800    98783648.28945
  21287395.040   111866014.21909  21287392.260    87168287.06148
  22609504.060   118813782.91309  22609500.240    92582171.90446
  21434067.740   112636797.13209  21434062.900    87768917.17448
  24688793.380   129740469.86107  24688790.140   101096452.11545
  20710196.780   108832861.50309  20710191.380    84804821.04648
  20425727.080   107337946.08209  20425726.140    83639969.54349
  23833575.400   125246319.72308  23833574.720    97594548.36845
 15 02 21 02 52 30.0000000  0  9G04G11G16G18G19G21G22G27G32
  22495071.940   118212433.65409  22495070.480    92113586.78747
  24107457.960   126685545.27808  24107455.220    98716008.29445
  21300012.400   111932318.59909  21300009.540    87219952.79348
  22621995.700   118879427.20509  22621991.880    92633323.28446
  21423632.220   112581958.32009  21423627.420    87726185.66448
  24702136.260   129810588.74607  24702133.280   101151090.15144
  20711380.420   108839081.57009  20711375.020    84809667.86448
  20422528.920   107321139.55109  20422527.940    83626873.58249
  23811319.000   125129360.79208  23811318.280    97503411.67645
 15 02 21 02 53  0.0000000  0  9G04G11G16G18G19G21G22G27G32
  22481366.980   118140413.05908  22481364.980    92057466.85147
  24090954.160   126598817.11108  24090951.420    98648427.91945
  21312716.400   111999078.48509  21312713.380    87271973.46848
  22634550.460   118945403.25309  22634546.840    92684733.16746
  21413234.460   112527316.81809  21413229.280    87683607.83048
  24715475.280   129880685.60807  24715472.220   101205711.09244
  20712664.100   108845827.43809  20712658.700    84814924.38048
  20419391.140   107304650.48209  20419390.180    83614024.94049
  23789083.540   125012512.24308  23789082.640    97412360.95145
 15 02 21 02 53 30.0000000  0  9G04G11G16G18G19G21G22G27G32
  22467704.660   118068618.32908  22467702.480    92001522.88947
  24074465.840   126512170.84908  24074463.180    98580911.40245
  21325507.660   112066296.92909  21325504.480    87324351.45548
  22647168.860   119011713.90509  22647165.480    92736403.75647
  21402875.200   112472878.74209  21402870.100    87641188.57248
  24728811.200   129950765.11407  24728807.960   101260318.43744
  20714048.600   108853103.28409  20714043.220    84820593.88149
  20416314.920   107288484.91809  20416313.980    83601428.38949
  23766870.440   124895781.54608  23766869.340    97321402.05445
 15 02 21 02 54  0.0000000  0  9G04G11G16G18G19G21G22G27G32
  22454084.340   117997044.19109  22454082.420    91945750.88547
  24057992.020   126425601.16807  24057989.580    98513454.58145
  21338384.700   112133965.87609  21338381.400    87377080.48048
  22659849.520   119078351.24909  22659846.120    92788328.96846
  21392553.720   112418639.48709  21392548.560    87598924.20848
  24742142.700   130020821.57908  24742139.040   101314907.81344
  20715532.660   108860902.71109  20715527.400    84826671.37149
  20413299.460   107272638.55609  20413298.520    83589080.56849
  23744679.120   124779165.73008  23744678.080    97230532.70445
 15 02 21 02 54 30.0000000  0  9G04G11G16G18G19G21G22G27G32
  22440506.900   117925694.16009  22440504.900    91890153.45447
  24041533.500   126339111.80008  24041531.360    98446060.32645
  21351347.780   112202086.43309  21351344.300    87430161.41148
  22672592.520   119145316.76309  22672589.200    92840509.91447
  21382271.020   112364603.71309  21382266.060    87556818.41548
  24755470.160   130090857.67507  24755466.680   101369481.33944
  20717116.960   108869228.29809  20717111.760    84833158.84148
  20410345.660   107257115.77509  20410344.640    83576984.92549
  23722510.800   124662670.69808  23722509.780    97139757.45945
 15 02 21 02 55  0.0000000  0  9G04G11G16G18G19G21G22G27G32
  22426971.820   117854566.59509  22426969.720    91834729.40447
  24025090.000   126252701.00308  24025088.000    98378727.26845
  21364396.020   112270654.49309  21364392.380    87483591.06248
  22685397.280   119212606.41509  22685393.640    92892943.41146
  21372026.900   112310770.73209  21372022.100    87514870.66948
  24768793.200   130160871.25607  24768790.180   101424037.40344
  20718800.940   108878077.84809  20718795.720    84840054.58848
  20407453.360   107241916.08409  20407452.220    83565140.99449
  23700365.640   124546297.42008  23700364.460    97049077.08145
 15 02 21 02 55 30.0000000  0  9G04G11G16G18G19G21G22G27G32
  22413479.020   117783662.66908  22413477.440    91779479.64747
  24008661.840   126166370.44408  24008659.780    98311456.70945
  21377529.200   112339669.35209  21377525.440    87537368.86648
  22698263.520   119280219.07509  22698259.920    92945628.55246
  21361822.060   112257143.35609  21361817.120    87473083.06448
  24782112.080   130230863.19207  24782109.920   101478576.47944
  20720584.680   108887451.73309  20720579.460    84847358.91248
  20404622.960   107227042.01109  20404621.840    83553550.78949
  23678244.420   124430049.64808  23678243.160    96958494.49745
 15 02 21 02 56  0.0000000  0  9G04G11G16G18G19G21G22G27G32
  22400028.760   117712981.69908  22400027.620    91724403.53747
  23992248.820   126080119.27908  23992246.520    98244248.05645
  21390746.720   112409127.60509  21390742.880    87591492.17048
  22711190.660   119348151.66508  22711187.040    92998563.07847
  21351656.160   112203721.77109  21351651.000    87431455.89948
  24795426.920   130300832.84908  24795424.220   101533098.24145
  20722467.860   108897348.05809  20722462.640    84855070.33448
  20401854.500   107212493.70209  20401853.360    83542214.47149
  23656147.420   124313929.16908  23656146.000    96868011.08945
 15 02 21 02 56 30.0000000  0  9G04G11G16G18G19G21G22G27G32
  22386621.040   117642523.48909  22386619.800    91669501.07547
  23975850.900   125993947.35508  23975848.620    98177101.15345
  21404048.160   112479027.29909  21404044.280    87645959.45048
  22724178.220   119416402.17609  22724174.840    93051745.24846
  21341529.740   112150507.08809  21341524.760    87389989.90649
  24808737.400   130370779.18907  24808733.840   101587601.91543
  20724450.280   108907766.04809  20724445.200    84863188.27148
  20399148.260   107198272.14409  20399147.020    83531132.74849
  23634075.060   124197938.20508  23634073.380    96777628.59145
 15 02 21 02 57  0.0000000  0  9G04G11G16G18G19G21G22G27G32
  22373255.880   117572288.85009  22373254.300    91614772.81947
  23959468.360   125907856.05608  23959465.920    98110017.06945
  21417433.060   112549365.76509  21417429.300    87700768.62948
  22737226.060   119484968.91009  22737222.680    93105173.86346
  21331442.980   112097500.77209  21331438.160    87348686.29148
  24822043.540   130440702.78307  24822039.920   101642087.80444
  20726531.960   108918705.75709  20726526.940    84871712.72648
  20396504.520   107184379.25209  20396503.240    83520307.10349
  23612028.020   124082080.19108  23612026.240    96687349.69945
 15 02 21 02 57 30.0000000  0  9G04G11G16G18G19G21G22G27G32
  22359933.520   117502279.56209  22359931.820    91560220.14247
  23943101.580   125821847.26908  23943098.840    98042997.22745
  21430901.460   112620143.30509  21430897.960    87755919.95148
  22750333.960   119553851.30209  22750330.420    93158848.44646
  21321396.500   112044706.05609  21321391.320    87307547.56748
  24835345.560   130510604.59807  24835342.500   101696556.65445
  20728713.080   108930167.83609  20728708.080    84880644.21848
  20393923.780   107170817.73709  20393922.500    83509739.68749
  23590007.040   123966359.36208  23590005.280    96597177.70346
 15 02 21 02 58  0.0000000  0  9G04G11G16G18G19G21G22G27G32
  22346653.660   117432494.34109  22346652.420    91505842.09747
  23926750.120   125735919.95808  23926747.440    97976040.88745
  21444452.480   112691355.45709  21444449.300    87811409.92348
  22763501.260   119623045.66509  22763497.860    93212766.14246
  21311390.300   111992122.93609  21311385.060    87266573.69848
  24848643.160   130580482.93208  24848640.520   101751007.22745
  20730993.180   108942149.89209  20730988.160    84889980.87548
  20391406.040   107157587.51509  20391404.900    83499430.42349
  23568012.360   123850776.84908  23568010.780    96507113.49546
 15 02 21 02 58 30.0000000  0  9G04G11G16G18G19G21G22G27G32
  22333416.980   117362934.99509  22333415.700    91451640.03147
  23910414.280   125650075.63808  23910411.880    97909149.29345
  21458086.240   112763001.90409  21458083.200    87867238.30548
  22776727.880   119692551.71509  22776724.280    93266926.69446
  21301424.800   111939753.90609  21301419.740    87225766.70248
  24861936.740   130650339.28308  24861933.940   101805440.73644
  20733372.420   108954652.61509  20733367.360    84899723.26848
  20388951.840   107144691.32709  20388950.900    83489381.43949
  23546044.840   123735336.96008  23546043.340    96417160.42245
 15 02 21 02 59  0.0000000  0  9G04G11G16G18G19G21G22G27G32
  22320223.260   117293600.54509  22320222.200    91397613.20247
  23894094.280   125564313.96908  23894091.920    97842322.07544
  21471802.140   112835079.47309  21471799.120    87923402.62748
  22790013.200   119762366.53009  22790009.720    93321327.79846
  21291500.280   111887599.64209  21291494.980    87185126.96948
  24875225.640   130720172.54807  24875222.060   101859856.31144
  20735850.540   108967674.46409  20735845.380    84909870.16648
  20386561.260   107132129.51409  20386560.460    83479593.02649
  23524104.760   123620041.56308  23524103.420    96327319.91146
 15 02 21 02 59 30.0000000  0  9G04G11G16G18G19G21G22G27G32
  22307072.360   117224491.80209  22307070.900    91343762.25247
  23877790.260   125478635.84108  23877787.800    97775559.93945
  21485599.800   112907586.05709  21485596.780    87979901.25148
  22803356.980   119832488.27509  22803353.280    93375968.11746
  21281616.860   111835661.89309  21281611.420    87144656.03048
  24888510.020   130789983.05407  24888506.540   101914254.06645
  20738427.400   108981214.99509  20738422.140    84920421.23948
  20384234.760   107119903.82709  20384233.960    83470066.50449
  23502192.700   123504893.68308  23502191.360    96237594.36845
 15 02 21 03 00  0.0000000  0  9G04G11G16G18G19G21G22G27G32
  22293964.220   117155608.21208  22293962.380    91290086.78447
  23861502.040   125393040.80708  23861499.540    97708862.56145
  21499478.580   112980518.93609  21499475.480    88036732.05448
  22816758.640   119902914.30909  22816754.840    93430845.54746
  21271774.740   111783941.22509  21271769.320    87104354.19848
  24901790.080   130859769.48108  24901787.000   101968632.98345
  20741102.600   108995272.71409  20741097.240    84931375.30248
  20381972.500   107108014.84509  20381971.580    83460802.35649
  23480309.060   123389895.51108  23480307.720    96147985.46846
 15 02 21 03 00 30.0000000  0  9G04G11G16G18G19G21G22G27G32
  22280899.300   117086951.15509  22280897.000    91236587.76647
  23845229.840   125307530.53908  23845227.540    97642231.24945
  21513438.140   113053876.71409  21513434.920    88093893.95648
  22830217.980   119973643.79409  22830214.320    93485959.41946
  21261974.360   111732440.71609  21261969.080    87064223.96248
  24915065.880   130929533.53408  24915062.800   102022994.54145
  20743876.260   109009848.13309  20743870.800    84942732.77449
  20379774.760   107096465.06009  20379773.840    83451802.53449
  23458454.600   123275050.97008  23458453.320    96058496.29945
 15 02 21 03 01  0.0000000  0 10G04G11G14G16G18G19G21G22G27G32
  22267877.240   117018519.76009  22267874.820    91183264.66347
  23828973.780   125222104.46708  23828971.460    97575665.51345
  24684332.680   129717040.66107  24684331.460   101078200.80044
  21527477.920   113127656.56309  21527474.680    88151384.72448
  22843734.420   120044673.64909  22843731.020    93541307.30346
  21252216.100   111681160.75809  21252211.000    87024265.54148
  24928336.960   130999273.77207  24928333.820   102077337.49944
  20746747.980   109024939.25509  20746742.460    84954492.09348
  20377641.560   107085254.71409  20377640.600    83443067.18549
  23436629.700   123160361.76308  23436628.460    95969128.14546
 15 02 21 03 01 30.0000000  0 10G04G11G14G16G18G19G21G22G27G32
  22254897.000   116950308.15909  22254894.500    91130112.77247
  23812732.740   125136756.89408  23812730.300    97509160.95245
  24670220.440   129642878.13508  24670218.580   101020411.78245
  21541596.420   113201850.35709  21541593.240    88209198.05148
  22857306.460   120115995.48408  22857303.040    93596882.79846
  21242498.940   111630096.04409  21242493.720    86984474.84948
  24941602.140   131068983.82807  24941597.800   102131657.11943
  20749716.580   109040539.35409  20749711.060    84966648.02648
  20375572.040   107074379.05009  20375570.960    83434592.62549
  23414833.840   123045824.56208  23414832.540    95879878.42645
 15 02 21 03 02  0.0000000  0 10G04G11G14G16G18G19G21G22G27G32
  22241960.940   116882329.00209  22241958.820    91077142.03347
  23796509.140   125051500.86708  23796506.380    97442727.71945
  24656113.280   129568744.65607  24656111.160   100962645.48244
  21555795.640   113276467.73009  21555792.460    88267341.43848
  22870936.200   120187620.01709  22870932.720    93652694.08646
  21232825.260   111579260.82809  21232820.240    86944863.02348
  24954864.060   131138675.92107  24954860.720   102185962.58845
  20752784.220   109056659.97109  20752778.760    84979209.54648
  20373568.800   107063851.81609  20373567.680    83426389.59249
  23393069.840   122931454.57008  23393068.460    95790759.01046
 15 02 21 03 02 30.0000000  0 10G04G11G14G16G18G19G21G22G27G32
  22229067.680   116814574.55809  22229065.960    91024346.36247
  23780301.400   124966328.76308  23780298.200    97376359.86445
  24642010.720   129494635.50307  24642008.560   100904898.13944
  21570073.580   113351498.04709  21570070.280    88325806.60948
  22884621.480   120259537.04109  22884618.140    93708733.31746
  21223194.080   111528648.52209  21223188.980    86905424.85548
  24968121.220   131208342.18707  24968118.280   102240247.89545
  20755949.280   109073292.11109  20755943.720    84992169.66448
  20371630.500   107053666.19409  20371629.400    83418452.74349
  23371336.700   122817246.50508  23371335.300    95701765.76746
 15 02 21 03 03  0.0000000  0 10G04G11G14G16G18G19G21G22G27G32
  22216217.280   116747045.01609  22216215.720    90971725.94947
  23764109.680   124881240.73508  23764106.520    97310057.51345
  24627913.420   129420553.26007  24627910.980   100847171.72044
  21584429.740   113426938.96809  21584426.280    88384591.72748
  22898362.220   120331744.57809  22898358.860    93764998.91646
  21213605.540   111478260.53009  21213600.680    86866161.49748
  24981373.340   131277982.36307  24981370.600   102294512.79045
  20759211.540   109090434.81709  20759205.800    85005527.62348
  20369757.420   107043823.46009  20369756.380    83410783.06649
  23349634.800   122703203.04208  23349633.700    95612900.78846
 15 02 21 03 03 30.0000000  0 10G04G11G14G16G18G19G21G22G27G32
  22203410.160   116679742.57609  22203408.700    90919282.49347
  23747934.440   124796239.15408  23747931.420    97243822.54145
  24613822.200   129346502.99508  24613819.700   100789470.23344
  21598864.040   113502790.80409  21598860.420    88443697.05648
  22912158.180   120404242.54008  22912155.000    93821490.81646
  21204060.380   111428100.18908  21204055.380    86827075.48248
  24994620.900   131347598.03908  24994617.740   102348758.78043
  20762571.120   109108089.40309  20762565.340    85019284.43148
  20367950.320   107034326.93009  20367949.320    83403383.19149
  23327965.040   122589329.06408  23327964.260    95524167.90646
 15 02 21 03 04  0.0000000  0 10G04G11G14G16G18G19G21G22G27G32
  22190646.340   116612668.36009  22190644.460    90867016.91747
  23731775.880   124711325.82608  23731773.060    97177656.36946
  24599737.800   129272488.78107  24599735.540   100731796.82645
  21613376.100   113579052.16309  21613372.440    88503121.48548
  22926009.260   120477029.70808  22926005.760    93878208.09046
  21194558.900   111378169.97209  21194553.980    86788168.88748
  25007863.820   131417190.69406  25007859.780   102402986.85243
  20766028.040   109126255.66909  20766022.220    85033439.97948
  20366209.500   107025178.95109  20366208.460    83396254.89049
  23306328.320   122475628.30808  23306327.720    95435569.97746
 15 02 21 03 04 30.0000000  0 10G04G11G14G16G18G19G21G22G27G32
  22177925.720   116545822.53208  22177924.000    90814929.31847
  23715634.080   124626501.09008  23715631.480    97111559.20145
  24585660.640   129198513.45307  24585658.840   100674153.73544
  21627965.360   113655720.37909  21627961.920    88562862.92948
  22939914.680   120550104.13208  22939911.360    93935149.14646
  21185101.660   111328471.59109  21185096.740    86749442.83448
  25021102.380   131486760.03807  25021098.760   102457196.65944
  20769581.980   109144932.75609  20769576.320    85047993.54348
  20364535.160   107016380.74709  20364534.200    83389399.11849
  23284725.280   122362103.58008  23284724.520    95347109.19746
 15 02 21 03 05  0.0000000  0 10G04G11G14G16G18G19G21G22G27G32
  22165247.840   116479201.63109  22165246.320    90763016.93047
  23699508.540   124541761.67808  23699505.960    97045528.51946
  24571590.500   129124576.00007  24571589.180   100616540.16444
  21642630.900   113732789.47109  21642627.720    88622916.73848
  22953873.800   120623459.85808  22953870.360    93992309.45246
  21175688.080   111279002.64209  21175683.180    86710895.63848
  25034335.880   131556302.15808  25034332.440   102511385.26145
  20773232.260   109164115.91909  20773226.800    85062941.47948
  20362926.920   107007929.82809  20362926.120    83382813.98649
  23263155.580   122248753.82308  23263154.660    95258784.76146
 15 02 21 03 05 30.0000000  0  9G04G11G14G16G18G19G22G27G32
  22152613.700   116412808.68309  22152612.180    90711282.16547
  23683399.980   124457110.88708  23683397.380    96979566.90246
  24557528.860   129050682.22907  24557527.880   100558960.65244
  21657372.920   113810259.45309  21657369.840    88683282.94448
  22967886.780   120697097.71909  22967883.260    94049689.56846
  21166319.000   111229767.35809  21166313.900    86672530.48448
  20776979.200   109183806.91309  20776973.960    85078285.10448
  20361385.620   106999830.26009  20361384.840    83376502.63549
  23241620.180   122135584.59008  23241619.300    95170600.99246
 15 02 21 03 06  0.0000000  0  9G04G11G14G16G18G19G22G27G32
  22140022.380   116346640.35309  22140020.560    90659722.46647
  23667307.920   124372545.96009  23667305.160    96913672.17045
  24543475.420   128976831.77307  24543474.180   100501414.87345
  21672190.400   113888125.57609  21672187.380    88743957.82548
  22981952.560   120771012.37309  22981948.380    94107285.43346
  21156993.980   111180763.89709  21156988.760    86634345.97948
  20780822.140   109204001.94809  20780817.020    85094021.50348
  20359910.800   106992079.99509  20359910.040    83370463.47149
  23220119.060   122022595.38108  23220118.280    95082557.49046
 15 02 21 03 06 30.0000000  0  9G04G11G14G16G18G19G22G27G32
  22127474.480   116280701.16109  22127472.240    90608341.26347
  23651233.080   124288071.32808  23651230.220    96847847.79646
  24529431.760   128903031.42408  24529429.960   100443908.12745
  21687083.460   113966388.75409  21687080.460    88804942.09448
  22996071.120   120845205.96408  22996067.420    94165098.55646
  21147714.120   111131997.99309  21147708.680    86596346.55348
  20784761.620   109224703.70109  20784756.460    85110152.74549
  20358503.400   106984684.44109  20358502.700    83364700.68449
  23198653.580   121909793.06508  23198652.800    94994659.62646
 15 02 21 03 07  0.0000000  0 10G01G04G11G14G16G18G19G22G27G32
  24594787.180   129246479.02007                                
  22114969.560   116214987.87309  22114967.900    90557136.10847
  23635174.760   124203684.07608  23635171.860    96782091.56846
  24515397.740   128829280.94208  24515395.440   100386440.22644
  21702050.900   114045042.85909  21702047.840    88866230.98948
  23010241.740   120919673.21208  23010237.780    94223125.00546
  21138478.920   111083467.57209  21138473.720    86558530.64748
  20788796.700   109245907.82709  20788791.380    85126675.42448
  20357163.180   106977641.62409  20357162.480    83359212.77449
  23177223.600   121797177.18808  23177222.640    94906907.01946
 15 02 21 03 07 30.0000000  0 10G01G04G11G14G16G18G19G22G27G32
  24579562.480   129166468.55608  24579565.100   100649209.81146
  22102509.040   116149507.72908  22102507.560    90506112.62547
  23619134.360   124119391.66308  23619131.580    96716409.20745
  24501374.860   128755590.56807  24501372.560   100329019.15545
  21717093.860   114124093.68209  21717090.680    88927829.03148
  23024465.400   120994418.94908  23024461.600    94281368.40446
  21129290.200   111035181.31609  21129285.140    86520905.02448
  20792928.600   109267620.39809  20792923.080    85143594.34248
  20355891.660   106970959.71309  20355890.860    83354006.10249
  23155830.820   121684757.42808  23155829.620    94819307.25545
 15 02 21 03 08  0.0000000  0 10G01G04G11G14G16G18G19G22G27G32
  24564360.640   129086579.56808  24564362.740   100586958.69046
  22090091.680   116084254.70809  22090089.940    90455266.18347
  23603110.840   124035188.44808  23603108.240    96650796.33945
  24487362.660   128681956.78007  24487360.900   100271642.24544
  21732210.620   114203532.32409  21732207.280    88989729.24748
  23038740.400   121069434.75909  23038736.400    94339822.26046
  21120147.080   110987134.58209  21120142.220    86483465.98748
  20797155.820   109289834.09509  20797150.160    85160903.71248
  20354687.880   106964633.77709  20354687.100    83349076.80649
  23134474.720   121572530.43608  23134473.240    94731857.69645
 15 02 21 03 08 30.0000000  0 10G01G04G11G14G16G18G19G22G27G32
  24549181.200   129006810.52108  24549183.260   100524801.04646
  22077717.320   116019227.23609  22077715.940    90404595.45747
  23587103.980   123951073.26308  23587101.560    96585252.09446
  24473361.540   128608381.06807  24473359.940   100214310.56444
  21747400.340   114283354.36909  21747396.880    89051928.22448
  23053066.240   121144716.93908  23053062.280    94398483.71745
  21111049.420   110939327.04909  21111044.760    86446213.40548
  20801477.820   109312545.90109  20801472.060    85178601.24048
  20353551.800   106958663.42909  20353550.980    83344424.57249
  23113155.520   121460497.32008  23113153.940    94644559.19546
 15 02 21 03 09  0.0000000  0 10G01G04G11G14G16G18G19G22G27G32
  24534025.360   128927166.22008  24534027.380   100462740.57546
  22065386.920   115954430.22909  22065385.620    90354104.28247
  23571115.040   123867051.05308  23571112.500    96519780.31345
  24459372.820   128534870.63307  24459371.260   100157029.71645
  21762663.340   114363561.83009  21762659.800    89114427.53948
  23067443.060   121220268.48708  23067439.040    94457355.04545
  21101998.640   110891764.47009  21101994.120    86409151.66348
  20805895.200   109335759.72609  20805889.580    85196689.92448
  20352484.480   106953054.40909  20352483.660    83340053.92049
  23091874.600   121348665.19208  23091873.060    94557417.33246
 15 02 21 03 09 30.0000000  0 10G01G04G11G14G16G18G19G22G27G32
  24518892.300   128847641.13008  24518894.180   100400772.98446
  22053099.300   115889857.97409  22053098.200    90303788.26447
  23555143.100   123783116.92508  23555140.240    96454377.10345
  24445396.240   128461423.03607  24445394.700   100099797.80645
  21777998.000   114444146.39409  21777994.560    89177220.68348
  23081869.580   121296081.20708  23081865.740    94516429.84346
  21092993.840   110844443.39309  21092989.060    86372278.08748
  20810406.920   109359469.01709  20810401.300    85215164.69448
  20351485.040   106947802.29809  20351484.260    83335961.36149
  23070631.440   121237031.30108  23070630.060    94470429.90946
 15 02 21 03 10  0.0000000  0 10G01G04G11G14G16G18G19G22G27G32
  24503782.520   128768238.08008  24503784.060   100338900.52745
  22040855.040   115825513.52009  22040853.740    90253649.74147
  23539188.360   123699273.80608  23539185.380    96389044.80045
  24431432.680   128388043.66308  24431430.920   100042619.13344
  21793404.500   114525109.03309  21793401.400    89240308.43748
  23096346.080   121372155.67309  23096341.840    94575708.65945
  21084035.760   110797367.65509  21084031.000    86335595.69048
  20815013.060   109383674.65909  20815007.500    85234026.22148
  20350554.260   106942910.90609  20350553.480    83332149.87349
  23049427.060   121125601.00208  23049425.760    94383601.16046
 15 02 21 03 10 30.0000000  0 10G01G04G11G14G16G18G19G22G27G32
  24488696.460   128688959.36408  24488697.880   100277124.91946
  22028654.600   115761398.87709  22028653.260    90203690.25847
  23523251.240   123615524.12708  23523248.060    96323785.31245
  24417483.060   128314737.73407  24417480.700    99985497.60544
  21808882.720   114606448.88109  21808879.940    89303690.11348
  23110872.400   121448491.76908  23110868.420    94635191.32145
  21075124.900   110750540.72809  21075120.080    86299107.17948
  20819713.880   109408377.97609  20819708.360    85253275.57448
  20349692.800   106938383.63509  20349692.000    83328622.13549
  23028262.360   121014379.17408  23028261.020    94296934.85246
 15 02 21 03 11  0.0000000  0 10G01G04G11G14G16G18G19G22G27G32
  24473633.780   128609804.06508  24473635.120   100215445.49645
  22016497.780   115697513.24708  22016496.280    90153909.25447
  23507331.920   123531867.41208  23507328.740    96258598.28945
  24403547.820   128241507.03807  24403545.660    99928434.76645
  21824432.040   114688161.82709  21824429.380    89367362.52548
  23125447.920   121525086.70408  23125444.340    94694875.65946
  21066261.420   110703963.06808  21066256.520    86262812.90448
  20824509.020   109433576.58309  20824503.440    85272910.87048
  20348900.580   106934220.57209  20348899.840    83325378.19649
  23007137.620   120903367.47509  23007136.000    94210432.30346
 15 02 21 03 11 30.0000000  0 10G01G04G11G14G16G18G19G22G27G32
  24458594.580   128530773.06207  24458595.440   100153862.87745
  22004384.620   115633857.42409  22004382.580    90104307.36747
  23491430.600   123448304.91208  23491427.420    96193484.70445
  24389627.460   128168355.29207  24389625.480    99871433.42844
  21840052.340   114770246.91009  21840049.640    89431324.90748
  23140072.360   121601939.21408  23140069.100    94754760.67345
  21057445.800   110657636.92709  21057441.060    86226714.64648
  20829398.340   109459270.12809  20829392.740    85292931.81849
  20348178.020   106930423.67809  20348177.260    83322419.57549
  22986053.540   120792569.42709  22986051.580    94124096.18246
 15 02 21 03 12  0.0000000  0 10G01G04G11G14G16G18G19G22G27G32
  24443578.980   128451867.23307  24443579.560   100092377.90644
  21992315.200   115570432.31208  21992312.920    90054885.18347
  23475547.300   123364837.85708  23475543.900    96128445.45645
  24375722.900   128095285.99708  24375720.540    99814496.31944
  21855743.100   114852701.75109  21855740.260    89495575.42748
  23154745.620   121679047.45109  23154742.240    94814845.03446
  21048678.500   110611564.72009  21048673.960    86190814.22448
  20834381.720   109485457.97709  20834376.100    85313337.93948
  20347525.460   106926994.83009  20347524.780    83319747.75849
  22965010.680   120681988.42009  22965008.500    94037929.19446
 15 02 21 03 12 30.0000000  0 10G01G04G11G14G16G18G19G22G27G32
  24428585.980   128373080.38607  24428586.680   100030985.58444
  21980288.500   115507231.73709  21980286.260    90005638.01347
  23459680.960   123281460.30808  23459677.240    96063475.97244
  24361833.460   128022295.92208  24361830.800    99757620.97144
  21871502.520   114935517.96509  21871499.540    89560107.54148
  23169465.920   121756403.19108  23169462.380    94875122.22846
  21039958.580   110565741.44109  21039953.900    86155107.78848
  20839457.760   109512132.71609  20839452.120    85334123.44348
  20346941.920   106923928.92409  20346941.320    83317358.74149
  22944008.440   120571621.04008  22944006.060    93951928.65146
 15 02 21 03 13  0.0000000  0 10G01G04G11G14G16G18G19G22G27G32
  24413616.660   128294418.84207  24413617.800    99969690.94845
  21968305.840   115444261.99509  21968303.400    89956570.70647
  23443833.080   123198178.70608  23443829.260    95998581.23446
  24347960.820   127949394.25208  24347958.020    99700814.48545
  21887331.340   115018699.06709  21887328.240    89624923.96248
  23184234.240   121834010.73808  23184230.760    94935595.60445
  21031287.480   110520174.75309  21031282.800    86119601.27748
  20844627.380   109539299.09009  20844621.680    85355292.05449
  20346428.880   106921233.20109  20346428.200    83315258.17349
  22923048.420   120461475.86708  22923046.060    93866101.29546
 15 02 21 03 13 30.0000000  0 10G01G04G11G14G16G18G19G22G27G32
  24398671.460   128215883.36707  24398673.480    99908494.51145
  21956367.220   115381523.80809  21956364.760    89907683.78047
  23428003.740   123114994.39308  23428000.340    95933762.33146
  24334105.560   127876584.52707  24334102.760    99644079.64345
  21903229.180   115102242.66709  21903226.060    89690022.86348
  23199050.220   121911868.26308  23199046.880    94996263.80846
  21022665.720   110474867.04309  21022661.000    86084296.58948
  20849890.400   109566956.44109  20849884.740    85376843.25449
  20345986.760   106918909.56109  20345985.980    83313447.53649
  22902131.340   120351556.39808  22902129.040    93780449.77946
 15 02 21 03 14  0.0000000  0 10G01G04G11G14G16G18G19G22G27G32
  24383750.120   128137471.60308  24383752.400    99847394.52045
  21944472.060   115319014.82508  21944469.960    89858975.54348
  23412192.500   123031905.63708  23412189.380    95869017.88746
  24320267.920   127803867.49308  24320265.400    99587417.01644
  21919195.260   115186144.69209  21919192.080    89755401.04248
  23213912.760   121989971.43509  23213909.520    95057123.39246
  21014092.980   110429817.05809  21014088.300    86049192.68748
  20855246.200   109595101.47809  20855240.540    85398774.43348
  20345615.260   106916956.66109  20345614.400    83311925.81149
  22881257.240   120241863.02408  22881255.000    93694974.46146
 15 02 21 03 14 30.0000000  0 10G01G04G11G14G16G18G19G22G27G32
  24368852.260   128059182.57107  24368854.560    99786390.17145
  21932620.220   115256734.05509  21932618.200    89810445.04647
  23396399.020   122948911.39308  23396395.980    95804347.13045
  24306448.200   127731244.61608  24306445.980    99530827.79444
  21935228.700   115270400.94109  21935225.500    89821055.25648
  23228821.480   122068316.74109  23228818.100    95118171.68046
  21005569.460   110385025.20409  21005564.640    86014289.96548
  20860694.400   109623731.34509  20860688.720    85421083.42848
  20345314.260   106915374.46709  20345313.340    83310692.91849
  22860426.480   120132397.05108  22860424.320    93609676.32346
 15 02 21 03 15  0.0000000  0 10G01G04G11G14G16G18G19G22G27G32
  24353978.340   127981019.53908  24353980.680    99725484.00046
  21920812.420   115194684.75808  21920810.020    89762094.99847
  23380624.260   122866015.78608  23380621.360    95739753.17745
  24292647.420   127658721.96308  24292645.640    99474316.69445
  21951329.500   115355011.36309  21951326.420    89886985.42847
  23243776.360   122146905.61308  23243772.940    95179409.76046
  20997096.060   110340496.39809  20997091.060    85979592.17848
  20866235.160   109652847.81009  20866229.340    85443771.57448
  20345084.600   106914167.29909  20345083.700    83309752.28149
  22839640.220   120023164.57809  22839638.160    93524560.14146
 15 02 21 03 15 30.0000000  0 10G01G04G11G14G16G18G19G22G27G32
  24339127.880   127902978.52608  24339130.020    99664672.90945
  21909047.940   115132862.92909  21909045.640    89713922.14847
  23364867.800   122783214.99608  23364864.880    95675233.11546
  24278865.480   127586298.52508  24278863.860    99417882.88345
  21967496.600   115439969.99709  21967493.620    89953186.94548
  23258776.420   122225731.74108  23258773.060    95240832.71346
  20988672.120   110296227.74809  20988666.920    85945097.14348
  20871867.400   109682445.77509  20871861.580    85466834.93048
  20344925.680   106913332.19809  20344924.780    83309101.55149
  22818898.100   119914164.15209  22818896.300    93439624.79946
 15 02 21 03 16  0.0000000  0 10G01G04G11G14G16G18G19G22G27G32
  24324301.020   127825062.09108  24324303.100    99603958.83946
  21897327.600   115071271.36409  21897325.660    89665928.76247
  23349129.940   122700511.69708  23349127.300    95610789.03346
  24265103.620   127513979.73808  24265102.060    99361530.57545
  21983729.920   115525276.76209  21983726.980    90019659.74248
  23273821.660   122304795.37608  23273817.860    95302440.73446
  20980298.460   110252223.46109  20980293.180    85910808.09648
  20877591.460   109712526.22109  20877585.720    85490274.24748
  20344838.240   106912872.75809  20344837.320    83308743.51949
  22798201.160   119805400.85609  22798199.480    93354874.20247
 15 02 21 03 16 30.0000000  0 10G01G04G11G14G16G18G19G22G27G32
  24309497.960   127747270.79508  24309499.960    99543342.34346
  21885651.100   115009910.18609  21885649.240    89618114.88047
  23333410.600   122617907.01108  23333408.160    95546421.80946
  24251362.400   127441768.97108  24251360.500    99305262.44145
  22000028.920   115610928.85809  22000025.960    90086401.61747
  23288911.900   122384094.79908  23288907.900    95364232.48045
  20971975.380   110208485.54009  20971969.960    85876726.57149
  20883407.160   109743088.22709  20883401.480    85514088.80148
  20344822.540   106912790.46409  20344821.620    83308679.40549
  22777549.980   119696877.92309  22777548.300    93270310.89646
 15 02 21 03 17  0.0000000  0 10G01G04G11G14G16G18G19G22G27G32
  24294718.360   127669602.57908  24294720.100    99482821.73546
  21874018.040   114948777.63109  21874016.040    89570479.12847
  23317709.960   122535399.43108  23317707.180    95482130.17845
  24237641.900   127369667.19208  24237639.800    99249079.24244
  22016392.880   115696921.89009  22016389.860    90153409.15647
  23304046.420   122463626.07009  23304042.380    95426204.90646
  20963702.940   110165013.42009  20963697.540    85842852.23048
  20889313.840   109774128.29209  20889308.340    85538275.85748
  20344878.560   106913084.46709  20344877.620    83308908.49849
  22756944.660   119588595.89409  22756942.900    93185935.32346
 15 02 21 03 17 30.0000000  0 10G01G04G11G14G16G18G19G22G27G32
  24279962.420   127592060.46308  24279964.160    99422399.38946
  21862429.020   114887876.60409  21862426.820    89523023.77947
  23302028.540   122452992.30008  23302025.520    95417916.86445
  24223943.360   127297680.18207  24223941.180    99192985.48745
  22032821.720   115783256.31109  22032818.680    90220682.72147
  23319224.560   122543389.93808  23319220.980    95488358.51146
  20955481.840   110121811.17909  20955476.540    85809188.15048
  20895311.860   109805647.94309  20895306.380    85562836.63248
  20345006.960   106913758.58609  20345005.980    83309433.77749
  22736386.100   119480560.33408  22736384.380    93101751.78547
 15 02 21 03 18  0.0000000  0 10G01G04G11G14G16G18G19G22G27G32
  24265229.920   127514641.73608  24265231.860    99362073.15345
  21850883.440   114827204.45509  21850881.040    89475746.81347
  23286365.680   122370683.37408  23286362.560    95353780.07945
  24210266.500   127225807.90008  24210264.220    99136981.14644
  22049314.460   115869926.50809  22049311.420    90288217.91447
  23334446.440   122623381.16308  23334443.160    95550689.31746
  20947311.800   110078877.71009  20947306.600    85775733.51248
  20901400.380   109837642.99009  20901394.760    85587767.83148
  20345207.300   106914811.19809  20345206.320    83310253.99749
  22715874.300   119372771.07509  22715872.700    93017760.18946
 15 02 21 03 18 30.0000000  0 10G01G04G11G14G16G18G19G22G27G32
  24250521.360   127437348.62208  24250523.240    99301844.85146
  21839381.720   114766763.33409  21839379.840    89428649.86247
  23270721.860   122288475.06208  23270718.900    95289721.73946
  24196612.580   127154055.64808  24196610.140    99081070.29945
  22065870.960   115956931.51509  22065867.880    90356013.99747
  23349711.700   122703600.11009  23349708.640    95613197.57146
  20939193.600   110036216.60409  20939188.400    85742491.05749
  20907579.360   109870113.93009  20907573.620    85613069.86048
  20345480.240   106916245.53709  20345479.260    83311371.63249
  22695410.260   119265233.09608  22695408.780    92933964.37746
 15 02 21 03 19  0.0000000  0 10G01G04G11G14G16G18G19G22G27G32
  24235836.380   127360178.77108  24235838.180    99241712.56546
  21827923.580   114706551.10609  21827921.580    89381731.23647
  23255096.960   122206365.48008  23255093.680    95225740.25645
  24182981.560   127082423.91008  24182979.300    99025253.38945
  22082490.480   116044267.01809  22082487.340    90424067.63447
  23365019.400   122784042.38008  23365016.340    95675879.82045
  20931126.920   109993826.92409  20931121.900    85709460.18248
  20913848.080   109903057.11109  20913842.360    85638739.86448
  20345825.460   106918060.13709  20345824.500    83312785.63349
  22674994.080   119157946.49708  22674992.820    92850364.45947
 15 02 21 03 19 30.0000000  0 10G01G04G11G14G16G18G19G22G27G32
  24221175.400   127283136.10608  24221177.420    99181679.33245
  21816509.900   114646571.38209  21816507.860    89334993.84447
  23239491.680   122124359.09908  23239488.060    95161839.18645
  24169374.820   127010919.57008  24169372.580    98969535.74645
  22099173.120   116131933.76309  22099169.960    90492379.37548
  23380369.800   122864709.28708  23380366.420    95738737.18946
  20923113.220   109951714.38309  20923108.180    85676645.20148
  20920207.120   109936474.89109  20920201.520    85664779.69448
  20346244.000   106920259.99009  20346243.080    83314499.79849
  22654627.060   119050917.78308  22654625.940    92766965.51446
 15 02 21 03 20  0.0000000  0 10G01G04G11G14G16G18G19G22G27G32
  24206538.380   127206218.34408  24206540.140    99121743.46745
  21805140.040   114586822.14609  21805137.920    89288435.98647
  23223905.520   122042453.72408  23223901.960    95098016.85546
  24155792.200   126939543.22208  24155790.000    98913917.85145
  22115917.780   116219926.35309  22115914.580    90560945.01347
  23395761.960   122945596.56908  23395758.920    95801766.17946
  20915151.940   109909877.45609  20915146.940    85644045.00048
  20926655.740   109970363.16209  20926650.240    85691186.14148
  20346735.620   106922843.83509  20346734.820    83316513.19049
  22634309.340   118944147.44109  22634308.300    92683767.88846
 15 02 21 03 20 30.0000000  0 10G01G04G11G14G16G18G19G22G27G32
  24191924.840   127129422.96608  24191926.380    99061902.94146
  21793813.440   114527300.52709  21793811.420    89242055.49847
  23208338.360   121960647.99808  23208335.160    95034272.19146
  24142234.180   126868295.00408  24142231.620    98858399.75745
  22132723.480   116308240.43509  22132720.220    90629761.16847
  23411195.380   123026699.53109  23411192.240    95864963.27645
  20907243.060   109868315.77209  20907238.120    85611659.26449
  20933193.280   110004718.03709  20933187.840    85717956.19048
  20347300.060   106925810.00609  20347299.280    83318824.47649
  22614040.880   118837635.37409  22614039.700    92600771.47846
 15 02 21 03 21  0.0000000  0 10G01G04G11G14G16G18G19G22G27G32
  24177335.320   127052752.83408  24177336.560    99002159.97946
  21782530.720   114468009.77009  21782528.720    89195854.93448
  23192790.800   121878944.83308  23192787.720    94970607.42245
  24128701.720   126797181.04508  24128699.160    98802986.32145
  22149590.160   116396875.37609  22149586.760    90698827.33647
  23426670.020   123108018.93508  23426666.840    95928329.03745
  20899387.440   109827033.76109  20899382.420    85579491.48649
  20939819.940   110039541.26308  20939814.540    85745091.19648
  20347937.980   106929162.33009  20347937.220    83321436.67049
  22593822.640   118731386.99408  22593821.300    92517980.55947
 15 02 21 03 21 30.0000000  0 10G01G04G11G14G16G18G19G22G27G32
  24162769.540   126976208.08008  24162770.660    98942514.81046
  21771291.960   114408949.88709  21771289.880    89149834.25647
  23177262.680   121797344.66008  23177259.360    94907022.86845
  24115195.220   126726203.97108  24115192.480    98747679.50344
  22166517.540   116485829.08209  22166513.980    90768141.89247
  23442185.420   123189552.51808  23442182.160    95991861.66845
  20891585.320   109786032.93909  20891580.160    85547542.79748
  20946535.420   110074831.20409  20946530.000    85772589.85348
  20348649.600   106932901.98909  20348648.880    83324350.68249
  22573655.020   118625405.05208  22573653.620    92435397.25947
 15 02 21 03 22  0.0000000  0 10G01G04G11G14G16G18G19G22G27G32
  24148227.580   126899789.26208  24148228.520    98882967.73945
  21760097.460   114350121.46809  21760095.140    89103993.91547
  23161754.500   121715848.71609  23161750.920    94843519.56946
  24101715.500   126655367.48608  24101712.800    98692482.25545
  22183505.120   116575098.96609  22183501.440    90837702.82547
  23457741.280   123271298.89108  23457738.300    96055560.15546
  20883836.980   109745315.11909  20883831.880    85515814.62248
  20953339.420   110110586.43109  20953333.960    85800451.08148
  20349435.160   106937030.45009  20349434.460    83327567.65049
  22553538.600   118519692.71109  22553537.220    92353024.05347
 15 02 21 03 22 30.0000000  0 10G01G04G11G14G16G18G19G22G27G32
  24133709.360   126823496.37907  24133710.420    98823518.80046
  21748946.900   114291524.36409  21748944.800    89058333.82947
  23146266.340   121634457.50508  23146262.900    94780097.88546
  24088262.980   126584674.17608  24088260.300    98637396.60745
  22200552.260   116664682.34609  22200548.660    90907508.04147
  23473337.120   123353255.73308  23473333.720    96119422.59045
  20876142.680   109704881.23409  20876137.580    85484307.69449
  20960231.720   110146805.34709  20960226.160    85828673.59748
  20350294.800   106941548.64809  20350294.280    83331088.33449
  22533473.980   118414252.53709  22533472.440    92270862.92647
 15 02 21 03 23  0.0000000  0 10G01G04G11G14G16G18G19G22G27G32
  24119214.400   126747327.60907  24119216.080    98764166.56546
  21737840.000   114233156.91909  21737837.900    89012852.71747
  23130797.720   121553169.65808  23130794.440    94716756.74946
  24074838.060   126514125.47808  24074835.540    98582423.61945
  22217658.100   116754574.20009  22217654.620    90977553.63547
  23488972.480   123435419.38408  23488969.080    96183446.18245
  20868502.300   109664731.34509  20868497.300    85453022.07448
  20967211.620   110183484.62509  20967206.040    85857254.84648
  20351228.500   106946455.78409  20351228.100    83334912.05849
  22513461.200   118309085.31809  22513459.600    92188914.49046
 15 02 21 03 23 30.0000000  0 10G01G04G11G14G16G18G19G22G27G32
  24104743.920   126671285.73408  24104745.620    98704913.22445
  21726777.340   114175021.84409  21726775.080    88967552.66847
  23115349.420   121471988.22508  23115346.120    94653498.48745
  24061441.520   126443726.84408  24061439.380    98527567.58245
  22234822.660   116844774.75809  22234819.380    91047839.76147
  23504647.320   123517790.22808  23504644.280    96247631.19846
  20860916.820   109624869.79109  20860911.900    85421961.15248
  20974279.300   110220625.68409  20974273.820    85886195.93348
  20352237.040   106951755.51909  20352236.600    83339041.71449
  22493501.440   118204196.33609  22493499.720    92107182.84546
 15 02 21 03 24  0.0000000  0 10G01G04G11G14G16G18G19G22G27G32
  24090297.120   126595367.85008  24090298.840    98645756.45445
  21715758.140   114117116.12709  21715756.220    88922431.37047
  23099920.940   121390910.77108  23099917.600    94590321.26945
  24048073.660   126373478.37108  24048071.300    98472828.52745
  22252044.920   116935278.60309  22252041.840    91118362.22447
  23520360.580   123600363.14708  23520356.740    96311973.80645
  20853385.880   109585294.77509  20853380.860    85391123.48048
  20981433.840   110258223.68609  20981428.620    85915493.06848
  20353319.980   106957445.78209  20353319.460    83343475.69149
  22473594.620   118099585.25409  22473592.900    92025667.76147
 15 02 21 03 24 30.0000000  0 10G01G04G11G14G16G18G19G22G27G32
  24075874.180   126519576.03208  24075875.960    98586697.95546
  21704783.040   114059442.12309  21704781.240    88877490.57947
  23084512.580   121309940.05808  23084509.320    94527227.26846
  24034735.380   126303385.29408  24034732.600    98418210.54144
  22269324.860   117026085.30309  22269321.800    91189120.67947
  23536112.340   123683138.29809  23536108.260    96376473.92045
  20845910.320   109546010.67609  20845905.260    85360512.48548
  20988675.380   110296278.99509  20988670.300    85945146.57148
  20354477.840   106963529.71509  20354477.200    83348216.41649
  22453741.640   117995256.82009  22453739.960    91944372.91847
 15 02 21 03 25  0.0000000  0 10G01G04G11G14G16G18G19G22G27G32
  24061475.440   126443910.65208  24061477.440    98527737.98946
  21693851.960   114001999.90609  21693850.180    88832730.42648
  23069124.880   121229076.90408  23069121.500    94464217.03045
  24021427.200   126233450.68808  24021424.640    98363716.07545
  22286661.860   117117191.50909  22286658.620    91260112.51347
  23551902.000   123766113.84508  23551898.180    96441130.15745
  20838490.540   109507019.12809  20838485.460    85330129.44648
  20996003.860   110334790.49109  20995998.700    85975155.54148
  20355710.900   106970008.62809  20355710.060    83353264.91749
  22433943.020   117891213.83309  22433941.340    91863300.49247
 15 02 21 03 25 30.0000000  0 10G01G04G11G14G16G18G19G22G27G32
  24047100.460   126368368.23808  24047101.940    98468873.78445
  21682964.520   113944786.20709  21682962.600    88788148.35447
  23053756.980   121148318.44108  23053753.480    94401288.36245
  24008148.960   126163673.89908  24008146.760    98309344.58846
  22304054.860   117208591.50009  22304051.360    91331333.27747
  23567728.700   123849284.01209  23567724.800    96505938.07945
  20831126.020   109468317.70209  20831120.820    85299972.49748
  21003418.200   110373752.89809  21003413.000    86005515.86748
  20357018.600   106976879.89609  20357017.560    83358619.13649
  22414198.620   117787455.56009  22414196.900    91782449.92047
 15 02 21 03 26  0.0000000  0 10G01G04G11G14G16G18G19G22G27G32
  24032750.160   126292955.48108  24032750.820    98410110.58745
  21672121.840   113887807.82509  21672119.920    88743749.62147
  23038410.260   121067671.68208  23038407.180    94338446.77546
  23994902.780   126094064.77708  23994900.880    98255103.75745
  22321504.580   117300289.57209  22321500.860    91402786.29647
  23583593.160   123932653.49908  23583589.760    96570901.23846
  20823818.220   109429914.82709  20823812.940    85270048.17148
  21010919.440   110413171.84709  21010914.160    86036231.94948
  20358402.320   106984151.15009  20358401.200    83364285.05249
  22394509.980   117683991.10509  22394508.300    91701828.29847
 15 02 21 03 26 30.0000000  0 10G01G04G11G14G16G18G19G22G27G32
  24018422.640   126217663.35308  24018422.860    98351441.38645
  21661322.280   113831055.54709  21661319.960    88699527.05247
  23023083.380   120987128.19209  23023080.460    94275685.64046
  23981687.400   126024616.83508  23981685.280    98200988.46745
  22339008.560   117392273.40009  22339004.840    91474462.00047
  23599493.660   124016210.94408  23599489.980    96636010.99745
  20816565.680   109391803.02409  20816560.440    85240350.65249
  21018505.440   110453036.13309  21018499.960    86067295.01548
  20359860.520   106991814.22609  20359859.440    83370256.27049
  22374875.860   117580814.11709  22374874.340    91621430.67547
 15 02 21 03 27  0.0000000  0 10G01G04G11G14G16G18G19G22G27G32
  24004119.240   126142497.79608  24004119.380    98292870.88545
  21650566.760   113774535.34609  21650564.280    88655485.33347
  23007777.520   120906694.53308  23007774.120    94213010.04745
  23968504.300   125955338.93008  23968502.400    98147005.70645
  22356567.260   117484545.40909  22356563.740    91546362.25747
  23615430.720   124099960.51208  23615427.160    96701270.37845
  20809369.940   109353989.42309  20809364.840    85210885.52249
  21026177.000   110493349.94609  21026171.420    86098708.36348
  20361394.540   106999875.87909  20361393.560    83376538.06549
  22355297.920   117477932.92209  22355296.620    91541263.55347
 15 02 21 03 27 30.0000000  0 10G01G04G11G14G16G18G19G22G27G32
  23989839.960   126067460.51107  23989840.600    98234400.32345
  21639855.780   113718249.12109  21639853.400    88611625.96047
  22992492.780   120826372.91308  22992489.320    94150421.80146
  23955354.440   125886236.13008  23955352.480    98093159.37945
  22374180.880   117577106.09109  22374177.600    91618487.43947
  23631404.240   124183901.90308  23631400.780    96766679.21945
  20802231.580   109316477.73209  20802226.580    85181655.63149
  21033934.160   110534113.45309  21033928.540    86130472.12948
  20363004.980   107008338.92209  20363004.060    83383132.64649
  22335777.160   117375352.02109  22335775.940    91461330.42247
 15 02 21 03 28  0.0000000  0 10G01G04G11G14G16G18G19G22G27G32
  23975584.180   125992549.05007  23975585.720    98176027.85045
  21629188.860   113662194.25209  21629186.880    88567946.85347
  22977229.140   120746161.34908  22977225.760    94087919.30846
  23942237.800   125817308.69708  23942236.040    98039449.73845
  22391848.320   117669949.37709  22391845.260    91690832.84047
  23647413.480   124268030.39608  23647410.120    96832233.89646
  20795150.500   109279266.49209  20795145.540    85152659.86449
  21041776.120   110575322.44309  21041770.440    86162583.06148
  20364691.480   107017201.64409  20364690.680    83390038.66649
  22316313.640   117273071.29509  22316312.440    91381631.19047
 15 02 21 03 28 30.0000000  0 10G01G04G11G14G16G18G19G22G27G32
  23961352.840   125917764.84007  23961354.800    98117754.48346
  21618566.140   113606372.18809  21618564.680    88524449.15747
  22961986.640   120666061.81808  22961983.500    94025504.13045
  23929155.440   125748560.91408  23929153.660    97985880.04145
  22409569.340   117763073.87109  22409566.340    91763397.36747
  23663457.800   124352345.00708  23663454.500    96897933.52544
  20788127.300   109242359.08509  20788122.380    85123900.85048
  21049702.680   110616976.56809  21049697.000    86195040.82348
  20366454.520   107026466.29809  20366453.700    83397257.85449
  22296908.180   117171094.72509  22296906.900    91302168.96747
 15 02 21 03 29  0.0000000  0 10G01G04G11G14G16G18G19G22G27G32
  23947145.260   125843104.41807  23947147.760    98059577.56146
  21607987.020   113550779.54109  21607986.000    88481130.22048
  22946764.540   120586071.46308  22946761.820    93963174.04146
  23916107.140   125679992.57008  23916105.420    97932450.17945
  22427342.660   117856473.12009  22427339.620    91836175.99847
  23679536.760   124436840.38908  23679533.840    96963774.12546
  20781161.500   109205753.37309  20781156.540    85095376.91149
  21057712.900   110659070.67909  21057707.260    86227841.42748
  20368293.560   107036130.45009  20368292.660    83404788.35849
  22277560.520   117069421.51509  22277559.060    91222943.13047
 15 02 21 03 29 30.0000000  0 10G01G04G11G14G16G18G19G22G27G32
  23932961.440   125768567.68608  23932963.660    98001497.01346
  21597451.680   113495416.44209  21597450.640    88437990.14847
  22931563.580   120506190.74908  22931560.860    93900929.32646
  23903093.620   125611606.15808  23903091.560    97879162.07645
  22445167.760   117950144.43409  22445164.680    91909166.61847
  23695649.640   124521514.40208  23695646.700    97029753.88245
  20774253.360   109169450.86209  20774248.420    85067089.27048
  21065806.560   110701603.08909  21065800.860    86260983.56948
  20370208.660   107046194.71509  20370207.740    83412630.64049
  22258271.060   116968054.02509  22258269.260    91143955.51047
 15 02 21 03 30  0.0000000  0 10G01G04G11G14G16G18G19G22G27G32
  23918801.400   125694155.30408  23918803.280    97943513.34945
  21586960.260   113440283.16109  21586959.040    88395029.16148
  22916383.960   120426420.89508  22916381.080    93838770.99846
  23890115.440   125543405.29908  23890113.080    97826018.56045
  22463044.180   118044085.40809  22463041.060    91982367.36347
  23711796.360   124606365.95408  23711793.440    97095871.90545
  20767403.420   109133453.74309  20767398.360    85039039.53849
  21073983.400   110744572.57609  21073977.640    86294466.25748
  20372200.180   107056660.59909  20372199.260    83420785.87349
  22239040.380   116866995.39709  22239038.360    91065208.54447
 15 02 21 03 30 30.0000000  0 10G01G04G11G14G16G18G19G22G27G32
  23904664.980   125619866.59608  23904666.640    97885626.03446
  21576512.600   113385379.24909  21576510.940    88352246.88048
  22901225.620   120346761.66209  22901221.860    93776698.89145
  23877173.180   125475392.35508  23877170.840    97773021.48745
  22480971.280   118138292.85509  22480968.080    92055775.74647
  23727976.400   124691391.89208  23727972.720    97162125.92945
  20760611.620   109097762.74309  20760606.560    85011228.37948
  21082242.900   110787976.70509  21082237.140    86328287.69148
  20374268.260   107067528.34709  20374267.280    83429254.23949
  22219868.760   116766247.54409  22219866.800    90986703.75647
 15 02 21 03 31  0.0000000  0 10G01G04G11G14G16G18G19G22G27G32
  23890553.320   125545707.97708  23890554.620    97827840.22245
  21566109.860   113330711.23409  21566107.840    88309648.46547
  22886089.700   120267220.41809  22886085.460    93714718.68545
  23864268.400   125407576.45808  23864266.040    97720177.95645
  22498949.760   118232770.16109  22498946.380    92129394.42647
  23744190.320   124776596.70408  23744187.020    97228519.17245
  20753879.600   109062385.92909  20753874.580    84983662.04249
  21090585.960   110831820.17209  21090580.260    86362451.44248
  20376414.160   107078805.23509  20376413.260    83438041.42749
  22200757.820   116665819.42809  22200756.020    90908448.12047
 15 02 21 03 31 30.0000000  0 10G01G04G11G14G16G18G19G22G27G32
  23876465.280   125471674.76708  23876466.100    97770152.02746
  21555751.080   113276274.33409  21555748.500    88267230.13847
  22870974.980   120187792.72708  22870971.180    93652827.01246
  23851400.680   125339955.89908  23851398.300    97667486.64645
  22516978.180   118327510.15809  22516974.640    92203217.79647
  23760437.100   124861973.33108  23760433.060    97295046.52945
  20747206.760   109027319.78109  20747201.740    84956337.78049
  21099011.420   110876096.53409  21099005.780    86396952.49548
  20378637.140   107090487.31509  20378636.300    83447144.35349
  22181707.160   116565708.82709  22181705.620    90830439.89447
 15 02 21 03 32  0.0000000  0 10G01G04G11G14G16G18G19G22G27G32
  23862401.040   125397767.08108  23862401.860    97712561.67146
  21545436.060   113222068.59909  21545433.520    88224991.91547
  22855882.000   120108479.44108  22855878.620    93591024.50346
  23838570.680   125272534.07308  23838567.900    97614950.15445
  22535055.980   118422509.84009  22535052.440    92277243.50547
  23776716.080   124947520.08008  23776712.540    97361706.22546
  20740593.400   108992566.42609  20740588.440    84929257.27549
  21107518.860   110920803.66409  21107513.200    86431789.21448
  20380937.460   107102575.57909  20380936.680    83456563.76249
  22162717.400   116465918.40408  22162716.160    90752681.15047
 15 02 21 03 32 30.0000000  0 10G01G04G11G14G16G18G19G22G27G32
  23848360.740   125323985.08508  23848361.700    97655069.23846
  21535165.000   113168094.29509  21535162.680    88182934.02048
  22840811.100   120029281.18708  22840807.460    93529311.62346
  23825778.920   125205313.83208  23825776.320    97562570.77845
  22553182.720   118517766.75109  22553179.320    92351469.65347
  23793026.880   125033235.14407  23793023.300    97428497.13944
  20734039.880   108958127.33909  20734034.900    84902421.60549
  21116108.040   110965940.50609  21116102.440    86466960.77148
  20383315.240   107115070.93909  20383314.480    83466300.41749
  22143789.220   116366450.73009  22143788.140    90675173.91947
 15 02 21 03 33  0.0000000  0 10G01G04G11G14G16G18G19G22G27G32
  23834344.100   125250326.48208  23834345.220    97597672.99446
  21524937.540   113114349.09209  21524935.220    88141054.68147
  22825761.580   119950196.08608  22825757.860    93467686.86746
  23813025.900   125138295.64808  23813023.320    97510348.82045
  22571357.380   118613275.43909  22571354.140    92425891.97847
  23809369.220   125119113.52308  23809365.680    97495415.47545
  20727546.000   108924001.58809  20727540.920    84875830.11148
  21124778.120   111011502.80409  21124772.740    86502463.85648
  20385770.200   107127971.96209  20385769.480    83476353.16249
  22124922.640   116267306.11509  22124921.580    90597918.38247
 15 02 21 03 33 30.0000000  0 10G01G04G11G14G16G18G19G22G27G32
  23820351.800   125176796.65208  23820353.280    97540377.10446
  21514754.880   113060838.76109  21514752.560    88099358.32048
  22810734.880   119871230.46008  22810731.340    93406155.23046
  23800313.040   125071488.02208  23800310.560    97458290.97345
  22589580.480   118709038.65209  22589577.400    92500512.66047
  23825743.140   125205159.50009  23825739.780    97562464.17145
  20721113.080   108890196.28109  20721107.880    84849488.33649
  21133529.920   111057494.41509  21133524.760    86538301.50548
  20388303.600   107141284.81909  20388302.820    83486726.80249
  22106119.120   116168492.49609  22106117.880    90520920.79647
 15 02 21 03 34  0.0000000  0 10G01G04G11G14G16G18G19G22G27G32
  23806382.920   125103391.33908  23806384.420    97483178.15746
  21504615.940   113007558.59009  21504613.700    88057841.32248
  22795730.140   119792380.57608  22795726.800    93344713.79946
  23787639.700   125004889.52008  23787637.200    97406396.04145
  22607850.640   118805049.33809  22607847.780    92575326.16747
  23842147.940   125291366.24108  23842144.280    97629638.29145
  20714740.580   108856708.69909  20714735.420    84823394.13349
  21142362.260   111103908.88209  21142357.060    86574468.60648
  20390914.740   107155006.03709  20390913.800    83497418.65649
  22087378.220   116070007.94509  22087376.760    90444179.63647
 15 02 21 03 34 30.0000000  0 10G01G04G11G14G16G18G19G22G27G32
  23792438.800   125030114.79908  23792440.200    97426079.63646
  21494521.680   112954513.17609  21494519.600    88016507.26147
  22780748.340   119713651.33208  22780745.000    93283366.35346
  23775007.260   124938507.35508  23775005.040    97354669.72945
  22626168.120   118901308.59209  22626165.520    92650333.36347
  23858583.380   125377735.97908  23858579.860    97696939.39545
  20708429.660   108823544.61909  20708424.520    84797551.98049
  21151275.660   111150748.86909  21151270.340    86610967.29348
  20393604.560   107169140.61609  20393603.580    83508432.61449
  22068701.140   115971859.28209  22068699.720    90367700.16547
 15 02 21 03 35  0.0000000  0 10G01G04G11G14G16G18G19G22G27G32
  23778517.880   124956958.96408  23778519.060    97369075.08346
  21484470.640   112901694.34509  21484468.880    87975349.74448
  22765788.240   119635035.48608  22765785.200    93222107.30046
  23762415.280   124872336.71008  23762413.080    97303108.18445
  22644531.000   118997805.97809  22644528.460    92725526.13247
  23875048.120   125464258.72408  23875044.760    97764359.71646
  20702178.960   108790697.50209  20702173.940    84771956.84549
  21160268.100   111198004.22609  21160262.680    86647789.63748
  20396371.660   107183681.30709  20396370.640    83519763.01349
  22050086.920   115874040.87709  22050085.500    90291478.06447
 15 02 21 03 35 30.0000000  0 10G01G04G11G14G16G18G19G22G27G32
  23764621.720   124883934.63407  23764622.840    97312173.05146
  21474464.740   112849112.99309  21474462.940    87934377.30548
  22750851.740   119556544.15808  22750848.880    93160945.26946
  23749866.220   124806390.77608  23749864.120    97251721.76045
  22662940.700   119094549.25209  22662938.080    92800910.50747
  23891543.380   125550943.58508  23891540.520    97831906.27245
  20695991.040   108758179.53709  20695985.920    84746618.16749
  21169341.360   111245684.00909  21169335.900    86684942.72948
  20399218.140   107198639.60809  20399217.100    83531418.83849
  22031538.140   115776566.05709  22031536.580    90215523.70847
 15 02 21 03 36  0.0000000  0 10G01G04G11G14G16G18G19G22G27G32
  23750748.780   124811033.08508  23750750.040    97255366.71246
  21464502.260   112796760.44809  21464500.120    87893583.11848
  22735937.520   119478169.32708  22735934.300    93099874.01546
  23737358.760   124740664.04308  23737357.120    97200506.15145
  22681394.900   119191526.52009  22681392.120    92876477.18347
  23908067.480   125637779.04108  23908063.960    97899570.31844
  20689864.340   108725983.67408  20689859.220    84721530.47549
  21178493.340   111293777.69109  21178487.880    86722418.33248
  20402142.500   107214007.49909  20402141.460    83543393.82049
  22013053.540   115679428.54009  22013051.840    90139832.15247
 15 02 21 03 36 30.0000000  0 10G01G04G11G14G16G18G19G22G27G32
  23736899.560   124738254.49308  23736900.420    97198656.09346
  21454583.380   112744636.59009  21454581.200    87852967.14548
  22721045.640   119399911.77808  22721042.180    93038894.11746
  23724893.580   124675159.55808  23724891.980    97149463.71745
  22699893.220   119288735.91109  22699890.280    92952224.74647
  23924620.120   125724763.76508  23924617.000    97967350.66545
  20683799.360   108694111.59009  20683794.160    84696695.09749
  21187723.840   111342283.76309  21187718.180    86760215.26748
  20405144.960   107229785.99609  20405144.000    83555688.75049
  21994633.600   115582630.90209  21994631.820    90064405.43047
 15 02 21 03 37  0.0000000  0 10G01G04G11G14G16G18G19G22G27G32
  23723074.760   124665606.00608  23723076.020    97142047.00946
  21444709.580   112692749.04809  21444707.600    87812535.31948
  22706177.660   119321779.56408  22706174.440    92978011.87046
  23712472.680   124609887.45608  23712470.700    97098602.38245
  22718436.480   119386181.54709  22718433.360    93028156.40247
  23941201.900   125811903.15408  23941199.880    98035251.31245
  20677797.700   108662572.04409  20677792.400    84672118.83849
  21197033.840   111391207.46009  21197027.920    86798337.63448
  20408227.160   107245983.03409  20408226.200    83568309.82749
  21976280.100   115486182.86309  21976278.380    89989251.14147
 15 02 21 03 37 30.0000000  0 10G01G04G11G14G16G18G19G22G27G32
  23709273.020   124593076.53708  23709274.580    97085530.57246
  21434878.580   112641086.42909  21434876.440    87772278.73448
  22691331.660   119243762.10109  22691328.320    92917219.05646
  23700094.580   124544839.54208  23700092.160    97047915.71645
  22737022.040   119483849.06409  22737018.800    93104260.95147
  23957811.100   125899183.72608  23957808.160    98103262.30044
  20671857.320   108631355.38408  20671852.040    84647794.15948
  21206420.700   111440535.89209  21206414.680    86836775.38348
  20411387.080   107262588.07709  20411386.060    83581248.81349
  21957991.460   115390075.59509  21957989.780    89914362.38147
 15 02 21 03 38  0.0000000  0 10G01G04G11G14G16G18G19G22G27G32
  23695495.540   124520674.66607  23695496.720    97029113.53646
  21425091.920   112589657.61109  21425089.980    87732204.36048
  22676509.120   119165868.55508  22676505.380    92856522.76246
  23687761.280   124480027.18508  23687758.860    96997412.59945
  22755650.840   119581744.10009  22755647.660    93180542.78547
  23974448.420   125986612.09207  23974445.340    98171388.21246
  20665980.220   108600471.38009  20665975.100    84623728.71849
  21215885.660   111490275.31509  21215879.740    86875533.36748
  20414626.320   107279610.46909  20414625.340    83594513.01549
  21939769.780   115294320.26209  21939768.160    89839747.87147
 15 02 21 03 38 30.0000000  0 10G01G04G11G14G16G18G19G22G27G32
  23681741.920   124448400.37908  23681742.500    96972795.92446
  21415349.800   112538462.63809  21415347.480    87692312.16947
  22661710.120   119088099.78208  22661706.440    92795923.74246
  23675473.240   124415453.48208  23675471.000    96947095.45745
  22774322.500   119679864.40409  22774319.460    93257000.15247
  23991113.440   126074186.18708  23991110.080    98239627.80745
  20660166.860   108569922.21109  20660161.900    84599924.19649
  21225428.660   111540424.38909  21225422.940    86914610.58248
  20417945.040   107297050.97309  20417944.180    83608103.01849
  21921615.420   115198919.16308  21921613.840    89765409.38747
 15 02 21 03 39  0.0000000  0 10G01G04G11G14G16G18G19G22G27G32
  23668012.220   124376250.56008  23668013.340    96916575.32547
  21405651.640   112487498.27909  21405649.180    87652599.70648
  22646934.280   119010452.98008  22646930.840    92735419.74746
  23663230.620   124351118.03308  23663228.260    96896963.95645
  22793035.860   119778203.61209  22793032.900    93333628.09047
  24007805.080   126161901.01808  24007801.880    98307976.98645
  20654416.860   108539705.95709  20654411.900    84576379.04449
  21235048.560   111590977.64909  21235043.040    86954002.71248
  20421342.860   107314907.04209  20421342.060    83622016.85449
  21903528.300   115103871.65709  21903526.860    89691346.43647
 15 02 21 03 39 30.0000000  0 10G01G04G11G14G16G18G19G22G27G32
  23654306.760   124304227.43508  23654308.620    96860453.50647
  21395997.900   112436766.87409  21395995.560    87613068.72548
  22632182.200   118932931.39108  22632178.980    92675013.32246
  23651034.320   124287026.10908  23651032.080    96847022.25545
  22811790.860   119876761.21409  22811787.940    93410426.21747
  24024523.540   126249756.74008  24024520.060    98376435.99645
  20648731.040   108509826.37709  20648726.020    84553096.26149
  21244745.540   111641935.79109  21244740.120    86993710.35348
  20424820.460   107333181.70609  20424819.620    83636256.82849
  21885509.440   115009182.46909  21885508.060    89617562.68147
 15 02 21 03 40  0.0000000  0 10G01G04G11G14G16G18G19G22G27G32
  23640624.560   124232325.87008  23640626.200    96804426.34645
  21386387.380   112386263.01109  21386384.980    87573715.09248
  22617453.340   118855530.51408  22617450.340    92614700.96746
  23638884.060   124223175.40508  23638881.480    96797268.45245
  22830585.900   119975529.18509  22830583.000    93487388.25647
  24041267.360   126337746.42408  24041263.860    98444999.40245
  20643108.500   108480279.72709  20643103.400    84530072.89749
  21254518.100   111693291.50009  21254512.820    87033727.81248
  20428376.860   107351870.31809  20428375.980    83650819.38849
  21867558.220   114914848.64909  21867556.840    89544055.82347
 15 02 21 03 40 30.0000000  0 10G01G04G11G14G16G18G19G22G27G32
  23626966.760   124160553.97507  23626968.060    96748500.20146
  21376821.640   112335995.21809  21376819.600    87534545.42448
  22602749.120   118778259.16408  22602745.840    92554489.57546
  23626781.720   124159576.83208  23626779.040    96747711.14745
  22849421.920   120074512.92009  22849419.060    93564518.43147
  24058038.060   126425876.01208  24058034.740    98513671.75546
  20637551.200   108451075.97609  20637546.060    84507316.74848
  21264367.420   111745051.18009  21264362.460    87074059.99948
  20432013.800   107370981.87309  20432012.740    83665711.50749
  21849676.780   114820880.93209  21849675.320    89470834.24847
 15 02 21 03 41  0.0000000  0 10G01G04G11G14G16G18G19G22G27G32
  23613332.320   124088904.42209  23613333.700    96692669.41146
  21367299.360   112285956.00609  21367297.520    87495553.82048
  22588068.220   118701110.59308  22588064.640    92494373.80746
  23614726.560   124096226.06308  23614723.640    96698346.93445
  22868296.960   120173701.91909  22868294.080    93641808.55247
  24074833.600   126514136.17908  24074830.360    98582445.92445
  20632058.020   108422209.03909  20632052.900    84484823.01049
  21274291.980   111797205.48809  21274287.220    87114699.74048
  20435729.880   107390509.52109  20435728.720    83680927.84149
  21831864.120   114727274.31509  21831862.720    89397894.04747
 15 02 21 03 41 30.0000000  0 10G01G04G11G14G16G18G19G22G27G32
  23599722.880   124017384.10107  23599723.480    96636939.28346
  21357822.020   112236152.42709  21357820.400    87456745.83048
  22573411.760   118624092.36508  22573408.740    92434359.66546
  23602720.000   124033132.95108  23602717.300    96649183.49445
  22887211.900   120273100.72109  22887208.940    93719262.14947
  24091654.640   126602532.00607  24091651.240    98651325.80345
  20626630.520   108393687.33409  20626625.460    84462598.30748
  21284292.600   111849759.46709  21284287.840    87155650.87048
  20439526.500   107410460.78409  20439525.300    83696474.30149
  21814122.000   114634037.86209  21814120.560    89325242.29147
 15 02 21 03 42  0.0000000  0 10G01G04G11G14G16G18G19G22G27G32
  23586136.600   123945990.78708  23586137.880    96581308.30146
  21348389.260   112186582.51209  21348387.520    87418119.92748
  22558780.180   118547203.31108  22558777.320    92374446.11646
  23590762.680   123970298.30808  23590760.420    96600221.44345
  22906165.620   120372704.03808  22906162.760    93796875.10747
  24108500.780   126691060.18108  24108497.260    98720308.78445
  20621268.660   108365510.44109  20621263.520    84440642.28049
  21294368.620   111902708.78609  21294363.640    87196910.09248
  20443403.400   107430834.39309  20443402.220    83712349.82349
  21796450.460   114541172.15209  21796448.760    89252879.43747
 15 02 21 03 42 30.0000000  0 10G01G04G11G14G16G18G19G22G27G32
  23572573.540   123874717.11408  23572573.780    96525770.28845
  21338999.420   112137238.48109  21338997.660    87379670.05348
  22544171.920   118470436.30509  22544168.980    92314627.71146
  23578853.700   123907717.18708  23578851.500    96551456.95545
  22925156.180   120472501.10509  22925153.460    93874639.03347
  24125370.120   126779709.68608  24125366.660    98789386.33345
  20615971.260   108337672.29009  20615966.000    84418950.23149
  21304518.280   111956044.48009  21304513.140    87238470.35248
  20447359.180   107451623.04809  20447358.080    83728548.78149
  21778848.300   114448671.70409  21778846.260    89180801.18247
 15 02 21 03 43  0.0000000  0 10G01G04G11G14G16G18G19G22G27G32
  23559034.720   123803569.09408  23559035.300    96470330.27747
  21329653.680   112088126.53509  21329652.000    87341401.01848
  22529588.440   118393798.17609  22529585.240    92254909.71946
  23566994.880   123845398.63808  23566992.900    96502897.07245
  22944184.420   120572495.95609  22944181.780    93952557.09146
  24142263.480   126868485.43908  24142260.020    98858562.26744
  20610739.740   108310180.41709  20610734.520    84397527.98049
  21314742.200   112009770.58309  21314736.920    87280334.85648
  20451395.360   107472833.71909  20451394.380    83745076.56849
  21761317.180   114356545.10709  21761314.920    89109014.24447
 15 02 21 03 43 30.0000000  0 10G01G04G11G14G16G18G19G22G27G32
  23545519.300   123732544.65708  23545519.800    96414986.63946
  21320351.760   112039244.89709  21320350.020    87303311.43848
  22515029.400   118317287.95009  22515025.420    92195291.34045
  23555186.240   123783343.58508  23555183.980    96454542.50745
  22963249.400   120672683.14209  22963246.640    94030625.02847
  24159180.200   126957383.63108  24159176.700    98927833.57144
  20605573.980   108283034.29609  20605568.820    84376375.17549
  21325039.700   112063882.97309  21325034.260    87322500.35148
  20455511.680   107494464.88009  20455510.720    83761932.02249
  21743857.200   114264792.67409  21743854.880    89037518.87047
 15 02 21 03 44  0.0000000  0 10G01G04G11G14G16G18G19G22G27G32
  23532027.860   123661648.40607  23532029.000    96359742.82046
  21311094.500   111990597.86709  21311092.440    87265404.67848
  22500495.440   118240910.69708  22500491.040    92135776.56546
  23543429.040   123721559.48608  23543427.020    96406399.08145
  22982351.520   120773064.88709  22982348.620    94108844.56447
  24176120.900   127046406.79608  24176117.240    98997202.26345
  20600475.140   108256240.02409  20600470.100    84355496.50949
  21335411.000   112118383.98109  21335405.440    87364968.67748
  20459708.960   107516521.65909  20459708.020    83779119.10849
  21726469.580   114173421.22009  21726467.540    88966320.34947
 15 02 21 03 44 30.0000000  0 10G01G04G11G14G16G18G19G22G27G32
  23518560.220   123590878.02608  23518561.260    96304597.12245
  21301881.680   111942183.37509  21301878.960    87227679.09647
  22485986.500   118164664.85909  22485982.460    92076364.25546
  23531723.700   123660046.88208  23531721.920    96358467.19145
  23001489.680   120873635.84009  23001486.720    94187211.51746
  24193084.400   127135550.44308  24193080.700    99066664.84545
  20595443.140   108229796.89809  20595438.180    84334891.50149
  21345855.460   112173269.76809  21345849.740    87407736.81748
  20463986.840   107539002.37509  20463986.020    83796636.54749
  21709154.420   114082430.92809  21709152.800    88895418.85147
 15 02 21 03 45  0.0000000  0 10G01G04G11G14G16G18G19G22G27G32
  23505116.480   123520230.69608  23505117.260    96249547.25846
  21292712.640   111893998.44909  21292709.460    87190132.41548
  22471501.960   118088548.51808  22471498.560    92017052.87446
  23520070.040   123598805.86208  23520068.020    96310746.94346
  23020662.680   120974390.15209  23020659.720    94265721.36646
  24210069.860   127224809.92708  24210066.140    99136217.68745
  20590477.640   108203703.44309  20590472.720    84314558.93249
  21356372.200   112228535.63909  21356366.420    87450801.11548
  20468344.940   107561904.62609  20468344.220    83814482.45549
  21691911.600   113991821.00509  21691910.340    88824813.74747
 15 02 21 03 45 30.0000000  0 10G01G04G11G14G16G18G19G22G27G32
  23491696.740   123449708.40908  23491698.080    96194594.88447
  21283587.500   111846045.33909  21283584.460    87152766.36148
  22457042.340   118012563.99509  22457038.840    91957844.14846
  23508468.940   123537841.22108  23508466.500    96263242.04246
  23039870.420   121075326.90009  23039867.380    94344373.36346
  24227077.360   127314185.32908  24227073.880    99205860.86244
  20585579.460   108177963.18609  20585574.500    84294501.59349
  21366961.160   112284181.31509  21366955.460    87494161.35948
  20472783.780   107585231.04509  20472783.080    83832658.87649
  21674742.220   113901595.80609  21674741.120    88754508.41547
 15 02 21 03 46  0.0000000  0 10G01G04G11G14G16G18G19G22G27G32
  23478300.320   123379313.18608  23478302.900    96139741.58946
  21274506.720   111798326.09909  21274504.300    87115582.57248
  22442608.660   117936714.56808  22442605.080    91898740.70746
  23496921.300   123477157.76308  23496918.660    96215956.27045
  23059112.800   121176445.40109  23059109.600    94423167.00146
  24244107.040   127403677.05908  24244103.680    99275594.69444
  20580749.160   108152579.71509  20580744.220    84274722.28349
  21377622.400   112340206.97109  21377616.820    87537817.78748
  20477303.840   107608984.29709  20477303.180    83851167.89949
  21657647.180   113811759.96309  21657645.920    88684506.51947
 15 02 21 03 46 30.0000000  0 10G01G04G11G14G16G18G19G22G27G32
  23464928.160   123309041.05709  23464929.660    96084984.03146
  21265469.740   111750836.71609  21265467.280    87078577.85448
  22428199.840   117860996.56009  22428195.940    91839739.72046
  23485426.960   123416754.29208  23485424.460    96168888.65845
  23078388.380   121277738.88408  23078385.140    94502096.98246
  24261157.740   127493278.94207  24261154.260    99345414.32743
  20575986.220   108127550.47209  20575981.280    84255218.97349
  21388354.940   112396606.47409  21388349.140    87581765.43148
  20481904.440   107633160.67609  20481903.800    83870006.63049
  21640625.980   113722311.39309  21640624.200    88614806.34547
 15 02 21 03 47  0.0000000  0 10G01G04G11G14G16G18G19G22G27G32
  23451579.340   123238889.32108  23451580.020    96030320.38947
  21256476.140   111703574.65109  21256473.740    87041750.27148
  22413816.000   117785408.52908  22413812.220    91780839.95046
  23473985.960   123356631.28408  23473983.460    96122039.55345
  23097696.140   121379201.95809  23097693.000    94581159.08946
  24278228.580   127582986.73007  24278225.120    99415316.50844
  20571290.500   108102874.32809  20571285.480    84235990.82549
  21399157.580   112453375.07709  21399151.820    87626000.70048
  20486585.220   107657758.13409  20486584.480    83889173.47449
  21623678.420   113633249.79809  21623676.200    88545407.71247
 15 02 21 03 47 30.0000000  0 10G01G04G11G14G16G18G19G22G27G32
  23438254.640   123168868.93708  23438255.960    95975759.16446
  21247527.760   111656550.89309  21247525.040    87005108.37848
  22399459.040   117709961.87909  22399455.680    91722050.40246
  23462600.900   123296802.51308  23462598.180    96075419.75445
  23117037.580   121480842.44508  23117034.500    94660359.46046
  24295321.340   127672809.20406  24295317.540    99485308.09143
  20566664.440   108078563.78809  20566659.300    84217047.55149
  21410032.320   112510522.22209  21410026.520    87670530.96948
  20491348.320   107682788.24909  20491347.540    83908677.47049
  21606806.820   113544588.43409  21606804.520    88476320.94747
 15 02 21 03 48  0.0000000  0 10G01G04G11G14G16G18G19G22G27G32
  23424953.620   123098970.24208  23424954.640    95921292.58647
  21238622.760   111609755.69109  21238619.840    86968644.59848
  22385127.160   117634647.79908  22385123.800    91663364.09246
  23451270.340   123237260.72508  23451267.620    96029023.58646
  23136410.380   121582647.91308  23136407.400    94739688.38846
  24312433.720   127762734.90805  24312428.960    99555380.11143
  20562106.360   108054610.62709  20562101.180    84198382.75049
  21420976.720   112568035.86509  21420970.820    87715346.78148
  20496191.940   107708241.66209  20496191.200    83928511.28849
  21590009.660   113456319.85309  21590007.520    88407540.25747
 15 02 21 03 48 30.0000000  0  9G01G04G11G14G16G19G22G27G32
  23411677.160   123029203.27908  23411678.820    95866928.79147
  21229763.200   111563199.31909  21229760.340    86932366.94948
  22370822.320   117559477.14109  22370819.320    91604789.61746
  23439996.880   123178019.30208  23439994.420    95982861.45745
  23155816.060   121684625.75009  23155813.020    94819151.63146
  20557618.560   108031026.35909  20557613.300    84180005.40549
  21431992.360   112625924.33809  21431986.520    87760454.66948
  20501118.120   107734129.03609  20501117.460    83948683.26149
  21573289.580   113368456.44009  21573287.620    88339075.30147
 15 02 21 03 49  0.0000000  0  9G01G04G11G14G16G19G22G27G32
  23398423.320   122959553.43608  23398425.520    95812656.27047
  21220946.380   111516867.18409  21220944.180    86896263.96448
  22356542.320   117484436.02609  22356539.480    91546316.04346
  23428778.500   123119066.00708  23428775.920    95936923.84746
  23175251.300   121786758.48609  23175248.200    94898735.58346
  20553198.360   108007797.99109  20553193.080    84161905.39249
  21443076.240   112684170.84909  21443070.600    87805841.54248
  20506124.260   107760436.03509  20506123.580    83969182.21449
  21556644.320   113280985.60009  21556642.460    88270916.22948
 15 02 21 03 49 30.0000000  0  9G01G04G11G14G16G19G22G27G32
  23385193.140   122890025.73808  23385194.600    95758478.84546
  21212173.260   111470764.25609  21212171.360    86860339.60548
  22342288.320   117409530.36709  22342284.760    91487947.99646
  23417616.520   123060408.51308  23417613.680    95891216.71546
  23194716.460   121889048.22708  23194713.300    94978441.86347
  20548847.100   107984931.76809  20548841.780    84144087.57349
  21454228.880   112742778.43809  21454223.500    87851509.80448
  20511211.360   107787168.21109  20511210.620    83990012.46949
  21540075.320   113193914.64609  21540073.340    88203068.75647
 15 02 21 03 50  0.0000000  0  9G01G04G11G14G16G19G22G27G32
  23371986.900   122820627.77108  23371987.740    95704402.53047
  21203445.340   111424898.44109  21203443.420    86824600.05148
  22328061.760   117334768.64609  22328058.220    91429692.16546
  23406512.860   123002057.70508  23406509.840    95845748.57645
  23214212.360   121991499.71308  23214209.240    95058274.18746
  20544566.480   107962436.94509  20544561.140    84126559.15149
  21465451.320   112801753.12909  21465446.140    87897464.11748
  20516380.880   107814333.66509  20516380.040    84011180.35149
  21523584.340   113107253.48909  21523582.140    88135540.59747
 15 02 21 03 50 30.0000000  0  9G01G04G11G14G16G19G22G27G32
  23358804.080   122751351.98708  23358805.320    95650421.48946
  21194760.940   111379261.88409  21194759.040    86789039.08448
  22313861.240   117260143.86809  22313857.640    91371542.98446
  23395466.600   122944008.72308  23395463.280    95800515.62346
  23233736.960   122094102.42008  23233733.980    95138224.33246
  20540355.260   107940306.97909  20540349.960    84109315.01249
  21476741.720   112861084.68909  21476736.520    87943696.46948
  20521631.380   107841925.18209  20521630.420    84032680.22549
  21507170.180   113020996.65309  21507168.020    88068327.50147
 15 02 21 03 51  0.0000000  0  9G01G04G11G14G16G19G22G27G32
  23345644.840   122682199.91108  23345645.680    95596536.77546
  21186120.660   111333856.66209  21186118.740    86753658.42848
  22299687.360   117185658.80909  22299683.840    91313502.67046
  23384478.380   122886265.78708  23384475.300    95755521.16446
  23253290.060   122196855.21408  23253287.300    95218291.43446
  20536214.140   107918545.50109  20536208.880    84092358.03049
  21488100.060   112920772.76109  21488094.820    87990206.68248
  20526963.340   107869944.71309  20526962.280    84054513.62449
  21490833.560   112935147.84309  21490831.580    88001432.34247
 15 02 21 03 51 30.0000000  0  9G01G04G11G14G16G19G22G27G32
  23332509.600   122613174.66508  23332510.440    95542750.87847
  21177524.920   111288685.38609  21177523.040    86718460.04748
  22285540.540   117111316.95409  22285537.060    91255574.00346
  23373549.500   122828834.80208  23373546.880    95710769.76646
  23272871.600   122299757.45808  23272869.060    95298474.99146
  20532143.980   107897157.04509  20532138.780    84075691.67849
  21499526.440   112980818.44709  21499521.060    88036995.51548
  20532377.400   107898395.79009  20532376.340    84076683.29149
  21474575.540   112849712.29809  21474573.740    87934859.19748
 15 02 21 03 52  0.0000000  0  9G01G04G11G14G16G19G22G27G32
  23319398.280   122544273.35708  23319399.320    95489061.61047
  21168973.240   111243745.50209  21168970.880    86683441.95648
  22271420.540   117037116.05309  22271416.980    91197755.12347
  23362679.880   122771715.51708  23362677.500    95666261.23845
  23292480.860   122402804.97808  23292478.360    95378771.74746
  20528144.540   107876139.87709  20528139.300    84059314.67349
  21511019.920   113041217.02609  21511014.480    88084059.34148
  20537873.080   107927275.89909  20537872.020    84099187.26049
  21458396.100   112764689.42709  21458394.380    87868607.62548
 15 02 21 03 52 30.0000000  0  9G01G04G11G14G16G19G22G27G32
  23306310.260   122475496.54608  23306312.260    95435469.33547
  21160465.620   111199037.65509  21160463.080    86648604.69748
  22257327.820   116963057.90809  22257324.240    91140047.51647
  23351870.400   122714911.72908  23351868.200    95621998.57146
  23312117.380   122505995.19508  23312114.740    95459179.70346
  20524216.140   107855496.06109  20524210.920    84043228.57849
  21522580.140   113101966.79209  21522574.860    88131396.78848
  20543450.640   107956585.97009  20543449.560    84122026.27649
  21442295.800   112680081.88209  21442294.100    87802679.68247
 15 02 21 03 53  0.0000000  0  9G01G04G11G14G16G19G22G27G32
  23293246.260   122406846.06008  23293247.520    95381975.48746
  21152002.380   111154563.54609  21152000.180    86613949.53948
  22243262.820   116889145.23009  22243258.660    91082453.22446
  23341121.720   122658427.61008  23341119.660    95577984.98345
  23331780.860   122609326.62908  23331777.920    95539697.71346
  20520359.420   107835228.69009  20520354.180    84027435.84049
  21534207.140   113163067.68009  21534202.020    88179007.85848
  20549110.500   107986328.19109  20549109.360    84145202.01849
  21426275.380   112595893.56009  21426273.540    87737078.41347
 15 02 21 03 53 30.0000000  0  9G01G04G11G14G16G19G22G27G32
  23280205.060   122338313.28008  23280205.660    95328573.28547
  21143582.000   111110314.72909  21143579.740    86579469.96848
  22229223.960   116815370.11509  22229219.900    91024966.13847
  23330432.760   122602257.13508  23330430.700    95534215.80146
  23351468.920   122712787.76208  23351465.860    95620316.77646
  20516573.000   107815330.91309  20516567.760    84011931.08949
  21545899.080   113224509.03709  21545893.800    88226884.28748
  20554850.980   108016494.18109  20554849.780    84168707.97449
  21410333.560   112512117.96009  21410331.600    87671798.75048
 15 02 21 03 54  0.0000000  0  9G01G04G11G14G16G19G22G27G32
  23267188.120   122269912.20908  23267190.140    95275273.86646
  21135207.200   111066305.31709  21135205.020    86545176.95748
  22215214.380   116741747.96909  22215210.720    90967598.26347
  23319806.860   122546417.51408  23319804.520    95490704.43645
  23371183.660   122816390.06908  23371180.740    95701045.82646
  20512859.860   107795818.14709  20512854.760    83996726.33249
  21557657.980   113286302.74509  21557652.820    88275035.16048
  20560674.760   108047098.52509  20560673.600    84192555.50449
  21394473.300   112428771.24009  21394471.280    87606853.27247
 15 02 21 03 54 30.0000000  0  9G01G04G11G14G16G19G22G27G32
  23254193.820   122201623.75908  23254194.120    95222062.01146
  21126874.400   111022516.39209  21126872.220    86511055.71448
  22201229.880   116668259.19909  22201226.360    90910334.32147
  23309240.780   122490891.85808  23309237.980    95447437.68146
  23390920.980   122920111.05508  23390918.200    95781867.36346
  20509216.500   107776672.28409  20509211.400    83981807.46249
  21569479.960   113348427.62109  21569474.980    88323444.13948
  20566578.240   108078122.02909  20566577.200    84216729.65549
  21378691.240   112345836.16809  21378689.380    87542228.56148
 15 02 21 03 55  0.0000000  0  9G01G04G11G14G16G19G22G27G32
  23241224.260   122133469.85908  23241224.800    95168955.23847
  21118587.740   110978969.65009  21118585.460    86477123.24148
  22187275.360   116594927.67809  22187271.640    90853192.86647
  23298739.100   122435705.23308  23298736.260    95404435.14546
  23410684.660   123023970.38908  23410681.960    95862796.70446
  20505647.440   107757917.07909  20505642.380    83967193.01449
  21581368.800   113410904.02609  21581363.740    88372127.06648
  20572565.760   108109587.38409  20572564.880    84241248.10849
  21362992.060   112263337.10109  21362990.300    87477943.59448
 15 02 21 03 55 30.0000000  0  9G01G04G11G14G16G19G22G27G32
  23228278.060   122065435.40009  23228278.720    95115941.40746
  21110344.460   110935650.19609  21110341.900    86443367.80648
  22173347.520   116521738.58908  22173344.180    90796162.47646
  23288299.360   122380844.96508  23288296.940    95361686.89846
  23430471.300   123127950.14908  23430468.600    95943819.89646
  20502150.100   107739538.68309  20502145.040    83952872.18749
  21593321.320   113473714.29409  21593316.120    88421070.12348
  20578634.480   108141479.43709  20578633.740    84266099.05649
  21347373.300   112181260.62209  21347371.640    87413987.91147
 15 02 21 03 56  0.0000000  0  9G01G04G11G14G16G19G22G27G32
  23215355.760   121997527.70908  23215355.920    95063026.32946
  21102145.880   110892565.57909  21102143.220    86409795.38948
  22159448.380   116448700.56409  22159444.440    90739249.71146
  23277923.600   122326321.08108  23277921.520    95319200.78446
  23450281.680   123232054.52708  23450279.040    96024940.18646
  20498726.240   107721546.05609  20498721.040    83938851.95549
  21605338.320   113536863.78709  21605333.260    88470277.54548
  20584786.000   108173805.92709  20584785.340    84291288.51749
  21331836.860   112099616.32609  21331835.180    87350368.98147
 15 02 21 03 56 30.0000000  0  9G01G04G11G14G16G19G22G27G32
  23202456.220   121929740.74608  23202456.380    95010205.35047
  21093990.700   110849709.76909  21093988.160    86376401.27648
  22145577.360   116375808.20709  22145573.340    90682450.46146
  23267611.440   122272130.60108  23267609.660    95276974.44846
  23470114.280   123336275.05808  23470111.600    96106150.97546
  20495374.900   107703934.46909  20495369.740    83925128.63949
  21617418.380   113600344.81509  21617413.380    88519743.25548
  20591019.220   108206561.12609  20591018.480    84316812.03249
  21316382.000   112018400.23909  21316380.160    87287083.73048
 15 02 21 03 57  0.0000000  0  9G01G04G11G14G16G19G22G27G32
  23189580.440   121862077.35408  23189581.860    94957480.69048
  21085879.500   110807085.54809  21085877.040    86343187.64148
  22131734.880   116303065.17309  22131731.160    90625767.63147
  23257363.900   122218278.65808  23257361.920    95235011.90846
  23489969.000   123440611.53308  23489966.200    96187452.11446
  20492096.760   107686707.97409  20492091.760    83911705.40449
  21629561.640   113664157.80909  21629556.580    88569467.65748
  20597334.560   108239748.01009  20597333.780    84342671.93949
  21301009.580   111937617.09609  21301007.640    87224135.84548
 15 02 21 03 57 30.0000000  0  9G01G04G11G14G16G19G22G27G32
  23176728.500   121794542.80208  23176730.560    94904856.42746
  21077813.420   110764698.29309  21077810.820    86310158.58848
  22117921.800   116230477.91709  22117918.060    90569206.15846
  23247182.360   122164773.52708  23247180.040    95193319.62046
  23509846.220   123545066.42708  23509843.240    96268845.52846
  20488893.260   107669873.37409  20488888.180    83898587.54149
  21641768.660   113728305.73309  21641763.440    88619453.04248
  20603733.040   108273372.19109  20603732.260    84368872.57349
  21285720.940   111857274.29909  21285718.920    87161531.09548
 15 02 21 03 58  0.0000000  0  9G01G04G11G14G16G19G22G27G32
  23163899.160   121727123.25008  23163900.280    94852321.67347
  21069789.820   110722534.13209  21069787.100    86277303.41648
  22104135.820   116158033.06009  22104132.520    90512755.64647
  23237064.560   122111603.70108  23237061.840    95151888.58546
  23529742.720   123649623.03808  23529739.560    96350318.20346
  20485762.000   107653418.13709  20485756.860    83885765.28349
  21654036.500   113792772.73909  21654031.180    88669687.08848
  20610212.160   108307419.86509  20610211.320    84395403.23549
  21270513.820   111777359.79509  21270511.720    87099260.06748
 15 02 21 03 58 30.0000000  0  9G01G04G11G14G16G19G22G27G32
  23151093.780   121659830.58508  23151094.780    94799885.91146
  21061811.040   110680605.07109  21061808.140    86244631.42348
  22090379.600   116085743.60708  22090376.020    90456426.20846
  23227013.420   122058783.87008  23227010.640    95110730.30046
  23549660.260   123754290.37008  23549656.920    96431877.17245
  20482705.360   107637355.36909  20482700.180    83873248.83549
  21666366.860   113857568.88509  21666361.380    88720177.57248
  20616774.180   108341903.31609  20616773.260    84422273.45649
  21255390.860   111697887.67809  21255388.760    87037333.76048
 15 02 21 03 59  0.0000000  0  9G01G04G11G14G16G19G22G27G32
  23138312.120   121592661.94609  23138312.640    94747546.76146
  21053876.520   110638908.58509  21053873.540    86212140.67948
  22076652.620   116013607.66209  22076649.200    90400216.37747
  23217028.760   122006313.67308  23217026.060    95069844.44846
  23569597.800   123859062.67308  23569594.480    96513517.93245
  20479723.160   107621683.97609  20479718.000    83861037.36149
  21678758.880   113922689.12209  21678753.380    88770920.60848
  20623418.540   108376819.74009  20623417.640    84449481.03449
  21240351.780   111618856.79209  21240349.740    86975751.26048
 15 02 21 03 59 30.0000000  0  9G01G04G11G14G16G19G22G27G32
  23125553.620   121525614.36708  23125553.340    94695301.87447
  21045985.700   110597441.58109  21045982.740    86179828.75248
  22062954.600   115941623.06109  22062951.420    90344124.48447
  23207110.420   121954192.95708  23207108.020    95029230.93246
  23589554.280   123963934.84108  23589551.100    96595236.48846
  20476815.100   107606402.22509  20476810.020    83849129.51649
  21691211.680   113988128.35509  21691206.040    88821912.20148
  20630144.740   108412166.36709  20630143.880    84477023.87149
  21225396.320   111540266.26509  21225394.380    86914511.90148
 15 02 21 04 00  0.0000000  0  9G01G04G11G14G16G19G22G27G32
  23112819.240   121458694.40708  23112819.500    94643156.47546
  21038139.740   110556210.65109  21038136.660    86147700.79248
  22049286.680   115869797.32809  22049283.480    90288156.38347
  23197260.320   121902430.91008  23197257.940    94988896.89846
  23609530.320   124068910.13108  23609527.420    96677035.40346
  20473982.700   107591518.00709  20473977.600    83837531.44049
  21703725.900   114053891.08209  21703720.240    88873155.89248
  20636954.020   108447949.91609  20636953.260    84504907.14449
  21210526.160   111462124.48909  21210524.300    86853622.24048
 15 02 21 04 00 30.0000000  0  9G01G04G11G14G16G19G22G27G32
  23100107.400   121391893.20308  23100107.060    94591103.60946
  21030337.020   110515206.92309  21030333.680    86115749.78448
  22035647.100   115798122.63008  22035644.500    90232306.06347
  23187477.360   121851021.36908  23187474.840    94948837.51346
  23629523.720   124173976.47008  23629521.020    96758905.27546
  20471224.440   107577023.54209  20471219.380    83826237.03749
  21716299.720   114119966.62909  21716294.020    88924643.32048
  20643844.800   108484161.70309  20643844.220    84533124.11149
  21195740.140   111384424.61509  21195738.380    86793076.90048
 15 02 21 04 01  0.0000000  0  9G01G04G11G14G16G19G22G27G32
  23087419.880   121325220.18209  23087419.700    94539150.65147
  21022579.260   110474440.11909  21022576.200    86083983.47648
  22022038.180   115726609.01008  22022035.680    90176581.17047
  23177763.660   121799975.98308  23177761.300    94909061.91646
  23649535.820   124279141.20408  23649533.240    96840851.81345
  20468542.440   107562929.77609  20468537.380    83815254.89049
  21728934.460   114186362.28409  21728928.620    88976380.21748
  20650818.900   108520811.23009  20650818.440    84561682.18749
  21181040.580   111307177.87709  21181038.780    86732884.64748
 15 02 21 04 01 30.0000000  0  9G01G04G11G14G16G19G22G27G32
  23074755.680   121258668.59508  23074755.940    94487292.28447
  21014865.060   110433903.39009  21014862.160    86052396.42448
  22008458.960   115655250.71308  22008456.660    90120977.32747
  23168118.580   121749290.50608  23168116.240    94869566.76646
  23669564.820   124384394.50708  23669562.240    96922867.36946
  20465935.680   107549231.27509  20465930.560    83804580.74249
  21741628.220   114253068.98409  21741622.420    89028359.46848
  20657875.100   108557891.80109  20657874.620    84590576.12649
  21166426.540   111230379.25909  21166424.500    86673041.58048
 15 02 21 04 02  0.0000000  0  9G01G04G11G14G16G19G22G27G32
  23062114.580   121192239.08408  23062114.480    94435529.04947
  21007194.960   110393597.61709  21007192.280    86020989.33948
  21994910.000   115584049.38809  21994907.400    90065495.77947
  23158542.760   121698968.72008  23158540.060    94830354.99946
  23689610.280   124489734.09708  23689607.720    97004950.14846
  20463404.600   107535930.17609  20463399.420    83794216.24949
  21754380.800   114320085.25609  21754375.140    89080579.90948
  20665013.580   108595404.33509  20665012.960    84619806.66349
  21151898.380   111154031.62109  21151896.060    86613549.92948
 15 02 21 04 02 30.0000000  0  9G01G04G11G14G16G19G22G27G32
  23049497.080   121125933.67708  23049496.740    94383862.50447
  20999569.320   110353524.72909  20999566.780    85989763.69448
  21981391.460   115513008.05909  21981388.560    90010138.89747
  23149037.000   121649014.67908  23149034.080    94791429.77846
  23709671.980   124595159.15008  23709669.440    97087099.52646
  20460949.620   107523029.30609  20460944.460    83784163.62149
  21767192.280   114387411.00509  21767186.800    89133041.51148
  20672234.680   108633350.71809  20672233.860    84649375.26249
  21137456.600   111078138.50909  21137454.100    86554412.45948
 15 02 21 04 03  0.0000000  0  9G01G04G11G14G16G19G22G27G32
  23036902.480   121059748.63908  23036902.500    94332289.78847
  20991987.420   110313681.15809  20991985.200    85958716.77648
  21967902.920   115442123.76309  21967899.600    89954904.38347
  23139601.060   121599427.67008  23139598.060    94752790.55146
  23729748.680   124700662.96008  23729746.100    97169310.29745
  20458570.440   107510526.69109  20458565.340    83774421.32049
  21780061.780   114455040.43209  21780056.240    89185739.79448
  20679537.600   108671727.48309  20679536.700    84679279.22049
  21123100.840   111002698.23109  21123098.300    86495627.84248
 15 02 21 04 03 30.0000000  0  9G01G04G11G14G16G19G22G27G32
  23024332.340   120993693.68608  23024332.440    94280818.42746
  20984450.940   110274076.57009  20984449.260    85927856.10948
  21954446.020   115371407.14209  21954442.740    89899800.57847
  23130237.000   121550219.66808  23130234.040    94714446.68646
  23749841.780   124806252.92608  23749839.160    97251588.19146
  20456269.140   107498433.30709  20456264.140    83764997.90849
  21792990.400   114522981.33209  21792984.820    89238680.72148
  20686924.180   108710544.25409  20686923.300    84709526.04949
  21108833.160   110927722.14709  21108830.840    86437204.93548
 15 02 21 04 04  0.0000000  0  9G01G04G11G14G16G19G22G27G32
  23011784.920   120927759.24208  23011785.700    94229440.98247
  20976958.100   110234701.63809  20976956.440    85897174.35448
  21941019.480   115300849.61009  21941015.880    89844820.68147
  23120943.560   121501383.55108  23120941.000    94676392.57346
  23769949.020   124911916.75508  23769946.460    97333923.64046
  20454044.120   107486740.46709  20454039.100    83755886.61449
  21805976.080   114591222.08209  21805970.520    89291855.34548
  20694392.740   108749791.53109  20694391.800    84740108.32849
  21094652.220   110853202.51209  21094650.300    86379137.71448
 15 02 21 04 04 30.0000000  0  9G01G04G11G14G16G19G22G27G32
  22999260.820   120861944.85808  22999262.000    94178157.05847
  20969508.980   110195555.97509  20969506.860    85866671.26848
  21927623.100   115230451.51009  21927619.300    89789965.01247
  23111721.360   121452921.45408  23111719.100    94638629.93446
  23790069.580   125017650.94008  23790067.140    97416313.91846
  20451895.520   107475449.39009  20451890.480    83747088.39249
  21819018.400   114659759.94409  21819012.940    89345261.43548
  20701943.180   108789468.93509  20701942.120    84771025.77249
  21080558.540   110779140.74109  21080556.940    86321427.26748
 15 02 21 04 05  0.0000000  0 10G01G03G04G11G14G16G19G22G27G32
  22986760.580   120796254.21609  22986761.460    94126969.54747
  24623226.300   129395918.05107  24623226.820   100828005.07345
  20962104.180   110156643.22309  20962101.920    85836349.64348
  21914257.920   115160217.68709  21914254.480    89735237.40347
  23102571.580   121404839.67908  23102569.360    94601163.62746
  23810203.680   125123456.40208  23810201.340    97498759.72345
  20449824.320   107464565.02109  20449819.300    83738607.07449
  21832117.520   114728596.36109  21832112.160    89398900.22348
  20709576.160   108829580.09309  20709575.000    84802281.20949
  21066553.200   110705542.17209  21066551.640    86264077.73948
 15 02 21 04 05 30.0000000  0 10G01G03G04G11G14G16G19G22G27G32
  22974284.240   120730689.58208  22974284.660    94075880.29147
  24603132.960   129290329.21408  24603134.360   100745728.22146
  20954744.160   110117965.73309  20954741.800    85806211.35048
  21900924.760   115090151.29309  21900921.340    89680640.21147
  23093495.160   121357142.86208  23093492.700    94563997.30246
  23830351.180   125229332.33708  23830348.840    97581260.44345
  20447831.160   107454090.61609  20447826.100    83730445.21149
  21845273.560   114797731.72009  21845268.140    89452771.93048
  20717291.980   108870127.27709  20717290.980    84833876.41549
  21052636.980   110632410.89409  21052635.200    86207092.34248
 15 02 21 04 06  0.0000000  0 10G01G03G04G11G14G16G19G22G27G32
  22961830.500   120665245.22208  22961831.000    94024884.68947
  24583062.640   129184860.00907  24583064.400   100663544.49446
  20947427.840   110079517.78409  20947425.100    85776251.93248
  21887622.500   115020247.50809  21887618.980    89626169.76447
  23084491.260   121309827.37608  23084488.880    94527128.10546
  23850510.460   125335270.19208  23850508.080    97663809.41945
  20445915.040   107444021.70809  20445910.000    83722599.29249
  21858485.040   114867158.12509  21858479.480    89506870.39048
  20725089.600   108911104.64009  20725088.780    84865806.82449
  21038808.960   110559742.75509  21038806.800    86150467.83548
 15 02 21 04 06 30.0000000  0 10G01G03G04G11G14G16G19G22G27G32
  22949400.100   120599923.04508  22949400.480    93973984.27847
  24563015.780   129079514.19408  24563017.840   100581456.95346
  20940155.720   110041301.60309  20940152.900    85746473.08348
  21874351.980   114950509.48509  21874348.340    89571828.46847
  23075560.780   121262898.06008  23075558.800    94490559.80746
  23870681.500   125441269.84608  23870679.160    97746406.53745
  20444076.700   107434361.78909  20444071.740    83715072.09249
  21871751.840   114936875.42209  21871746.340    89561195.55748
  20732969.520   108952514.20109  20732968.720    84898074.00549
  21025069.700   110487541.46809  21025067.240    86094207.09848
 15 02 21 04 07  0.0000000  0 10G01G03G04G11G14G16G19G22G27G32
  22936993.300   120534725.27908  22936994.060    93923180.86747
  24542993.100   128974295.76707  24542995.420   100499468.71946
  20932928.080   110003319.45209  20932925.040    85716876.61648
  21861113.460   114880940.11509  21861109.560    89517618.60047
  23066704.820   121216359.35508  23066702.840    94454295.93046
  23890864.100   125547330.19308  23890861.800    97829050.97445
  20442316.920   107425114.13209  20442311.940    83707866.11849
  21885074.080   115006883.58009  21885068.560    89615747.35448
  20740932.200   108994358.03609  20740931.300    84930679.57449
  21011419.860   110415811.01509  21011417.280    86038313.24248
 15 02 21 04 07 30.0000000  0 10G01G03G04G11G14G16G19G22G27G32
  22924608.700   120469643.65108  22924609.560    93872467.95747
  24522993.860   128869198.44408  24522996.000   100417574.80846
  20925743.200   109965563.14409  20925740.000    85687456.09648
  21847905.680   114811532.14809  21847901.620    89463534.48047
  23057922.120   121170205.34908  23057919.700    94418331.77946
  23911056.140   125653440.13508  23911054.020    97911734.04345
  20440634.300   107416271.55009  20440629.180    83700975.81249
  21898449.800   115077172.48009  21898444.080    89670517.93648
  20748975.940   109036627.87809  20748975.000    84963617.10949
  20997858.100   110344544.69909  20997855.740    85982781.06048
 15 02 21 04 08  0.0000000  0 10G01G03G04G11G14G16G19G22G27G32
  22912248.240   120404687.82008  22912248.940    93821853.06147
  24503019.780   128764233.43807  24503021.460   100335784.01346
  20918602.880   109928041.93109  20918599.780    85658218.78548
  21834730.340   114742296.06508  21834726.540    89409584.29147
  23049214.840   121124448.05708  23049212.300    94382676.74346
  23931258.960   125759606.77608  23931256.960    97994461.28845
  20439030.860   107407844.95109  20439025.580    83694409.63349
  21911880.320   115147749.37009  21911874.320    89725512.90048
  20757102.420   109079333.08209  20757101.540    84996893.88549
  20984386.780   110273753.79809  20984384.700    85927619.35048
 15 02 21 04 08 30.0000000  0 10G01G03G04G11G14G16G19G22G27G32
  22899911.100   120339856.71308  22899911.660    93771335.32847
  24483070.980   128659401.71808  24483072.300   100254097.05945
  20911507.220   109890755.42309  20911504.420    85629164.38048
  21821587.580   114673231.85309  21821583.960    89355768.06347
  23040583.440   121079089.36608  23040581.060    94347332.32746
  23951471.880   125865826.18508  23951469.780    98077229.65245
  20437506.540   107399834.26909  20437501.120    83688167.53849
  21925364.840   115218611.01409  21925358.880    89780729.76648
  20765311.520   109122472.68709  20765310.760    85030509.13949
  20971006.260   110203438.98509  20971004.260    85872828.60748
 15 02 21 04 09  0.0000000  0 10G01G03G04G11G14G16G19G22G27G32
  22887596.720   120275144.78008  22887597.480    93720910.45347
  24463146.880   128554699.53208  24463147.920   100172511.00845
  20904455.180   109853697.89809  20904452.680    85600288.37848
  21808476.920   114604335.08809  21808473.820    89302082.31347
  23032027.320   121034125.72408  23032024.840    94312295.74146
  23971693.320   125972090.24108  23971691.060    98160032.82145
  20436060.600   107392235.56709  20436055.220    83682246.46749
  21938902.100   115289749.96609  21938896.200    89836162.70148
  20773602.220   109166040.95709  20773601.600    85064458.44049
  20957715.800   110133596.34009  20957713.660    85818405.78548
 15 02 21 04 09 30.0000000  0 10G01G03G04G11G14G16G19G22G27G32
  22875306.700   120210561.52408  22875307.560    93670585.87047
  24443249.360   128450138.04507  24443250.320   100091034.61046
  20897448.800   109816879.18309  20897446.640    85571598.50748
  21795399.980   114535615.99809  21795396.840    89248534.99946
  23023548.560   120989568.99308  23023545.640    94277576.21246
  23991924.500   126078405.19208  23991921.980    98242875.63645
  20434695.000   107385059.21909  20434689.680    83676654.50449
  21952493.480   115361173.57809  21952487.880    89891817.46448
  20781976.340   109210047.28809  20781975.780    85098749.07449
  20944517.360   110064236.84009  20944515.000    85764359.44648
 15 02 21 04 10  0.0000000  0 10G01G03G04G11G14G16G19G22G27G32
  22863039.080   120146095.68108  22863039.820    93620352.73447
  24423376.860   128345707.82008  24423378.060   100009660.50346
  20890485.820   109780287.77509  20890483.500    85543085.73048
  21782355.160   114467064.63609  21782351.740    89195118.34947
  23015145.420   120945410.06308  23015142.280    94243166.66946
  24012162.760   126184757.30908  24012160.060    98325747.40545
  20433407.860   107378294.98209  20433402.440    83671383.66149
  21966136.440   115432868.42609  21966131.100    89947683.54548
  20790431.660   109254480.06909  20790431.040    85133372.01649
  20931408.920   109995350.67409  20931406.400    85710681.93948
 15 02 21 04 10 30.0000000  0 10G01G03G04G11G14G16G19G22G27G32
  22850794.960   120081752.08608  22850795.720    93570214.88247
  24403530.540   128241415.58008  24403531.980    99928393.93746
  20883567.100   109743928.63909  20883564.740    85514753.98048
  21769343.100   114398686.66609  21769339.480    89141836.87647
  23006819.440   120901656.43508  23006816.240    94209072.96446
  24032408.480   126291148.77108  24032405.720    98408649.85745
  20432200.380   107371949.31909  20432194.900    83666439.01849
  21979831.480   115504836.91509  21979826.220    90003762.87848
  20798969.060   109299344.18509  20798968.400    85168331.05949
  20918391.620   109926944.48209  20918389.140    85657378.43948
 15 02 21 04 11  0.0000000  0 10G01G03G04G11G14G16G19G22G27G32
  22838574.240   120017533.44008  22838575.600    93520174.46347
  24383711.260   128137265.70307  24383712.860    99847238.27946
  20876693.140   109707804.70309  20876690.840    85486605.46548
  21756364.940   114330485.77809  21756361.020    89088693.31847
  22998571.360   120858312.89508  22998568.080    94175298.78046
  24052661.620   126397579.29308  24052658.760    98491582.70146
  20431073.240   107366025.83309  20431067.720    83661823.30049
  21993578.940   115577080.16309  21993573.680    90060056.33048
  20807588.980   109344642.00309  20807588.300    85203628.05649
  20905466.320   109859022.35009  20905463.960    85604452.11548
 15 02 21 04 11 30.0000000  0 10G01G03G04G11G14G16G19G22G27G32
  22826377.000   119953437.89908  22826378.580    93470229.93247
  24363919.000   128033258.12807  24363920.620    99766193.51846
  20869863.440   109671914.10809  20869861.180    85458638.79548
  21743420.100   114262460.97009  21743416.540    89035687.01247
  22990401.260   120815379.88108  22990398.200    94141844.49446
  24072921.440   126504044.37008  24072918.400    98574542.50645
  20430026.220   107360523.48209  20430020.600    83657535.76249
  22007377.900   115649594.26609  22007372.540    90116560.80848
  20816290.980   109390371.52609  20816290.320    85239261.45349
  20892633.080   109791583.99109  20892630.780    85551902.75448
 15 02 21 04 12  0.0000000  0 10G01G03G04G11G14G16G19G22G27G32
  22814203.160   119889464.04008  22814204.320    93420380.15847
  24344153.840   127929393.21407  24344155.540    99685259.94146
  20863077.700   109636255.57609  20863075.440    85430852.93248
  21730509.000   114194612.08009  21730505.860    88982817.76147
  22982309.480   120772858.59808  22982306.760    94108711.05646
  24093186.940   126610539.33508  24093183.720    98657525.58945
  20429059.300   107355442.13909  20429053.600    83653576.27249
  22021227.540   115722375.27708  22021222.280    90173273.28748
  20825074.800   109436531.11909  20825074.140    85275229.96349
  20879891.900   109724629.53909  20879889.660    85499730.47148
 15 02 21 04 12 30.0000000  0 10G01G03G04G11G14G16G19G22G27G32
  22802052.220   119825608.85908  22802053.040    93370622.90447
  24324415.820   127825669.81008  24324417.600    99604436.60646
  20856335.340   109600825.94909  20856333.280    85403245.46648
  21717630.740   114126937.00309  21717627.560    88930083.92047
  22974296.000   120730747.88608  22974293.480    94075897.52446
  24113457.080   126717059.10108  24113453.740    98740527.99845
  20428172.140   107350780.11109  20428166.360    83649943.52849
  22035126.860   115795418.17909  22035121.880    90230189.79448
  20833939.940   109483117.49709  20833939.200    85311531.02449
  20867242.500   109658157.36109  20867240.400    85447933.98648
 15 02 21 04 13  0.0000000  0 10G01G03G04G11G14G16G19G22G27G32
  22789924.260   119761875.26808  22789925.020    93320960.40547
  24304705.720   127722092.52208  24304707.280    99523727.13946
  20849637.240   109565628.50709  20849635.240    85375818.87848
  21704786.320   114059439.62209  21704783.220    88877488.59947
  22966361.760   120689053.15008  22966359.360    94043408.13646
  24133731.880   126823603.78908  24133728.620    98823549.83746
  20427365.420   107346541.27509  20427359.760    83646640.53849
  22049076.420   115868723.80109  22049071.480    90287311.04848
  20842886.840   109530133.33009  20842886.020    85348166.74449
  20854685.760   109592171.92709  20854683.800    85396516.77848
 15 02 21 04 13 30.0000000  0 10G01G03G04G11G14G16G19G22G27G32
  22777820.180   119698268.78908  22777821.120    93271396.91947
  24285024.900   127618668.61608  24285026.240    99443137.20546
  20842984.640   109530668.85209  20842982.720    85348577.63448
  21691976.840   113992126.52209  21691973.540    88825036.87447
  22958508.080   120647782.13808  22958505.900    94011248.93046
  24154011.940   126930176.23108  24154008.740    98906593.29045
  20426640.480   107342732.13709  20426634.980    83643672.37849
  22063076.700   115942295.38509  22063071.460    90344639.53747
  20851916.440   109577583.95409  20851915.560    85385141.24649
  20842223.080   109526680.16009  20842221.080    85345484.24048
 15 02 21 04 14  0.0000000  0 10G01G03G04G11G14G16G19G22G27G32
  22765738.040   119634776.81208  22765739.140    93221922.67447
  24265371.240   127515387.20208  24265372.340    99362658.25146
  20836375.020   109495934.36609  20836372.720    85321511.78448
  21679200.520   113924986.31809  21679197.280    88772719.82647
  22950733.140   120606924.07409  22950730.960    93979411.49646
  24174294.240   127036760.69208  24174290.960    98989646.11145
  20425995.100   107339341.07809  20425989.760    83641029.99449
  22077125.040   116016118.17609  22077119.560    90402163.81448
  20861026.240   109625456.28409  20861025.320    85422444.34849
  20829852.240   109461670.82009  20829850.180    85294827.63048
 15 02 21 04 14 30.0000000  0 10G01G03G04G11G14G16G19G22G27G32
  22753680.120   119571411.19208  22753680.760    93172546.85047
  24245747.200   127412261.88408  24245748.000    99282300.96146
  20829810.440   109461437.11009  20829808.220    85294630.80648
  21666459.520   113858031.50709  21666456.260    88720547.26447
  22943039.520   120566493.45308  22943037.100    93947907.11246
  24194580.460   127143365.97608  24194577.120    99072715.14945
  20425431.820   107336381.26109  20425426.500    83638723.65449
  22091222.960   116090202.26309  22091217.420    90459891.62347
  20870218.520   109673761.99709  20870217.600    85460085.15949
  20817575.700   109397157.15409  20817573.680    85244557.27148
 15 02 21 04 15  0.0000000  0 10G01G03G04G11G14G16G19G22G27G32
  22741645.500   119508169.35008  22741646.100    93123267.51747
  24226152.540   127309291.78408  24226153.260    99202064.62446
  20823290.420   109427174.37609  20823288.260    85267932.64348
  21653753.800   113791260.72109  21653750.340    88668518.09147
  22935427.000   120526489.76608  22935424.540    93916735.43846
  24214869.760   127249987.56308  24214866.420    99155796.91344
  20424950.360   107333851.22409  20424945.040    83636752.20549
  22105369.560   116164542.82708  22105364.020    90517819.35748
  20879492.680   109722498.18609  20879491.800    85498061.40049
  20805393.280   109333138.02609  20805391.320    85194672.25148
 15 02 21 04 15 30.0000000  0 10G01G03G04G11G14G16G19G22G27G32
  22729634.180   119445048.83609  22729634.720    93074082.74147
  24206587.300   127206476.23208  24206587.840    99121948.67946
  20816814.660   109393143.94909  20816812.420    85241415.41748
  21641082.460   113724672.40109  21641078.940    88616631.11747
  22927895.660   120486912.70908  22927893.220    93885896.19646
  24235161.200   127356620.27308  24235157.960    99238887.33945
  20424550.420   107331749.24109  20424545.100    83635114.30249
  22119564.000   116239134.93909  22119558.500    90575943.04448
  20888848.240   109771662.02009  20888847.380    85536370.88349
  20793304.740   109269612.26709  20793302.800    85145171.68048
 15 02 21 04 16  0.0000000  0 10G01G03G04G11G14G16G19G22G27G32
  22717646.240   119382050.64308  22717646.480    93024993.24047
  24187051.960   127103817.89508  24187052.620    99041955.26246
  20810383.260   109359346.67209  20810380.880    85215079.89048
  21628446.200   113658268.70109  21628442.460    88564887.99647
  22920446.160   120447765.31708  22920443.640    93855391.76346
  24255454.320   127463261.71408  24255451.120    99321984.54745
  20424232.360   107330077.52509  20424227.080    83633811.65649
  22133806.140   116313977.70409  22133800.620    90634262.09648
  20898285.300   109821254.11809  20898284.460    85575014.05849
  20781310.520   109206582.27809  20781308.500    85096057.41348
 15 02 21 04 16 30.0000000  0 10G01G03G04G11G14G16G19G22G27G32
  22705680.920   119319172.73509  22705680.900    92975997.46847
  24167546.380   127001316.49508  24167547.380    98962084.10246
  20803995.940   109325780.92409  20803993.680    85188924.76048
  21615844.920   113592048.40109  21615841.120    88513287.77147
  22913078.500   120409047.98108  22913076.060    93825222.41146
  24275748.320   127569907.58808  24275745.300    99405085.21245
  20423995.880   107328834.58109  20423990.580    83632843.12449
  22148095.260   116389067.07409  22148089.440    90692773.27747
  20907803.420   109871272.12709  20907802.680    85613989.10749
  20769410.480   109144047.28509  20769408.360    85047328.86448
 15 02 21 04 17  0.0000000  0 10G01G03G04G11G14G16G19G22G27G32
  22693738.940   119256416.33909  22693738.700    92927096.37647
  24148071.300   126898974.88708  24148072.620    98882337.46046
  20797653.000   109292447.80509  20797650.640    85162950.92848
  21603278.980   113526013.93809  21603275.000    88461832.35847
  22905793.240   120370763.70808  22905790.880    93795390.53046
  24296042.860   127676556.12408  24296039.880    99488187.95445
  20423841.540   107328023.12209  20423836.120    83632210.82449
  22162431.020   116464401.76709  22162424.940    90751475.65248
  20917402.760   109921716.82809  20917402.120    85653296.66349
  20757605.140   109082009.82909  20757602.860    84998988.00348
 15 02 21 04 17 30.0000000  0 10G01G03G04G11G14G16G19G22G27G32
  22681820.280   119193784.01308  22681820.120    92878291.99547
  24128627.680   126796797.45908  24128628.900    98802718.73446
  20791354.780   109259350.10709  20791352.140    85137160.51248
  21590749.100   113460168.97509  21590745.320    88410524.62447
  22898591.360   120332917.40008  22898588.800    93765899.91046
  24316337.940   127783207.04708  24316335.000    99571292.56645
  20423769.900   107327646.55909  20423764.460    83631917.39649
  22176813.580   116539982.47209  22176807.460    90810369.71448
  20927083.660   109972590.40909  20927083.020    85692938.40849
  20745895.200   109020473.77009  20745892.800    84951037.83448
 15 02 21 04 18  0.0000000  0 10G01G03G04G11G14G16G19G22G27G32
  22669924.520   119131272.14408  22669924.520    92829581.46247
  24109214.780   126694782.04908  24109215.800    98723226.26646
  20785100.600   109226483.96709  20785097.980    85111550.56648
  21578254.700   113394510.65909  21578251.120    88359362.30147
  22891472.560   120295507.30908  22891469.740    93736749.22346
  24336632.320   127889854.08008  24336629.280    99654394.15046
  20423780.520   107327702.06309  20423774.980    83631960.65249
  22191241.800   116615803.48009  22191235.840    90869450.99648
  20936845.360   110023888.71209  20936844.700    85732911.09749
  20734280.160   108959436.53309  20734277.860    84903476.35248
 15 02 21 04 18 30.0000000  0 10G01G03G04G11G14G16G19G22G27G32
  22658052.480   119068885.23008  22658053.140    92780968.34847
  24089833.940   126592935.08208  24089835.000    98643865.05746
  20778891.380   109193854.42709  20778888.840    85086124.97048
  21565796.900   113329044.88009  21565793.520    88308350.02647
  22884437.920   120258540.10008  22884435.040    93707943.60846
  24356926.340   127996499.39408  24356923.240    99737494.40545
  20423874.460   107328195.32709  20423868.780    83632345.00349
  22205716.180   116691867.18309  22205710.080    90928721.39447
  20946688.680   110075615.93309  20946688.000    85773218.01749
  20722761.180   108898904.13709  20722759.060    84856308.26848
 15 02 21 04 19  0.0000000  0 10G01G03G04G11G14G16G19G22G27G32
  22646203.260   119006618.02308  22646204.200    92732448.42847
  24070484.480   126491252.78108  24070485.140    98564632.14046
  20772726.100   109161456.03309  20772723.540    85060879.46448
  21553374.960   113263767.15809  21553371.080    88257484.24047
  22877486.860   120222012.40908  22877484.060    93679480.51346
  24377218.420   128103134.62108  24377215.160    99820586.77945
  20424050.800   107329121.63709  20424045.040    83633066.79849
  22220235.240   116768165.96009  22220229.700    90988174.96648
  20956612.560   110127766.23809  20956611.780    85813854.61249
  20711337.480   108838872.34609  20711335.560    84809530.26748
 15 02 21 04 19 30.0000000  0 10G01G03G04G11G14G16G19G22G27G32
  22634377.840   118944475.25308  22634378.980    92684025.53547
  24051167.620   126389741.71008  24051168.100    98485532.66846
  20766605.840   109129293.72309  20766603.140    85035817.93948
  21540989.920   113198683.33909  21540985.900    88206769.56947
  22870620.720   120185931.13608  22870617.940    93651365.24746
  24397508.960   128209762.10508  24397505.720    99903673.12445
  20424310.720   107330487.12909  20424304.800    83634130.80549
  22234799.640   116844702.66909  22234794.020    91047813.97447
  20966617.820   110180343.99009  20966617.000    85854824.27249
  20700010.200   108779347.18509  20700008.400    84763147.03748
 15 02 21 04 20  0.0000000  0 10G01G03G04G11G14G16G19G22G27G32
  22622575.140   118882451.87208  22622576.520    92635695.67347
  24031882.600   126288398.42408  24031882.820    98406563.92746
  20760529.520   109097362.33609  20760526.980    85010936.36048
  21528641.060   113133789.63909  21528637.620    88156203.09147
  22863838.940   120150293.16108  22863836.200    93623595.40746
  24417796.440   128316373.95208  24417793.240    99986747.28545
  20424653.280   107332287.18109  20424647.300    83635533.45749
  22249407.980   116921469.95409  22249402.420    91107632.64247
  20976703.480   110233343.61309  20976702.600    85896122.68249
  20688778.660   108720324.72409  20688776.760    84717155.53548
 15 02 21 04 20 30.0000000  0 10G01G03G04G11G14G16G19G22G27G32
  22610796.220   118820553.32908  22610797.500    92587463.06347
  24012630.860   126187230.01608  24012631.100    98327731.45646
  20754498.280   109065667.70609  20754495.980    84986239.25548
  21516329.260   113069092.18609  21516326.020    88105789.51147
  22857143.020   120115105.88508  22857140.300    93596176.77946
  24438081.400   128422972.63608  24438078.320   100069811.19045
  20425079.740   107334528.42209  20425073.840    83637279.87949
  22264060.940   116998471.36309  22264055.340    91167633.68447
  20986870.380   110286770.05109  20986869.380    85937753.64349
  20677644.100   108661811.53809  20677642.020    84671560.86648
 15 02 21 04 21  0.0000000  0 10G01G03G04G11G14G16G19G22G27G32
  22599039.780   118758772.20808  22599040.140    92539321.95247
  23993411.280   126086230.73008  23993411.820    98249030.75146
  20748510.600   109034202.31709  20748507.800    84961720.76148
  21504053.940   113004584.86209  21504050.240    88055524.08547
  22850531.860   120080363.94508  22850529.280    93569105.14746
  24458361.960   128529548.27307  24458358.980   100152857.13745
  20425588.860   107337204.41709  20425583.200    83639365.07049
  22278756.700   117075697.06509  22278750.900    91227809.60748
  20997116.860   110340615.32509  20997115.740    85979711.00649
  20666605.260   108603801.33009  20666602.980    84626358.13348
 15 02 21 04 21 30.0000000  0 10G01G03G04G11G14G16G19G22G27G32
  22587306.680   118697113.59209  22587306.500    92491276.27347
  23974225.180   125985407.24908  23974225.680    98170467.02646
  20742567.560   109002971.44409  20742564.560    84937385.05548
  21491816.220   112940273.61709  21491812.280    88005411.45147
  22844006.920   120046074.37608  22844004.360    93542386.02546
  24478638.580   128636103.11907  24478635.740   100235886.88945
  20426181.780   107340320.85609  20426176.240    83641793.45149
  22293495.500   117153150.23709  22293489.800    91288162.66347
  21007443.780   110394883.94509  21007442.660    86021998.24048
  20655663.280   108546300.33009  20655660.760    84581552.17348
