     2.11           OBSERVATION DATA    G                   RINEX VERSION / TYPE
SPIDER V4,0,0,3554                      2015 03 24 07:26    PGM / RUN BY / DATE 
CNAJ                                                        MARKER NAME         
CNAJ                                                        MARKER NUMBER       
                                                            OBSERVER / AGENCY   
496642              LEICA GRX1200+GNSS  8.10/4.007          REC # / TYPE / VERS 
10321018            LEIAR25         NONE                    ANT # / TYPE        
  5206098.7325   612081.0247  3621806.3029                  APPROX POSITION XYZ 
        0.0720        0.0000        0.0000                  ANTENNA: DELTA H/E/N
     1     1                                                WAVELENGTH FACT L1/2
     4    C1    L1    P2    L2                              # / TYPES OF OBSERV 
    30.000                                                  INTERVAL            
  2015    02    21    00    00    0.0000000     GPS         TIME OF FIRST OBS   
  2015    02    21    23    59   30.0000000     GPS         TIME OF LAST OBS    
    16                                                      LEAP SECONDS        
    30                                                      # OF SATELLITES     
   G 1   812   812   812   812                              PRN / # OF OBS      
   G 2   930   929   929   928                              PRN / # OF OBS      
   G 3   852   852   852   852                              PRN / # OF OBS      
   G 4   843   843   842   842                              PRN / # OF OBS      
   G 5   622   622   620   620                              PRN / # OF OBS      
   G 6   797   797   792   792                              PRN / # OF OBS      
   G 7   671   671   670   670                              PRN / # OF OBS      
   G 9   808   808   808   808                              PRN / # OF OBS      
   G10   743   742   742   741                              PRN / # OF OBS      
   G11   780   780   779   779                              PRN / # OF OBS      
   G12   832   832   832   832                              PRN / # OF OBS      
   G13   788   788   788   788                              PRN / # OF OBS      
   G14   938   938   936   936                              PRN / # OF OBS      
   G15   686   685   684   684                              PRN / # OF OBS      
   G16   670   670   668   668                              PRN / # OF OBS      
   G17   937   937   935   935                              PRN / # OF OBS      
   G18   903   903   899   899                              PRN / # OF OBS      
   G19   758   758   758   758                              PRN / # OF OBS      
   G20   771   770   770   770                              PRN / # OF OBS      
   G21   740   740   739   739                              PRN / # OF OBS      
   G22   657   657   657   657                              PRN / # OF OBS      
   G23   739   739   737   737                              PRN / # OF OBS      
   G24   829   829   829   829                              PRN / # OF OBS      
   G25   862   862   861   861                              PRN / # OF OBS      
   G27   812   811   812   811                              PRN / # OF OBS      
   G28   870   869   864   864                              PRN / # OF OBS      
   G29   765   765   762   762                              PRN / # OF OBS      
   G30   716   715   710   710                              PRN / # OF OBS      
   G31   858   858   854   854                              PRN / # OF OBS      
   G32   764   764   761   761                              PRN / # OF OBS      
BIT 2 OF LLI FLAGS DATA COLLECTED UNDER A/S CONDITION       COMMENT             
SNR is mapped to RINEX snr flag value [2-9]                 COMMENT             
Lx:     = 25dBHz -> 1; 26-27dBHz -> 2; 28-31dBHz -> 3       COMMENT             
       32-35dBHz -> 4; 36-38dBHz -> 5; 39-41dBHz -> 6       COMMENT             
       42-44dBHz -> 7; 45-48dBHz -> 8; >=49dBHz -> 9        COMMENT             
                                                            END OF HEADER       
 15 02 21 00 00  0.0000000  0  7G16G18G21G25G27G29G31
  22656094.300   119058600.29308  22656090.020    92772938.67644
  23136086.280   121580977.46108  23136082.280    94738353.83344
  20957040.480   110130006.03408  20957037.000    85815571.66148
  23806970.140   125106454.90908  23806969.320    97485548.42044
  23793710.320   125036790.29908  23793710.720    97431266.46946
  23024512.860   120994609.33708  23024511.660    94281504.67245
  22082116.940   116042309.59308  22082110.940    90422560.52045
 15 02 21 00 00 30.0000000  0  7G16G18G21G25G27G29G31
  22640071.640   118974399.68208  22640067.340    92707327.81245
  23122197.260   121507989.71108  23122192.920    94681480.25345
  20960358.400   110147440.83608  20960354.660    85829157.21548
  23824628.600   125199249.33208  23824627.660    97557855.76044
  23780352.640   124966598.09408  23780353.360    97376571.27246
  23037679.800   121063800.93108  23037678.300    94335420.17545
  22096253.580   116116598.80308  22096247.480    90480448.18545
 15 02 21 00 01  0.0000000  0  7G16G18G21G25G27G29G31
  22624076.620   118890344.36008  22624072.140    92641830.17144
  23108340.100   121435170.86908  23108336.040    94624738.33145
  20963752.820   110165277.59808  20963748.900    85843055.98748
  23842326.140   125292251.02607  23842325.600    97630324.59344
  23767011.940   124896494.35808  23767013.120    97321945.03346
  23050854.540   121133033.71308  23050852.700    94389367.73945
  22110455.680   116191229.41309  22110449.560    90538601.92045
 15 02 21 00 01 30.0000000  0  7G16G18G21G25G27G29G31
  22608109.000   118806433.21508  22608104.360    92576444.86545
  23094515.000   121362521.08608  23094511.540    94568128.12745
  20967222.800   110183512.05108  20967218.880    85857264.63548
  23860062.200   125385455.77007  23860062.140    97702951.61945
  23753687.680   124826476.03108  23753689.000    97267385.33946
  23064036.500   121202304.21108  23064034.000    94443344.70544
  22124722.000   116266195.69209  22124716.120    90597017.19246
 15 02 21 00 02  0.0000000  0  7G16G18G21G25G27G29G31
  22592169.280   118722668.64608  22592164.620    92511173.78044
  23080722.780   121290042.88508  23080719.800    94511651.62346
  20970768.060   110202143.13808  20970764.400    85871782.36948
  23877836.760   125478862.45707  23877837.000    97775736.01345
  23740379.840   124756543.07608  23740380.720    97212892.18546
  23077225.520   121271612.28008  23077222.040    94497350.97844
  22139051.820   116341495.09009  22139046.280    90655692.05346
 15 02 21 00 02 30.0000000  0  7G16G18G21G25G27G29G31
  22576257.120   118639049.34908  22576252.460    92446015.90544
  23066963.240   121217735.71508  23066960.640    94455308.40646
  20974387.760   110221166.00708  20974384.520    85886605.36948
  23895648.900   125572466.67507  23895649.220    97848674.30245
  23727087.760   124686692.23008  23727088.380    97158462.98746
  23090420.920   121340954.73608  23090416.380    94551384.05643
  22153443.700   116417121.40909  22153438.580    90714621.63846
 15 02 21 00 03  0.0000000  0  7G16G18G21G25G27G29G31
  22560374.140   118555583.26608  22560369.280    92380977.41145
  23053238.020   121145608.22508  23053235.660    94399105.20246
  20978083.060   110240585.99008  20978080.140    85901737.81648
  23913499.340   125666273.36506  23913500.140    97921770.38045
  23713812.520   124616929.44308  23713812.740    97104102.40246
  23103623.760   121410337.16308  23103618.120    94605448.27843
  22167898.160   116493078.29609  22167893.500    90773808.80047
 15 02 21 00 03 30.0000000  0  7G16G18G21G25G27G29G31
  22544520.680   118472272.01809  22544515.700    92316059.56144
  23039547.480   121073662.94008  23039545.020    94343043.95846
  20981853.640   110260401.06808  20981850.920    85917178.13848
  23931387.800   125760280.70506  23931389.160    97995022.81044
  23700553.860   124547254.16208  23700553.840    97049810.03346
  23116833.900   121479758.82308  23116828.160    94659543.04844
  22182414.500   116569362.54809  22182410.460    90833251.03247
 15 02 21 00 04  0.0000000  0  7G16G18G21G25G27G29G31
  22528697.080   118389117.08309  22528691.900    92251263.52245
  23025891.840   121001901.73408  23025889.120    94287126.16345
  20985699.040   110280609.38908  20985696.520    85932924.88848
  23949314.000   125854486.88506  23949316.040    98068430.17245
  23687311.720   124477665.67408  23687312.020    96995585.30346
  23130051.360   121549219.11708  23130046.080    94713667.90044
  22196992.260   116645970.83109  22196988.880    90892945.75247
 15 02 21 00 04 30.0000000  0  7G16G18G21G25G27G29G31
  22512903.280   118306118.96309  22512897.820    92186589.65945
  23012271.160   120930325.24508  23012268.340    94231352.30645
  20989618.760   110301207.97408  20989616.320    85948975.72748
  23967277.500   125948888.98606  23967279.900    98141990.18944
  23674085.620   124408162.12608  23674085.660    96941426.72446
  23143275.920   121618716.15208  23143271.000    94767821.41744
  22211630.780   116722898.42509  22211627.840    90952889.29447
 15 02 21 00 05  0.0000000  0  7G16G18G21G25G27G29G31
  22497140.080   118223282.21509  22497134.520    92122041.55045
  22998686.600   120858938.96208  22998683.700    94175726.67245
  20993613.060   110322197.93408  20993610.520    85965331.54448
  23985278.940   126043488.34507  23985281.260    98215703.91644
  23660875.980   124338746.01808  23660876.280    96887336.30645
  23156507.960   121688252.00808  23156503.240    94822005.17044
  22226330.220   116800145.16609  22226327.440    91013081.52447
 15 02 21 00 05 30.0000000  0  7G16G18G21G25G27G29G31
  22481407.220   118140605.83309  22481401.640    92057618.40945
  22985138.400   120787742.90308  22985135.280    94120249.22845
  20997681.260   110343575.18908  20997678.380    85981989.13048
  24003317.660   126138280.86408  24003319.940    98289568.22244
  23647682.300   124269414.52807  23647682.680    96833311.80146
  23169746.960   121757823.97408  23169742.040    94876217.08244
  22241089.520   116877705.56909  22241086.680    91073518.16547
 15 02 21 00 06  0.0000000  0  7G16G18G21G25G27G29G31
  22465704.820   118058090.04408  22465699.340    91993320.41245
  22971626.520   120716737.68608  22971623.240    94064920.51245
  21001822.680   110365336.63008  21001819.360    85998946.10148
  24021392.860   126233263.37808  24021394.980    98363580.57944
  23634504.380   124200165.60408  23634504.880    96779351.65244
  23182992.360   121827429.86408  23182987.440    94930455.41343
  22255907.620   116955574.88709  22255904.680    91134195.52547
 15 02 21 00 06 30.0000000  0  7G16G18G21G25G27G29G31
  22450034.280   117975742.06209  22450029.080    91929153.17845
  22958152.400   120645930.42409  22958148.840    94009746.04045
  21006037.860   110387485.37808  21006034.020    86016204.87148
  24039504.880   126328439.47508  24039506.840    98437743.74744
  23621343.180   124131004.00608  23621343.540    96725459.50245
  23196245.180   121897074.35608  23196239.700    94984723.79543
  22270784.840   117033754.96709  22270781.820    91195115.03947
 15 02 21 00 07  0.0000000  0  7G16G18G21G25G27G29G31
  22434395.500   117893561.05308  22434390.600    91865116.02845
  22944716.100   120575321.47308  22944712.420    93954726.07145
  21010325.880   110410017.16208  21010321.540    86033762.11247
  24057652.860   126423805.21008  24057654.600    98512054.67145
  23608198.140   124061926.95408  23608198.160    96671633.25244
  23209504.920   121966754.48608  23209498.260    95039020.02343
  22285720.140   117112240.69509  22285717.160    91256272.71347
 15 02 21 00 07 30.0000000  0  8G16G18G21G22G25G27G29G31
  22418788.760   117811548.61508  22418784.160    91801210.25145
  22931317.760   120504912.76608  22931314.240    93899862.18845
  21014686.360   110432930.65908  21014681.760    86051616.79347
  24549533.040   129008668.29708  24549521.760   100526215.74841
  24075836.380   126519358.66508  24075837.800    98586511.85745
  23595069.160   123992933.68508  23595068.940    96617872.31644
  23222771.340   122036469.19808  23222764.740    95093343.16341
  22300712.960   117191028.55609  22300710.040    91317665.82147
 15 02 21 00 08  0.0000000  0  8G16G18G21G22G25G27G29G31
  22403208.140   117729673.61508  22403203.940    91737411.57044
  22917951.780   120434673.94608  22917948.380    93845130.65045
  21019112.540   110456190.72608  21019107.980    86069741.52647
  24531776.660   128915358.59208  24531763.640   100453507.08341
  24094049.020   126615065.45208  24094049.660    98661088.53444
  23581949.960   123923991.09108  23581948.880    96564150.78644
  23236038.060   122106185.84608  23236032.680    95147667.84842
  22315756.400   117270082.44309  22315753.640    91379266.22147
 15 02 21 00 08 30.0000000  0  8G16G18G21G22G25G27G29G31
  22387667.360   117648007.63408  22387663.200    91673775.75744
  22904631.740   120364676.86908  22904628.540    93790587.50045
  21023617.500   110479865.45708  21023613.060    86088189.37547
  24514010.580   128821999.33907  24514018.640   100380803.76441
  24112303.800   126710993.58608  24112303.480    98735837.69644
  23568853.680   123855168.32208  23568851.680    96510522.66844
  23249318.360   122175973.16108  23249316.880    95202047.57043
  22330863.040   117349468.94009  22330860.480    91441125.79446
 15 02 21 00 09  0.0000000  0  8G16G18G21G22G25G27G29G31
  22372170.620   117566572.80308  22372166.260    91610320.03044
  22891361.900   120294944.35308  22891359.200    93736250.52646
  21028205.000   110503974.15108  21028200.780    86106975.36647
  24496239.360   128728613.26307  24496245.680   100308042.75541
  24130604.320   126807162.07008  24130602.900    98810774.12844
  23555784.040   123786485.64408  23555781.000    96457003.66444
  23262615.960   122245851.25708  23262617.480    95256497.98543
  22346036.320   117429205.88209  22346033.880    91503258.45046
 15 02 21 00 09 30.0000000  0  8G16G18G21G22G25G27G29G31
  22356697.000   117485259.00108  22356692.180    91546958.63244
  22878121.660   120225366.57708  22878119.160    93682034.09545
  21032853.400   110528402.49608  21032849.260    86126010.43847
  24478442.160   128635090.55507  24478448.040   100235168.23243
  24148928.900   126903457.03008  24148926.740    98885809.18644
  23542719.600   123717830.40308  23542716.500    96403506.10245
  23275909.400   122315707.50208  23275911.940    95310931.39443
  22361254.180   117509177.44809  22361251.560    91565573.93545
 15 02 21 00 10  0.0000000  0  8G16G18G21G22G25G27G29G31
  22341257.300   117404123.28508  22341251.720    91483735.98044
  22864921.760   120156000.88708  22864919.420    93627982.93945
  21037572.840   110553204.14307  21037568.760    86145336.38947
  24460629.960   128541488.62307  24460634.540   100162232.02542
  24167287.680   126999932.25008  24167284.840    98960984.66244
  23529670.780   123649257.61108  23529668.140    96350072.76945
  23289209.200   122385597.15108  23289212.220    95365390.80044
  22376526.680   117589436.06209  22376523.520    91628113.10145
 15 02 21 00 10 30.0000000  0  8G16G18G21G22G25G27G29G31
  22325852.900   117323172.91308  22325846.940    91420657.77644
  22851763.720   120086855.30908  22851761.360    93574103.31745
  21042363.980   110578382.98307  21042359.940    86164956.26447
  24442804.200   128447814.89107  24442807.060   100089239.85543
  24185681.420   127096591.51008  24185678.540    99036303.56344
  23516638.540   123580772.31508  23516636.660    96296707.61646
  23302516.080   122455524.81208  23302519.020    95419879.83744
  22391854.400   117669984.22109  22391850.200    91690877.89845
 15 02 21 00 11  0.0000000  0  8G16G18G21G22G25G27G29G31
  22310484.320   117242410.46708  22310478.460    91357725.99044
  22838648.240   120017933.21208  22838645.720    93520397.79945
  21047226.540   110603938.08907  21047222.720    86184869.31547
  24424965.440   128354072.46807  24424966.960   100016194.11244
  24204109.900   127193434.18607  24204107.400    99111765.30944
  23503622.940   123512375.12208  23503622.020    96243411.13346
  23315830.100   122525490.96908  23315832.740    95474398.85144
  22407236.940   117750819.26009  22407231.660    91753866.26345
 15 02 21 00 11 30.0000000  0  8G16G18G21G22G25G27G29G31
  22295151.960   117161837.96708  22295146.620    91294942.25045
  22825575.740   119949236.99408  22825572.960    93466868.29145
  21052160.300   110629867.76407  21052156.660    86205074.26147
  24407114.080   128260263.42407  24407114.360    99943096.44244
  24222572.680   127290458.62507  24222570.640    99187368.71544
  23490623.920   123444065.56208  23490623.680    96190182.95846
  23329151.280   122595495.37308  23329153.660    95528947.70044
  22422673.600   117831938.05809  22422667.800    91817075.72245
 15 02 21 00 12  0.0000000  0  8G16G18G21G22G25G27G29G31
  22279855.380   117081452.77708  22279850.420    91232304.46545
  22812545.420   119880763.82708  22812542.740    93413512.61945
  21057163.980   110656165.32807  21057160.740    86225565.86547
  24389249.620   128166385.35508  24389249.240    99869944.95444
  24241068.900   127387658.46808  24241067.140    99263108.81744
  23477640.460   123375838.64808  23477640.840    96137019.17247
  23342478.900   122665533.14508  23342480.700    95583522.52244
  22438162.800   117913333.11809  22438156.860    91880500.44045
 15 02 21 00 12 30.0000000  0  8G16G18G21G22G25G27G29G31
  22264595.280   117001259.04409  22264590.560    91169815.84545
  22799558.780   119812519.01708  22799555.680    93360334.87645
  21062238.020   110682831.90507  21062235.180    86246345.02447
  24371372.920   128072442.95207  24371371.900    99796743.35044
  24259598.900   127485034.75808  24259597.060    99338986.44043
  23464673.180   123307696.69008  23464674.020    96083921.56946
  23355813.240   122735606.15608  23355814.500    95638124.81544
  22453704.420   117995003.75009  22453698.760    91944139.86746
 15 02 21 00 13  0.0000000  0  8G16G18G21G22G25G27G29G31
  22249371.580   116921256.37108  22249366.940    91107476.10845
  22786615.500   119744502.02608  22786611.900    93307334.59744
  21067381.680   110709863.30107  21067379.200    86267408.43947
  24353483.880   127978436.11607  24353482.280    99723491.50844
  24278161.820   127582583.33308  24278159.800    99414998.27244
  23451721.560   123239636.76608  23451722.920    96030887.89446
  23369153.840   122805711.64708  23369154.380    95692752.36644
  22469297.360   118076944.44109  22469292.080    92007989.73346
 15 02 21 00 13 30.0000000  0  8G16G18G21G22G25G27G29G31
  22234185.420   116841451.07409  22234180.600    91045290.18545
  22773717.180   119676720.31708  22773713.000    93254517.68444
  21072595.420   110737262.17807  21072593.100    86288758.21647
  24335583.780   127884371.69306  24335581.780    99650194.80944
  24296758.140   127680307.18408  24296756.460    99491146.73543
  23438786.480   123171663.20508  23438787.740    95977921.50446
  23382501.520   122875853.46208  23382501.300    95747408.24843
  22484941.980   118159156.78609  22484937.140    92072051.26447
 15 02 21 00 14  0.0000000  0  8G16G18G21G22G25G27G29G31
  22219036.400   116761841.51209  22219031.300    90983256.76645
  22760863.440   119609171.95408  22760858.660    93201882.57244
  21077878.260   110765022.94907  21077875.800    86310389.97747
  24317672.520   127790248.00906  24317669.740    99576851.92043
  24315386.800   127778200.61508  24315385.840    99567427.32443
  23425867.180   123103771.57108  23425868.440    95925018.97646
  23395855.560   122946027.88708  23395855.040    95802089.53643
  22500636.780   118241633.16709  22500632.400    92136318.54147
 15 02 21 00 14 30.0000000  0  8G16G18G21G22G25G27G29G31
  22203925.700   116682434.10308  22203920.500    90921380.89645
  22748055.520   119541864.38208  22748050.380    93149435.10644
  21083230.840   110793148.65007  21083227.940    86332306.10847
  24299751.520   127696071.84306  24299747.440    99503468.14843
  24334048.360   127876266.98307  24334048.280    99643842.67544
  23412964.420   123035966.58408  23412965.260    95872183.98147
  23409216.660   123016239.29108  23409215.560    95856799.69042
  22516382.140   118324375.62609  22516378.140    92200793.16047
 15 02 21 00 15  0.0000000  0  8G16G18G21G22G25G27G29G31
  22188853.060   116603227.39208  22188847.960    90859661.42444
  22735292.980   119474796.39108  22735287.880    93097174.34144
  21088652.060   110821633.98207  21088648.400    86354502.46847
  24281820.460   127601842.09707  24281814.960    99430042.52643
  24352741.520   127974501.38207  24352742.340    99720388.87744
  23400077.320   122968244.47908  23400077.840    95819413.57346
  23422584.080   123086483.76208  23422583.320    95911535.59942
  22532176.800   118407377.39009  22532173.180    92265469.83047
 15 02 21 00 15 30.0000000  0  8G16G18G21G22G25G27G29G31
  22173819.960   116524228.76708  22173815.040    90798104.07045
  22722577.400   119407975.52208  22722572.660    93045106.12744
  21094142.480   110850482.72108  21094138.000    86376981.99747
  24263880.640   127507566.63707  24263874.500    99356581.29443
  24371467.120   128072907.51007  24371468.600    99797068.90144
  23387206.840   122900610.47807  23387207.080    95766711.76746
  23435958.700   123156766.40108  23435958.020    95966301.30442
  22548021.200   118490641.16008  22548017.980    92330350.66346
 15 02 21 00 16  0.0000000  0  8G16G18G21G22G25G27G29G31
  22158825.800   116445435.10108  22158821.220    90736706.43745
  22709908.180   119341399.04108  22709904.000    92993228.37544
  21099700.660   110879688.03007  21099695.580    86399739.39147
  24245931.360   127413242.37108  24245925.080    99283082.04044
  24390224.180   128171478.43607  24390225.740    99873877.36245
  23374351.920   122833058.91208  23374352.220    95714074.23846
  23449339.400   123227081.55108  23449338.960    96021092.32142
  22563913.760   118574158.51608  22563910.880    92395429.07146
 15 02 21 00 16 30.0000000  0  8G16G18G21G22G25G27G29G31
  22143870.840   116366847.60908  22143866.380    90675469.46544
  22697285.640   119275068.31008  22697282.120    92941542.07945
  21105325.960   110909247.56807  21105320.540    86422772.79147
  24227972.900   127318870.77908  24227966.980    99209545.90043
  24409012.360   128270211.74707  24409014.020    99950812.33445
  23361512.500   122765588.76608  23361512.700    95661500.12745
  23462726.020   123297428.28508  23462724.260    96075907.97342
  22579853.880   118657925.30008  22579851.060    92460701.83346
 15 02 21 00 17  0.0000000  0  8G16G18G21G22G25G27G29G31
  22128956.300   116288472.24408  22128951.760    90614397.75544
  22684710.940   119208989.82607  22684708.460    92890052.38745
  21111018.740   110939163.16607  21111013.380    86446083.64247
  24210006.420   127224458.27308  24210001.100    99135977.86744
  24427832.040   128369109.95907  24427833.820   100027875.81844
  23348689.320   122698203.82708  23348689.520    95608992.43445
  23476119.240   123367810.59408  23476116.960    96130751.25043
  22595841.920   118741942.67108  22595838.940    92526169.88545
 15 02 21 00 17 30.0000000  0  8G16G18G21G22G25G27G29G31
  22114081.580   116210305.72808  22114076.420    90553488.78544
  22672183.460   119143160.89207  22672182.000    92838757.16845
  21116777.900   110969428.20508  21116772.660    86469666.78247
  24192031.540   127130002.09207  24192026.920    99062375.80444
  24446681.800   128468166.40807  24446683.580   100105062.58444
  23335881.420   122630898.81708  23335881.260    95556546.97345
  23489518.140   123438222.93208  23489515.000    96185618.02443
  22611876.060   118826202.42208  22611872.860    92591826.79545
 15 02 21 00 18  0.0000000  0  8G16G18G21G22G25G27G29G31
  22099248.280   116132356.40508  22099242.340    90492749.06343
  22659705.140   119077590.00207  22659704.360    92787663.01745
  21122604.420   111000047.08208  21122599.240    86493525.65147
  24174049.800   127035510.60307  24174046.180    98988746.23044
  24465562.580   128567385.48207  24465563.300   100182376.12343
  23323089.940   122563679.48008  23323089.400    95504168.30046
  23502923.700   123508670.97608  23502920.420    96240512.55044
  22627956.820   118910707.44908  22627953.400    92657674.83845
 15 02 21 00 18 30.0000000  0  8G16G18G21G22G25G27G29G31
  22084456.940   116054626.83109  22084450.260    90432180.54844
  22647276.960   119012280.09808  22647276.380    92736772.21345
  21128497.900   111031018.38208  21128492.900    86517659.12947
  24156061.880   126940986.97707  24156059.120    98915091.63344
  24484474.220   128666766.38207  24484473.480   100259815.80243
  23310314.920   122496546.36008  23310313.780    95451856.78245
  23516336.240   123579155.66107  23516333.060    96295435.63444
  22644083.720   118995455.45608  22644080.380    92723712.22145
 15 02 21 00 19  0.0000000  0  8G16G18G21G22G25G27G29G31
  22069707.180   115977115.40209  22069699.940    90371782.02544
  22634898.380   118947229.31208  22634897.620    92686083.30945
  21134457.520   111062337.13008  21134452.740    86542063.35947
  24138067.580   126846429.58206  24138065.420    98841410.69544
  24503415.800   128766303.36208  24503414.080   100337377.03243
  23297555.480   122429495.19208  23297554.320    95399609.14545
  23529754.940   123649672.34608  23529752.020    96350383.61844
  22660255.500   119080439.14108  22660252.360    92789933.26045
 15 02 21 00 19 30.0000000  0  8G16G18G21G22G25G27G29G31
  22054999.420   115899824.54309  22054991.740    90311555.37644
  22622569.940   118882441.25708  22622569.020    92635599.13345
  21140482.980   111094001.85308  21140478.420    86566737.16747
  24120067.440   126751841.24306  24120065.680    98767705.65145
  24522387.100   128865995.55808  24522385.140   100415059.25443
  23284811.800   122362526.48108  23284810.600    95347425.75545
  23543179.840   123720221.57008  23543176.960    96405356.99744
  22676471.760   119165656.13108  22676468.780    92856336.08645
 15 02 21 00 20  0.0000000  0  8G16G18G21G22G25G27G29G31
  22040333.880   115822756.03208  22040326.140    90251501.98644
  22610291.960   118817917.82408  22610290.620    92585321.15645
  21146573.900   111126010.64507  21146569.660    86591679.08647
  24102062.080   126657224.35507  24102060.580    98693978.36644
  24541387.560   128965841.13408  24541385.280   100492860.98244
  23272083.920   122295639.79608  23272082.780    95295306.27445
  23556611.080   123790802.88908  23556607.840    96460355.41344
  22692731.880   119251103.20209  22692728.800    92922918.21645
 15 02 21 00 20 30.0000000  0  8G16G18G21G22G25G27G29G31
  22025711.240   115745913.86908  22025703.720    90191624.98244
  22598065.240   118753663.12108  22598063.260    92535252.56045
  21152730.220   111158363.26307  21152726.420    86616888.90847
  24084052.360   126562583.09807  24084050.740    98620232.04044
  24560417.120   129065840.19508  24560414.700   100570782.31943
  23259372.020   122228836.60808  23259370.600    95243251.87445
  23570048.820   123861417.58108  23570044.780    96515379.81144
  22709035.540   119336778.95408  22709032.340    92989678.53245
 15 02 21 00 21  0.0000000  0  8G16G18G21G22G25G27G29G31
  22011131.760   115669299.18508  22011124.720    90131925.21944
  22585889.760   118689678.47108  22585887.280    92485394.38145
  21158951.480   111191057.12907  21158948.180    86642364.63747
  24066038.380   126467918.81507  24066036.200    98546467.79545
  24579475.180   129165990.21207  24579472.920   100648821.21443
  23246675.780   122162115.79508  23246674.100    95191261.67845
  23583492.760   123932064.41508  23583487.440    96570429.30343
  22725381.900   119422679.49508  22725378.620    93056614.00245
 15 02 21 00 21 30.0000000  0  8G16G18G21G22G25G27G29G31
  21996596.620   115592918.18808  21996590.440    90072407.58945
  22573766.800   118625970.27308  22573764.100    92435751.65645
  21165238.200   111224094.86707  21165235.240    86668108.32647
  24048021.320   126373238.06607  24048018.620    98472690.71544
  24598562.140   129266293.88807  24598560.180   100726979.83043
  23233995.960   122095481.49108  23233994.160    95139338.87045
  23596943.760   124002748.08108  23596937.620    96625507.48844
  22741771.120   119508805.98408  22741767.840    93123725.53245
 15 02 21 00 22  0.0000000  0  8G16G18G21G22G25G27G29G31
  21982105.200   115516767.72708  21982100.180    90013069.61045
  22561695.800   118562535.84409  22561692.960    92386322.26245
  21171589.140   111257469.57908  21171586.280    86694114.60048
  24030000.700   126278538.12808  24029997.340    98398898.68544
  24617676.880   129366744.23307  24617675.420   100805252.79543
  23221331.420   122028928.17208  23221329.280    95087479.18445
  23610400.740   124073463.03608  23610394.300    96680610.04544
  22758201.580   119595150.01408  22758198.520    93191006.55745
 15 02 21 00 22 30.0000000  0  8G16G18G21G22G25G27G29G31
  21967659.000   115440855.91707  21967655.340    89953917.60445
  22549678.520   118499383.40809  22549675.260    92337112.57545
  21178005.020   111291184.90408  21178001.960    86720386.27348
  24011978.200   126183827.48608  24011974.140    98325098.26644
  24636820.400   129467345.62807  24636819.780   100883643.40343
  23208683.200   121962461.64508  23208681.140    95035687.13445
  23623864.700   124144214.96608  23623858.800    96735741.38944
  22774673.980   119681714.50807  22774671.480    93258459.36645
 15 02 21 00 23  0.0000000  0  8G16G18G21G22G25G27G29G31
  21953258.500   115365183.57708  21953256.040    89894952.19245
  22537715.140   118436514.03709  22537711.200    92288123.44945
  21184485.420   111325238.44308  21184481.940    86746921.50647
  23993953.880   126089107.17408  23993949.300    98251290.32144
  24655992.280   129568095.24907  24655991.580   100962149.59542
  23196051.100   121896080.50508  23196048.780    94983961.59345
  23637335.200   124215002.32208  23637330.160    96790900.32944
  22791187.460   119768495.01008  22791185.480    93326080.46545
 15 02 21 00 23 30.0000000  0  8G16G18G21G22G25G27G29G31
  21938903.660   115289748.89408  21938901.920    89836171.97245
  22525805.160   118373926.17308  22525800.620    92239353.67245
  21191028.960   111359623.52508  21191024.940    86773715.07347
  23975927.320   125994375.53808  23975922.640    98177473.57445
  24675191.520   129668987.36607  24675191.420   101040766.77442
  23183434.460   121829780.54708  23183432.360    94932299.29445
  23650811.640   124285821.07408  23650807.380    96846083.75245
  22807740.860   119855484.36308  22807739.260    93393864.32245
 15 02 21 00 24  0.0000000  0  8G16G18G21G22G25G27G29G31
  21924594.880   115214553.91908  21924593.140    89777578.48945
  22513948.860   118311622.02008  22513944.440    92190805.00145
  21197635.340   111394339.64508  21197630.900    86800766.60547
  23957899.080   125899635.24908  23957894.400    98103650.09345
  24694417.700   129770020.46808  24694418.020   101119493.82143
  23170833.340   121763561.72208  23170831.420    94880700.23845
  23664293.780   124356670.95808  23664290.500    96901291.40445
  22824333.640   119942679.65108  22824332.300    93461808.66745
 15 02 21 00 24 30.0000000  0  8G16G18G21G22G25G27G29G31
  21910333.060   115139605.11608  21910331.100    89719176.81646
  22502147.460   118249608.11908  22502143.900    92142482.52345
  21204304.880   111429389.05308  21204300.340    86828077.81147
  23939870.480   125804893.05508  23939865.760    98029825.12845
  24713671.280   129871197.15308  24713671.780   101198332.75643
  23158248.500   121697428.13008  23158246.120    94829167.56145
  23677782.500   124427556.31808  23677780.280    96956526.70146
  22840966.000   120030082.11808  22840964.720    93529914.45045
 15 02 21 00 25  0.0000000  0  8G16G18G21G22G25G27G29G31
  21896118.220   115064903.53308  21896115.920    89660967.79945
  22490401.540   118187885.79108  22490398.820    92094387.24645
  21211037.020   111464768.50508  21211032.740    86855646.20247
  23921841.700   125710150.08408  23921837.040    97955999.57944
  24732951.580   129972514.62307  24732952.120   101277281.40543
  23145679.600   121631378.36208  23145677.100    94777700.25245
  23691277.620   124498475.70908  23691276.080    97011788.53045
  22857637.000   120117687.18508  22857635.500    93598178.13544
 15 02 21 00 25 30.0000000  0  8G16G18G21G22G25G27G29G31
  21881950.300   114990449.11108  21881947.640    89602951.33945
  22478711.240   118126454.90808  22478708.920    92046519.03345
  21217831.220   111500473.79108  21217827.300    86883468.48847
  23903812.760   125615406.89208  23903808.220    97882173.83244
  24752257.780   130073969.25506  24752258.280   101356336.86444
  23133126.280   121565410.27008  23133123.260    94726296.54844
  23704778.740   124569426.61308  23704777.680    97067074.89545
  22874345.600   120205490.03608  22874343.700    93666595.93544
 15 02 21 00 26  0.0000000  0  8G16G18G21G22G25G27G29G31
  21867831.180   114916251.62509  21867828.100    89545135.11945
  22467078.520   118065325.81508  22467076.500    91998886.01945
  21224688.840   111536511.22408  21224685.040    86911549.60747
  23885785.420   125520673.42107  23885781.140    97808355.67943
  24771590.880   130175566.96306  24771591.700   101435503.79744
  23120589.940   121499531.31408  23120586.920    94674962.30744
  23718287.420   124640416.81108  23718286.660    97122391.90945
  22891092.700   120293495.30108  22891090.080    93735171.47044
 15 02 21 00 26 30.0000000  0  8G16G18G21G22G25G27G29G31
  21853759.940   114842305.88809  21853756.400    89487515.04544
  22455502.520   118004493.36209  22455500.540    91951484.11945
  21231608.120   111572871.82908  21231604.340    86939882.54747
  23867758.800   125425944.99107  23867753.840    97734541.38141
  24790949.580   130277298.74007  24790950.760   101514775.22144
  23108069.100   121433734.04008  23108066.740    94623691.73245
  23731802.380   124711439.06708  23731801.780    97177733.89045
  22907876.220   120381692.21908  22907872.940    93803896.32744
 15 02 21 00 27  0.0000000  0  8G16G18G21G22G25G27G29G31
  21839737.500   114768616.87209  21839733.460    89430095.01644
  22443984.020   117943962.53109  22443981.900    91904317.26945
  21238589.160   111609556.52208  21238585.340    86968468.04347
  23849733.900   125331226.76008  23849725.900    97660734.94741
  24810334.080   130379165.60307  24810335.120   101594151.88143
  23095564.260   121368020.96908  23095561.900    94572486.76544
  23745324.000   124782495.76708  23745323.440    97233102.70545
  22924696.040   120470080.58808  22924692.600    93872770.38545
 15 02 21 00 27 30.0000000  0  7G16G18G21G22G27G29G31
  21825764.440   114695187.38308  21825759.700    89372877.20044
  22432523.560   117883736.49109  22432521.140    91857387.90345
  21245631.600   111646564.28408  21245627.880    86997305.27147
  23831711.720   125236522.15808  23831702.580    97586939.12843
  23083075.560   121302392.94608  23083073.740    94521348.11445
  23758852.480   124853587.86307  23758851.780    97288499.13545
  22941551.520   120558658.40507  22941548.560    93941792.00345
 15 02 21 00 28  0.0000000  0  7G16G18G21G22G27G29G31
  21811840.640   114622017.31008  21811835.180    89315861.53644
  22421120.940   117823814.78209  22421118.300    91810695.68145
  21252734.720   111683890.74108  21252731.060    87026390.82547
  23813692.320   125141831.20408  23813684.700    97513154.04344
  23070602.460   121236847.38607  23070601.020    94470273.67945
  23772387.060   124924712.55807  23772386.440    97343920.92646
  22958441.220   120647419.81107  22958439.440    94010956.67245
 15 02 21 00 28 30.0000000  0  7G16G18G21G22G27G29G31
  21797966.560   114549109.63108  21797960.840    89259050.31944
  22409776.760   117764200.87909  22409774.180    91764243.29246
  21259898.460   111721535.30808  21259894.780    87055724.25247
  23795676.180   125047157.01308  23795670.380    97439382.03444
  23058144.960   121171385.01707  23058144.160    94419264.08345
  23785927.780   124995870.63607  23785927.460    97399368.71444
  22975365.320   120736362.67107  22975364.740    94080262.69846
 15 02 21 00 29  0.0000000  0  7G16G18G21G22G27G29G31
  21784142.700   114476466.65108  21784137.560    89202445.42444
  22398491.480   117704897.00809  22398489.180    91718032.51345
  21267122.500   111759496.56008  21267118.620    87085304.46147
  23777663.880   124952502.76207  23777659.500    97365625.55945
  23045703.240   121106005.88907  23045703.560    94368319.35445
  23799474.880   125067062.36007  23799474.720    97454842.71445
  22992324.100   120825483.95308  22992324.120    94149707.78945
 15 02 21 00 29 30.0000000  0  7G16G18G21G22G27G29G31
  21770369.400   114404089.18708  21770365.300    89146047.40845
  22387265.360   117645904.13508  22387263.360    91672064.05746
  21274405.940   111797770.02908  21274401.820    87115127.94547
  23759655.320   124857869.16907  23759652.020    97291885.23246
  23033277.220   121040708.55507  23033278.220    94317438.36845
  23813028.280   125138286.09407  23813028.220    97510341.68745
  23009316.840   120914779.52008  23009316.640    94219288.70845
 15 02 21 00 30  0.0000000  0  7G16G18G21G22G27G29G31
  21756646.960   114331978.23208  21756643.900    89089857.09245
  22376098.840   117587223.56109  22376096.880    91626338.95945
  21281748.260   111836353.54308  21281744.000    87145193.02147
  23741651.060   124763257.49207  23741648.260    97218161.93345
  23020866.700   120975491.62008  23020868.060    94266620.00245
  23826587.600   125209540.50707  23826587.160    97565864.56345
  23026342.240   121004244.83108  23026341.620    94289001.90045
 15 02 21 00 30 30.0000000  0  7G16G18G21G22G27G29G31
  21742976.480   114260138.57608  21742973.860    89033878.15646
  22364992.740   117528859.70509  22364990.260    91580860.64046
  21289149.820   111875248.65608  21289145.360    87175500.89547
  23723652.100   124668673.16508  23723649.420    97144459.98545
  23008472.280   120910357.74708  23008473.820    94215866.34945
  23840153.400   125280828.24307  23840152.440    97621413.38144
  23043399.900   121093879.55808  23043398.720    94358847.10745
 15 02 21 00 31  0.0000000  0  7G16G18G21G22G27G29G31
  21729357.780   114188569.89009  21729355.040    88978110.36446
  22353946.980   117470812.32309  22353943.840    91535628.93046
  21296609.520   111914449.26308  21296604.900    87206046.83347
  23705658.500   124574116.07808  23705655.560    97070779.24645
  22996093.320   120845304.16508  22996094.740    94165175.28145
  23853725.040   125352146.46207  23853723.540    97676985.97044
  23060488.580   121183678.06708  23060486.860    94428819.94245
 15 02 21 00 31 30.0000000  0  7G16G18G21G22G27G29G31
  21715792.500   114117281.21409  21715789.320    88922560.76846
  22342963.240   117413090.55309  22342959.400    91490650.94046
  21304128.700   111953962.37108  21304124.020    87236836.26847
  23687672.060   124479595.79608  23687668.440    96997127.14444
  22983731.100   120780337.83008  22983732.200    94114552.19545
  23867303.680   125423502.31907  23867301.340    97732587.91844
  23077608.940   121273644.14508  23077606.800    94498923.34145
 15 02 21 00 32  0.0000000  0  7G16G18G21G22G27G29G31
  21702280.520   114046272.15309  21702276.760    88867229.02946
  22332041.480   117355694.50409  22332036.920    91445926.74646
  21311706.240   111993782.55808  21311701.600    87267864.98347
  23669692.720   124385112.54708  23669687.560    96923503.85643
  22971385.040   120715456.14308  22971385.720    94063995.06145
  23880888.720   125494893.22606  23880885.660    97788217.18044
  23094760.040   121363772.42308  23094757.680    94569153.12945
 15 02 21 00 32 30.0000000  0  7G16G18G21G22G27G29G31
  21688821.540   113975541.54109  21688817.220    88812114.27046
  22321181.260   117298622.27609  22321176.320    91401454.88046
  21319341.280   112033904.97708  21319336.660    87299129.21147
  23651720.100   124290664.82408  23651713.040    96849908.25543
  22959054.340   120650655.28408  22959053.980    94013500.89645
  23894479.620   125566315.41206  23894475.920    97843870.77844
  23111940.620   121454055.85808  23111938.100    94639503.81745
 15 02 21 00 33  0.0000000  0  7G16G18G21G22G27G29G31
  21675415.840   113905091.43409  21675411.140    88757218.08946
  22310382.960   117241876.26609  22310378.180    91357237.22946
  21327033.380   112074327.65608  21327028.900    87330627.40147
  23633754.800   124196255.70508  23633746.440    96776342.69343
  22946738.960   120585935.41308  22946737.740    93963069.85844
  23908076.620   125637769.21207  23908072.200    97899549.03143
  23129150.100   121544491.72108  23129147.260    94709973.27545
 15 02 21 00 33 30.0000000  0  7G16G18G21G22G27G29G31
  21662064.900   113834929.97709  21662060.080    88702546.82946
  22299648.020   117185464.26709  22299643.480    91313279.84146
  21334783.380   112115054.64008  21334779.100    87362362.70547
  23615798.300   124101893.07308  23615790.360    96702813.38344
  22934439.920   120521302.16008  22934438.000    93912706.30145
  23921680.620   125709259.91007  23921675.900    97955256.08743
  23146389.040   121635082.75208  23146385.820    94780563.63444
 15 02 21 00 34  0.0000000  0  7G16G18G21G22G27G29G31
  21648767.980   113765053.37609  21648763.120    88648097.54046
  22288975.860   117129382.97009  22288971.780    91269580.14146
  21342589.660   112156077.44908  21342585.660    87394328.53048
  23597850.000   124007573.78308  23597843.400    96629317.89045
  22922156.020   120456749.50408  22922153.520    93862405.53044
  23935290.580   125780781.59907  23935286.820    98010987.22243
  23163655.720   121725819.70508  23163652.000    94851267.72044
 15 02 21 00 34 30.0000000  0  7G16G18G21G22G27G29G31
  21635526.620   113695469.59909  21635521.860    88593876.43446
  22278368.080   117073640.16809  22278364.340    91226144.21846
  21350453.100   112197400.91008  21350449.440    87426528.62147
  23579911.400   123913306.26408  23579905.900    96555862.75845
  22909888.300   120392283.18608  22909885.780    93812172.04945
  23948907.680   125852339.92407  23948904.960    98066746.91744
  23180950.580   121816705.54808  23180946.740    94922087.84443
 15 02 21 00 35  0.0000000  0  7G16G18G21G22G27G29G31
  21622340.840   113626178.80809  21622336.280    88539883.61845
  22267824.740   117018236.12409  22267821.300    91182972.23646
  21358373.120   112239021.44508  21358369.720    87458960.18247
  23561982.760   123819091.03208  23561977.760    96482448.35945
  22897636.500   120327901.35008  22897634.400    93762004.38144
  23962531.560   125923933.23507  23962529.640    98122533.83545
  23198272.660   121907735.08808  23198269.060    94993019.91244
 15 02 21 00 35 30.0000000  0  7G16G18G21G22G27G29G31
  21609210.560   113557180.30609  21609206.160    88486118.56345
  22257345.480   116963169.53809  22257342.280    91140063.21846
  21366348.840   112280934.28908  21366345.560    87491619.53548
  23544064.020   123724927.64408  23544059.300    96409074.34646
  22885400.220   120263600.80408  22885398.680    93711900.07045
  23976161.700   125995558.35407  23976160.000    98178345.54245
  23215621.060   121998902.06108  23215617.940    95064059.09544
 15 02 21 00 36  0.0000000  0  7G16G18G21G22G27G29G31
  21596136.180   113488476.00608  21596131.940    88432582.77445
  22246930.800   116908442.65808  22246927.780    91097418.91046
  21374379.820   112323136.97408  21374376.520    87524504.74447
  23526155.620   123630818.82408  23526151.160    96335742.88646
  22873179.540   120199381.33308  22873178.700    93661858.93845
  23989797.920   126067215.26107  23989796.200    98234182.04045
  23232995.280   122090203.81908  23232992.620    95135203.29444
 15 02 21 00 36 30.0000000  0  7G16G18G21G22G27G29G31
  21583119.480   113420074.68309  21583115.340    88379283.07545
  22236582.500   116854064.22608  22236579.580    91055046.11746
  21382466.880   112365634.11508  21382463.440    87557619.39347
  23508259.420   123536773.21108  23508254.980    96262460.61146
  22860975.660   120135249.47208  22860975.660    93611886.05545
  24003441.200   126138910.20107  24003439.680    98290048.15545
  23250395.820   122181643.38608  23250393.640    95206454.86345
 15 02 21 00 37  0.0000000  0  7G16G18G21G22G27G29G31
  21570160.640   113351976.11809  21570156.440    88326219.27045
  22226300.420   116800033.67508  22226297.900    91012944.41146
  21390609.220   112408421.84608  21390605.680    87590960.48947
  23490375.120   123442791.10608  23490370.980    96189227.86146
  22848788.020   120071202.55208  22848788.500    93561979.38546
  24017091.100   126210640.60807  24017089.920    98345941.91746
  23267821.540   122273215.04608  23267819.360    95277809.34644
 15 02 21 00 37 30.0000000  0  7G16G18G21G22G27G29G31
  21557259.760   113284180.69509  21557255.360    88273391.67446
  22216084.740   116746351.26508  22216082.360    90971113.98646
  21398805.900   112451495.63508  21398802.340    87624524.47847
  23472502.900   123348873.33808  23472499.240    96116045.24046
  22836616.260   120007238.78608  22836616.660    93512137.51846
  24030747.460   126282404.62007  24030746.280    98401861.83945
  23285271.480   122364914.26908  23285269.320    95349263.24745
 15 02 21 00 38  0.0000000  0  7G16G18G21G22G27G29G31
  21544417.040   113216690.23809  21544412.320    88220801.71846
  22205935.960   116693019.04808  22205933.580    90929556.41846
  21407056.620   112494854.32008  21407053.240    87658310.47747
  23454643.380   123255021.81208  23454640.140    96042914.23046
  22824460.320   119943357.92908  22824460.620    93462360.25946
  24044410.200   126354201.93407  24044408.560    98457807.76945
  23302745.000   122456737.72408  23302742.800    95420813.94644
 15 02 21 00 38 30.0000000  0  7G16G18G21G22G27G29G31
  21531633.320   113149509.79109  21531628.140    88168453.30946
  22195854.760   116640041.96608  22195852.720    90888275.58946
  21415361.500   112538498.09408  21415358.200    87692318.60647
  23436797.580   123161242.66408  23436794.820    95969839.64747
  22812320.600   119879562.79108  22812320.880    93412649.78146
  24058079.960   126426035.25507  24058078.000    98513781.73844
  23320241.920   122548684.91708  23320239.640    95492461.04844
 15 02 21 00 39  0.0000000  0  7G16G18G21G22G27G29G31
  21518907.860   113082635.89109  21518902.200    88116343.78546
  22185840.380   116587416.16408  22185838.780    90847268.48846
  21423719.300   112582420.21108  21423715.980    87726543.65147
  23418965.060   123067532.35708  23418962.560    95896818.68646
  22800196.040   119815847.45208  22800196.140    93363001.49146
  24071755.820   126497899.34408  24071753.400    98569779.69344
  23337760.600   122640747.07208  23337758.320    95564197.74144
 15 02 21 00 39 30.0000000  0  7G16G18G21G22G27G29G31
  21506242.380   113016077.84609  21506236.340    88064480.35246
  22175894.620   116535150.77708  22175893.200    90806542.22046
  21432131.080   112626625.55408  21432127.720    87760989.38347
  23401147.300   122973900.32408  23401144.860    95823858.70546
  22788087.960   119752219.20408  22788088.180    93313421.01746
  24085438.760   126569800.80507  24085435.740    98625806.77244
  23355302.060   122732928.62808  23355299.780    95636027.46844
 15 02 21 00 40  0.0000000  0  7G16G18G21G22G27G29G31
  21493637.140   112949837.29109  21493631.060    88012864.34046
  22166017.960   116483247.42209  22166016.440    90766098.06246
  21440596.500   112671112.10608  21440592.980    87795654.23747
  23383344.960   122880349.09008  23383342.380    95750961.68446
  22775996.300   119688677.48508  22775996.680    93263908.00246
  24099128.500   126641739.17407  24099124.100    98681862.61043
  23372865.680   122825225.88808  23372863.100    95707947.37644
 15 02 21 00 40 30.0000000  0  7G16G18G21G22G27G29G31
  21481091.940   112883912.62609  21481086.020    87961494.47846
  22156209.860   116431703.64909  22156208.100    90725934.10346
  21449114.440   112715873.61808  21449110.620    87830533.36647
  23365558.000   122786877.36608  23365554.940    95678126.59845
  22763920.300   119625218.29908  22763920.680    93214459.30046
  24112824.380   126713710.95208  24112818.720    98737944.52543
  23390450.000   122917631.55908  23390447.080    95779951.78044
 15 02 21 00 41  0.0000000  0  7G16G18G21G22G27G29G31
  21468607.820   112818309.59109  21468602.320    87910375.21346
  22146471.480   116380526.26409  22146469.400    90686055.63446
  21457685.300   112760912.46508  21457681.160    87865628.57547
  23347787.400   122693491.52908  23347783.520    95605358.42145
  22751860.760   119561845.53308  22751860.980    93165077.93245
  24126527.200   126785719.73908  24126521.540    98794055.22743
  23408055.100   123010146.58408  23408052.300    95852041.35945
 15 02 21 00 41 30.0000000  0  7G16G18G21G22G27G29G31
  21456185.340   112753031.43809  21456180.560    87859509.15546
  22136803.320   116329717.24409  22136800.660    90646464.20046
  21466308.620   112806226.67208  21466304.260    87900938.34747
  23330033.660   122600194.53008  23330029.060    95532659.45745
  22739817.780   119498559.71108  22739817.640    93115764.31146
  24140236.860   126857765.79407  24140231.180    98850195.00843
  23425680.380   123102768.39508  23425678.020    95924214.12746
 15 02 21 00 42  0.0000000  0  7G16G18G21G22G27G29G31
  21443824.320   112688077.46808  21443820.440    87808895.69846
  22127205.120   116279276.10109  22127201.860    90607159.43346
  21474983.540   112851812.35008  21474979.020    87936459.65247
  23312296.740   122506986.43908  23312292.260    95460029.80045
  22727790.860   119435358.10908  22727790.320    93066516.33445
  24153953.020   126929846.67508  24153947.640    98906361.94242
  23443324.920   123195491.59908  23443323.040    95996465.91946
 15 02 21 00 42 30.0000000  0  7G16G18G21G22G27G29G31
  21431525.280   112623449.19208  21431522.060    87758536.03746
  22117677.080   116229204.84009  22117673.400    90568142.87546
  21483709.800   112897667.84208  21483705.100    87972191.19247
  23294577.080   122413869.66508  23294573.340    95387471.31646
  22715779.980   119372240.71308  22715779.000    93017333.94346
  24167675.760   127001962.33307  24167672.060    98962555.97444
  23460988.160   123288312.69608  23460986.660    96068793.95846
 15 02 21 00 43  0.0000000  0  7G16G18G21G22G27G29G31
  21419289.380   112559151.32909  21419286.400    87708433.79845
  22108219.880   116179506.81909  22108216.040    90529417.14846
  21492487.220   112943792.67008  21492482.400    88008132.59947
  23276875.700   122320848.83408  23276872.680    95314987.60746
  22703785.560   119309209.35608  22703784.160    92968218.61646
  24181405.380   127074114.12307  24181403.500    99018778.10545
  23478669.940   123381230.52509  23478668.760    96141197.38646
 15 02 21 00 43 30.0000000  0  7G16G18G21G22G27G29G31
  21407116.980   112495185.91308  21407113.960    87658590.62946
  22098833.880   116130184.20709  22098830.240    90490983.96146
  21501315.460   112990184.72508  21501310.660    88044282.24147
  23259193.200   122227926.32808  23259190.360    95242580.51646
  22691807.600   119246263.97108  22691805.980    92919170.26046
  24195141.900   127146302.66606  24195141.320    99075028.83445
  23496369.680   123474241.97009  23496368.680    96213673.77346
 15 02 21 00 44  0.0000000  0  7G16G18G21G22G27G29G31
  21395008.100   112431553.43209  21395004.920    87609006.89246
  22089519.380   116081237.31409  22089515.900    90452843.53146
  21510193.820   113036840.95108  21510189.240    88080637.74247
  23241529.720   122135103.31008  23241526.740    95170250.94746
  22679845.660   119183402.86908  22679844.000    92870187.58946
  24208885.040   127218525.78407  24208885.320    99131306.51145
  23514086.480   123567342.40409  23514085.420    96286219.49646
 15 02 21 00 44 30.0000000  0  7G16G18G21G22G27G29G31
  21382962.740   112368254.21009  21382959.280    87559682.81946
  22080276.440   116032666.53509  22080273.200    90414996.18246
  21519121.560   113083757.83108  21519117.580    88117196.34447
  23223885.420   122042380.66908  23223882.100    95097999.58146
  22667899.380   119120624.50508  22667898.020    92821269.40046
  24222634.940   127290782.28807  24222635.460    99187610.22244
  23531819.300   123660527.13408  23531818.080    96358830.90646
 15 02 21 00 45  0.0000000  0  7G16G18G21G22G27G29G31
  21370981.600   112305291.65609  21370977.780    87510621.09546
  22071105.560   115984474.61208  22071102.660    90377444.04546
  21528098.540   113130934.46008  21528095.300    88153957.34947
  23206260.880   121949761.85908  23206256.980    95025829.13346
  22655968.940   119057929.82908  22655967.920    92772416.42346
  24236391.780   127363072.69507  24236391.960    99243940.39344
  23549567.680   123753793.96608  23549566.400    96431506.27446
 15 02 21 00 45 30.0000000  0  7G16G18G21G22G27G29G31
  21359065.500   112242670.20809  21359061.260    87461825.13846
  22062007.540   115936665.63108  22062005.040    90340190.31946
  21537124.820   113178370.87408  21537122.440    88190920.78147
  23188656.860   121857251.71808  23188652.240    94953743.34045
  22644054.820   118995321.19808  22644054.200    92723630.49246
  24250155.700   127435399.55806  24250155.200    99300298.93744
  23567331.340   123847142.32408  23567330.060    96504245.16245
 15 02 21 00 46  0.0000000  0  7G16G18G21G22G27G29G31
  21347215.200   112180394.07009  21347210.560    87413298.26347
  22052983.120   115889243.51308  22052980.900    90303238.04346
  21546200.740   113226067.79408  21546199.140    88228087.21247
  23171074.180   121764855.32708  23171068.820    94881746.18944
  22632157.520   118932800.79508  22632157.240    92674913.30446
  24263926.640   127507764.91506  24263925.640    99356687.47545
  23585110.200   123940571.37408  23585108.980    96577046.90944
 15 02 21 00 46 30.0000000  0  7G16G18G21G22G27G29G31
  21335430.900   112118464.54909  21335426.040    87365041.48547
  22044032.680   115842209.62208  22044030.620    90266588.27646
  21555325.780   113274022.11008  21555324.740    88265454.21147
  23153513.400   121672574.16408  23153507.220    94809838.78944
  22620276.820   118870367.73709  22620276.900    92626264.20846
  24277704.560   127580168.02107  24277702.820    99413105.44744
  23602903.640   124034077.12908  23602902.280    96649908.46044
 15 02 21 00 47  0.0000000  0  7G16G18G21G22G27G29G31
  21323712.640   112056882.31509  21323707.760    87317055.32947
  22035156.220   115795563.75909  22035154.060    90230240.87346
  21564499.440   113322230.91008  21564498.680    88303019.50648
  23135974.800   121580409.33108  23135968.260    94738022.04544
  22608412.420   118808020.42708  22608412.960    92577681.90346
  24291489.360   127652606.92507  24291486.960    99469551.31843
  23620710.880   124127654.68108  23620709.240    96722825.98044
 15 02 21 00 47 30.0000000  0  7G16G18G21G22G27G29G31
  21312060.520   111995648.07409  21312055.700    87269340.33948
  22026353.940   115749306.61409  22026351.180    90194196.34746
  21573721.100   113370690.58708  21573720.340    88340780.28747
  23118458.840   121488362.03308  23118452.700    94666296.87745
  22596564.180   118745757.53709  22596564.960    92529165.38246
  24305280.800   127725080.74807  24305278.080    99526024.39243
  23638531.100   124221299.81208  23638528.820    96795796.18943
 15 02 21 00 48  0.0000000  0  7G16G18G21G22G27G29G31
  21300476.380   111934771.66009  21300471.620    87221904.16548
  22017627.600   115703447.75609  22017624.260    90158462.18446
  21582991.700   113419406.82308  21582990.660    88378740.98447
  23100967.360   121396442.66808  23100961.960    94594671.41945
  22584733.660   118683586.94909  22584734.320    92480720.76846
  24319079.800   127797597.08705                                
  23656365.140   124315017.30008  23656362.260    96868822.75843
 15 02 21 00 48 30.0000000  0  7G16G18G21G22G27G29G31
  21288967.700   111874292.52309  21288962.960    87174777.57248
  22008984.540   115658026.34309  22008980.740    90123068.86346
  21592317.900   113468414.87408  21592316.400    88416929.05347
  23083507.740   121304691.01508  23083503.060    94523176.65145
  22572927.880   118621545.88009  22572928.300    92432377.09246
  24332893.400   127870193.05805                                
  23674219.500   124408841.26508  23674216.200    96941932.31744
 15 02 21 00 49  0.0000000  0  7G16G18G21G22G27G29G31
  21277517.320   111814120.70909  21277512.680    87127890.45248
  22000407.560   115612951.90709  22000403.460    90087945.93846
  21601682.020   113517621.73308  21601679.780    88455272.04947
  23066062.840   121213017.77808  23066058.760    94451743.01345
  22561129.260   118559542.33609  22561129.540    92384062.65147
  24346705.080   127942776.55406                                
  23692076.020   124502676.59808  23692072.800    97015050.69244
 15 02 21 00 49 30.0000000  0  7G16G18G21G22G27G29G31
  21266149.920   111754385.62809  21266145.460    87081343.65648
  21991921.060   115568353.64309  21991916.940    90053194.05846
  21611107.740   113567152.19808  21611104.720    88493867.22047
  23048657.340   121121552.79608  23048653.940    94380471.65946
  22549361.960   118497703.67809  22549362.100    92335876.71447
  24360539.040   128015474.93805  24360550.980    99752405.94543
  23709958.220   124596647.65708  23709955.300    97088274.80044
 15 02 21 00 50  0.0000000  0  7G16G18G21G22G27G29G31
  21254820.480   111694850.92109  21254816.360    87034952.98147
  21983479.840   115523994.64809  21983475.980    90018628.60847
  21620549.360   113616766.01308  21620545.460    88532527.32147
  23031246.340   121030060.01608  23031243.400    94309178.64045
  22537580.540   118435791.34109  22537580.560    92287633.33247
  24374349.180   128088049.78404  24374358.680    99808927.70944
  23727819.920   124690512.64107  23727817.700    97161416.21744
 15 02 21 00 50 30.0000000  0  7G16G18G21G22G27G29G31
  21243583.880   111635804.66009  21243580.160    86988942.93048
  21975138.740   115480162.58909  21975135.400    89984473.78347
  21630060.840   113666747.06008  21630056.140    88571473.60346
  23013885.180   120938827.86608  23013882.300    94238088.68546
  22525839.420   118374091.22309  22525839.440    92239555.33747
  24388190.200   128160786.87705  24388196.860    99865605.83844
  23745715.160   124784554.54607  23745713.660    97234695.54244
 15 02 21 00 51  0.0000000  0  7G16G18G21G22G27G29G31
  21232406.660   111577070.28409  21232403.280    86943175.89748
  21966864.200   115436680.63709  21966861.360    89950591.76547
  21639607.760   113716914.67109  21639602.380    88610565.27146
  22996540.460   120847680.38708  22996537.240    94167064.70046
  22514104.640   118312424.69809  22514104.580    92191503.52247
  24402028.820   128233507.18706  24402033.260    99922270.98245
  23763609.480   124878591.67407  23763608.900    97307971.10144
 15 02 21 00 51 30.0000000  0  7G16G18G21G22G27G29G31
  21221299.520   111518703.87209  21221296.380    86897695.59147
  21958666.940   115393604.48609  21958664.380    89917025.94947
  21649200.100   113767321.53309  21649194.140    88649843.36446
  22979222.900   120756674.39709  22979219.100    94096150.96746
  22502386.540   118250846.09309  22502386.380    92143520.23047
  24415874.980   128306265.18706  24415877.560    99978965.51844
  23781512.800   124972675.27008  23781512.860    97381282.92044
 15 02 21 00 52  0.0000000  0  7G16G18G21G22G27G29G31
  21210264.580   111460716.68609  21210261.640    86852510.78047
  21950548.920   115350944.69109  21950546.460    89883784.56746
  21658839.240   113817974.76808  21658832.820    88689313.44346
  22961934.580   120665821.57408  22961930.200    94025356.58146
  22490686.840   118189364.52909  22490686.520    92095612.53947
  24429729.860   128379070.10904  24429731.380   100035696.59744
  23799426.260   125066810.99008  23799426.640    97454635.43442
 15 02 21 00 52 30.0000000  0  6G16G18G21G22G27G31
  21199302.020   111403109.20609  21199299.140    86807621.83047
  21942510.160   115308701.49709  21942507.680    89850867.80746
  21668524.440   113868870.50108  21668517.740    88728972.46046
  22944675.300   120575122.75208  22944670.620    93954682.22146
  22479005.260   118127978.49509  22479004.820    92047779.30046
  23817348.920   125160994.56308  23817349.260    97528025.17643
 15 02 21 00 53  0.0000000  0  7G16G18G21G22G27G29G31
  21188405.620   111345847.98309  21188402.520    86763002.70147
  21934544.240   115266840.78109  21934541.500    89818249.08346
  21678248.520   113919971.18608  21678241.920    88768791.20546
  22927439.040   120484544.74808  22927434.120    93884101.99645
  22467335.100   118066652.23309  22467334.500    91999992.64546
  24457459.100   128524811.72307  24457458.800   100149198.29944
  23835273.260   125255187.20608  23835273.760    97601421.96744
 15 02 21 00 53 30.0000000  0  7G16G18G21G22G27G29G31
  21177586.660   111288992.38309  21177583.040    86718699.63647
  21926662.400   115225421.81809  21926659.460    89785974.57346
  21688022.160   113971332.64408  21688015.800    88808813.12046
  22910237.040   120394147.87508  22910232.000    93813662.91045
  22455687.340   118005443.36709  22455686.620    91952297.45646
  24471336.620   128597738.00508  24471336.240   100206024.02544
  23853209.560   125349443.29608  23853210.040    97674868.19245
 15 02 21 00 54  0.0000000  0  7G16G18G21G22G27G29G31
  21166840.860   111232520.72309  21166836.600    86674695.74147
  21918860.440   115184422.11809  21918857.140    89754026.76546
  21697840.480   114022928.83908  21697834.540    88849017.94346
  22893065.460   120303910.43108  22893060.520    93743348.03845
  22444057.340   117944328.03209  22444056.640    91904675.14346
  24485222.020   128670706.81608  24485221.760   100262882.92845
  23871152.640   125443735.61907  23871153.080    97748342.61745
 15 02 21 00 54 30.0000000  0  7G16G18G21G22G27G29G31
  21156167.420   111176429.41209  21156162.440    86630988.21647
  21911137.600   115143837.88109  21911133.900    89722402.69746
  21707702.120   114074752.73508  21707696.660    88889400.18146
  22875923.640   120213829.75608  22875918.880    93673155.36644
  22432444.040   117883300.77709  22432443.400    91857121.45546
  24499114.540   128743713.25007  24499114.180   100319771.08644
  23889101.160   125538055.96008  23889101.380    97821838.85445
 15 02 21 00 55  0.0000000  0  7G16G18G21G22G27G29G31
  21145567.040   111120722.41809  21145561.520    86587580.16947
  21903494.500   115103672.44209  21903490.400    89691104.96246
  21717607.040   114126804.32108  21717602.300    88929959.86346
  22858812.720   120123910.54508  22858807.760    93603088.43744
  22420847.880   117822363.59609  22420847.200    91809637.93546
  24513014.420   128816759.30706  24513013.840   100376690.09545
  23907055.060   125632403.39008  23907054.940    97895356.23945
 15 02 21 00 55 30.0000000  0  6G16G18G21G22G27G31
  21135045.540   111065430.35109  21135039.580    86544495.42947
  21895936.880   115063956.04209  21895932.360    89660157.11046
  21727560.380   114179110.54508  21727556.200    88970717.92947
  22841738.260   120034183.73308  22841733.280    93533171.48045
  22409274.420   117761545.22409  22409273.700    91762247.00146
  23925019.160   125726803.25508  23925018.640    97968914.45346
 15 02 21 00 56  0.0000000  0  7G16G18G21G22G27G29G31
  21124584.400   111010455.73909  21124578.220    86501658.05447
  21888446.040   115024590.80009  21888441.260    89629482.89346
  21737542.820   114231569.47808  21737539.060    89011594.98347
  22824682.020   119944552.45109  22824676.920    93463328.95145
  22397704.680   117700746.11909  22397703.940    91714871.07946
  24540834.420   128962949.09107  24540833.140   100490611.62345
  23942973.720   125821152.72908  23942972.840    98042433.41545
 15 02 21 00 56 30.0000000  0  7G16G18G21G22G27G29G31
  21114202.880   110955899.89909  21114196.820    86459147.01347
  21881041.120   114985677.20509  21881036.300    89599160.63046
  21747572.880   114284278.20608  21747569.380    89052666.70347
  22807663.200   119855118.20509  22807657.880    93393639.94945
  22386157.580   117640065.52809  22386156.840    91667587.50246
  24554754.820   129036098.47808  24554753.140   100547611.13345
  23960936.980   125915548.20308  23960935.700    98115988.22845
 15 02 21 00 57  0.0000000  0  6G16G18G21G22G27G31
  21103906.700   110901792.69609  21103900.920    86416985.55747
  21873727.660   114947244.71609  21873722.940    89569213.24246
  21757655.600   114337262.92108  21757652.120    89093953.46547
  22790687.800   119765911.37209  22790682.200    93324128.14545
  22374638.480   117579531.51309  22374637.780    91620418.15447
  23978913.680   126010014.76008  23978912.040    98189598.44045
 15 02 21 00 57 30.0000000  0  6G16G18G21G22G27G31
  21093675.540   110848027.37409  21093670.080    86375090.50647
  21866485.240   114909186.28509  21866480.860    89539557.34047
  21767769.920   114390412.97808  21767766.260    89135369.08747
  22773735.440   119676826.17709  22773729.620    93254711.15145
  22363126.760   117519035.52409  22363126.180    91573278.44547
  23996882.480   126104440.57408  23996880.480    98263176.88845
 15 02 21 00 58  0.0000000  0  7G16G18G19G21G22G27G31
  21083521.040   110794665.00109  21083515.820    86333509.44247
  21859325.280   114871562.06809  21859321.200    89510239.78746
  24530232.280   128907252.11105  24530233.300   100447203.47344
  21777926.560   114443785.18908  21777922.640    89176957.81947
  22756818.000   119587924.04609  22756812.000    93185436.78045
  22351633.460   117458636.40009  22351632.960    91526214.19547
  24014853.960   126198881.31008  24014851.920    98336766.95744
 15 02 21 00 58 30.0000000  0  7G16G18G19G21G22G27G31
  21073442.620   110741702.62509  21073437.600    86292240.06447
  21852247.320   114834368.80309  21852243.420    89481258.04246
  24515407.460   128829335.99706  24515405.360   100386494.51544
  21788124.300   114497373.51809  21788120.180    89218714.93847
  22739934.640   119499202.23408  22739928.860    93116302.96345
  22340157.560   117398329.44009  22340157.060    91479221.77147
  24032826.740   126293329.40308  24032824.620    98410362.77344
 15 02 21 00 59  0.0000000  0  7G16G18G19G21G22G27G31
  21063437.700   110689127.02509  21063432.860    86251272.07347
  21845248.780   114797592.60609  21845244.960    89452601.28246
  24500587.800   128751455.04206  24500584.960   100325808.11644
  21798359.780   114551160.65308  21798355.480    89260626.99647
  22723083.180   119410648.34908  22723077.540    93047299.98145
  22328696.200   117338099.51009  22328695.720    91432289.38547
  24050797.440   126387766.56808  24050795.060    98483950.07445
 15 02 21 00 59 30.0000000  0  7G16G18G19G21G22G27G31
  21053509.000   110636952.48709  21053504.400    86210616.59047
  21838332.180   114761246.88409  21838328.440    89424279.95446
  24485777.040   128673620.54905  24485772.840   100265157.79245
  21808635.040   114605157.06508  21808630.420    89302702.12247
  22706266.300   119322277.60408  22706260.960    92978439.74145
  22317251.720   117277959.12709  22317251.240    91385426.76247
  24068767.900   126482202.13608  24068765.540    98557536.11444
 15 02 21 01 00  0.0000000  0  7G16G18G19G21G22G27G31
  21043658.960   110585191.66209  21043654.600    86170283.47847
  21831499.900   114725344.30609  21831496.380    89396303.92146
  24470977.240   128595843.29406  24470972.040   100204552.16845
  21818951.660   114659371.26908  21818946.760    89344946.93746
  22689486.940   119234102.90208  22689481.380    92909732.21344
  22305826.200   117217919.05409  22305825.780    91338642.31847
  24086739.600   126576643.56808  24086737.200    98631126.69544
 15 02 21 01 00 30.0000000  0  7G16G18G19G21G22G27G31
  21033887.560   110533843.90909  21033883.380    86130272.25047
  21824751.660   114689883.21609  21824748.480    89368671.90346
  24456187.440   128518120.10007  24456181.260   100143988.73443
  21829308.720   114713798.43808  21829303.520    89387357.70546
  22672745.040   119146124.03608  22672738.060    92841177.25543
  22294419.240   117157976.60909  22294418.880    91291933.93047
  24104711.300   126671085.30208  24104709.280    98704717.52245
 15 02 21 01 01  0.0000000  0  7G16G18G19G21G22G27G31
  21024194.380   110482906.68709  21024190.300    86090580.92148
  21818086.940   114654860.33309  21818084.060    89341381.35647
  24441406.860   128440446.70807  24441399.960   100083463.95844
  21839705.040   114768432.53308  21839699.400    89429929.73745
  22656040.260   119058338.94209  22656031.540    92772773.22843
  22283030.140   117098127.52509  22283029.700    91245298.29947
  24122681.660   126765519.72908  24122679.980    98778302.64845
 15 02 21 01 01 30.0000000  0  7G16G18G19G21G22G27G31
  21014580.720   110432386.68109  21014576.680    86051214.69348
  21811506.920   114620282.22609  21811504.340    89314437.38447
  24426636.060   128362827.02305  24426628.940   100022981.00144
  21850141.240   114823276.36108  21850135.060    89472665.19145
  22639373.920   118970755.42509  22639364.980    92704526.28943
  22271659.860   117038376.85209  22271659.180    91198739.35946
  24140651.040   126859948.89108  24140649.580    98851883.66845
 15 02 21 01 02  0.0000000  0  7G16G18G19G21G22G27G31
  21005046.880   110382285.78809  21005042.840    86012175.02948
  21805011.580   114586149.22309  21805009.300    89287840.24947
  24411875.340   128285261.48306  24411868.460    99962540.45143
  21860616.980   114878328.37508  21860610.280    89515562.86345
  22622746.280   118883375.60209  22622738.940    92636438.08445
  22260308.320   116978724.39009  22260307.360    91152256.91846
  24158618.800   126954369.51308  24158617.660    98925458.01344
 15 02 21 01 02 30.0000000  0  7G16G18G19G21G22G27G31
  20995592.220   110332601.02309  20995588.240    85973459.64048
  21798600.580   114552458.84109  21798598.460    89261588.02847
  24397123.960   128207744.92307  24397117.320    99902137.89344
  21871130.840   114933581.57608  21871123.760    89558617.29945
  22606156.940   118796197.12609  22606151.280    92568506.82445
  22248974.680   116919165.57309  22248973.440    91105847.45647
  24176583.540   127048773.98408  24176582.660    98999019.78944
 15 02 21 01 03  0.0000000  0  7G16G18G19G21G22G27G31
  20986215.840   110283327.61609  20986211.920    85935064.78848
  21792272.840   114519205.50509  21792270.720    89235676.36047
  24382380.840   128130270.46307  24382374.720    99841768.18244
  21881681.320   114989027.48707  21881674.080    89601821.92345
  22589604.920   118709215.84908  22589600.360    92500729.25646
  22237657.740   116859693.79109  22237655.980    91059505.81947
  24194543.460   127143152.55108  24194542.600    99072561.39044
 15 02 21 01 03 30.0000000  0  7G16G18G19G21G22G27G31
  20976920.160   110234478.81909  20976916.400    85897000.80248
  21786030.660   114486401.40909  21786028.320    89210114.73147
  24367647.940   128052849.16007  24367642.380    99781439.98544
  21892270.320   115044675.17007  21892263.160    89645183.74445
  22573092.960   118622445.49508  22573089.180    92433116.02746
  22226359.560   116800320.44509  22226357.240    91013240.87346
  24212500.120   127237513.68308  24212499.160    99146089.39443
 15 02 21 01 04  0.0000000  0  7G16G18G19G21G22G27G31
  20967704.200   110186048.62809  20967700.600    85859262.99748
  21779872.720   114454039.93109  21779869.980    89184898.00347
  24352923.780   127975473.59507  24352919.060    99721147.33445
  21902896.000   115100514.91208  21902889.340    89688695.22845
  22556620.240   118535881.23408  22556616.840    92365663.41046
  22215078.580   116741038.04309  22215076.140    90967046.79146
  24230451.400   127331846.64108  24230450.020    99219595.46343
 15 02 21 01 04 30.0000000  0  7G16G18G19G21G22G27G31
  20958570.380   110138049.80909  20958566.860    85821861.32848
  21773801.240   114422133.05009  21773798.000    89160035.50047
  24338210.200   127898153.62306  24338205.960    99660898.09445
  21913560.320   115156556.05508  21913554.200    89732363.64845
  22540189.100   118449535.71508  22540185.840    92298381.25146
  22203816.720   116681857.20009  22203814.520    90920931.86546
  24248398.700   127426158.76808  24248396.660    99293085.29343
 15 02 21 01 05  0.0000000  0  7G16G18G19G21G22G27G31
  20949517.620   110090476.83709  20949514.120    85784791.47448
  21767815.120   114390675.05409  21767811.480    89135522.78147
  24323505.720   127820882.34606  24323501.940    99600686.73845
  21924261.400   115212788.96208  21924255.860    89776181.47946
  22523798.960   118363404.51508  22523795.480    92231266.07346
  22192572.700   116622771.08908  22192571.020    90874890.75447
  24266340.100   127520440.11608  24266337.020    99366551.18442
 15 02 21 01 05 30.0000000  0  7G16G18G19G21G22G27G31
  20940546.560   110043333.65709  20940543.100    85748056.51448
  21761914.840   114359668.96309  21761911.060    89111362.20047
  24308810.720   127743661.22606  24308807.220    99540514.46845
  21934999.200   115269213.84708  21934994.120    89820148.92047
  22507450.360   118277491.70509  22507446.900    92164321.09447
  22181347.040   116563781.55308  22181345.840    90828924.91747
  24284275.120   127614689.31908  24284270.940    99439991.99142
 15 02 21 01 06  0.0000000  0  7G16G18G19G21G22G27G31
  20931657.160   109996619.83909  20931653.720    85711656.13047
  21756100.100   114329113.06809  21756096.360    89087552.42047
  24294124.880   127666487.86705  24294122.200    99480379.43545
  21945772.780   115325826.60908  21945768.000    89864262.74646
  22491143.500   118191797.75309  22491139.900    92097546.62647
  22170139.440   116504886.46009  22170138.660    90783032.66147
  24302202.860   127708901.41107  24302198.180    99513403.89243
 15 02 21 01 06 30.0000000  0  7G16G18G19G21G22G27G31
  20922850.000   109950338.23409  20922846.500    85675592.51447
  21750371.480   114299010.20209  21750368.060    89064095.66047
  24279448.620   127589363.53207  24279446.400    99420282.60645
  21956581.940   115382626.50908  21956577.260    89908522.40447
  22474879.040   118106326.50309  22474875.260    92030945.69846
  22158950.240   116446087.31109  22158949.720    90737215.15947
  24320123.140   127803074.77308  24320118.660    99586785.46641
 15 02 21 01 07  0.0000000  0  7G16G18G19G21G22G27G31
  20914124.900   109904487.64809  20914121.200    85639864.76347
  21744728.780   114269358.16509  21744725.640    89040990.19347
  24264781.220   127512284.76605  24264778.880    99360221.28744
  21967425.600   115439608.41408  21967421.060    89952923.88547
  22458656.560   118021077.10509  22458652.940    91964517.65546
  22147778.800   116387381.24509  22147778.320    90691470.19546
  24338035.000   127897203.44908  24338031.080    99660132.37442
 15 02 21 01 07 30.0000000  0  7G16G18G19G21G22G27G31
  20905483.380   109859075.97509  20905479.280    85604479.02247
  21739173.620   114240164.88209  21739170.500    89018242.18647
  24250123.760   127435258.04307  24250121.040    99300200.49945
  21978304.560   115496776.92508  21978300.280    89997470.75047
  22442477.900   117936058.28809  22442474.460    91898269.27146
  22136626.380   116328774.52009  22136625.600    90645802.61846
  24355938.960   127991290.17407                                
 15 02 21 01 08  0.0000000  0  7G16G18G19G21G22G27G31
  20896925.900   109814106.11909  20896921.460    85569437.56847
  21733706.120   114211431.32809  21733702.820    88995852.41447
  24235476.200   127358283.47607  24235473.320    99240220.40345
  21989218.540   115554131.09508  21989214.680    90042162.29646
  22426343.620   117851273.28309  22426340.360    91832203.08045
  22125493.060   116270267.94209  22125491.840    90600213.10046
  24373834.680   128085333.03307                                
 15 02 21 01 08 30.0000000  0  7G16G18G19G21G22G27G31
  20888452.160   109769576.95608  20888447.720    85534739.49647
  21728325.920   114183156.42909  21728322.240    88973820.02147
  24220838.040   127281358.55107  24220835.240    99180278.94045
  22000166.840   115611666.18908  22000163.340    90086994.82747
  22410253.800   117766721.79609  22410250.460    91766318.83144
  22114378.340   116211859.26109  22114376.620    90554699.83246
  24391721.120   128179326.75007  24391719.580    99880013.32341
 15 02 21 01 09  0.0000000  0  7G16G18G19G21G22G27G31
  20880062.860   109725492.47908  20880058.680    85500387.96047
  21723033.540   114155343.30209  21723029.560    88952147.45547
  24206209.700   127204485.49407  24206206.720    99120377.92445
  22011149.460   115669381.95208  22011146.240    90131968.14146
  22394209.280   117682408.36708  22394205.520    91700620.09544
  22103282.720   116153550.78309  22103280.600    90509264.66246
  24409598.100   128273270.30907  24409596.120    99953215.90741
 15 02 21 01 09 30.0000000  0  7G16G18G19G21G22G27G31
  20871757.500   109681850.00908  20871753.840    85466380.84647
  21717828.140   114127987.98109  21717824.020    88930831.62847
  24191590.380   127127659.46307  24191586.940    99060513.49545
  22022165.380   115727272.76608  22022162.380    90177077.85546
  22378209.800   117598331.34208  22378205.100    91635105.53343
  22092205.280   116095338.09009  22092203.000    90463904.12946
  24427464.120   128367156.11306  24427461.600   100026373.48843
 15 02 21 01 10  0.0000000  0  7G16G18G19G21G22G27G31
  20863537.220   109638655.12508  20863534.160    85432722.49347
  21712710.840   114101095.90709  21712706.580    88909876.76447
  24176980.740   127050883.96807  24176976.820    99000688.46645
  22033214.960   115785340.46908  22033212.080    90222325.43046
  22362256.400   117514496.88908  22362249.660    91569779.98643
  22081146.820   116037225.33909  22081144.540    90418621.48547
  24445319.420   128460985.38106  24445317.180   100099486.95343
 15 02 21 01 10 30.0000000  0  7G16G18G19G21G22G27G31
  20855402.180   109595908.37108  20855399.820    85399413.35247
  21707681.660   114074666.48109  21707677.140    88889282.41447
  24162380.520   126974157.79907  24162376.300    98940901.84345
  22044297.560   115843581.34908  22044294.720    90267707.94146
  22346349.440   117430906.23208  22346339.640    91504644.34241
  22070107.160   115979211.49409  22070105.000    90373415.91947
  24463163.120   128554753.82706  24463161.220   100172552.96643
 15 02 21 01 11  0.0000000  0  7G16G18G19G21G22G27G31
  20847353.920   109553616.14508  20847352.020    85366458.36248
  21702741.660   114048705.69409  21702736.880    88869053.23147
  24147790.620   126897485.69608  24147786.360    98881157.38645
  22055413.720   115901998.60107  22055410.920    90313227.85746
  22330490.320   117347566.36508  22330479.600    91439704.17744
  22059087.240   115921301.37109  22059085.120    90328291.15646
  24480995.540   128648463.17006  24480993.600   100245572.98743
 15 02 21 01 11 30.0000000  0  7G16G18G19G21G22G27G31
  20839392.940   109511780.45808  20839391.160    85333859.13048
  21697891.020   114023214.58709  21697885.860    88849190.04146
  24133210.980   126820867.58608  24133206.360    98821454.94945
  22066563.240   115960591.06208  22066560.560    90358884.31846
  22314679.680   117264480.03909  22314669.860    91374961.58044
  22048087.180   115863495.48709  22048085.020    90283247.61447
  24498816.220   128742110.71905  24498814.180   100318544.90044
 15 02 21 01 12  0.0000000  0  7G16G18G19G21G22G27G31
  20831519.220   109470401.67808  20831517.200    85301615.92348
  21693129.640   113998192.83309  21693124.040    88829692.58046
  24118641.280   126744302.11608  24118636.880    98761793.61145
  22077745.680   116019355.73808  22077743.140    90404674.95846
  22298917.520   117181648.44409  22298908.880    91310417.51045
  22037106.860   115805792.88509  22037104.540    90238284.55647
  24516624.200   128835692.74006  24516622.160   100391465.64644
 15 02 21 01 12 30.0000000  0  7G16G18G19G21G22G27G31
  20823732.720   109429480.67508  20823730.300    85269729.42748
  21688457.440   113973640.02709  21688451.560    88810560.53746
  24104081.200   126667788.13008  24104077.040    98702172.30346
  22088960.380   116078288.52708  22088957.640    90450596.62046
  22283204.160   117099072.45409  22283196.660    91246072.59545
  22026146.020   115748192.45709  22026143.560    90193401.11847
  24534418.680   128929204.39305  24534416.740   100464331.66144
 15 02 21 01 13  0.0000000  0  7G16G18G19G21G22G27G31
  20816033.940   109389020.77708  20816031.120    85238202.22848
  21683874.940   113949558.84009  21683868.840    88791795.98646
  24089530.880   126591326.89407  24089526.980    98642592.19045
  22100207.420   116137390.41908  22100204.220    90496650.03846
  22267540.240   117016756.76909  22267533.540    91181930.54145
  22015204.940   115690696.47309  22015202.540    90148599.05847
  24552199.980   129022645.14305  24552197.320   100537142.37344
 15 02 21 01 13 30.0000000  0  7G16G18G19G21G22G27G31
  20808422.340   109349019.20008  20808419.140    85207032.16848
  21679381.500   113925946.26609  21679375.400    88773396.59146
  24074989.780   126514914.53707  24074986.220    98583050.13145
  22111485.480   116196654.64408  22111481.700    90542829.95846
  22251925.480   116934699.51109  22251919.240    91117989.84846
  22004282.860   115633300.65509  22004280.600    90103875.06747
  24569966.640   129116007.97407  24569963.100   100609892.33044
 15 02 21 01 14  0.0000000  0  7G16G18G19G21G22G27G31
  20800899.200   109309482.72008  20800895.640    85176224.52748
  21674978.180   113902807.80609  21674972.320    88755366.63346
  24060458.880   126438556.14907  24060455.260    98523550.13446
  22122795.200   116256085.09008  22122790.700    90589139.40346
  22236361.320   116852908.35209  22236355.180    91054256.50046
  21993380.860   115576010.36109  21993378.720    90059233.29047
  24587718.820   129209294.94906  24587714.960   100682583.33143
 15 02 21 01 14 30.0000000  0  7G16G18G19G21G22G27G31
  20793463.920   109270408.15208  20793460.000    85145776.80448
  21670664.300   113880139.59909  21670658.760    88737703.09946
  24045937.240   126362246.57606  24045934.200    98464088.19646
  22134135.180   116315674.91408  22134129.960    90635573.03445
  22220847.120   116771380.54209  22220840.940    90990728.34446
  21982498.020   115518821.16909  21982496.080    90014670.29747
  24605455.140   129302498.52905  24605451.220   100755209.31944
 15 02 21 01 15  0.0000000  0  7G16G18G19G21G22G27G31
  20786118.000   109231803.28009  20786113.680    85115695.08348
  21666441.220   113857948.21209  21666436.080    88720411.12546
  24031426.140   126285991.31107  24031422.980    98404668.54445
  22145505.980   116375427.45308  22145500.260    90682133.48245
  22205384.300   116690123.82009  22205378.540    90927411.45946
  21971635.440   115461738.92409  21971633.740    89970190.64847
  24623175.740   129395621.01006  24623174.460   100827771.97444
 15 02 21 01 15 30.0000000  0  7G16G18G19G21G22G27G31
  20778859.360   109193657.06108  20778854.600    85085970.75548
  21662306.760   113836222.10109  21662302.020    88703481.69446
  24016923.300   126209778.04407  24016919.900    98345281.65245
  22156904.980   116435329.18408  22156899.200    90728810.14646
  22189971.160   116609128.83109  22189965.560    90864298.51145
  21960790.880   115404751.78509  21960789.620    89925785.11647
  24640875.340   129488696.78505  24640882.420   100900314.02843
 15 02 21 01 16  0.0000000  0  7G16G18G19G21G22G27G31
  20771691.080   109155986.35308  20771685.900    85056616.95248
  21658263.940   113814977.48509  21658259.560    88686927.44847
  24002431.660   126133622.59308  24002427.640    98285939.78146
  22168334.920   116495394.03008  22168329.460    90775613.90746
  22174611.160   116528413.84808  22174605.940    90801403.74846
  21949967.380   115347875.43208  21949966.600    89881465.89247
  24658562.320   129581675.64104  24658566.280   100972720.65044
 15 02 21 01 16 30.0000000  0  7G16G18G19G21G22G27G31
  20764612.360   109118787.27608  20764606.860    85027630.66647
  21654311.720   113794208.97209  21654307.680    88670744.21247
  23987949.880   126057518.09208  23987945.300    98226637.64845
  22179794.280   116555613.19408  22179789.240    90822537.90546
  22159303.700   116447974.50808  22159298.860    90738723.76946
  21939163.900   115291103.83909  21939163.600    89837228.32847
  24676234.680   129674466.24305  24676236.260   101045045.08844
 15 02 21 01 17  0.0000000  0  7G16G18G19G21G22G27G31
  20757622.860   109082057.48108  20757617.120    84999010.05147
  21650449.600   113773913.71509  21650445.820    88654929.73847
  23973477.080   125981460.96208  23973471.940    98167372.37546
  22191282.240   116615981.83608  22191277.460    90869578.39946
  22144048.520   116367809.53808  22144043.920    90676257.60846
  21928379.860   115234433.76208  21928379.940    89793069.82747
  24693884.660   129767246.03505  24693887.660   101117324.76844
 15 02 21 01 17 30.0000000  0  6G16G18G19G21G22G27
  20750725.880   109045814.08808  20750719.860    84970768.42747
  21646680.680   113754107.91509  21646677.000    88639496.66947
  23959016.220   125905466.73308  23959010.920    98108156.11346
  22202801.320   116676513.45908  22202796.720    90916745.89146
  22128849.080   116287936.70108  22128844.800    90614019.04446
  21917618.300   115177881.14409  21917618.580    89749002.86247
 15 02 21 01 18  0.0000000  0  6G16G18G19G21G22G27
  20743918.780   109010043.60508  20743912.620    84942895.32247
  21643002.220   113734777.26409  21642998.400    88624433.83147
  23944564.280   125829520.47208  23944558.780    98048977.25746
  22214348.220   116737191.23108  22214343.600    90964027.25146
  22113702.960   116208343.56908  22113698.960    90551998.45046
  21906876.380   115121431.27709  21906876.720    89705015.95247
 15 02 21 01 18 30.0000000  0  6G16G18G19G21G22G27
  20737203.100   108974754.08408  20737196.900    84915397.00447
  21639415.560   113715928.83709  21639411.460    88609746.74747
  23930122.500   125753628.56808  23930116.840    97989840.79545
  22225923.800   116798019.88808  22225919.020    91011426.20746
  22098611.960   116129039.33209  22098607.800    90490202.96146
  21896155.380   115065090.87209  21896155.540    89661114.35547
 15 02 21 01 19  0.0000000  0  6G16G18G19G21G22G27
  20730579.460   108939948.28208  20730573.460    84888275.61047
  21635921.040   113697564.52709  21635916.680    88595436.91347
  23915691.040   125677791.74108  23915685.500    97930747.17145
  22237527.800   116858998.56808  22237522.820    91058942.06346
  22083576.500   116050026.61509  22083572.240    90428634.63546
  21885455.500   115008861.23909  21885455.280    89617299.06247
 15 02 21 01 19 30.0000000  0  6G16G18G19G21G22G27
  20724047.600   108905624.32108  20724041.880    84861529.66947
  21632518.160   113679681.54409  21632513.540    88581502.12347
  23901269.360   125602006.70108  23901263.560    97871693.94145
  22249159.380   116920122.74908  22249154.220    91106571.28346
  22068596.480   115971305.34609  22068591.980    90367293.40146
  21874776.000   114952739.44909  21874775.460    89573567.80447
 15 02 21 01 20  0.0000000  0  6G16G18G19G21G22G27
  20717608.120   108871785.25608  20717602.780    84835161.57947
  21629207.320   113662282.06109  21629202.500    88567944.08147
  23886857.980   125526275.14508  23886851.580    97812682.34344
  22260818.400   116981391.55508  22260813.060    91154313.19546
  22053672.580   115892878.86609  22053667.840    90306181.86446
  21864117.260   114896727.40809  21864116.460    89529922.06347
 15 02 21 01 20 30.0000000  0  6G16G18G19G21G22G27
  20711260.940   108838430.87908  20711255.980    84809171.14847
  21625988.180   113645364.86709  21625983.380    88554761.85647
  23872456.500   125450595.20608  23872449.560    97753710.98244
  22272504.260   117042801.83608  22272498.900    91202165.34246
  22038804.880   115814748.05409  22038799.860    90245300.72546
  21853479.020   114840823.70209  21853478.160    89486360.72847
 15 02 21 01 21  0.0000000  0  6G16G18G19G21G22G27
  20705007.140   108805567.16608  20705002.600    84783563.06948
  21622861.700   113628935.11709  21622857.140    88541959.47347
  23858065.740   125374971.26508  23858058.800    97694783.26744
  22284217.500   117104356.36008  22284212.220    91250129.88246
  22023994.660   115736919.73609  22023989.460    90184655.29046
  21842862.300   114785033.10909  21842861.440    89442887.55547
 15 02 21 01 21 30.0000000  0  6G16G18G19G21G22G27
  20698846.620   108773193.75708  20698842.440    84758337.03048
  21619827.660   113612991.48909  21619823.480    88529535.87747
  23843685.180   125299401.32508  23843679.320    97635897.63044
  22295957.480   117166051.25408  22295952.260    91298203.80946
  22009241.980   115659394.16309  22009236.540    90124245.76546
  21832266.960   114729354.24509  21832266.100    89399501.42147
 15 02 21 01 22  0.0000000  0  6G16G18G19G21G22G27
  20692780.460   108741315.68208  20692776.520    84733496.96748
  21616886.880   113597538.50509  21616883.120    88517494.60647
  23829315.640   125223889.90208  23829310.680    97577057.58645
  22307724.600   117227888.53908  22307719.360    91346388.69046
  21994548.060   115582177.72909  21994542.340    90064077.14146
  21821693.720   114673791.34409  21821693.020    89356205.63747
 15 02 21 01 22 30.0000000  0  6G16G18G19G21G22G27
  20686808.400   108709931.40409  20686804.560    84709041.69248
  21614039.020   113582573.96109  21614035.740    88505833.93747
  23814956.480   125148433.03408  23814952.480    97518260.07645
  22319518.020   117289863.87608  22319512.680    91394681.14646
  21979912.720   115505269.72509  21979906.900    90004148.84946
  21811141.960   114618341.76809  21811141.540    89312998.18247
 15 02 21 01 23  0.0000000  0  6G16G18G19G21G22G27
  20680930.640   108679042.54408  20680926.820    84684972.45548
  21611284.040   113568097.10609  21611281.080    88494553.28647
  23800607.680   125073030.40108  23800604.380    97459504.79846
  22331337.300   117351975.09808  22331331.760    91443079.48845
  21965336.500   115428671.74509  21965330.200    89944462.12346
  21800611.580   114563005.12508  21800611.440    89269878.72847
 15 02 21 01 23 30.0000000  0  6G16G18G19G21G22G27
  20675146.860   108648647.80809  20675143.020    84661288.24748
  21608621.660   113554106.49109  21608618.800    88483651.51347
  23786268.800   124997679.81908  23786265.900    97400790.09046
  22343181.660   117414218.02608  22343175.920    91491580.46945
  21950819.420   115352383.80309  21950812.240    89885016.97445
  21790102.280   114507779.79408  21790102.500    89226846.01747
 15 02 21 01 24  0.0000000  0  6G16G18G19G21G22G27
  20669458.160   108618752.86509  20669454.220    84637993.49248
  21606052.740   113540606.88309  21606049.840    88473132.35847
  23771940.700   124922386.02508  23771938.180    97342119.68346
  22355051.260   117476594.27508  22355045.160    91540185.35345
  21936362.700   115276412.58109  21936354.260    89825818.60945
  21779615.060   114452670.43208  21779615.540    89183903.67947
 15 02 21 01 24 30.0000000  0  6G16G18G19G21G22G27
  20663864.860   108589359.34209  20663860.820    84615089.45248
  21603577.380   113527598.86809  21603574.380    88462996.25547
  23757623.440   124847148.82908  23757620.900    97283493.33946
  22366946.240   117539104.01008  22366939.760    91588894.26444
  21921966.740   115200760.29709  21921957.400    89766868.74445
  21769150.180   114397677.64109  21769150.640    89141052.17147
 15 02 21 01 25  0.0000000  0  6G16G18G19G21G22G27
  20658367.380   108560469.18809  20658363.200    84592577.64248
  21601195.720   113515083.50909  21601192.680    88453244.03347
  23743317.080   124771968.50208  23743314.240    97224911.28746
  22378866.160   117601745.14708  22378859.420    91637705.53344
  21907631.880   115125430.22009  21907622.200    89708169.95444
  21758707.820   114342802.22809  21758707.760    89098292.11046
 15 02 21 01 25 30.0000000  0  6G16G18G19G21G22G27
  20652965.900   108532083.35709  20652961.520    84570458.82148
  21598907.880   113503060.84709  21598904.540    88443875.74447
  23729021.620   124696844.92908  23729018.660    97166373.48546
  22390810.680   117664515.79408  22390804.500    91686617.73645
  21893358.620   115050424.24209  21893350.100    89649723.73646
  21748287.860   114288044.28309  21748287.200    89055623.60646
 15 02 21 01 26  0.0000000  0  6G16G18G19G21G22G27
  20647659.220   108504195.91709  20647654.720    84548728.33348
  21596712.500   113491524.11309  21596708.840    88434886.06947
  23714735.680   124621770.93608  23714732.540    97107874.28846
  22402778.120   117727406.91307  22402772.840    91735623.80945
  21879145.960   114975737.01408  21879138.780    89591525.88746
  21737888.920   114233397.13508  21737887.800    89013041.41146
 15 02 21 01 26 30.0000000  0  6G16G18G19G21G22G27
  20642448.980   108476815.51609  20642444.540    84527392.96448
  21594610.980   113480480.48509  21594607.180    88426280.66347
  23700460.700   124546753.92208  23700457.220    97049419.51947
  22414769.560   117790423.87707  22414765.280    91784727.92846
  21864995.800   114901378.45108  21864989.980    89533584.17147
  21727512.440   114178868.38508  21727511.200    88970551.51746
 15 02 21 01 27  0.0000000  0  6G16G18G19G21G22G27
  20637335.420   108449943.98709  20637331.200    84506454.11048
  21592603.440   113469930.99909  21592599.760    88418060.29647
  23686196.680   124471794.21008  23686192.740    96991009.40146
  22426784.680   117853565.52707  22426781.320    91833929.16746
  21850908.460   114827351.17908  21850904.120    89475900.61947
  21717158.740   114124459.02809  21717157.580    88928154.63647
 15 02 21 01 27 30.0000000  0  6G16G18G19G21G22G27
  20632318.660   108423581.52309  20632314.620    84485911.92548
  21590689.880   113459875.23109  21590686.360    88410224.64347
  23671943.200   124396890.33708  23671938.920    96932642.76147
  22438823.180   117916829.61107  22438820.580    91883225.82446
  21836884.200   114753655.69408  21836880.960    89418475.60547
  21706827.700   114070168.26809  21706826.760    88885850.16247
 15 02 21 01 28  0.0000000  0  6G16G18G19G21G22G27
  20627399.520   108397732.55809  20627395.600    84465769.87648
  21588870.860   113450316.30109  21588867.440    88402776.13247
  23657700.920   124322045.93908  23657696.620    96874322.49646
  22450885.240   117980217.46307  22450883.260    91932618.91946
  21822924.440   114680298.22608  21822922.060    89361313.97648
  21696520.060   114015999.77809  21696519.380    88843640.96547
 15 02 21 01 28 30.0000000  0  6G16G18G19G21G22G27
  20622577.140   108372392.71909  20622573.300    84446024.55948
  21587145.240   113441248.66109  21587142.000    88395710.44947
  23643468.780   124247255.30708  23643464.560    96816044.11846
  22462969.600   118043721.52407  22462967.900    91982102.57546
  21809028.620   114607275.19908  21809026.620    89304412.96148
  21686234.760   113961948.33509  21686234.180    88801522.97847
 15 02 21 01 29  0.0000000  0  6G16G18G19G21G22G27
  20617852.980   108347569.18208  20617849.220    84426681.52747
  21585514.460   113432678.80209  21585511.380    88389032.64247
  23629247.880   124172524.53508  23629244.100    96757812.37546
  22475077.040   118107346.01407  22475075.300    92031680.05546
  21795198.200   114534594.62908  21795196.120    89247778.77648
  21675972.880   113908020.42809  21675972.360    88759501.23747
 15 02 21 01 29 30.0000000  0  6G16G18G19G21G22G27
  20613226.880   108323260.42108  20613223.060    84407739.62547
  21583978.140   113424604.81809  21583974.940    88382741.23747
  23615037.840   124097851.64808  23615034.440    96699625.72546
  22487206.920   118171087.17208  22487204.880    92081348.46546
  21781433.120   114462256.58308  21781430.760    89191411.49448
  21665734.080   113854214.33009  21665733.320    88717574.43047
 15 02 21 01 30  0.0000000  0  6G16G18G19G21G22G27
  20608698.900   108299466.49309  20608694.980    84389198.89647
  21582535.800   113417024.52109  21582532.400    88376834.51447
  23600838.340   124023234.21408  23600835.280    96641482.32246
  22499358.400   118234941.07108  22499355.740    92131104.73346
  21767733.240   114390260.77109  21767730.440    89135310.88747
  21655518.000   113800528.35209  21655516.740    88675741.18346
 15 02 21 01 30 30.0000000  0  6G16G18G19G21G22G27
  20604270.100   108276193.35908  20604266.200    84371063.98247
  21581188.480   113409943.71009  21581184.840    88371317.00947
  23586650.300   123948677.22208  23586647.640    96583385.98446
  22511532.120   118298911.59308  22511528.740    92180951.89546
  21754099.960   114318614.88409  21754096.680    89079482.93248
  21645325.700   113746968.01409  21645323.980    88634005.87146
 15 02 21 01 31  0.0000000  0  6G16G18G19G21G22G27
  20599941.380   108253446.01108  20599937.560    84353338.77848
  21579936.800   113403365.73309  21579933.040    88366191.32347
  23572474.480   123874184.80808  23572472.220    96525339.99945
  22523728.320   118363000.85408  22523724.340    92230891.56946
  21740534.340   114247324.74709  21740530.520    89023932.19847
  21635158.180   113693537.72209  21635156.140    88592371.89646
 15 02 21 01 31 30.0000000  0  6G16G18G19G21G22G27
  20595711.000   108231215.66608  20595707.380    84336016.44148
  21578778.960   113397281.46309  21578775.220    88361450.34647
  23558309.140   123799747.20908  23558306.980    96467336.71845
  22535944.680   118427197.21908  22535940.160    92280914.70445
  21727034.900   114176382.96409  21727030.560    88968652.89747
  21625013.680   113640228.14109  21625011.360    88550831.96946
 15 02 21 01 32  0.0000000  0  6G16G18G19G21G22G27
  20591579.820   108209506.86508  20591576.440    84319100.49648
  21577715.580   113391694.36709  21577712.040    88357096.76747
  23544155.020   123725367.97108  23544152.760    96409378.87646
  22548181.460   118491502.50507  22548176.480    92331022.70545
  21713602.580   114105794.89409  21713597.980    88913649.21647
  21614892.960   113587043.32209  21614890.440    88509389.25946
 15 02 21 01 32 30.0000000  0  6G16G18G19G21G22G27
  20587547.440   108188317.32908  20587544.240    84302589.18248
  21576746.080   113386600.76409  21576742.800    88353127.73747
  23530011.540   123651043.34008  23530008.300    96351463.60045
  22560437.520   118555911.01007  22560432.400    92381211.15144
  21700237.160   114035559.03009  21700232.400    88858919.98647
  21604795.340   113533979.99709  21604792.600    88468041.20546
 15 02 21 01 33  0.0000000  0  6G16G18G19G21G22G27
  20583615.720   108167656.51608  20583612.780    84286489.85648
  21575872.140   113382009.45509  21575869.060    88349550.10047
  23515880.280   123576782.09008  23515876.160    96293597.69545
  22572714.560   118620430.54107  22572709.500    92431486.09544
  21686940.640   113965685.97909  21686935.860    88804473.46347
  21594722.500   113481047.18609  21594719.360    88426794.85146
 15 02 21 01 33 30.0000000  0  6G16G18G19G21G22G27
  20579783.700   108147519.13608  20579780.980    84270798.40148
  21575092.560   113377913.74609  21575089.620    88346358.64747
  23501759.920   123502577.61308  23501754.900    96235776.05945
  22585011.100   118685052.28507  22585006.220    92481840.68345
  21673712.300   113896171.30609  21673707.520    88750306.20646
  21584673.280   113428238.93209  21584669.440    88385645.55646
 15 02 21 01 34  0.0000000  0  6G16G18G19G21G22G27
  20576052.520   108127911.49008  20576049.920    84255519.71648
  21574408.400   113374319.24409  21574405.440    88343557.73647
  23487651.480   123428435.57608  23487645.740    96178003.05044
  22597328.220   118749780.24107  22597323.420    92532278.03144
  21660553.700   113827022.65608  21660548.740    88696424.14346
  21574648.820   113375561.29009  21574644.360    88344598.01846
 15 02 21 01 34 30.0000000  0  6G16G18G19G21G22G27
  20572421.880   108108832.49308  20572419.420    84240652.95048
  21573819.360   113371223.68709  21573816.140    88341145.61447
  23473554.480   123354353.90108  23473548.280    96120277.07745
  22609665.340   118814610.98807  22609660.320    92582795.50245
  21647464.540   113758239.76508  21647459.280    88642827.09946
  21564648.860   113323012.38909  21564644.320    88303650.81446
 15 02 21 01 35  0.0000000  0  6G16G18G19G21G22G27
  20568891.720   108090281.98908  20568889.460    84226198.00648
  21573325.020   113368625.96809  21573321.640    88339121.42547
  23459468.620   123280331.06408  23459462.360    96062596.98045
  22622021.500   118879540.75608  22622016.480    92633390.12845
  21634445.160   113689823.67808  21634439.080    88589515.86145
  21554673.320   113270591.57308  21554669.140    88262803.42346
 15 02 21 01 35 30.0000000  0  6G16G18G19G21G22G27
  20565462.920   108072263.66309  20565460.760    84212157.74448
  21572925.860   113366528.36809  21572922.320    88337486.94247
  23445394.540   123206370.31808  23445388.160    96004965.24645
  22634397.080   118944571.81708  22634392.120    92684063.67745
  21621496.540   113621779.35308  21621489.520    88536494.30745
  21544722.780   113218302.28608  21544719.280    88222058.55146
 15 02 21 01 36  0.0000000  0  6G16G18G19G21G22G27
  20562136.540   108054782.26209  20562134.140    84198535.88548
  21572622.800   113364935.50309  21572619.180    88336245.76147
  23431332.920   123132475.56208  23431326.520    95947384.94145
  22646792.240   119009706.18708  22646787.180    92734817.72546
  21608619.760   113554112.71608  21608611.940    88483767.06745
  21534798.060   113166148.98609  21534795.300    88181419.63046
 15 02 21 01 36 30.0000000  0  6G16G18G19G21G22G27
  20558912.260   108037836.47209  20558909.420    84185331.37448
  21572415.340   113363844.52709  21572411.520    88335395.66047
  23417283.280   123058644.10908  23417277.020    95889853.95745
  22659206.080   119074939.14908  22659201.020    92785648.61146
  21595814.660   113486822.71708  21595806.780    88431333.31645
  21524898.880   113114129.42709  21524896.720    88140884.93146
 15 02 21 01 37  0.0000000  0  6G16G18G19G21G22G27
  20555789.660   108021424.79909  20555786.380    84172543.06148
  21572302.980   113363252.81509  21572298.760    88334934.59847
  23403245.200   122984873.86808  23403239.040    95832370.67545
  22671637.880   119140267.34908  22671632.960    92836553.68346
  21583081.400   113419909.35408  21583073.980    88379193.05646
  21515025.080   113062242.05009  21515023.140    88100453.22546
 15 02 21 01 37 30.0000000  0  6G16G18G19G21G22G27
  20552770.120   108005554.85209  20552766.540    84160176.85948
  21572286.900   113363166.81109  21572282.280    88334867.58447
  23389219.900   122911171.81708  23389213.780    95774940.52445
  22684088.500   119205694.87608  22684083.800    92887536.16246
  21570421.620   113353381.67709  21570414.780    88327353.32446
  21505177.920   113010494.11009  21505175.860    88060130.14747
 15 02 21 01 38  0.0000000  0  6G16G18G19G21G22G27
  20549852.700   107990221.78909  20549848.800    84148229.01548
  21572365.920   113363580.97609  21572360.980    88335190.31247
  23375206.520   122837532.50808  23375200.440    95717559.24445
  22696556.760   119271215.83308  22696552.380    92938591.43046
  21557834.580   113287235.35009  21557828.140    88275810.74846
  21495356.320   112958880.15309  21495353.960    88019911.49847
 15 02 21 01 38 30.0000000  0  6G16G18G19G21G22G27
  20547037.920   107975428.28309  20547033.700    84136701.60248
  21572540.200   113364496.81809  21572535.240    88335903.96447
  23361205.180   122763956.96208  23361199.540    95660227.67845
  22709042.740   119336830.31908  22709038.660    92989719.58446
  21545321.080   113221474.38009  21545314.520    88224568.44646
  21485560.700   112907402.84509  21485558.180    87979799.31447
 15 02 21 01 39  0.0000000  0  6G16G18G19G21G22G27
  20544326.080   107961176.25909  20544321.480    84125596.11048
  21572809.940   113365915.01609  21572805.160    88337009.04647
  23347216.200   122690446.68508  23347211.120    95602946.94945
  22721546.240   119402537.47208  22721542.520    93040919.94146
  21532881.520   113156101.84209  21532874.580    88173628.80847
  21475791.440   112856063.82309  21475788.800    87939794.89647
 15 02 21 01 39 30.0000000  0  6G16G18G19G21G22G27
  20541716.920   107947464.43209  20541711.960    84114911.55747
  21573174.780   113367833.38509  21573170.280    88338503.88647
  23333239.380   122616999.71108  23333234.680    95545715.58245
  22734066.380   119468332.77807  22734063.180    93092188.98246
  21520515.540   113091117.45009  21520508.440    88122991.64847
  21466048.240   112804861.31409  21466045.460    87899896.85147
 15 02 21 01 40  0.0000000  0  6G16G18G19G21G22G27
  20539210.340   107934292.19109  20539205.060    84104647.47347
  21573634.640   113370250.51709  21573630.240    88340387.37447
  23319274.640   122543615.22408  23319270.160    95488532.89345
  22746602.880   119534214.40407  22746600.180    93143525.27746
  21508223.540   113026521.90009  21508215.900    88072657.45346
  21456330.980   112753794.75809  21456328.020    87860104.74447
 15 02 21 01 40 30.0000000  0  6G16G18G19G21G22G27
  20536806.800   107921661.76909  20536801.220    84094805.57147
  21574189.740   113373167.72409  21574185.420    88342660.52047
  23305322.220   122470294.85708  23305317.780    95431400.14445
  22759155.700   119600182.17007  22759153.440    93194928.68646
  21496006.080   112962318.61209  21495998.220    88022628.91746
  21446639.980   112702866.23909  21446636.880    87820420.18547
 15 02 21 01 41  0.0000000  0  6G16G18G19G21G22G27
  20534506.400   107909573.35109  20534500.600    84085386.01947
  21574839.780   113376583.60709  21574835.480    88345322.25347
  23291381.960   122397037.81508  23291377.280    95374316.76345
  22771724.560   119666233.28907  22771722.640    93246397.06045
  21483863.500   112898509.21809  21483855.320    87972907.32346
  21436975.100   112652075.66409  21436971.880    87780843.13547
 15 02 21 01 41 30.0000000  0  6G16G18G19G21G22G27
  20532310.100   107898031.64809  20532304.120    84076392.47847
  21575585.560   113380502.29809  21575581.140    88348375.78447
  23277454.580   122323847.95908  23277449.580    95317285.71944
  22784310.060   119732370.50107  22784308.180    93297932.53745
  21471796.780   112835098.88309  21471788.600    87923496.67546
  21427337.100   112601427.46909  21427333.880    87741377.02347
 15 02 21 01 42  0.0000000  0  6G16G18G19G21G22G27
  20530216.720   107887030.63109  20530210.660    84067820.25547
  21576425.640   113384916.38609  21576421.080    88351815.34447
  23263538.840   122250718.73308  23263533.100    95260301.91745
  22796910.640   119798585.70308  22796908.300    93349528.79945
  21459805.080   112772083.10109  21459797.540    87874393.49146
  21417724.800   112550915.54309  21417721.760    87702017.08347
 15 02 21 01 42 30.0000000  0  6G16G18G19G21G22G27
  20528227.420   107876576.80209  20528221.340    84059674.40647
  21577361.000   113389831.25809  21577356.380    88355645.13047
  23249635.780   122177656.11508  23249629.460    95203370.00444
  22809526.980   119864883.44608  22809524.300    93401189.39245
  21447890.020   112709469.39309  21447882.740    87825603.59346
  21408139.460   112500546.16509  21408136.780    87662768.22047
 15 02 21 01 43  0.0000000  0  6G16G18G19G21G22G27
  20526342.200   107866670.55308  20526336.220    84051955.24447
  21578391.640   113395246.92909  21578386.960    88359865.13847
  23235745.380   122104660.17208  23235738.740    95146490.05745
  22822158.580   119931261.48608  22822155.640    93452912.58145
  21436051.820   112647259.67609  21436044.820    87777128.51346
  21398581.360   112450320.07309  21398579.220    87623631.01647
 15 02 21 01 43 30.0000000  0  6G16G18G19G21G22G27
  20524562.040   107857316.62908  20524556.260    84044666.45647
  21579518.140   113401166.71109  21579513.440    88364477.95547
  23221868.360   122031735.00208  23221861.880    95089665.23945
  22834805.820   119997721.85608  22834802.780    93504699.87246
  21424291.460   112585459.62408  21424284.740    87728972.64646
  21389051.440   112400241.78409  21389049.900    87584608.97947
 15 02 21 01 44  0.0000000  0  6G16G18G19G21G22G27
  20522887.720   107848518.27809  20522882.000    84037810.59247
  21580740.960   113407592.77309  21580736.420    88369485.26448
  23208005.160   121958883.32308  23207999.320    95032897.71245
  22847469.120   120064266.73108  22847465.960    93556553.00946
  21412609.720   112524073.45009  21412603.760    87681139.30946
  21379550.240   112350314.37309  21379549.300    87545704.52147
 15 02 21 01 44 30.0000000  0  6G16G18G19G21G22G27
  20521317.680   107840267.61009  20521311.840    84031381.48447
  21582058.400   113414516.18009  21582054.060    88374880.12848
  23194154.260   121886096.75508  23194149.020    94976180.91345
  22860146.380   120130885.48308  22860143.200    93608463.70646
  21401005.620   112463094.38908  21400999.880    87633623.17447
  21370076.160   112300530.03209  21370075.900    87506911.54747
 15 02 21 01 45  0.0000000  0  6G16G18G19G21G22G27
  20519853.280   107832571.71309  20519847.260    84025384.66547
  21583471.640   113421942.86109  21583467.420    88380667.15547
  23180317.000   121813382.07508  23180312.380    94919520.12545
  22872838.640   120197583.34908  22872835.640    93660436.03746
  21389480.800   112402531.13009  21389475.320    87586431.04947
  21360630.640   112250895.94908  21360630.860    87468235.65647
 15 02 21 01 45 30.0000000  0  6G16G18G19G21G22G27
  20518494.240   107825429.06309  20518488.100    84019818.97047
  21584980.180   113429870.35009  21584976.120    88386844.42747
  23166492.900   121740737.43408  23166489.040    94862913.95546
  22885545.200   120264356.53408  22885542.180    93712467.07346
  21378035.380   112342383.52609  21378029.880    87539562.80247
  21351213.560   112201410.78008  21351213.920    87429675.80346
 15 02 21 01 46  0.0000000  0  6G16G18G19G21G22G27
  20517241.120   107818842.74909  20517234.860    84014686.76447
  21586584.400   113438300.92709  21586580.560    88393413.70447
  23152682.500   121668165.47608  23152679.320    94806364.41246
  22898266.140   120331205.68508  22898263.160    93764557.26446
  21366669.900   112282655.59909  21366664.180    87493021.55947
  21341825.500   112152077.70308  21341825.860    87391234.43446
 15 02 21 01 46 30.0000000  0  6G16G18G19G21G22G27
  20516092.980   107812808.36009  20516086.720    84009984.63748
  21588283.100   113447228.81209  21588279.540    88400370.51047
  23138885.060   121595661.58808  23138882.500    94749867.94046
  22911000.620   120398125.96307  22910997.680    93816702.89846
  21355383.720   112223344.21809  21355378.160    87446804.90848
  21332465.540   112102892.34408  21332465.980    87352908.17446
 15 02 21 01 47  0.0000000  0  6G16G18G19G21G22G27
  20515050.420   107807329.21009  20515044.180    84005715.16848
  21590076.800   113456656.66709  21590073.700    88407716.89847
  23125101.240   121523228.78308  23125099.100    94693426.80946
  22923748.620   120465117.54407  22923745.680    93868904.08546
  21344177.580   112164454.07609  21344172.080    87400916.50248
  21323134.420   112053858.38108  21323135.040    87314699.90147
 15 02 21 01 47 30.0000000  0  6G16G18G19G21G22G27
  20514112.640   107802401.52108  20514106.620    84001875.40648
  21591964.680   113466579.58209  21591962.100    88415449.04847
  23111330.300   121450862.61708  23111328.160    94637037.64046
  22936509.120   120532174.71808  22936506.060    93921156.38446
  21333051.080   112105982.45509  21333045.600    87355354.20448
  21313831.560   112004972.06008  21313832.200    87276606.65846
 15 02 21 01 48  0.0000000  0  6G16G18G19G21G22G27
  20513280.900   107798031.63608  20513275.180    83998470.29948
  21593947.840   113477002.79809  21593945.640    88423571.04047
  23097573.300   121378569.65208  23097571.000    94580705.49446
  22949283.040   120599301.92408  22949279.780    93973463.24245
  21322005.400   112047936.89109  21322000.180    87310123.91548
  21304558.340   111956240.05608  21304558.740    87238633.67947
 15 02 21 01 48 30.0000000  0  6G16G18G19G21G22G27
  20512556.300   107794224.70508  20512550.860    83995503.85248
  21596027.100   113487930.41009  21596025.100    88432086.06147
  23083830.980   121306354.14708  23083828.720    94524433.72046
  22962070.960   120666502.23508  22962067.120    94025827.14345
  21311041.900   111990323.58809  21311036.940    87265230.44548
  21295315.620   111907667.44009  21295315.540    87200784.87546
 15 02 21 01 49  0.0000000  0  6G16G18G19G21G22G27
  20511937.180   107790971.90608  20511931.900    83992969.20848
  21598200.540   113499352.69509  21598198.540    88440986.54947
  23070101.800   121234207.33508  23070099.600    94468215.45946
  22974870.900   120733765.53008  22974866.340    94078240.08844
  21300159.160   111933135.44709  21300154.580    87220668.27948
  21286101.760   111859245.94909  21286101.040    87163053.82647
 15 02 21 01 49 30.0000000  0  6G16G18G19G21G22G27
  20511424.500   107788278.75008  20511419.280    83990870.62748
  21600469.080   113511274.13109  21600466.980    88450275.96347
  23056386.840   121162134.58108  23056384.640    94412054.87846
  22987683.440   120801095.19108  22987678.040    94130704.77944
  21289358.280   111876379.03309  21289354.420    87176442.52048
  21276917.700   111810981.32509  21276916.480    87125445.01847
 15 02 21 01 50  0.0000000  0  7G04G16G18G19G21G22G27
  24577172.480   129153923.67307  24577171.840   100639409.79754
  20511017.680   107786142.52108  20511012.660    83989206.02448
  21602831.980   113523690.96809  21602829.720    88459951.41147
  23042685.580   121090133.48508  23042683.480    94355950.17746
  23000507.700   120868487.07508  23000501.560    94183217.96044
  21278639.100   111820053.13208  21278636.020    87132552.23348
  21267763.040   111762871.37809  21267761.480    87087956.73947
 15 02 21 01 50 30.0000000  0  7G04G16G18G19G21G22G27
  24559050.400   129058689.89908  24559049.500   100565201.63343
  20510717.200   107784565.23008  20510712.400    83987976.95448
  21605289.340   113536603.92009  21605286.880    88470013.44947
  23028998.240   121018205.78608  23028996.300    94299902.63546
  23013343.660   120935941.07808  23013337.500    94235779.55644
  21268002.120   111764160.60408  21267999.980    87088999.65648
  21258638.220   111714918.22009  21258636.500    87050590.64847
 15 02 21 01 51  0.0000000  0  7G04G16G18G19G21G22G27
  24540956.140   128963602.92308  24540955.980   100491108.05144
  20510523.340   107783548.18608  20510518.780    83987184.44848
  21607841.260   113550013.24909  21607838.580    88480462.27547
  23015324.800   120946351.97608  23015323.200    94243912.69446
  23026191.200   121003456.37308  23026185.640    94288388.87444
  21257448.200   111708704.26708  21257447.040    87045786.97148
  21249543.600   111667123.44709  21249541.660    87013347.96247
 15 02 21 01 51 30.0000000  0  7G04G16G18G19G21G22G27
  24522889.900   128868663.45308  24522889.900   100417129.43044
  20510436.080   107783091.49208  20510432.060    83986828.57048
  21610487.680   113563918.45909  21610484.620    88491297.50147
  23001665.460   120874572.58708  23001664.140    94187980.73646
  23039050.000   121071031.81707  23039045.460    94341045.05345
  21246978.020   111653685.18909  21246977.040    87002914.99348
  21240479.280   111619487.78009  21240477.040    86976229.25248
 15 02 21 01 52  0.0000000  0  7G04G16G18G19G21G22G27
  24504851.620   128773872.30007  24504851.820   100343266.34243
  20510455.440   107783195.50508  20510452.180    83986909.61148
  21613228.420   113578319.09309  21613224.860    88502518.77447
  22988020.440   120802868.41608  22988019.200    94132107.37846
  23051919.920   121138666.54907  23051916.340    94393747.41045
  21236592.040   111599105.88809  21236590.620    86960385.68748
  21231445.340   111572012.36309  21231442.800    86939235.40847
 15 02 21 01 52 30.0000000  0  7G04G16G18G19G21G22G27
  24486842.000   128679233.60207  24486842.100   100269522.06744
  20510582.380   107783864.36508  20510579.740    83987430.80148
  21616063.940   113593217.93809  21616059.860    88514128.26247
  22974390.540   120731243.02108  22974389.120    94076295.37845
  23064801.300   121206362.42307  23064798.920    94446497.39946
  21226291.120   111544971.14809  21226288.800    86918202.79948
  21222442.440   111524701.27809  21222439.700    86902369.62047
 15 02 21 01 53  0.0000000  0  7G04G16G18G19G21G22G27
  24468861.140   128584747.50205  24468861.980   100195896.65544
  20510816.960   107785098.10308  20510814.580    83988392.15648
  21618993.980   113608613.86309  21618989.500    88526125.09347
  22960775.760   120659696.41508  22960773.820    94020544.80745
  23077694.140   121274117.98607  23077692.460    94499293.89745
  21216075.360   111491282.61309  21216071.540    86876367.57347
  21213470.820   111477555.20509  21213467.940    86865632.41247
 15 02 21 01 53 30.0000000  0  7G04G16G18G19G21G22G27
  24450909.340   128490414.32307  24450910.300   100122390.41843
  20511159.120   107786896.13208  20511156.720    83989793.20548
  21622018.120   113624505.12409  21622013.380    88538507.89247
  22947175.860   120588227.91408  22947173.360    93964855.05745
  23090598.260   121341930.79007  23090596.820    94552135.01645
  21205944.320   111438040.71409  21205939.200    86834880.40147
  21204530.460   111430573.94009  21204527.620    86829023.62947
 15 02 21 01 54  0.0000000  0  7G04G16G18G19G21G22G27
  24432986.880   128396234.88906  24432988.240   100049004.01743
  20511609.140   107789259.52908  20511606.500    83991634.81348
  21625136.480   113640892.12209  21625131.640    88551276.98347
  22933590.960   120516838.78507  22933588.120    93909227.18845
  23103513.520   121409800.39007  23103512.000    94605020.39445
  21195898.680   111385247.97409  21195892.200    86793743.19947
  21195621.800   111383759.26209  21195619.180    86792544.66647
 15 02 21 01 54 30.0000000  0  7G04G16G18G19G21G22G27
  24415093.220   128302205.40905  24415094.080    99975734.30543
  20512165.860   107792182.89008  20512162.860    83993912.74448
  21628348.040   113657769.27809  21628343.160    88564428.01647
  22920020.340   120445524.35408  22920017.260    93853657.54845
  23116438.620   121477720.79108  23116436.700    94657945.36345
  21185937.560   111332900.77609  21185929.960    86752953.17346
  21186744.000   111337106.85909  21186741.700    86756192.15947
 15 02 21 01 55  0.0000000  0  7G04G16G18G19G21G22G27
  24397228.340   128208325.62006  24397228.860    99902581.31943
  20512829.140   107795666.64408  20512825.900    83996627.33748
  21631652.480   113675134.90309  21631647.700    88577959.67147
  22906464.160   120374284.55308  22906460.740    93798146.02146
  23129373.260   121545690.29708  23129370.800    94710908.60345
  21176061.260   111281000.09909  21176052.600    86712511.07046
  21177897.140   111290617.08209  21177895.100    86719966.38347
 15 02 21 01 55 30.0000000  0  7G04G16G18G19G21G22G27
  24379393.060   128114602.12505  24379393.580    99829550.10644
  20513600.020   107799716.72608  20513596.780    83999783.24848
  21635050.860   113692994.51409  21635046.180    88591876.25547
  22892923.440   120303125.82808  22892919.740    93742697.69146
  23142318.080   121613713.35008  23142315.100    94763913.57745
  21166271.300   111229553.71409  21166261.920    86672422.96646
  21169082.540   111244296.88409  21169080.760    86683872.74947
 15 02 21 01 56  0.0000000  0  7G04G16G18G19G21G22G27
  24361587.320   128021032.25104  24361588.680    99756638.55144
  20514477.900   107804329.72308  20514474.780    84003377.78048
  21638542.440   113711343.68209  21638537.820    88606174.30847
  22879397.620   120232045.06508  22879393.520    93687310.10946
  23155272.180   121681785.09008  23155268.540    94816956.49945
  21156567.460   111178559.72509  21156557.760    86632687.36747
  21160299.760   111198143.65509  21160298.220    86647909.20448
 15 02 21 01 56 30.0000000  0  7G04G16G18G19G21G22G27
  24343811.820   127927620.03606  24343813.280    99683849.99844
  20515463.520   107809509.46708  20515460.540    84007413.93848
  21642127.700   113730184.81809  21642123.080    88620855.72347
  22865887.160   120161045.97808  22865883.020    93631986.16846
  23168235.780   121749907.56308  23168231.540    94870038.91944
  21146950.700   111128023.00009  21146941.400    86593308.08147
  21151549.520   111152161.55609  21151548.340    86612079.01148
 15 02 21 01 57  0.0000000  0  7G04G16G18G19G21G22G27
  24326066.180   127834363.20207  24326067.280    99611182.43744
  20516556.420   107815253.44908  20516553.660    84011889.75248
  21645805.980   113749514.44609  21645801.320    88635917.77747
  22852391.740   120090126.17908  22852387.660    93576724.01646
  23181208.180   121818076.93707  23181203.260    94923157.92044
  21137420.800   111077942.26009  21137412.140    86554284.11947
  21142831.440   111106348.75109  21142830.720    86576380.74248
 15 02 21 01 57 30.0000000  0  7G04G16G18G19G21G22G27
  24308350.120   127741260.94406  24308350.640    99538635.25045
  20517756.420   107821559.86708  20517753.820    84016803.81748
  21649576.780   113769330.23409  21649572.140    88651358.64947
  22838911.220   120019284.64408  22838907.100    93521522.84846
  23194188.880   121886290.61607  23194183.720    94976311.43244
  21127977.720   111028317.63009  21127969.920    86515615.56848
  21134145.480   111060704.70309  21134145.160    86540813.96448
 15 02 21 01 58  0.0000000  0  7G04G16G18G19G21G22G27
  24290664.940   127648320.92806  24290664.780    99466214.54545
  20519065.060   107828436.50208  20519062.400    84022162.23048
  21653441.360   113789638.59209  21653436.740    88667183.35347
  22825446.940   119948528.90508  22825442.640    93466388.53446
  23207179.080   121954554.72707  23207174.040    95029504.23144
  21118622.920   110979157.37309  21118615.920    86477308.89448
  21125493.200   111015237.44009  21125493.160    86505384.95248
 15 02 21 01 58 30.0000000  0  7G04G16G18G19G21G22G27
  24273013.660   127555560.18007  24273012.900    99393933.53844
  20520485.360   107835899.30108  20520482.460    84027977.38848
  21657402.580   113810454.90109  21657397.960    88683403.86347
  22812002.060   119877875.55208  22811997.520    93411333.96645
  23220181.640   122022884.18507  23220176.720    95082747.93445
  21109359.640   110930479.55908  21109353.440    86439378.14548
  21116877.980   110969964.12209  21116877.860    86470107.04648
 15 02 21 01 59  0.0000000  0  7G04G16G18G19G21G22G27
  24255389.600   127462943.97107  24255388.320    99321765.18743
  20522010.480   107843913.06508  20522007.360    84034221.87348
  21661453.600   113831743.15209  21661448.980    88699992.12347
  22798569.900   119807289.76308  22798565.200    93356332.06446
  23233189.540   122091242.22807  23233184.920    95136013.92745
  21100181.620   110882250.65608  21100176.160    86401797.20248
  21108293.280   110924850.50109  21108292.880    86434953.58448
 15 02 21 01 59 30.0000000  0  7G04G16G18G19G21G22G27
  24237796.380   127370491.45407  24237794.860    99249724.37144
  20523643.760   107852495.70108  20523640.520    84040909.62348
  21665597.740   113853520.58709  21665593.160    88716961.56047
  22785154.180   119736790.89508  22785149.640    93301397.91446
  23246206.340   122159646.59908  23246201.960    95189316.00445
  21091092.540   110834489.98808  21091088.020    86364581.11548
  21099742.680   110879915.88309  21099742.020    86399939.61247
 15 02 21 02 00  0.0000000  0  7G04G16G18G19G21G22G27
  24220234.340   127278205.05206  24220232.780    99177812.93443
  20525385.960   107861650.52808  20525382.640    84048043.24848
  21669835.360   113875788.59509  21669830.740    88734313.26747
  22771755.460   119666380.99508  22771751.140    93246533.09846
  23259232.100   122228097.86008  23259227.820    95242654.62744
  21082093.060   110787201.13508  21082089.480    86327732.67948
  21091226.640   110835162.97609  21091225.840    86365067.22748
 15 02 21 02 00 30.0000000  0  7G04G16G18G19G21G22G27
  24202702.880   127186079.60305  24202700.820    99106026.88444
  20527235.940   107871371.11108  20527232.440    84055617.71448
  21674164.960   113898540.10009  21674160.380    88752041.71547
  22758372.800   119596054.71508  22758368.620    93191733.40046
  23272265.500   122296588.94508  23272261.200    95296024.29345
  21073182.480   110740379.87008  21073179.880    86291248.59348
  21082744.280   110790587.06209  21082743.340    86330332.75248
 15 02 21 02 01  0.0000000  0  7G04G16G18G19G21G22G27
  24185202.440   127094116.41706  24185200.420    99034367.32445
  20529193.740   107881658.15808  20529190.040    84063633.59548
  21678586.420   113921774.76909  21678581.980    88770146.65447
  22745006.300   119525813.07408  22745002.060    93136999.67846
  23285306.440   122365119.37908  23285302.300    95349424.61645
  21064361.420   110694028.15508  21064359.640    86255130.40448
  21074295.900   110746189.70309  21074294.740    86295737.40447
 15 02 21 02 01 30.0000000  0  7G04G16G18G19G21G22G27
  24167733.620   127002318.44607  24167732.060    98962836.52144
  20531259.580   107892513.71408  20531255.740    84072092.48048
  21683099.940   113945494.16809  21683095.780    88788629.32447
  22731656.500   119455659.32508  22731652.140    93082334.46046
  23298355.140   122433690.64408  23298351.020    95402856.74745
  21055630.580   110648149.72208  21055629.380    86219381.02548
  21065882.200   110701974.44909  21065880.660    86261283.96347
 15 02 21 02 02  0.0000000  0  7G04G16G18G19G21G22G27
  24150296.060   126910683.55508  24150294.940    98891432.78243
  20533432.960   107903935.12308  20533429.020    84080992.26348
  21687704.920   113969694.64409  21687701.040    88807486.82247
  22718322.980   119385591.14408  22718318.600    93027735.90846
  23311410.840   122502298.67408  23311406.540    95456317.52944
  21046989.780   110602743.05208  21046988.940    86183999.23948
  21057502.800   110657939.44309  21057500.620    86226970.94947
 15 02 21 02 02 30.0000000  0  7G04G16G18G19G21G22G27
  24132890.640   126819217.52107  24132890.040    98820160.61745
  20535714.900   107915927.66108  20535710.920    84090337.08948
  21692402.200   113994380.31509  21692398.640    88826722.40447
  22705006.840   119315613.95908  22705002.420    92973208.25646
  23324474.360   122570947.51808  23324469.800    95509810.11845
  21038440.460   110557815.13408  21038439.560    86148990.48848
  21049158.840   110614090.91309  21049155.900    86192803.25547
 15 02 21 02 03  0.0000000  0  7G04G16G18G19G21G22G27
  24115516.680   126727916.60107  24115516.760    98749017.12145
  20538104.680   107928486.56008  20538100.620    84100123.24448
  21697190.920   114019546.10409  21697187.520    88846332.12047
  22691707.340   119245723.96308  22691702.780    92918748.55446
  23337544.680   122639631.91908  23337539.800    95563330.44744
  21029981.980   110513362.66309  21029980.400    86114352.22048
  21040849.640   110570425.39309  21040845.900    86158778.16347
 15 02 21 02 03 30.0000000  0  7G04G16G18G19G21G22G27
  24098174.860   126636784.58508  24098175.380    98678005.26146
  20540602.880   107941615.40108  20540598.800    84110353.50648
  21702071.540   114045194.17209  21702068.140    88866317.61947
  22678425.240   119175925.12709  22678420.400    92864359.87045
  23350622.040   122708353.92307  23350617.300    95616880.04244
  21021615.000   110469390.07909  21021612.580    86080087.88748
  21032576.000   110526947.16409  21032571.620    86124899.01246
 15 02 21 02 04  0.0000000  0  7G04G16G18G19G21G22G27
  24080865.120   126545821.05808  24080866.100    98607124.67146
  20543209.140   107955312.37508  20543205.000    84121026.45348
  21707043.480   114071321.83809  21707039.940    88886676.83547
  22665160.320   119106216.77409  22665155.120    92810041.68845
  23363706.020   122777111.18007  23363701.180    95670457.09944
  21013339.460   110425897.61909  21013336.080    86046197.66648
  21024337.900   110483655.96409  21024333.000    86091165.58746
 15 02 21 02 04 30.0000000  0  7G04G16G18G19G21G22G27
  24063587.240   126455024.83908  24063588.400    98536374.44646
  20545923.240   107969576.18108  20545919.160    84132141.10248
  21712106.240   114097926.92609  21712102.620    88907408.07547
  22651912.440   119036598.09009  22651906.680    92755793.37745
  23376796.260   122845901.30507  23376791.520    95724059.78145
  21005155.220   110382885.11409  21005150.660    86012681.43948
  21016135.240   110440551.46909  21016130.080    86057577.66846
 15 02 21 02 05  0.0000000  0  7G04G16G18G19G21G22G27
  24046342.020   126364400.28708  24046343.100    98465757.98546
  20548745.900   107984410.34008  20548742.060    84143700.18348
  21717260.280   114125011.70209  21717256.660    88928513.09547
  22638682.320   118967073.19108  22638675.960    92701618.12745
  23389893.220   122914726.83807  23389888.840    95777690.03444
  20997063.200   110340357.59209  20997057.520    85979543.11247
  21007968.900   110397638.26409  21007963.820    86024138.78846
 15 02 21 02 05 30.0000000  0  7G04G16G18G19G21G22G27
  24029129.120   126273945.76608  24029130.160    98395274.09646
  20551676.840   107999812.53609  20551673.120    84155701.88248
  21722505.040   114152573.48809  21722501.460    88949989.79547
  22625469.600   118897640.57708  22625462.720    92647514.79644
  23402996.320   122983584.34507  23402992.280    95831345.23345
  20989063.080   110298314.12909  20989056.380    85946781.96447
  20999838.640   110354915.31909  20999834.080    85990848.16546
 15 02 21 02 06  0.0000000  0  7G04G16G18G19G21G22G27
  24011949.060   126183664.35608  24011950.060    98324925.00746
  20554716.300   108015784.26209  20554712.600    84168147.37548
  21727840.640   114180613.29109  21727837.340    88971838.98847
  22612274.880   118828302.99908  22612267.580    92593485.53044
  23416105.800   123052475.35407  23416102.160    95885026.49944
  20981155.560   110256758.33809  20981147.900    85914400.82447
  20991745.180   110312385.95009  20991741.400    85957708.41347
 15 02 21 02 06 30.0000000  0  7G04G16G18G19G21G22G27
  23994801.500   126093553.97708  23994802.260    98254709.23246
  20557863.900   108032323.64809  20557860.140    84181035.19248
  21733266.580   114209127.77609  21733263.520    88994058.06346
  22599097.860   118759058.52908  22599090.180    92539528.80244
  23429221.200   123121396.71008  23429217.800    95938731.43545
  20973340.500   110215689.23209  20973332.080    85882398.92147
  20983688.360   110270049.01609  20983685.500    85924718.60347
 15 02 21 02 07  0.0000000  0  7G04G16G18G19G21G22G27
  23977686.260   126003613.30709  23977686.740    98184625.68946
  20561118.980   108049427.83509  20561115.100    84194363.12548
  21738782.280   114238113.14809  21738779.320    89016644.06746
  22585938.180   118689905.57308  22585930.180    92485643.37644
  23442341.760   123190344.76408  23442338.420    95992457.14945
  20965617.640   110175105.36609  20965608.680    85850775.11747
  20975667.960   110227903.03309  20975665.880    85891877.58347
 15 02 21 02 07 30.0000000  0  7G04G16G18G19G21G22G27
  23960603.840   125913844.64408  23960603.980    98114676.15746
  20564481.760   108067098.44409  20564477.740    84208132.42948
  21744387.920   114267570.56709  21744385.000    89039597.90246
  22572796.360   118620846.98408  22572788.360    92431831.54244
  23455467.640   123259320.33408  23455464.280    96046204.33645
  20957987.740   110135009.79209  20957978.280    85819531.79847
  20967684.540   110185951.16508  20967683.120    85859187.82647
 15 02 21 02 08  0.0000000  0  7G04G16G18G19G21G22G27
  23943555.100   125824252.76109  23943554.880    98044864.42345
  20567953.080   108085339.59709  20567948.840    84222346.30448
  21750084.000   114297502.77609  21750081.100    89062921.70847
  22559673.380   118551887.51008  22559665.300    92378096.87944
  23468599.380   123328326.83808  23468595.980    96099975.60945
  20950451.940   110095408.42009  20950442.280    85788673.57047
  20959739.120   110144198.75008  20959738.240    85826653.48947
 15 02 21 02 08 30.0000000  0  7G04G16G18G19G21G22G27
  23926539.020   125734832.13708  23926538.260    97975186.08745
  20571531.620   108104144.14709  20571527.160    84236999.20148
  21755869.060   114327902.63109  21755866.180    89086609.91246
  22546568.200   118483021.38208  22546560.140    92324434.97344
  23481735.700   123397357.37208  23481732.120    96153765.61545
  20943009.260   110056296.28709  20942999.620    85758196.57547
  20951830.760   110102640.63408  20951830.260    85794270.56647
 15 02 21 02 09  0.0000000  0  7G04G16G18G19G21G22G27
  23909556.620   125645588.36809  23909555.200    97905645.58044
  20575218.420   108123517.71009  20575213.780    84252095.47548
  21761743.780   114358773.94109  21761740.980    89110665.48146
  22533482.060   118414254.62908  22533474.640    92270850.49244
  23494877.300   123466416.00308  23494873.580    96207577.50746
  20935660.780   110017679.30109  20935651.420    85728105.40547
  20943960.660   110061283.15008  20943960.340    85762043.97147
 15 02 21 02 09 30.0000000  0  7G04G16G18G19G21G22G27
  23892607.940   125556521.99908  23892605.580    97836243.25343
  20579013.340   108143459.62909  20579008.680    84267634.63748
  21767707.960   114390116.12409  21767705.200    89135087.96546
  22520415.160   118345587.82708  22520408.420    92217343.89745
  23508023.980   123535501.47708  23508020.380    96261410.30945
  20928406.680   109979558.78809  20928397.800    85698401.12347
  20936128.960   110020127.29908  20936128.700    85729974.50247
 15 02 21 02 10  0.0000000  0  7G04G16G18G19G21G22G27
  23875692.620   125467631.80508  23875688.720    97766978.15343
  20582915.900   108163967.64409  20582911.440    84283614.91748
  21773761.060   114421925.68409  21773758.160    89159874.63946
  22507367.180   118277019.90308  22507361.200    92163914.35445
  23521175.200   123604611.00307  23521171.520    96315261.85645
  20921246.840   109941933.97409  20921238.420    85669083.09548
  20928335.420   109979172.38508  20928335.260    85698061.59248
 15 02 21 02 10 30.0000000  0  7G04G16G18G19G21G22G27
  23858810.520   125378917.02108  23858806.040    97697849.79143
  20586925.700   108185039.76609  20586921.600    84300034.73048
  21779902.680   114454199.96009  21779899.460    89185023.41946
  22494337.900   118208549.91808  22494332.640    92110561.12746
  23534330.560   123673742.59408  23534326.740    96369130.61145
  20914181.080   109904804.39509  20914173.080    85640150.97248
  20920580.040   109938418.19308  20920580.080    85666305.09948
 15 02 21 02 11  0.0000000  0  7G04G16G18G19G21G22G27
  23841962.600   125290381.91308  23841959.500    97628861.40744
  20591043.640   108206679.80309  20591039.740    84316897.10248
  21786133.360   114486941.65509  21786129.460    89210536.43946
  22481328.200   118140182.73408  22481323.520    92057288.03846
  23547490.480   123742899.01907  23547486.760    96423018.71145
  20907210.400   109868175.11609  20907203.080    85611608.70948
  20912863.820   109897869.69008  20912863.960    85634708.87948
 15 02 21 02 11 30.0000000  0  7G04G16G18G19G21G22G27
  23825148.980   125202026.74208  23825147.500    97560013.32444
  20595269.540   108228886.88409  20595265.760    84334201.30648
  21792452.740   114520149.16509  21792448.120    89236412.43346
  22468338.180   118071918.47808  22468333.880    92004095.11946
  23560654.840   123812078.95207  23560651.280    96476925.11545
  20900335.080   109832047.07609  20900328.480    85583457.00248
  20905186.960   109857527.58708  20905187.100    85603273.49947
 15 02 21 02 12  0.0000000  0  7G04G16G18G19G21G22G27
  23808369.460   125113850.46808  23808369.160    97491304.65445
  20599602.900   108251658.75509  20599599.260    84351945.60148
  21798860.220   114553819.41209  21798855.040    89262648.99546
  22455367.660   118003756.02008  22455363.400    91950981.53446
  23573823.200   123881279.90507  23573819.680    96530847.92845
  20893554.980   109796419.22309  20893548.980    85555695.04948
  20897549.300   109817391.43108  20897549.420    85571998.58347
 15 02 21 02 12 30.0000000  0  7G04G16G18G19G21G22G27
  23791623.740   125025851.29708  23791624.220    97422733.93046
  20604043.140   108274992.81509  20604039.760    84370127.96748
  21805355.080   114587949.00709  21805349.560    89289243.50646
  22442416.220   117935693.92809  22442411.860    91897946.16846
  23586994.840   123950498.35207  23586991.480    96584784.33545
  20886869.880   109761290.70609  20886864.580    85528322.19748
  20889950.560   109777460.05808  20889950.760    85540883.24648
 15 02 21 02 13  0.0000000  0  7G04G16G18G19G21G22G27
  23774912.760   124938034.64908  23774913.700    97354305.44345
  20608591.080   108298892.84009  20608587.920    84388751.34348
  21811938.020   114622541.90709  21811932.480    89316199.01646
  22429484.980   117867738.17908  22429480.320    91844993.66146
  23600170.720   124019738.77507  23600166.940    96638737.90644
  20880280.980   109726667.78609  20880276.320    85501343.32348
  20882391.960   109737739.65208  20882392.280    85509932.29448
 15 02 21 02 13 30.0000000  0  7G04G16G18G19G21G22G27
  23758236.600   124850400.62408  23758237.540    97286019.25746
  20613246.620   108323358.42709  20613243.620    84407815.42648
  21818608.620   114657596.01009  21818603.200    89343513.91646
  22416573.900   117799888.81108  22416568.740    91792124.05245
  23613350.460   124088999.78307  23613346.040    96692707.53444
  20873788.260   109692550.49608  20873784.160    85474758.45048
  20874873.780   109698230.81909  20874874.120    85479146.19748
 15 02 21 02 14  0.0000000  0  7G04G16G18G19G21G22G27
  23741595.320   124762949.63108  23741595.920    97217875.72945
  20618009.720   108348388.86809  20618006.780    84427319.64848
  21825366.640   114693109.97309  21825361.460    89371187.13646
  22403683.020   117732146.34308  22403677.180    91739337.72845
  23626534.020   124158280.52807  23626528.720    96746692.52644
  20867391.900   109658939.80908  20867388.300    85448568.33148
  20867396.260   109658934.73609  20867396.400    85448525.86448
 15 02 21 02 14 30.0000000  0  7G04G16G18G19G21G22G27
  23724988.620   124675680.33208  23724988.780    97149873.74545
  20622879.920   108373981.88709  20622877.040    84447262.25348
  21832211.660   114729080.87809  21832206.780    89399216.42246
  22390812.100   117664510.09208  22390805.540    91686634.16945
  23639720.740   124227577.90007  23639714.820    96800690.48144
  20861091.820   109625834.68108  20861088.540    85422772.16048
  20859959.200   109619850.65109  20859958.840    85418070.73548
 15 02 21 02 15  0.0000000  0  7G04G16G18G19G21G22G27
  23708416.940   124588595.50008  23708416.620    97082015.52545
  20627857.520   108400139.11709  20627854.620    84467644.50548
  21839143.820   114765509.37209  21839138.960    89427602.27446
  22377961.640   117596982.60308  22377954.540    91634015.38244
  23652910.840   124296893.25007  23652904.960    96854702.41944
  20854888.760   109593238.58409  20854885.680    85397372.63548
  20852563.120   109580981.95509  20852562.200    85387783.44948
 15 02 21 02 15 30.0000000  0  7G04G16G18G19G21G22G27
  23691879.720   124501691.97708  23691878.840    97014298.54745
  20632941.680   108426855.75209  20632938.620    84488462.65148
  21846162.180   114802390.29609  21846157.300    89456340.66546
  22365131.220   117529560.91008  22365124.080    91581479.01745
  23666103.500   124366222.20807  23666097.700    96908724.96344
  20848782.260   109561148.42309  20848779.140    85372367.32948
  20845207.380   109542326.16109  20845206.100    85357662.03348
 15 02 21 02 16  0.0000000  0  7G04G16G18G19G21G22G27
  23675377.920   124414974.76408  23675376.780    96946726.77145
  20638133.120   108454135.83409  20638129.820    84509719.84048
  21853267.320   114839726.87109  21853262.380    89485434.10646
  22352322.060   117462250.25708  22352315.060    91529029.16744
  23679299.420   124435568.23907  23679294.180    96962760.82444
  20842773.300   109529569.48309  20842769.840    85347760.37348
  20837893.160   109503888.86109  20837891.620    85327710.87448
 15 02 21 02 16 30.0000000  0  7G04G16G18G19G21G22G27
  23658911.140   124328441.72408  23658910.060    96879298.53044
  20643431.160   108481975.94209  20643427.620    84531413.41848
  21860458.380   114877515.31409  21860453.480    89514879.64446
  22339533.980   117395049.24908  22339527.100    91476664.75045
  23692498.160   124504928.79807  23692493.380    97016807.97244
  20836861.540   109498500.78609  20836857.660    85323551.00948
  20830620.380   109465668.85409  20830618.520    85297929.05248
 15 02 21 02 17  0.0000000  0  7G04G16G18G19G21G22G27
  23642480.500   124242098.65108  23642479.660    96812018.28944
  20648836.680   108510380.85209  20648832.900    84553547.10248
  21867735.980   114915759.26309  21867731.240    89544680.12646
  22326768.040   117327963.61108  22326760.780    91424390.24344
  23705700.440   124574307.60507  23705695.860    97070869.37344
  20831048.020   109467948.30709  20831043.780    85299743.89248
  20823390.340   109427672.64009  20823387.980    85268321.60748
 15 02 21 02 17 30.0000000  0  7G04G16G18G19G21G22G27
  23626084.660   124155938.57407  23626084.220    96744880.61445
  20654348.100   108539342.48209  20654344.080    84576114.60648
  21875098.320   114954449.61109  21875093.880    89574828.44746
  22314022.840   117260986.62908  22314015.520    91372200.39345
  23718904.820   124643696.36807  23718900.400    97124938.52945
  20825331.220   109437904.92509  20825326.820    85276333.47548
  20816201.640   109389893.73109  20816198.860    85238883.50248
 15 02 21 02 18  0.0000000  0  7G04G16G18G19G21G22G27
  23609724.340   124069965.20607  23609724.660    96677888.46744
  20659965.880   108568863.42109  20659961.680    84599117.92548
  21882546.100   114993588.92109  21882542.020    89605326.60046
  22301299.160   117194122.62108  22301292.060    91320098.55945
  23732111.600   124713097.49007  23732107.200    97179017.30345
  20819711.800   109408374.76009  20819707.460    85253322.97548
  20809055.000   109352336.67509  20809052.080    85209618.25348
 15 02 21 02 18 30.0000000  0  7G04G16G18G19G21G22G27
  23593399.940   123984180.78507  23593400.900    96611043.52144
  20665690.100   108598944.56609  20665685.800    84622557.78048
  21890079.280   115033177.18409  21890075.660    89636174.60646
  22288597.440   117127373.95408  22288590.420    91268086.62745
  23745320.880   124782512.25806  23745316.820    97233106.72245
  20814190.340   109379360.34009  20814186.260    85230714.36348
  20801950.940   109315004.46409  20801948.260    85180528.21348
 15 02 21 02 19  0.0000000  0  7G04G16G18G19G21G22G27
  23577111.120   123898583.48306  23577112.840    96544344.41545
  20671520.180   108629582.50809  20671515.880    84646431.49948
  21897697.060   115073210.38809  21897693.880    89667369.30646
  22275917.480   117060739.32908  22275910.540    91216163.54545
  23758532.000   124851936.95406  23758528.020    97287203.86245
  20808766.680   109350860.14209  20808762.840    85208506.42948
  20794889.260   109277895.94509  20794886.960    85151612.48748
 15 02 21 02 19 30.0000000  0  7G04G16G18G19G21G22G27
  23560858.260   123813175.55407  23560860.560    96477792.91741
  20677456.360   108660778.28009  20677452.240    84670739.87648
  21905399.420   115113688.23209  21905396.520    89698910.47746
  22263259.680   116994221.19009  22263253.100    91164331.24346
  23771745.120   124921373.13306  23771741.340    97341309.95044
  20803441.480   109322877.28009  20803437.700    85186701.61248
  20787870.620   109241014.15109  20787868.560    85122873.44048
 15 02 21 02 20  0.0000000  0  7G04G16G18G19G21G22G27
  23544641.000   123727955.66907  23544643.540    96411387.89741
  20683498.280   108692529.43509  20683494.320    84695481.01648
  21913186.200   115154608.88609  21913183.260    89730796.69246
  22250623.840   116927818.69609  22250617.640    91112589.03746
  23784959.860   124990817.75906  23784956.200    97395422.62644
  20798214.540   109295410.30009  20798210.620    85165298.77648
  20780894.960   109204358.56009  20780892.940    85094310.63548
 15 02 21 02 20 30.0000000  0  7G04G16G18G19G21G22G27
  23528459.480   123642923.46907  23528460.740    96345128.98442
  20689645.820   108724834.78709  20689641.820    84720653.99948
  21921056.860   115195969.59909  21921053.760    89763025.80346
  22238009.940   116861531.84209  22238004.100    91060936.96146
  23798176.020   125060269.83706  23798172.560    97449541.12043
  20793085.880   109268459.11809  20793081.580    85144297.86548
  20773962.300   109167929.58509  20773960.420    85065924.43747
 15 02 21 02 21  0.0000000  0  7G04G16G18G19G21G22G27
  23512313.920   123558079.68407  23512312.400    96279016.89241
  20695898.680   108757693.07109  20695894.560    84746257.84448
  21929010.960   115237768.25309  21929007.820    89795596.17346
  22225418.140   116795361.50709  22225412.800    91009375.68846
  23811393.320   125129728.53106  23811390.140    97503664.74744
  20788055.640   109242024.57309  20788050.940    85123699.52348
  20767072.960   109131728.56809  20767071.340    85037715.85547
 15 02 21 02 21 30.0000000  0  7G04G16G18G19G21G22G27
  23496204.700   123473425.74508  23496203.000    96213052.79443
  20702256.860   108791104.63109  20702252.600    84772292.83048
  21937048.520   115280005.08109  21937045.160    89828507.99546
  22212848.900   116729309.67608  22212844.000    90957906.75447
  23824612.060   125199194.35406  23824609.200    97557793.92844
  20783124.060   109216108.50409  20783119.060    85103505.20248
  20760227.560   109095757.99709  20760226.240    85009686.85747
 15 02 21 02 22  0.0000000  0  7G04G16G18G19G21G22G27
  23480131.340   123388958.96907  23480129.940    96147234.57643
  20708719.300   108825064.69109  20708715.020    84798755.20248
  21945168.640   115322675.43509  21945164.760    89861757.62245
  22200301.740   116663374.05008  22200297.200    90906528.36847
  23837831.360   125268662.90105  23837829.020    97611925.21344
  20778290.560   109190708.43209  20778285.320    85083712.94048
  20753425.880   109060015.79509  20753424.600    84981835.80047
 15 02 21 02 22 30.0000000  0  7G04G16G18G19G21G22G27
  23464095.120   123304686.88408  23464094.140    96081568.06844
  20715287.360   108859580.35009  20715283.060    84825650.52548
  21953372.320   115365784.82709  21953367.940    89895349.35445
  22187778.160   116597562.60508  22187773.820    90855246.76246
  23851052.420   125338140.70006  23851050.700    97666063.76543
  20773556.520   109165831.85908  20773551.300    85064328.60548
  20746669.540   109024510.47109  20746668.080    84954169.32047
 15 02 21 02 23  0.0000000  0  7G04G16G18G19G21G22G27
  23448095.220   123220605.72308  23448095.040    96016050.35145
  20721960.140   108894646.54209  20721955.800    84852974.84048
  21961658.500   115409327.84309  21961653.740    89929278.98545
  22175277.580   116531872.21008  22175273.380    90804059.47847
  23864274.540   125407623.12006  23864273.080    97720205.84644
  20768921.400   109141475.43909  20768916.380    85045349.58748
  20739957.860   108989239.05909  20739956.060    84926685.10547
 15 02 21 02 23 30.0000000  0  7G04G16G18G19G21G22G27
  23432132.900   123136722.87108  23432133.540    95950687.09645
  20728738.680   108930268.60909  20728734.240    84880732.28348
  21970028.000   115453309.35809  21970023.020    89963550.29545
  22162801.400   116466310.63008  22162797.340    90752972.58346
  23877498.920   125477116.65306  23877497.100    97774356.68744
  20764386.820   109117646.76209  20764381.920    85026781.79548
  20733292.260   108954209.70409  20733290.060    84899389.50247
 15 02 21 02 24  0.0000000  0  7G04G16G18G19G21G22G27
  23416206.800   123053030.55908  23416208.120    95885472.38145
  20735621.240   108966437.26809  20735616.500    84908915.66048
  21978478.820   115497719.27909  21978473.680    89998155.44745
  22150348.280   116400870.42408  22150344.300    90701980.25746
  23890723.720   125546611.66206  23890721.580    97828508.65444
  20759951.340   109094338.06009  20759946.280    85008619.18548
  20726671.260   108919415.43909  20726668.860    84872277.08047
 15 02 21 02 24 30.0000000  0  7G04G16G18G19G21G22G27
  23400317.640   122969532.21008  23400319.520    95820408.78845
  20742608.340   109003155.25709  20742603.240    84937527.06847
  21987011.380   115542559.41409  21987006.220    90033095.82645
  22137919.120   116335555.65208  22137915.000    90651085.65546
  23903949.380   125616111.02706  23903947.480    97882663.96744
  20755615.680   109071553.02009  20755610.160    84990864.61248
  20720095.740   108884860.61209  20720093.260    84845351.23247
 15 02 21 02 25  0.0000000  0  7G04G16G18G19G21G22G27
  23384465.900   122886229.97308  23384468.020    95755498.01846
  20749699.960   109040422.36609  20749694.560    84966566.37348
  21995625.700   115587829.86609  21995620.640    90068371.51145
  22125514.440   116270368.70008  22125510.080    90600290.65046
  23917175.940   125685614.91407  23917174.000    97936822.82044
  20751380.100   109049293.48609  20751373.900    84973519.52248
  20713566.300   108850548.00509  20713563.820    84818614.14047
 15 02 21 02 25 30.0000000  0  7G04G16G18G19G21G22G27
  23368650.860   122803120.76007  23368653.120    95690737.66146
  20756895.200   109078234.06209  20756889.640    84996030.02847
  22004320.980   115633525.71809  22004316.320    90103978.67046
  22113133.860   116205307.34808  22113129.200    90549593.50146
  23930402.580   125755119.70006  23930400.540    97990982.38344
  20747244.080   109027557.08009  20747237.160    84956582.06548
  20707082.540   108816475.66609  20707080.120    84792064.26147
 15 02 21 02 26  0.0000000  0  7G04G16G18G19G21G22G27
  23352873.760   122720211.72106  23352876.100    95626133.26546
  20764195.320   109116596.67009  20764189.820    85025922.95347
  22013098.220   115679651.87908  22013094.080    90139921.13346
  22100778.760   116140379.18609  22100773.760    90499000.13446
  23943630.380   125824631.70406  23943628.680    98045147.52644
  20743208.940   109006350.83609  20743201.300    84940057.71148
  20700645.880   108782651.45409  20700643.780    84765707.72347
 15 02 21 02 26 30.0000000  0  7G04G16G18G19G21G22G27
  23337133.100   122637495.87107  23337135.780    95561679.47644
  20771598.700   109155501.57309  20771593.320    85056238.46447
  22021955.740   115726199.30608  22021952.080    90176191.85446
  22088447.720   116075577.46008  22088442.180    90448505.27646
  23956858.140   125894143.33506  23956856.540    98099312.42544
  20739273.280   108985667.59009  20739265.120    84923940.89248
  20694255.220   108749069.34509  20694253.600    84739539.83948
 15 02 21 02 27  0.0000000  0  7G04G16G18G19G21G22G27
  23321429.700   122554977.87705  23321432.700    95497379.83745
  20779105.900   109194951.88909  20779100.700    85086978.96847
  22030894.100   115773170.95508  22030890.860    90212793.12846
  22076141.780   116010907.80809  22076135.500    90398113.34646
  23970086.280   125963657.84806  23970085.040    98153479.50644
  20735438.000   108965512.48209  20735429.680    84908235.62148
  20687911.840   108715735.15409  20687910.560    84713565.15348
 15 02 21 02 27 30.0000000  0  7G04G16G18G19G21G22G27
  23305763.960   122472658.77706  23305766.860    95433235.13243
  20786716.620   109234946.49809  20786711.700    85118143.60347
  22039912.960   115820564.90308  22039910.020    90249723.45546
  22063861.060   115946371.53709  22063854.080    90347825.32545
  23983314.840   126033173.87406  23983313.620    98207647.84445
  20731703.200   108945886.08309  20731695.080    84892942.33648
  20681616.000   108682650.19709  20681614.840    84687784.66348
 15 02 21 02 28  0.0000000  0  7G04G16G18G19G21G22G27
  23290134.800   122390529.81407  23290137.340    95369238.53643
  20794428.900   109275475.41809  20794424.300    85149724.57347
  22049010.400   115868371.25908  22049007.640    90286975.13046
  22051604.020   115881960.76708  22051596.720    90297635.11645
  23996542.140   126102683.38506  23996541.060    98261811.03044
  20728067.380   108926780.35609  20728059.680    84878054.76048
  20675366.100   108649807.04809  20675365.100    84662192.59248
 15 02 21 02 28 30.0000000  0  7G04G16G18G19G21G22G27
  23274543.640   122308597.78107  23274544.920    95305395.39344
  20802243.660   109316543.69309  20802239.340    85181725.81847
  22058187.260   115916594.75408  22058184.620    90324551.85746
  22039371.980   115817682.50808  22039364.700    90247548.14945
  24009769.320   126172191.15306  24009767.960    98315972.92544
  20724531.820   108908201.50909  20724524.540    84863577.74348
  20669163.600   108617213.26609  20669162.840    84636794.84248
 15 02 21 02 29  0.0000000  0  7G04G16G18G19G21G22G27
  23258988.880   122226854.40608  23258988.900    95241699.29444
  20810159.260   109358141.91509  20810155.020    85214140.01247
  22067441.480   115965224.61308  22067439.000    90362445.23147
  22027163.520   115753529.19008  22027156.340    90197558.55345
  24022994.340   126241688.22406  24022992.780    98370126.41945
  20721094.920   108890140.94009  20721087.940    84849504.56848
  20663007.140   108584861.46809  20663006.580    84611585.65748
 15 02 21 02 29 30.0000000  0  7G04G16G18G19G21G22G27
  23243472.640   122145312.56408  23243471.620    95178160.19544
  20818177.780   109400280.81809  20818173.520    85246975.52047
  22076775.080   116014271.78209  22076772.660    90400663.80147
  22014981.440   115689514.25608  22014974.400    90147676.77145
  24036219.620   126311186.77007  24036217.900    98424281.09644
  20717759.240   108872612.33609  20717752.540    84835845.92348
  20656899.440   108552765.55009  20656898.980    84586575.85548
 15 02 21 02 30  0.0000000  0  7G04G16G18G19G21G22G27
  23227994.120   122063968.73308  23227992.460    95114775.42344
  20826298.280   109442955.55809  20826293.940    85280228.55846
  22086186.880   116063730.45809  22086184.460    90439203.02646
  22002825.340   115625634.80108  22002818.480    90097900.56345
  24049444.080   126380681.61406  24049442.560    98478432.90344
  20714524.100   108855611.90209  20714517.560    84822598.83248
  20650840.040   108520923.00709  20650839.620    84561763.47848
 15 02 21 02 30 30.0000000  0  7G04G16G18G19G21G22G27
  23212554.340   121982828.75708  23212552.140    95051549.49945
  20834521.560   109486170.25008  20834517.220    85313902.34246
  22095677.600   116113604.41209  22095675.260    90478065.86046
  21990696.440   115561897.26208  21990689.920    90048234.92946
  24062668.760   126450177.80206  24062667.560    98532585.77345
  20711390.440   108839144.81508  20711383.980    84809767.35248
  20644830.160   108489340.39909  20644829.820    84537153.65748
 15 02 21 02 31  0.0000000  0  7G04G16G18G19G21G22G27
  23197152.160   121901887.42908  23197149.500    94988478.35745
  20842846.380   109529918.33608  20842842.300    85347991.74747
  22105245.980   116163886.69409  22105243.760    90517246.85947
  21978593.800   115498297.26008  21978587.680    89998676.50646
  24075892.600   126519669.71606  24075891.540    98586735.27844
  20708357.220   108823206.42108  20708350.920    84797347.83748
  20638869.100   108458013.78509  20638868.800    84512743.30748
 15 02 21 02 31 30.0000000  0  7G04G16G18G19G21G22G27
  23181788.540   121821149.84708  23181785.580    94925566.00145
  20851273.260   109574202.81208  20851269.660    85382499.11347
  22114892.640   116214580.26309  22114890.380    90556748.35446
  21966518.520   115434840.77808  21966512.800    89949229.89346
  24089116.300   126589161.27006  24089115.480    98640884.47144
  20705425.520   108807801.81008  20705419.520    84785344.25248
  20632957.920   108426949.10009  20632957.620    84488537.05248
 15 02 21 02 32  0.0000000  0  7G04G16G18G19G21G22G27
  23166462.820   121740612.59008  23166459.720    94862809.74345
  20859801.100   109619017.96208  20859798.080    85417419.99647
  22124616.440   116265678.92509  22124614.000    90596565.49746
  21954469.960   115371524.66808  21954464.460    89899892.68346
  24102338.960   126658647.26906  24102338.320    98695029.40144
  20702594.720   108792926.93808  20702588.920    84773753.45348
  20627096.000   108396143.52509  20627095.740    84464532.71448
 15 02 21 02 32 30.0000000  0  7G04G16G18G19G21G22G27
  23151175.020   121660275.51308  23151171.900    94800209.47744
  20868429.760   109664363.34508  20868427.300    85452754.03747
  22134417.160   116317181.49109  22134414.420    90636697.37146
  21942448.260   115308349.67308  21942442.760    89850665.41646
  24115560.600   126728127.95806  24115559.940    98749170.12044
  20699864.940   108778582.05009  20699859.240    84762575.62048
  20621283.520   108365598.38109  20621283.360    84440731.30448
 15 02 21 02 33  0.0000000  0  7G04G16G18G19G21G22G27
  23135925.140   121580138.19008  23135921.940    94737764.83444
  20877158.580   109710235.52408  20877156.640    85488498.56347
  22144294.120   116369084.51709  22144291.040    90677141.27746
  21930453.340   115245315.69308  21930447.900    89801548.05346
  24128780.960   126797601.17707  24128780.220    98803305.07543
  20697235.880   108764766.19109  20697230.280    84751810.02848
  20615520.520   108335313.83009  20615520.540    84417132.96748
 15 02 21 02 33 30.0000000  0  7G04G16G18G19G21G22G27
  23120713.960   121500204.89108  23120710.760    94675479.17744
  20885988.500   109756637.92108  20885986.760    85524656.24447
  22154247.800   116421390.45509  22154244.280    90717899.14246
  21918486.100   115182427.97408  21918480.720    89752544.66346
  24142000.660   126867071.20406  24141999.400    98857437.52744
  20694708.300   108751483.70809  20694702.860    84741460.04148
  20609808.140   108305295.38909  20609808.300    84393741.97348
 15 02 21 02 34  0.0000000  0  7G04G16G18G19G21G22G27
  23105541.420   121420476.29207  23105539.080    94613353.00444
  20894919.320   109803568.95309  20894917.360    85561225.86447
  22164278.000   116474097.89909  22164273.600    90758969.88246
  21906546.860   115119688.29208  21906541.680    89703656.63846
  24155219.560   126936537.06807  24155217.680    98911566.80943
  20692282.300   108738735.35708  20692277.060    84731526.28448
  20604146.820   108275544.61009  20604146.960    84370559.55648
 15 02 21 02 34 30.0000000  0  7G04G16G18G19G21G22G27
  23090407.880   121340953.45108  23090406.820    94551387.19344
  20903951.000   109851028.27209  20903948.320    85598207.13647
  22174384.380   116527205.84409  22174379.080    90800352.69245
  21894636.080   115057097.95308  21894631.160    89654884.97046
  24168437.640   127005998.39506  24168435.000    98965692.49543
  20689957.900   108726521.63508  20689952.800    84722009.11848
  20598536.960   108246063.72109  20598536.900    84347587.43648
 15 02 21 02 35  0.0000000  0  7G04G16G18G19G21G22G27
  23075312.660   121261630.86107  23075312.980    94489577.41544
  20913081.960   109899008.32209  20913078.340    85635594.18447
  22184565.400   116580706.48509  22184559.240    90842041.52045
  21882753.020   114994652.30108  21882748.160    89606226.04246
  24181653.700   127075449.52206  24181650.400    99019810.20743
  20687734.040   108714836.54908  20687729.020    84712903.86648
  20592977.480   108216848.08609  20592977.340    84324822.00448
 15 02 21 02 35 30.0000000  0  7G04G16G18G19G21G22G27
  23060255.560   121182506.15908  23060256.540    94427921.83344
  20922311.020   109947504.22209  20922306.820    85673383.18947
  22194820.080   116634595.15308  22194813.360    90884032.69645
  21870897.360   114932349.53808  21870892.300    89557678.46646
  24194867.200   127144887.14306  24194863.780    99073917.43344
  20685610.340   108703677.67508  20685605.400    84704208.66548
  20587468.020   108187896.27009  20587468.000    84302262.14548
 15 02 21 02 36  0.0000000  0  7G04G16G18G19G21G22G27
  23045237.720   121103584.77308  23045238.840    94366424.68545
  20931639.020   109996520.63909  20931634.480    85711577.78647
  22205149.100   116688875.44408  22205142.060    90926329.04745
  21859070.240   114870196.04508  21859064.740    89509247.20546
  24208079.060   127214316.76106  24208075.640    99128018.39143
  20683587.940   108693050.67409  20683582.980    84695927.89348
  20582009.920   108159214.82509  20582010.100    84279912.97148
 15 02 21 02 36 30.0000000  0  7G04G16G18G19G21G22G27
  23030258.760   121024865.81608  23030259.500    94305085.27145
  20941065.340   110046054.57009  20941060.540    85750175.64147
  22215551.800   116743544.28208  22215545.000    90968928.14844
  21847271.520   114808191.56909  21847265.460    89460932.05446
  24221288.880   127283735.63506  24221285.460    99182110.98343
  20681666.540   108682953.73909  20681661.520    84688060.14948
  20576603.280   108130803.85109  20576603.660    84257774.55448
 15 02 21 02 37  0.0000000  0  8G04G16G18G19G21G22G27G32
  23015319.200   120946353.29508  23015319.160    94243906.70145
  20950590.420   110096107.83409  20950585.260    85789178.17447
  22226028.600   116798603.25208  22226022.420    91011831.24144
  21835502.140   114746341.03609  21835495.640    89412736.86445
  24234497.360   127353146.67106  24234493.800    99236197.53744
  20679846.840   108673390.77209  20679841.740    84680608.48948
  20571249.060   108102668.39709  20571249.660    84235850.82748
  24496982.820   128732519.06007  24496983.240   100311040.43344
 15 02 21 02 37 30.0000000  0  7G04G16G18G19G21G22G27
  23000418.360   120868044.58509  23000417.560    94182886.98545
  20960213.620   110146676.38309  20960208.060    85828582.23747
  22236578.880   116854047.98808  22236573.500    91055034.92144
  21823761.700   114684642.62109  21823754.700    89364660.20445
  24247703.720   127422547.05005  24247700.760    99290275.71244
  20678128.420   108664359.42409  20678123.200    84673571.07048
  20565946.940   108074806.93709  20565947.840    84214140.59948
 15 02 21 02 38  0.0000000  0  7G04G16G18G19G21G22G27
  22985556.580   120789942.19309  22985555.180    94122027.99545
  20969934.860   110197760.56509  20969929.000    85868388.07847
  22247202.840   116909878.71208  22247198.260    91098539.36945
  21812050.800   114623099.52409  21812043.160    89316704.54445
  24260908.440   127491938.63005  24260906.180    99344346.94344
  20676511.620   108655861.59809  20676506.280    84666949.39048
  20560697.620   108047222.96909  20560698.900    84192646.60048
 15 02 21 02 38 30.0000000  0  7G04G16G18G19G21G22G27
  22970734.020   120712047.55608  22970732.120    94061330.90445
  20979753.980   110249359.83109  20979747.940    85908595.28947
  22257900.340   116966094.70108  22257896.460    91142344.03246
  21800369.900   114561714.39609  21800361.320    89268871.97444
  24274111.580   127561321.65405  24274110.020    99398411.61344
  20674996.560   108647898.27709  20674991.120    84660744.20348
  20555501.680   108019919.02209  20555503.240    84171370.79948
 15 02 21 02 39  0.0000000  0  8G04G11G16G18G19G21G22G27
  22955950.400   120634359.20908  22955948.180    94000794.55446
  24650081.640   129537045.72808                                
  20989670.400   110301470.85209  20989664.120    85949201.27746
  22268670.680   117022692.48908  22268667.220    91186446.19046
  21788718.800   114500486.46409  21788708.860    89221161.88544
  24287312.800   127630694.26805  24287311.080    99452468.17244
  20673582.780   108640467.59909  20673577.400    84654954.07348
  20550359.100   107992894.78109  20550360.760    84150312.95148
 15 02 21 02 39 30.0000000  0  8G04G11G16G18G19G21G22G27
  22941208.260   120556890.11208  22941205.900    93940429.04246
  24633278.340   129448745.86107  24633275.440   100869139.02645
  20999686.220   110354105.22209  20999679.880    85990215.05346
  22279515.800   117079682.45508  22279512.540    91230853.95846
  21777099.900   114439429.20808  21777088.960    89173584.79044
  24300514.300   127700068.70005  24300512.760    99506526.10843
  20672272.660   108633582.19409  20672267.400    84649588.83048
  20545272.540   107966164.14209  20545274.080    84129483.88448
 15 02 21 02 40  0.0000000  0  9G04G11G16G18G19G21G22G27G32
  22926504.720   120479624.58908  22926502.460    93880222.18046
  24616485.860   129360504.33306  24616483.320   100800379.44945
  21009798.080   110407244.78908  21009791.840    86031622.50446
  22290432.100   117137046.64908  22290429.000    91275553.31547
  21765510.400   114378528.01608  21765499.540    89126129.29844
  24313712.980   127769428.36506  24313711.520    99560572.57043
  20671063.240   108627226.33409  20671058.020    84644636.21848
  20540239.140   107939712.46609  20540240.420    84108872.18248
  24361258.460   128019281.18706  24361261.500    99755292.69443
 15 02 21 02 40 30.0000000  0  9G04G11G16G18G19G21G22G27G32
  22911835.100   120402537.49708  22911833.020    93820154.38345
  24599699.840   129272295.96407  24599697.640   100731645.70845
  21020000.720   110460862.57808  21019994.680    86073402.59346
  22301414.440   117194758.20208  22301411.500    91320523.35747
  21753945.800   114317759.03808  21753936.300    89078776.85644
  24326903.980   127838747.07106  24326902.040    99614587.13944
  20669949.520   108621374.34809  20669944.420    84640076.24948
  20535254.420   107913515.83609  20535255.260    84088459.23648
  24338664.400   127900546.77406  24338665.220    99662772.80042
 15 02 21 02 41  0.0000000  0  9G04G11G16G18G19G21G22G27G32
  22897207.660   120325672.21107  22897205.940    93760259.38646
  24582928.560   129184164.10006  24582926.580   100662971.55345
  21030301.800   110514999.67508  21030296.340    86115587.32446
  22312470.680   117252858.07909  22312467.820    91365795.98047
  21742414.560   114257165.96508  21742406.840    89031561.49044
  24340095.540   127908067.69106  24340092.780    99668603.19944
  20668939.660   108616068.81909  20668934.820    84635942.08548
  20530326.740   107887618.50109  20530327.100    84068279.50648
  24316082.820   127781878.47706  24316081.700    99570304.37843
 15 02 21 02 41 30.0000000  0  9G04G11G16G18G19G21G22G27G32
  22882619.560   120249013.51408  22882618.180    93700525.40445
  24566169.020   129096093.66806  24566167.080   100594345.35744
  21040698.200   110569638.98508  21040693.600    86158163.35845
  22323597.340   117311328.85909  22323594.600    91411357.61747
  21730913.980   114196734.49708  21730908.060    88984472.04545
  24353284.300   127977374.25706  24353280.880    99722618.27043
  20668030.820   108611294.37509  20668026.260    84632221.73948
  20525453.340   107862006.24909  20525453.220    84048321.90348
  24293511.220   127663263.42207  24293509.180    99477877.39442
 15 02 21 02 42  0.0000000  0  9G04G11G16G18G19G21G22G27G32
  22868071.860   120172567.10208  22868071.060    93640956.88244
  24549422.140   129008090.47707  24549420.300   100525771.53044
  21051191.040   110624784.45008  21051187.180    86201133.83645
  22334795.220   117370173.90309  22334792.560    91457210.88547
  21719445.440   114136471.49507  21719441.180    88937513.89445
  24366471.440   128046672.62006  24366466.760    99776617.01742
  20667224.080   108607056.29409  20667219.800    84628919.35548
  20520635.520   107836686.24509  20520634.940    84028592.03748
  24270951.160   127544710.13506  24270948.120    99385498.54742
 15 02 21 02 42 30.0000000  0  9G04G11G16G18G19G21G22G27G32
  22853564.320   120096330.86808  22853563.840    93581552.08844
  24532687.660   128920152.33506  24532685.980   100457248.34344
  21061779.880   110680431.65208  21061776.280    86244495.27645
  22346063.520   117429389.03308  22346060.860    91503352.54147
  21708008.960   114076375.67908  21708006.040    88890686.00046
  24379656.380   128115959.36406  24379651.000    99830606.67943
  20666519.120   108603352.15109  20666514.880    84626033.02048
  20515872.920   107811657.26809  20515871.980    84009088.93148
  24248402.340   127426218.46806  24248399.240    99293167.73243
 15 02 21 02 43  0.0000000  0  9G04G11G16G18G19G21G22G27G32
  22839097.140   120020306.06508  22839096.500    93522312.01444
  24515965.620   128832280.07505  24515964.300   100388776.46745
  21072464.680   110736579.92508  21072461.080    86288247.18545
  22357402.060   117488973.53408  22357399.400    91549782.00146
  21696605.200   114016449.09608  21696603.220    88843989.97446
  24392839.140   128185234.90506  24392833.480    99884587.62442
  20665915.960   108600182.17709  20665911.560    84623562.91848
  20511166.000   107786921.54509  20511164.820    83989814.33648
  24225865.900   127307792.18906  24225863.460    99200887.71242
 15 02 21 02 43 30.0000000  0  9G04G11G16G18G19G21G22G27G32
  22824670.780   119944493.82008  22824668.720    93463237.53242
  24499256.460   128744475.09107  24499255.840   100320357.10944
  21083245.000   110793228.41608  21083241.320    86332388.87545
  22368810.520   117548926.13908  22368807.840    91596498.30146
  21685234.440   113956693.97008  21685232.880    88797427.54247
  24406019.760   128254499.28306  24406013.560    99938559.83843
  20665414.860   108597547.80409  20665410.220    84621510.15848
  20506515.200   107762481.40009  20506513.900    83970770.06548
  24203342.420   127189434.69406  24203341.560    99108661.42442
 15 02 21 02 44  0.0000000  0  9G04G11G16G18G19G21G22G27G32
  22810285.620   119868896.15409  22810279.080    93404330.21741
  24482560.820   128656739.52807  24482560.880   100251991.78144
  21094120.560   110850376.67508  21094116.660    86376919.98345
  22380288.820   117609246.54208  22380286.100    91643501.19846
  21673897.120   113897113.11408  21673895.460    88751000.90247
  24419198.520   128323754.34206  24419192.500    99992524.74044
  20665015.940   108595449.93109  20665010.960    84619875.46248
  20501921.180   107738339.90109  20501919.900    83951958.51148
  24180833.100   127071150.39606  24180834.280    99016472.00141
 15 02 21 02 44 30.0000000  0  9G04G11G16G18G19G21G22G27G32
  22795939.860   119793505.35309  22795930.200    93345584.12942
  24465877.200   128569065.80307  24465877.880   100183674.60945
  21105089.580   110908015.76409  21105085.560    86421833.56746
  22391834.940   117669924.96207  22391832.520    91690783.05745
  21662591.840   113837700.15509  21662589.860    88704705.11547
  24432373.940   128392991.88806  24432367.200   100046476.02343
  20664717.660   108593880.76709  20664712.180    84618652.74748
  20497382.740   107714490.66109  20497381.460    83933374.68848
  24158337.220   126952934.18707  24158339.160    98924355.67642
 15 02 21 02 45  0.0000000  0  9G04G11G16G18G19G21G22G27G32
  22781632.500   119718316.92809  22781623.580    93286995.62042
  24449204.800   128481449.42708  24449205.520   100115402.17845
  21116150.660   110966138.62409  21116146.540    86467124.11046
  22403447.500   117730954.93406  22403445.680    91738338.84145
  21651317.760   113778451.27509  21651315.240    88658537.16547
  24445545.100   128462207.01706  24445538.980   100100409.92843
  20664518.960   108592834.94109  20664512.980    84617837.83047
  20492899.240   107690930.08809  20492897.880    83915015.79448
  24135854.120   126834783.74308  24135856.500    98832290.61241
 15 02 21 02 45 30.0000000  0  9G04G11G16G18G19G21G22G27G32
  22767365.120   119643339.54609  22767358.980    93228571.67944
  24432545.220   128393899.03908  24432545.580   100047181.11045
  21127304.960   111024751.58409  21127300.680    86512796.55246
  22415127.920   117792342.52206  22415126.600    91786173.27544
  21640076.660   113719376.03209  21640073.540    88612504.50647
  24458713.520   128531407.40706  24458708.480   100154332.29043
  20664421.160   108592320.55709  20664414.860    84617437.02647
  20488472.420   107667667.85109  20488470.980    83896889.39048
  24113385.700   126716709.97708  24113386.480    98740285.22342
 15 02 21 02 46  0.0000000  0  9G04G11G16G18G19G21G22G27G32
  22753136.360   119568566.42608  22753132.700    93170306.92145
  24415896.920   128306407.59108  24415896.660    99979005.99545
  21138550.840   111083846.01109  21138546.560    86558844.14547
  22426875.200   117854078.99107  22426873.620    91834279.59944
  21628867.540   113660468.89009  21628863.800    88566602.84147
  24471877.820   128600585.85306  24471873.860   100208237.55844
  20664422.860   108592330.49409  20664416.400    84617444.78347
  20484101.360   107644698.66109  20484099.840    83878991.32448
  24090931.100   126598708.95708  24090929.900    98648336.59842
 15 02 21 02 46 30.0000000  0  9G04G11G16G18G19G21G22G27G32
  22738947.180   119494003.02208  22738945.220    93112205.62544
  24399260.920   128218981.06908  24399259.640    99910881.46545
  21149888.860   111143425.22009  21149884.720    86605269.50347
  22438690.300   117916167.36707  22438687.500    91882660.16144
  21617691.480   113601735.97309  21617687.280    88520836.93547
  24485038.900   128669747.22206  24485036.200   100262129.45944
  20664525.040   108592869.36109  20664518.600    84617864.68647
  20479787.340   107622028.85309  20479785.760    83861326.54048
  24068491.660   126480788.22608  24068489.800    98556450.45342
 15 02 21 02 47  0.0000000  0  9G04G11G16G18G19G21G22G27G32
  22724797.560   119419648.98408  22724796.880    93054267.46844
  24382636.980   128131619.06808  24382634.900    99842807.20745
  21161318.460   111203486.07709  21161314.400    86652070.16647
  22450572.500   117978604.92308  22450568.440    91931312.81944
  21606548.580   113543178.10309  21606544.100    88475207.41947
  24498196.400   128738890.11006  24498195.040   100316006.94543
  20664727.580   108593936.25708  20664721.320    84618696.03147
  20475530.420   107599659.16809  20475528.860    83843895.61948
  24046067.880   126362949.79208  24046065.900    98464628.44242
 15 02 21 02 47 30.0000000  0  9G04G11G16G18G19G21G22G27G32
  22710688.240   119345508.03808  22710688.600    92996495.37845
  24366025.740   128044325.59008  24366022.900    99774786.37345
  21172840.140   111264031.48709  21172836.240    86699248.40247
  22462521.840   118041393.75308  22462516.900    91980239.21344
  21595439.780   113484800.50009  21595435.180    88429718.38147
  24511351.200   128808018.37006  24511350.060   100369873.13044
  20665031.300   108595534.82108  20665025.460    84619941.66347
  20471331.600   107577594.76209  20471330.040    83826702.57348
  24023660.840   126245200.20108  24023659.700    98372875.61941
 15 02 21 02 48  0.0000000  0  9G04G11G16G18G19G21G22G27G32
  22696619.040   119271578.93808  22696620.380    92938888.36345
  24349427.020   127957099.27208  24349423.580    99706817.83845
  21184453.080   111325057.39709  21184449.460    86746801.04148
  22474537.340   118104530.09608  22474532.060    92029436.38545
  21584365.000   113426602.62709  21584360.440    88384369.39447
  24524502.880   128877130.13206  24524501.880   100423726.39643
  20665435.940   108597662.70308  20665430.480    84621599.75147
  20467190.860   107555835.39909  20467189.220    83809747.22848
  24001270.800   126127540.39908  24001270.520    98281192.84043
 15 02 21 02 48 30.0000000  0  9G04G11G16G18G19G21G22G27G32
  22682590.700   119197863.38108  22682592.780    92881447.73945
  24332841.320   127869941.74407  24332837.300    99638902.91246
  21196157.240   111386562.96809  21196153.800    86794727.45547
  22486618.580   118168012.98408  22486613.300    92078903.57945
  21573324.780   113368587.08608  21573320.300    88339162.51346
  24537651.620   128946226.40706  24537650.760   100477567.59444
  20665941.740   108600320.98309  20665936.560    84623671.14347
  20463108.680   107534383.82709  20463107.000    83793031.72348
  23978898.660   126009974.47508  23978898.880    98189583.19943
 15 02 21 02 49  0.0000000  0  9G04G11G16G18G19G21G22G27G32
  22668603.520   119124361.95408  22668605.920    92824173.99445
  24316268.700   127782853.75107  24316264.380    99571042.17745
  21207952.320   111448546.74209  21207949.020    86843026.48848
  22498765.300   118231841.23608  22498760.140    92128639.88045
  21562319.440   113310755.00008  21562314.980    88294098.56846
  24550797.260   129015306.88606  24550796.580   100531396.49144
  20666548.440   108603509.06908  20666543.420    84626155.37348
  20459085.440   107513241.51809  20459083.660    83776557.19348
  23956544.780   125892505.21408  23956545.360    98098048.86144
 15 02 21 02 49 30.0000000  0  9G04G11G16G18G19G21G22G27G32
  22654657.680   119051074.63808  22654659.780    92767067.05445
  24299709.180   127695835.36708  24299704.980    99503235.74444
  21219837.860   111511006.80308  21219834.760    86891696.64748
  22510977.080   118296012.63408  22510972.120    92178643.57046
  21551349.320   113253108.08308  21551344.860    88249178.92246
  24563939.840   129084371.36006  24563939.160   100585212.92444
  20667256.000   108607226.99609  20667251.140    84629052.46547
  20455121.360   107492409.96709  20455119.480    83760324.81948
  23934209.780   125775135.31108  23934210.680    98006591.95444
 15 02 21 02 50  0.0000000  0  9G04G11G16G18G19G21G22G27G32
  22640752.380   118977998.46709  22640753.800    92710124.63845
  24283162.320   127608883.75007  24283158.360    99435481.24445
  21231812.880   111573937.87908  21231810.120    86940733.81447
  22523252.980   118360522.04108  22523248.260    92228910.63146
  21540414.040   113195644.27308  21540409.480    88204401.95146
  24577078.640   129153416.17006  24577078.260   100639014.00944
  20668063.660   108611470.63709  20668058.780    84632359.20747
  20451216.060   107471887.36609  20451214.000    83744333.18048
  23911893.540   125657864.39908  23911894.560    97915212.19444
 15 02 21 02 50 30.0000000  0  9G04G11G16G18G19G21G22G27G32
  22626888.380   118905138.48309  22626888.800    92653350.64945
  24266628.920   127522003.87806  24266625.800    99367782.68746
  21243877.900   111637342.22008  21243875.480    86990139.74947
  22535593.580   118425371.94008  22535588.960    92279443.00546
  21529515.080   113138370.45308  21529510.240    88159773.02346
  24590214.560   129222446.31906  24590214.520   100692803.69443
  20668972.420   108616244.84709  20668967.220    84636079.37547
  20447370.580   107451679.72409  20447368.340    83728586.96148
  23889597.400   125540699.75507  23889598.520    97823915.19044
 15 02 21 02 51  0.0000000  0  9G04G11G16G18G19G21G22G27G32
  22613064.760   118832491.21209  22613064.200    92596742.40645
  24250108.380   127435192.63906  24250106.340    99300137.63545
  21256031.800   111701214.37008  21256029.820    87039910.23347
  22547997.840   118490556.87708  22547993.280    92330236.44046
  21518651.880   113081283.43209  21518646.680    88115289.65546
  24603346.780   129291457.32606  24603346.840   100746578.48943
  20669981.300   108621545.14409  20669975.640    84640209.48947
  20443584.520   107431784.82209  20443582.200    83713084.44648
  23867321.280   125423640.53207  23867322.340    97732700.35044
 15 02 21 02 51 30.0000000  0  9G04G11G16G18G19G21G22G27G32
  22599280.680   118760052.32709  22599279.180    92540296.55545
  24233600.360   127348445.88207  24233599.640    99232542.81345
  21268273.340   111765548.40108  21268271.980    87090040.60647
  22560464.500   118556069.94608  22560459.780    92381285.56445
  21507823.880   113024380.11109  21507818.140    88070949.41646
  24616474.540   129360444.87206  24616474.800   100800334.96544
  20671089.180   108627366.21009  20671083.020    84644745.38847
  20439857.240   107412199.45709  20439855.100    83697823.11148
  23845065.040   125306684.74608  23845065.840    97641566.08644
 15 02 21 02 52  0.0000000  0  9G04G11G16G18G19G21G22G27G32
  22585537.340   118687828.66409  22585535.020    92484018.39344
  24217106.360   127261770.55107  24217106.420    99165003.65245
  21280603.440   111830348.65008  21280602.660    87140534.27047
  22572994.400   118621916.31808  22572989.800    92432594.38446
  21497032.480   112967668.90809  21497026.180    88026758.86946
  24629599.160   129429415.23406  24629599.260   100854078.06144
  20672297.300   108633714.67409  20672290.780    84649692.25347
  20436190.360   107392931.74809  20436188.660    83682809.31648
  23822830.440   125189841.93608  23822830.820    97550519.86144
 15 02 21 02 52 30.0000000  0  9G04G11G16G18G19G21G22G27G32
  22571833.940   118615816.32309  22571831.040    92427904.89644
  24200625.680   127175163.07608  24200626.080    99097517.31045
  21293021.300   111895608.78708  21293020.840    87191386.29846
  22585586.340   118688089.70007  22585581.660    92484158.02245
  21486276.940   112911146.44309  21486269.880    87982715.37946
  24642719.880   129498364.18207  24642719.580   100907804.45644
  20673604.760   108640585.68309  20673598.080    84655046.28847
  20432583.400   107373979.09309  20432582.240    83668041.02348
  23800617.280   125073110.71608  23800616.980    97459560.56244
 15 02 21 02 53  0.0000000  0  9G04G11G16G18G19G21G22G27G32
  22558171.120   118544019.01409  22558168.100    92371958.96244
  24184158.740   127088626.61308  24184159.160    99030086.35645
  21305527.280   111961329.73208  21305526.580    87242597.40746
  22598240.600   118754591.21307  22598235.980    92535977.36045
  21475558.060   112854817.62109  21475550.280    87938822.78446
  24655837.140   129567294.25907  24655836.320   100961516.17844
  20675012.140   108647981.80908  20675005.500    84660809.50347
  20429037.280   107355345.94309  20429036.680    83653521.69248
  23778426.560   124956496.89708  23778425.680    97368692.74944
 15 02 21 02 53 30.0000000  0  9G04G11G16G18G19G21G22G27G32
  22544548.520   118472434.63708  22544545.740    92316178.96344
  24167705.220   127002159.76808  24167704.980    98962709.65145
  21318120.780   112027507.80408  21318119.420    87294164.74546
  22610956.620   118821416.95807  22610952.100    92588049.35544
  21464875.840   112798681.94209  21464867.480    87895080.68746
  24668950.400   129636203.40507  24668948.840   101015211.56344
  20676519.000   108655900.44808  20676512.520    84666979.87848
  20425551.980   107337031.64509  20425551.840    83639250.82048
  23756258.300   124840001.18708  23756257.260    97277916.97344
 15 02 21 02 54  0.0000000  0  9G04G11G16G18G19G21G22G27G32
  22530966.320   118401063.10008  22530964.120    92260564.81443
  24151264.960   126915762.41308  24151263.860    98895387.06645
  21330801.020   112094140.05608  21330799.100    87346085.98846
  22623734.080   118888564.29808  22623729.380    92640371.96644
  21454230.420   112742739.91109  21454222.020    87851489.48446
  24682059.600   129705091.08707  24682057.420   101068890.24244
  20678125.020   108664340.37708  20678118.900    84673556.44447
  20422127.720   107319037.16309  20422127.880    83625229.14648
  23734112.940   124723625.78808  23734111.840    97187234.95544
 15 02 21 02 54 30.0000000  0  9G04G11G16G18G19G21G22G27G32
  22517425.480   118329909.15508  22517423.840    92205120.19043
  24134838.860   126829439.49008  24134836.660    98828122.48145
  21343568.160   112161229.06809  21343566.020    87398363.12847
  22636573.360   118956036.03208  22636568.180    92692947.32444
  21443622.980   112686997.71609  21443614.960    87808053.99146
  24695165.440   129773961.57707  24695162.840   101122555.44844
  20679830.840   108673305.48308  20679825.240    84680542.24148
  20418765.580   107301368.35509  20418765.840    83611461.24348
  23711991.760   124607378.01408  23711991.060    97096652.37044
 15 02 21 02 55  0.0000000  0  9G04G11G16G18G19G21G22G27G32
  22503925.300   118258968.10708  22503923.640    92149841.43843
  24118425.900   126743186.28609  24118422.940    98760912.23745
  21356420.800   112228767.56509  21356418.480    87450990.51647
  22649473.160   119023824.95108  22649467.660    92745769.86544
  21433052.800   112631451.55009  21433045.400    87764771.26847
  24708266.900   129842809.54407  24708264.000   101176203.22544
  20681635.580   108682790.40208  20681630.400    84687933.09048
  20415464.880   107284021.65609  20415465.100    83597944.33348
  23689894.300   124491255.54808  23689893.780    97006167.42145
 15 02 21 02 55 30.0000000  0  9G04G11G16G18G19G21G22G27G32
  22490466.600   118188243.94308  22490464.600    92094731.69744
  24102026.960   126657007.16709  24102023.200    98693759.66545
  21369359.360   112296757.70709  21369356.760    87503969.84247
  22662433.740   119091932.75408  22662427.940    92798840.91144
  21422520.900   112576107.09309  21422514.140    87721645.72747
  24721364.760   129911638.64007  24721361.580   101229836.24044
  20683539.940   108692798.34908  20683534.900    84695731.49348
  20412226.600   107267002.46709  20412226.620    83584682.62648
  23667821.880   124375265.09908  23667821.680    96915785.38544
 15 02 21 02 56  0.0000000  0  9G04G11G16G18G19G21G22G27G32
  22477048.940   118117734.57608  22477047.060    92039789.31844
  24085641.500   126570900.07908  24085637.280    98626663.27045
  21382382.820   112365194.81709  21382379.880    87557297.45447
  22675454.300   119160355.20508  22675448.860    92852157.11744
  21412027.140   112520963.39909  21412020.920    87678676.63047
  24734458.720   129980447.20207  24734455.500   101283453.28043
  20685543.300   108703326.09008  20685538.180    84703934.93348
  20409050.500   107250309.81509  20409050.200    83571675.36648
  23645774.560   124259407.19608  23645774.620    96825506.60544
 15 02 21 02 56 30.0000000  0  9G04G11G16G18G19G21G22G27G32
  22463672.560   118047441.54508  22463671.340    91985015.54545
  24069269.860   126484866.46008  24069265.860    98559624.12945
  21395491.060   112434078.51309  21395487.820    87610973.05947
  22688534.600   119229091.74708  22688529.640    92905718.06744
  21401572.000   112466023.11509  21401566.280    87635866.01646
  24747548.860   130049235.90807  24747545.600   101337054.82044
  20687645.800   108714374.44708  20687640.520    84712544.05548
  20405936.980   107233946.29209  20405936.440    83558924.57548
  23623753.140   124143685.59207  23623753.420    96735334.04645
 15 02 21 02 57  0.0000000  0  9G04G11G16G18G19G21G22G27G32
  22450337.240   117977363.58408  22450336.600    91930409.38545
  24052911.760   126398905.62208  24052908.580    98492641.69345
  21408683.320   112503404.16809  21408679.780    87664993.03746
  22701673.960   119298138.83008  22701669.680    92959521.00745
  21391155.420   112411285.84508  21391150.180    87593213.61146
  24760634.860   130118003.02607  24760631.320   101390639.59243
  20689847.080   108725941.40808  20689841.540    84721557.27447
  20402885.940   107217911.87309  20402885.280    83546430.22048
  23601758.020   124028101.73008  23601758.220    96645268.79744
 15 02 21 02 57 30.0000000  0  9G04G11G16G18G19G21G22G27G32
  22437043.280   117907502.81709  22437043.080    91875972.46246
  24036567.740   126313019.95208  24036565.640    98425717.84345
  21421959.720   112573172.55708  21421956.200    87719357.99547
  22714872.200   119367496.24707  22714868.540    93013565.70045
  21380778.100   112356755.28008  21380773.540    87550722.26646
  24773716.980   130186750.30406  24773712.540   101444208.87741
  20692147.320   108738028.06609  20692141.580    84730975.45148
  20399898.040   107202209.88409  20399897.380    83534194.90748
  23579790.240   123912660.31708  23579790.420    96555314.54844
 15 02 21 02 58  0.0000000  0 10G04G11G14G16G18G19G21G22G27G32
  22423790.800   117837860.56408  22423791.000    91821705.80846
  24020237.920   126227210.86508  24020236.940    98358853.70145
  24670662.760   129645210.96105  24670661.960   101022224.51543
  21435319.940   112643381.64908  21435316.640    87774066.36047
  22728129.040   119437162.89307  22728126.100    93067851.35344
  21370440.540   112302433.97108  21370436.720    87508393.95846
  24786795.300   130255478.53206  24786791.040   101497763.26342
  20694546.460   108750634.44909  20694540.540    84740798.60748
  20396973.740   107186842.71809  20396973.160    83522220.48448
  23557850.460   123797364.97808  23557850.220    96465474.07344
 15 02 21 02 58 30.0000000  0 10G04G11G14G16G18G19G21G22G27G32
  22410579.120   117768433.13309  22410579.680    91767606.55046
  24003921.880   126141474.60608  24003921.640    98292046.25345
  24656509.360   129570833.30906  24656507.460   100964267.97143
  21448763.000   112714025.80308  21448759.980    87829113.75547
  22741443.540   119507133.06007  22741441.220    93122373.53545
  21360142.400   112248319.19508  21360139.080    87466226.60246
  24799868.900   130324183.95106  24799865.180   101551299.85942
  20697043.580   108763755.92609  20697037.680    84751023.13848
  20394112.560   107171807.90709  20394112.140    83510505.05048
  23535938.380   123682214.67108  23535937.900    96375746.64443
 15 02 21 02 59  0.0000000  0 10G04G11G14G16G18G19G21G22G27G32
  22397408.980   117699223.76909  22397409.860    91713677.21246
  23987620.520   126055814.79008  23987620.820    98225298.44945
  24642358.820   129496470.98706  24642356.800   100906323.28443
  21462288.920   112785106.02808  21462286.340    87884500.92347
  22754816.080   119577407.96807  22754814.380    93177133.16545
  21349884.640   112194415.66308  21349881.440    87424223.85346
  24812938.640   130392869.48806  24812935.100   101604821.09143
  20699639.160   108777395.01309  20699633.400    84761650.99448
  20391315.380   107157109.95109  20391315.140    83499052.09848
  23514055.020   123567215.29808  23514054.480    96286136.76643
 15 02 21 02 59 30.0000000  0 10G04G11G14G16G18G19G21G22G27G32
  22384279.320   117630227.01308  22384280.460    91659913.51546
  23971333.220   125970226.33208  23971333.600    98158606.17745
  24628210.580   129422121.17606  24628208.780   100848388.27642
  21475896.100   112856613.98908  21475894.040    87940221.38147
  22768245.300   119647979.63708  22768244.000    93232124.05945
  21339666.520   112140719.21108  21339663.060    87382382.45846
  24826003.460   130461529.46106  24826002.240   101658322.34043
  20702331.940   108791545.06109  20702326.360    84772677.01148
  20388581.380   107142744.51308  20388581.320    83487858.24348
  23492199.740   123452363.78108  23492199.540    96196642.15143
 15 02 21 03 00  0.0000000  0 10G04G11G14G16G18G19G21G22G27G32
  22371191.080   117561447.88008  22371192.440    91606319.41846
  23955060.880   125884714.06708  23955060.960    98091973.30345
  24614065.780   129347791.00906  24614065.480   100790468.72743
  21489585.180   112928552.44708  21489583.520    87996277.28846
  22781731.820   119718850.84808  22781730.480    93287348.33845
  21329489.060   112087235.71208  21329485.280    87340707.00646
  24839064.560   130530168.04106  24839064.020   101711806.95043
  20705122.700   108806209.97009  20705117.260    84784104.22448
  20385911.940   107128717.66409  20385911.860    83476928.21948
  23470373.860   123337667.65807  23470373.640    96107268.61943
 15 02 21 03 00 30.0000000  0 10G04G11G14G16G18G19G21G22G27G32
  22358142.720   117492878.64808  22358144.200    91552888.87246
  23938802.020   125799270.89008  23938801.720    98025394.25546
  24599923.880   129273476.14506  24599924.580   100732585.03243
  21503354.360   113000911.12008  21503352.720    88052660.66046
  22795273.760   119790011.84008  22795271.860    93342798.45445
  21319351.100   112033959.57408  21319347.040    87299193.13046
  24852120.480   130598778.13106  24852120.440   101765269.24144
  20708009.900   108821381.39909  20708004.440    84795926.12148
  20383305.880   107115023.11009  20383305.620    83466257.13048
  23448576.280   123223122.05007  23448575.980    96018012.42143
 15 02 21 03 01  0.0000000  0 10G04G11G14G16G18G19G21G22G27G32
  22345137.820   117424537.55808  22345139.260    91499636.09746
  23922559.900   125713915.00908  23922559.060    97958883.22245
  24585789.040   129199197.69206  24585789.100   100674705.68843
  21517206.800   113073706.09608  21517204.720    88109384.00746
  22808873.980   119861478.50408  22808871.360    93398486.74345
  21309256.300   111980910.10408  21309251.960    87257855.90147
  24865174.660   130667377.19006  24865174.700   101818722.94743
  20710996.780   108837076.26209  20710991.160    84808155.88448
  20380766.780   107101680.12608  20380766.300    83455859.98348
  23426811.000   123108747.52708  23426810.880    95928889.51743
 15 02 21 03 01 30.0000000  0 10G04G11G14G16G18G19G21G22G27G32
  22332172.540   117356403.38209  22332173.580    91446544.55645
  23906330.460   125628625.68909  23906328.840    97892424.05945
  24571657.760   129124936.73906  24571656.880   100616840.00243
  21531137.960   113146914.06908  21531135.280    88166429.18646
  22822527.840   119933227.37408  22822524.500    93454394.96145
  21299200.760   111928066.86309  21299196.180    87216679.35347
  24878223.000   130735943.77106  24878222.900   101872151.43342
  20714079.140   108853272.56809  20714073.200    84820776.38648
  20378290.760   107088668.85808  20378290.180    83445721.33948
  23405074.740   122994525.62608  23405074.960    95839885.51443
 15 02 21 03 02  0.0000000  0 10G04G11G14G16G18G19G21G22G27G32
  22319248.920   117288486.73109  22319249.200    91393622.50145
  23890115.700   125543413.70708  23890113.500    97826025.17945
  24557532.440   129050706.42607  24557530.260   100558998.17344
  21545149.320   113220542.54409  21545146.000    88223802.02246
  22836236.900   120005266.87908  22836232.980    93510529.63745
  21289186.800   111875442.09909  21289181.960    87175673.05046
  24891267.100   130804488.12106  24891266.680   101925562.53744
  20717258.780   108869979.71809  20717252.400    84833794.94948
  20375880.040   107076000.94008  20375879.460    83435850.23248
  23383370.080   122880469.39807  23383370.320    95751010.55441
 15 02 21 03 02 30.0000000  0 10G04G11G14G16G18G19G21G22G27G32
  22306366.300   117220784.97109  22306365.560    91340867.88945
  23873915.080   125458276.71208  23873912.380    97759684.68245
  24543413.180   128976507.19606  24543410.220   100501180.59143
  21559239.740   113294586.08409  21559235.840    88281498.28946
  22850000.160   120077592.13708  22849995.860    93566886.97944
  21279214.140   111823034.37909  21279209.040    87134835.86647
  24904306.520   130873007.38307  24904305.760   101978954.11045
  20720534.840   108887193.86109  20720528.080    84847208.56248
  20373534.460   107063674.84508  20373533.800    83426245.47848
  23361696.980   122766578.65407  23361697.040    95662264.46642
 15 02 21 03 03  0.0000000  0 10G04G11G14G16G18G19G21G22G27G32
  22293526.120   117153306.97909  22293524.320    91288287.65345
  23857730.220   125373223.44808  23857727.300    97693409.42845
  24529302.080   128902350.29806  24529298.720   100443395.97943
  21573410.360   113369050.99209  21573405.980    88339522.90946
  22863818.780   120150209.74808  22863814.240    93623472.13045
  21269284.780   111770853.83509  21269279.400    87094175.72447
  24917342.680   130941509.98607  24917341.480   102032332.70144
  20723908.720   108904922.66409  20723901.740    84861023.21648
  20371256.000   107051700.54509  20371255.060    83416914.85348
  23340057.400   122652864.80007  23340058.000    95573656.33842
 15 02 21 03 03 30.0000000  0 10G04G11G14G16G18G19G21G22G27G32
  22280727.380   117086047.90608  22280724.760    91235878.00544
  23841560.220   125288249.28008  23841557.480    97627195.81145
  24515198.480   128828233.70305  24515195.020   100385642.82743
  21587659.800   113443930.56009  21587654.960    88397870.61446
  22877691.580   120223112.61108  22877686.800    93680279.56044
  21259397.960   111718896.82309  21259392.380    87053689.75347
  24930374.440   131009990.83107  24930372.960   102085694.27944
  20727379.380   108923160.37509  20727372.280    84875234.41548
  20369043.940   107040074.41509  20369042.700    83407855.52748
  23318451.060   122539325.61507  23318453.060    95485184.25043
 15 02 21 03 04  0.0000000  0 10G04G11G14G16G18G19G21G22G27G32
  22267970.540   117019010.23308  22267967.520    91183640.87345
  23825405.700   125203357.38208  23825403.620    97561046.30944
  24501102.780   128754163.01905  24501100.140   100327925.57944
  21601987.860   113519224.77708  21601982.880    88456541.44546
  22891618.500   120296300.94308  22891614.040    93737309.43545
  21249554.420   111667167.34709  21249548.680    87013381.08747
  24943402.440   131078452.57907  24943400.740   102139041.02844
  20730946.960   108941908.15209  20730940.000    84889843.08148
  20366898.920   107028800.26209  20366897.480    83399070.46848
  23296879.320   122425966.27307  23296882.040    95396852.39543
 15 02 21 03 04 30.0000000  0 10G04G11G14G16G18G19G21G22G27G32
  22255254.820   116952189.45908  22255251.780    91131572.69745
  23809265.860   125118543.43308  23809264.360    97494957.51744
  24487015.380   128680136.43306  24487013.360   100270242.48743
  21616393.180   113594926.29309  21616388.240    88515529.60246
  22905598.560   120369768.04408  22905594.340    93794556.48644
  21239753.560   111615662.35309  21239747.740    86973247.32547
  24956425.760   131146890.37207  24956424.380   102192369.09544
  20734610.480   108961160.45109  20734603.780    84904844.86048
  20364820.180   107017874.72209  20364818.620    83390557.03948
  23275342.040   122312784.93208  23275344.100    95308659.17044
 15 02 21 03 05  0.0000000  0 10G04G11G14G16G18G19G21G22G27G32
  22242580.080   116885584.19908  22242577.540    91079672.50545
  23793140.560   125033806.29608  23793139.280    97428928.62044
  24472936.860   128606155.20807  24472935.260   100212594.82344
  21630875.220   113671031.30608  21630870.520    88574832.21646
  22919631.080   120443510.28308  22919627.240    93852017.96344
  21229995.280   111564381.80409  21229989.460    86933288.48747
  24969444.180   131215302.68407  24969443.160   102245677.29143
  20738369.460   108980914.66209  20738363.100    84920237.75648
  20362807.620   107007297.55509  20362805.980    83382315.08848
  23253839.040   122199782.60708  23253840.120    95220605.48544
 15 02 21 03 05 30.0000000  0 10G04G11G14G16G18G19G21G22G27G32
  22229946.480   116819194.99808  22229944.500    91027940.67645
  23777029.980   124949146.70008  23777029.060    97362960.12444
  24458867.880   128532222.56307  24458866.140   100154985.01943
  21645433.580   113747537.31808  21645429.480    88634447.27846
  22933715.900   120517525.79708  22933712.220    93909692.37145
  21220279.860   111513327.33709  21220274.160    86893505.80447
  24982457.880   131283689.63707  24982457.080   102298965.81044
  20742223.780   109001169.94409  20742217.740    84936021.10148
  20360861.620   106997070.30009  20360859.860    83374345.79648
  23232370.740   122086962.30108  23232370.860    95132693.60545
 15 02 21 03 06  0.0000000  0 10G04G11G14G16G18G19G21G22G27G32
  22217354.600   116753024.59208  22217352.900    90976379.32946
  23760934.900   124864568.01308  23760934.080    97297054.71145
  24444809.320   128458344.23207  24444807.020   100097417.56444
  21660068.560   113824445.71108  21660065.220    88694375.88946
  22947853.080   120591815.51908  22947849.500    93967580.45345
  21210608.260   111462503.40909  21210602.700    86853902.76747
  24995467.220   131352054.00406  24995466.680   102352236.73342
  20746173.880   109021928.70609  20746168.120    84952196.75748
  20358982.960   106987197.21309  20358981.140    83366652.48248
  23210938.020   121974329.69608  23210937.520    95044927.99144
 15 02 21 03 06 30.0000000  0 10G04G11G14G16G18G19G21G22G27G32
  22204804.020   116687071.44608  22204802.440    90924987.29546
  23744855.160   124780068.71908  23744854.040    97231211.13845
  24430761.360   128384521.07107  24430758.460   100039893.09641
  21674779.220   113901751.28408  21674776.580    88754613.99046
  22962041.740   120666375.41008  22962038.220    94025679.04145
  21200980.440   111411909.69308  21200975.180    86814479.10747
  25008471.720   131420393.78306  25008471.620   102405488.37543
  20750219.160   109043187.44209  20750213.540    84968762.01548
  20357171.440   106977677.62409  20357169.700    83359234.61448
  23189540.900   121861885.55608  23189540.000    94957309.23544
 15 02 21 03 07  0.0000000  0 10G04G11G14G16G18G19G21G22G27G32
  22192294.320   116621333.81608  22192292.820    90873763.19746
  23728790.440   124695647.32308  23728788.980    97165428.27145
  24416724.200   128310754.21208  24416719.960    99982412.43141
  21689564.280   113979449.43508  21689562.620    88815157.96946
  22976281.180   120741201.72108  22976277.480    94083985.24546
  21191396.340   111361545.66408  21191391.420    86775234.42547
  25021471.280   131488707.41207  25021471.080   102458719.69543
  20754359.000   109064943.27609  20754353.440    84985714.60848
  20355426.920   106968511.11608  20355425.440    83352091.86848
  23168179.640   121749630.83808  23168178.360    94869838.08245
 15 02 21 03 07 30.0000000  0  9G04G11G14G16G18G19G22G27G32
  22179825.600   116555812.20208  22179824.460    90822707.40646
  23712740.820   124611304.47108  23712738.840    97099706.61945
  24402698.420   128237047.31608  24402692.020    99924978.42041
  21704423.420   114057539.26507  21704423.080    88876007.12646
  22990570.840   120816292.62208  22990567.100    94142497.61546
  21181856.360   111311413.32208  21181851.780    86736170.28147
  20758593.280   109087195.57409  20758587.740    85003054.05548
  20353749.760   106959699.25208  20353748.640    83345225.47648
  23146854.840   121637568.55708  23146853.500    94782516.87144
 15 02 21 03 08  0.0000000  0  9G04G11G14G16G18G19G22G27G32
  22167399.340   116490513.43108  22167398.340    90771825.27246
  23696707.560   124527047.42908  23696705.040    97034051.80445
  24388685.760   128163409.66008  24388679.320    99867598.47443
  21719357.860   114136024.60408  21719358.400    88937164.49246
  23004911.540   120891652.44008  23004907.880    94201219.54546
  21172362.160   111261520.92009  21172357.620    86697293.11147
  20762922.960   109109949.74309  20762917.520    85020784.57548
  20352141.680   106951249.98208  20352140.820    83338641.63648
  23125568.360   121525708.10108  23125567.240    94695352.92944
 15 02 21 03 08 30.0000000  0  9G04G11G14G16G18G19G22G27G32
  22155015.220   116425435.86308  22155014.220    90721115.50146
  23680690.320   124442875.04808  23680687.380    96968463.00145
  24374686.500   128089842.77607  24374681.180    99810273.61542
  21734367.520   114214901.11808  21734367.820    88998626.66446
  23019302.560   120967277.65608  23019299.060    94260148.26046
  21162913.700   111211868.27908  21162908.920    86658602.75147
  20767347.660   109133202.83609  20767342.260    85038903.87048
  20350602.660   106943163.01108  20350601.940    83332340.09448
  23104320.340   121414050.56807  23104319.380    94608347.13344
 15 02 21 03 09  0.0000000  0  9G04G11G14G16G18G19G22G27G32
  22142673.900   116360583.23908  22142672.940    90670581.00546
  23664689.780   124358791.08908  23664686.560    96902943.08045
  24360701.720   128016352.77907  24360697.060    99753008.73943
  21749452.440   114294169.65509  21749451.620    89060394.34445
  23033744.260   121043169.97408  23033741.020    94319285.10545
  21153511.800   111162460.02009  21153506.680    86620102.82047
  20771867.900   109156957.56009  20771862.540    85057414.03648
  20349133.620   106935443.01909  20349132.860    83326324.51648
  23083111.840   121302602.09208  23083111.380    94521504.17043
 15 02 21 03 09 30.0000000  0  9G04G11G14G16G18G19G22G27G32
  22130374.080   116295948.45708  22130373.120    90620216.27147
  23648704.800   124274789.20208  23648701.240    96837487.07945
  24346730.560   127942935.58506  24346725.800    99695800.60443
  21764610.480   114373820.37209  21764608.140    89122459.83845
  23048234.860   121119319.80708  23048231.820    94378622.62345
  21144155.460   111113291.27509  21144150.060    86581789.51947
  20776482.120   109181205.87508  20776476.800    85076308.82348
  20347733.400   106928084.21208  20347732.460    83320590.37248
  23061942.240   121191358.23807  23061942.320    94434820.68844
 15 02 21 03 10  0.0000000  0 10G01G04G11G14G16G18G19G22G27G32
  24586862.820   129204835.37307  24586867.020   100679089.77445
  22118115.920   116231531.62308  22118114.820    90570021.34546
  23632735.380   124190869.42508  23632731.520    96772095.08645
  24332773.900   127869594.05807  24332768.760    99638651.41543
  21779840.920   114453851.54309  21779837.000    89184821.79445
  23062773.920   121195724.98308  23062771.160    94438159.11145
  21134844.860   111064363.15909  21134839.300    86543663.73047
  20781189.860   109205945.80709  20781184.620    85095586.69048
  20346402.140   106921087.64208  20346401.120    83315138.50048
  23040812.320   121080321.63708  23040813.200    94348298.69944
 15 02 21 03 10 30.0000000  0 10G01G04G11G14G16G18G19G22G27G32
  24571913.580   129126276.61307  24571917.660   100617875.24346
  22105901.000   116167341.24409  22105899.720    90520002.88046
  23616783.220   124107040.64008  23616778.760    96706773.97945
  24318834.160   127796339.74908  24318828.520    99581570.14241
  21795144.500   114534268.59608  21795139.440    89247484.43345
  23077362.720   121272391.72608  23077360.080    94497899.43045
  21125581.920   111015685.55509  21125576.300    86505733.11947
  20785992.580   109231185.08809  20785987.500    85115253.64648
  20345141.640   106914463.10208  20345140.640    83309976.51948
  23019724.420   120969503.52608  23019725.680    94261946.97144
 15 02 21 03 11  0.0000000  0 10G01G04G11G14G16G18G19G22G27G32
  24556984.900   129047824.42007  24556988.440   100556743.73246
  22093725.880   116103359.78909  22093724.480    90470147.24046
  23600845.100   124023285.68508  23600839.980    96641510.39444
  24304908.420   127723157.69708  24304903.380    99524545.17443
  21810517.160   114615050.75408  21810511.640    89310431.54645
  23091997.480   121349300.48108  23091995.140    94557828.31244
  21116363.580   110967242.27609  21116357.900    86467985.10347
  20790886.820   109256904.51109  20790881.660    85135294.75748
  20343948.840   106908194.10509  20343947.860    83305091.59048
  22998675.500   120858888.81808  22998676.640    94175753.73545
 15 02 21 03 11 30.0000000  0 10G01G04G11G14G16G18G19G22G27G32
  24542078.360   128969487.97907  24542081.560   100495702.36047
  22081592.260   116039596.31308  22081590.840    90420461.43747
  23584922.760   123939614.02708  23584917.180    96576311.71844
  24290998.900   127650060.00908  24290995.280    99467585.92143
  21825960.420   114696205.33908  21825954.700    89373668.87145
  23106679.780   121426458.37508  23106677.680    94617951.34044
  21107191.840   110919043.95209  21107185.960    86430427.96847
  20795874.160   109283112.05409  20795868.660    85155716.21848
  20342825.740   106902290.96308  20342824.740    83300491.72748
  22977667.580   120748489.32508  22977668.380    94089728.18945
 15 02 21 03 12  0.0000000  0 10G01G04G11G14G16G18G19G22G27G32
  24527194.400   128891270.66507  24527197.180   100434753.82247
  22069500.660   115976054.16908  22069499.300    90370948.08047
  23569016.920   123856029.52708  23569011.120    96511180.95344
  24277106.600   127577052.70208  24277103.860    99410697.16244
  21841474.380   114777732.59508  21841468.540    89437196.59345
  23121409.720   121503866.15808  23121408.020    94678269.10244
  21098067.640   110871095.58209  21098061.420    86393065.58947
  20800954.860   109309809.69109  20800948.900    85176519.57448
  20341773.080   106896758.20508  20341772.060    83296180.49648
  22956701.640   120638311.04508  22956702.360    94003875.05344
 15 02 21 03 12 30.0000000  0 10G01G04G11G14G16G18G19G22G27G32
  24512332.660   128813170.48308  24512335.260   100373896.57646
  22057450.700   115912731.55108  22057449.480    90321605.79547
  23553127.220   123772530.43507  23553121.760    96446116.76644
  24263231.660   127504136.86708  24263229.420    99353879.67944
  21857058.240   114859628.25308  21857052.160    89501011.39744
  23136186.620   121581519.76007  23136185.300    94738778.41245
  21088990.820   110823396.47609  21088984.180    86355897.44347
  20806128.120   109336994.07609  20806121.760    85197702.21648
  20340790.500   106891594.99808  20340789.640    83292157.22348
  22935777.760   120528354.64108  22935778.400    93918194.79044
 15 02 21 03 13  0.0000000  0 10G01G04G11G14G16G18G19G22G27G32
  24497493.280   128735188.33408  24497495.540   100313131.34146
  22045442.540   115849629.28508  22045441.460    90272435.19847
  23537253.980   123689117.76107  23537249.260    96381119.91144
  24249374.680   127431316.23608  24249372.820    99297136.39144
  21872711.820   114941890.46508  21872705.280    89565111.81444
  23151010.180   121659418.13808  23151009.120    94799478.43845
  21079961.820   110775948.94509  21079954.660    86318925.33047
  20811393.700   109364664.58609  20811387.240    85219263.65148
  20339878.400   106886803.25708  20339877.860    83288423.39948
  22914896.480   120418623.35208  22914897.080    93832689.94044
 15 02 21 03 13 30.0000000  0 10G01G04G11G14G16G18G19G22G27G32
  24482676.500   128657325.29608  24482678.700   100252458.96045
  22033476.400   115786748.49508  22033475.420    90223437.22546
  23521397.560   123605793.26707  23521393.800    96316191.71944
  24235536.420   127358594.84208  24235535.000    99240470.42244
  21888434.780   115024517.29508  21888427.720    89629496.35944
  23165880.120   121737559.97208  23165879.180    94860368.14645
  21070981.220   110728755.83109  21070973.440    86282151.44946
  20816751.540   109392821.00609  20816745.140    85241203.70848
  20339037.500   106882385.34908  20339037.240    83284980.88548
  22894058.500   120309121.04908  22894059.140    93747363.51544
 15 02 21 03 14  0.0000000  0 10G01G04G11G14G16G18G19G22G27G32
  24467882.180   128579579.81807  24467884.240   100191878.04846
  22021552.080   115724087.52008  22021551.100    90174610.52446
  23505557.780   123522555.95407  23505554.740    96251331.52745
  24221717.120   127285974.06508  24221716.080    99183882.84644
  21904226.440   115107505.31508  21904219.060    89694162.32244
  23180795.800   121815941.44808  23180794.840    94921444.61746
  21062048.960   110681816.69809  21062040.620    86245575.49346
  20822201.240   109421460.65209  20822194.940    85263520.32548
  20338267.700   106878340.80608  20338267.640    83281829.29548
  22873264.200   120199848.81308  22873264.800    93662216.35844
 15 02 21 03 14 30.0000000  0 10G01G04G11G14G16G18G19G22G27G32
  24453110.020   128501951.55207  24453111.980   100131388.60046
  22009669.760   115661646.12708  22009668.460    90125954.92446
  23489734.640   123439405.55407  23489732.220    96186539.07545
  24207917.240   127213456.28308  24207916.480    99127375.51444
  21920086.320   115190851.11808  21920078.780    89759107.08544
  23195756.540   121894560.04208  23195755.540    94982705.83946
  21053165.200   110635132.80509  21053156.520    86209198.42146
  20827742.540   109450581.44709  20827736.320    85286211.86648
  20337569.040   106874670.33908  20337569.140    83278969.19548
  22852514.220   120090808.77408  22852514.200    93577250.11644
 15 02 21 03 15  0.0000000  0 10G01G04G11G14G16G18G19G22G27G32
  24438360.260   128424442.16707  24438362.620   100070991.80045
  21997829.740   115599425.92908  21997827.940    90077471.67346
  23473928.660   123356344.54808  23473926.620    96121816.27445
  24194137.760   127141045.90408  24194136.920    99070951.84443
  21936014.140   115274552.97608  21936006.660    89824329.30844
  23210762.380   121973415.39108  23210761.240    95044151.55545
  21044330.420   110588707.35708  21044321.940    86173022.74546
  20833375.480   109480183.50109  20833369.360    85309278.41248
  20336942.140   106871376.69908  20336942.300    83276402.72248
  22831809.460   119982005.24908  22831808.540    93492468.16844
 15 02 21 03 15 30.0000000  0 10G01G04G11G14G16G18G19G22G27G32
  24423632.780   128347052.13706  24423635.720   100010687.95845
  21986032.120   115537427.59109  21986029.940    90029161.27946
  23458139.920   123273373.66008  23458138.000    96057163.66544
  24180379.440   127068746.53508  24180378.280    99014614.66744
  21952009.600   115358609.60708  21952002.320    89889827.97345
  23225812.860   122052505.99208  23225811.600    95105780.55446
  21035545.000   110542542.28808  21035537.240    86137049.96847
  20839099.980   109510266.29009  20839093.860    85332719.55048
  20336387.480   106868461.68308  20336387.460    83274131.28148
  22811150.500   119873441.47608  22811148.560    93407873.00344
 15 02 21 03 16  0.0000000  0 10G01G04G11G14G16G18G19G22G27G32
  24408927.620   128269780.57906  24408931.420    99950476.43745
  21974276.660   115475650.22209  21974274.260    89981023.07046
  23442368.220   123190492.04208  23442366.420    95992580.64144
  24166642.660   126996560.01008  24166641.100    98958365.41644
  21968071.900   115443017.28508  21968065.140    89955600.16744
  23240907.420   122131828.35608  23240905.900    95167590.18045
  21026809.220   110496638.18408  21026802.380    86101280.54546
  20844915.560   109540827.25609  20844909.460    85356533.29648
  20335905.020   106865925.26709  20335904.640    83272154.85348
  22790537.600   119765118.89908  22790534.820    93323465.80244
 15 02 21 03 16 30.0000000  0 10G01G04G11G14G16G18G19G22G27G32
  24394244.820   128192625.52606  24394249.020    99890355.76945
  21962562.900   115414091.66709  21962560.400    89933055.36046
  23426613.280   123107698.51908  23426611.260    95928066.21445
  24152927.620   126924487.41408  24152925.820    98902204.97343
  21984200.000   115527770.90108  21984193.940    90021641.91544
  23256045.220   122211378.56008  23256043.680    95229577.31945
  21018123.220   110450994.83808  21018117.100    86065714.31547
  20850821.500   109571863.08909  20850815.500    85380717.06448
  20335494.520   106863766.80009  20335493.780    83270472.93948
  22769970.760   119657038.34308  22769967.720    93239247.19544
 15 02 21 03 17  0.0000000  0 10G01G04G11G14G16G18G19G22G27G32
  24379584.960   128115588.23306  24379588.860    99830326.79245
  21950890.900   115352753.19009  21950888.540    89885259.14346
  23410875.260   123024994.52908  23410873.080    95863621.59645
  24139235.020   126852532.79108  24139233.240    98846136.48044
  22000393.700   115612869.07208  22000388.280    90087952.15845
  23271226.100   122291155.70608  23271224.540    95291741.32745
  21009487.560   110405614.73208  21009481.780    86030353.22347
  20856817.700   109603373.22709  20856811.800    85405270.42748
  20335156.280   106861988.43108  20335155.260    83269087.20548
  22749450.660   119549203.40708  22749447.740    93155219.99344
 15 02 21 03 17 30.0000000  0 10G01G04G11G14G16G18G19G22G27G32
  24364947.380   128038666.70807  24364950.080    99770388.04744
  21939260.180   115291632.91909  21939258.080    89837632.96546
  23395153.940   122942378.70608  23395151.500    95799245.65445
  24125565.040   126780697.18408  24125563.340    98790160.70544
  22016652.280   115698307.49608  22016647.040    90154527.54145
  23286449.260   122371155.70107  23286447.960    95354078.96145
  21000902.140   110360497.35209  21000896.460    85995196.83547
  20862903.500   109635354.49009  20862897.700    85430190.89348
  20334890.080   106860589.33308  20334888.960    83267997.00948
  22728977.360   119441614.94607  22728974.820    93071384.83444
 15 02 21 03 18  0.0000000  0 10G01G04G11G14G16G18G19G22G27G32
  24350332.620   127961864.01507  24350333.960    99710541.78144
  21927671.340   115230733.92609  21927669.580    89790179.22346
  23379449.980   122859854.54308  23379447.540    95734941.12245
  24111918.760   126708986.30708  24111917.240    98734282.11444
  22032975.640   115784086.28608  22032970.240    90221368.14244
  23301715.000   122451379.20407  23301713.780    95416590.76745
  20992367.740   110315647.28009  20992362.140    85960248.72847
  20869079.120   109667808.42509  20869073.500    85455479.68248
  20334696.720   106859573.67908  20334695.640    83267205.58048
  22708551.680   119334278.46107  22708549.800    92987746.07244
 15 02 21 03 18 30.0000000  0 10G01G04G11G14G16G18G19G22G27G32
  24335740.440   127885180.38507  24335740.900    99650788.33844
  21916124.600   115170056.42009  21916123.060    89742898.07647
  23363763.440   122777422.46208  23363761.400    95670708.36245
  24098296.780   126637403.46508  24098295.600    98678503.30944
  22049363.140   115870202.51008  22049357.340    90288471.66944
  23317022.960   122531824.52707  23317021.920    95479275.41245
  20983884.580   110271066.24409  20983879.100    85925510.27648
  20875344.240   109700733.51109  20875338.960    85481135.60648
  20334576.480   106858942.80908  20334575.540    83266713.99848
  22688173.880   119227196.85007  22688173.480    92904305.93945
 15 02 21 03 19  0.0000000  0 10G01G04G11G14G16G18G19G22G27G32
  24321170.900   127808616.35807  24321171.240    99591128.10244
  21904620.220   115109601.14409  21904618.860    89695790.06547
  23348094.600   122695083.55008  23348092.900    95606548.21645
  24084699.800   126565952.21607  24084698.980    98622827.02243
  22065814.640   115956654.86908  22065808.520    90355837.12944
  23332373.000   122612490.34107  23332372.120    95542131.88045
  20975453.000   110226756.43709  20975447.700    85890983.15948
  20881698.880   109734129.04909  20881694.000    85507158.11148
  20334529.900   106858698.36608  20334528.960    83266523.51848
  22667845.240   119120373.24007  22667845.920    92821066.83545
 15 02 21 03 19 30.0000000  0 10G01G04G11G14G16G18G19G22G27G32
  24306623.340   127732168.96106  24306624.360    99531558.67945
  21893157.720   115049364.96109  21893156.400    89648852.77147
  23332443.140   122612835.43408  23332441.600    95542458.78145
  24071127.920   126494632.53607  24071127.220    98567253.28744
  22082328.980   116043437.16408  22082322.740    90423459.69244
  23347764.160   122693370.98107  23347763.340    95605155.74745
  20967072.820   110182716.58609  20967067.560    85856666.38848
  20888142.360   109767990.53409  20888137.760    85533543.69448
  20334556.720   106858838.49109  20334555.580    83266632.70348
  22647566.060   119013807.32208  22647567.420    92738028.51045
 15 02 21 03 20  0.0000000  0 10G01G04G11G14G16G18G19G22G27G32
  24292098.060   127655839.32306  24292099.980    99472081.08546
  21881737.300   114989349.09809  21881735.840    89602087.17447
  23316809.280   122530679.19508  23316807.720    95478440.97545
  24057582.000   126423448.32707  24057581.100    98511785.11043
  22098905.700   116130547.34608  22098899.380    90491337.74044
  23363196.260   122774465.56408  23363195.200    95668346.30745
  20958744.400   110138948.62209  20958738.960    85822561.49448
  20894674.480   109802317.06209  20894669.980    85560291.63448
  20334657.240   106859365.24809  20334655.780    83267043.15248
  22627337.000   118907502.79207  22627338.500    92655193.87345
 15 02 21 03 20 30.0000000  0 10G01G04G11G14G16G18G19G22G27G32
  24277594.740   127579625.16007  24277597.600    99412693.48546
  21870358.400   114929551.11409  21870356.660    89555491.34847
  23301192.840   122448613.89207  23301191.100    95414494.03945
  24044062.060   126352400.16607  24044060.560    98456422.89443
  22115544.040   116217981.44808  22115537.680    90559468.19544
  23378668.460   122855769.87808  23378666.960    95731700.31145
  20950467.680   110095452.67309  20950461.900    85788668.53448
  20901294.580   109837105.31009  20901290.020    85587399.35548
  20334831.020   106860277.49908  20334829.500    83267753.98748
  22607157.920   118801459.91008  22607159.180    92572563.09045
 15 02 21 03 21  0.0000000  0 10G01G04G11G14G16G18G19G22G27G32
  24263113.700   127503529.21507  24263117.600    99353397.95946
  21859021.460   114869974.10909  21859019.520    89509067.71547
  23285594.260   122366642.35108  23285592.200    95350620.12544
  24030569.220   126281494.07808  24030567.540    98401171.40543
  22132243.740   116305738.70908  22132237.720    90627850.45645
  23394180.700   122937284.51108  23394178.980    95795218.20145
  20942243.340   110052233.09909  20942237.400    85754990.93948
  20908002.820   109872356.71109  20907998.080    85614867.98148
  20335078.660   106861579.02909  20335077.360    83268768.15648
  22587029.620   118695684.00708  22587030.620    92490140.34045
 15 02 21 03 21 30.0000000  0 10G01G04G11G14G16G18G19G22G27G32
  24248655.480   127427554.24806  24248660.160    99294196.70446
  21847726.800   114810620.55909  21847724.820    89462818.19947
  23270014.040   122284767.44608  23270011.580    95286821.56545
  24017104.460   126210735.20108  24017102.760    98346034.61644
  22149005.020   116393819.50408  22148999.600    90696484.82945
  23409733.040   123019009.75108  23409731.020    95858900.18045
  20934072.120   110009293.91009  20934066.400    85721531.83548
  20914799.340   109908072.21009  20914794.420    85642698.23048
  20335400.940   106863273.53409  20335400.020    83270088.53548
  22566953.100   118590180.20708  22566953.840    92407929.61345
 15 02 21 03 22  0.0000000  0 10G01G04G11G14G16G18G19G22G27G32
  24234219.200   127351695.14905  24234224.640    99235085.83745
  21836473.560   114751485.76309  21836471.720    89416739.16247
  23254451.440   122202985.08608  23254448.580    95223095.11345
  24003667.380   126140121.91808  24003665.860    98291011.30744
  22165826.400   116482216.00408  22165821.460    90765365.17945
  23425324.060   123100938.94608  23425321.660    95922741.09945
  20925953.440   109966631.75308  20925948.200    85688288.59047
  20921682.860   109944245.03909  20921677.820    85670884.83048
  20335797.320   106865357.25509  20335796.720    83271712.19648
  22546927.880   118484946.43008  22546928.200    92325929.27644
 15 02 21 03 22 30.0000000  0 10G01G04G11G14G16G18G19G22G27G32
  24219806.360   127275957.67506  24219812.320    99176069.65746
  21825262.900   114692575.00009  21825261.340    89370834.69447
  23238907.680   122121301.28508  23238904.540    95159445.43344
  23990259.540   126069662.33908  23990258.060    98236107.77844
  22182708.340   116570930.82908  22182703.740    90834493.60545
  23440954.300   123183075.09508  23440951.640    95986743.29745
  20917888.700   109924252.97908  20917883.800    85655266.19347
  20928654.100   109980878.92409  20928649.080    85699430.71448
  20336269.120   106867836.64109  20336268.600    83273644.17248
  22526955.500   118379990.61807  22526955.420    92244145.54644
 15 02 21 03 23  0.0000000  0 10G01G04G11G14G16G18G19G22G27G32
  24205415.780   127200333.61407  24205421.460    99117141.85546
  21814093.460   114633880.37709  21814092.100    89325098.63247
  23223381.280   122039708.39408  23223378.000    95095866.58945
  23976879.940   125999351.64108  23976878.640    98181320.23545
  22199648.740   116659952.82708  22199644.220    90903861.36745
  23456621.940   123265408.46108  23456619.140    96050899.13345
  20909876.820   109882151.54008  20909872.060    85622459.87947
  20935711.260   110017964.39709  20935706.320    85728328.47548
  20336814.980   106870704.69008  20336814.360    83275879.00348
  22507034.940   118275307.30007  22507034.500    92162574.15444
 15 02 21 03 23 30.0000000  0 10G01G04G11G14G16G18G19G22G27G32
  24191048.340   127124828.66707  24191053.260    99058306.88146
  21802966.340   114575407.53909  21802965.080    89279535.41447
  23207873.320   121958212.49408  23207869.940    95032363.29544
  23963530.260   125929198.22608  23963528.760    98126655.26744
  22216648.160   116749285.13508  22216643.720    90973470.93945
  23472327.640   123347942.34308  23472324.780    96115211.24545
  20901919.200   109840334.80308  20901914.400    85589875.41347
  20942855.140   110055505.74309  20942850.360    85757581.47048
  20337435.940   106873968.15108  20337435.340    83278421.95048
  22487167.680   118170904.70607  22487167.200    92081221.50944
 15 02 21 03 24  0.0000000  0 10G01G04G11G14G16G18G19G22G27G32
  24176703.480   127049441.55208  24176707.600    98999563.75346
  21791881.300   114517155.12709  21791879.960    89234143.94947
  23192383.540   121876812.62608  23192380.140    94968934.85644
  23950210.760   125859203.82108  23950208.940    98072114.18944
  22233705.840   116838923.99108  22233701.500    91043319.35945
  23488070.700   123430673.27808  23488067.920    96179676.89645
  20894015.820   109798802.63108  20894010.880    85557512.68847
  20950085.100   110093499.75209  20950080.620    85787187.19348
  20338131.880   106877626.62808  20338131.540    83281272.70748
  22467353.960   118066784.06107  22467353.640    92000088.56144
 15 02 21 03 24 30.0000000  0 10G01G04G11G14G16G18G19G22G27G32
  24162381.320   126974173.85307  24162384.580    98940913.63047
  21780838.640   114459124.96009  21780837.000    89188925.65846
  23176912.420   121795511.22608  23176909.120    94905583.14144
  23936922.360   125789373.22808  23936920.240    98017700.76244
  22250821.620   116928868.44708  22250817.280    91113405.94445
  23503851.200   123513600.95908  23503848.360    96244295.85645
  20886167.360   109757559.01608  20886162.320    85525374.81047
  20957401.220   110131946.36109  20957397.000    85817145.58848
  20338903.600   106881682.84508  20338903.400    83284433.38548
  22447594.780   117962949.66307  22447594.600    91919178.69944
 15 02 21 03 25  0.0000000  0 10G01G04G11G14G16G18G19G22G27G32
  24148081.940   126899027.51807  24148084.800    98882358.11846
  21769838.680   114401318.86609  21769836.660    89143881.95246
  23161460.340   121714310.65908  23161457.140    94842309.97644
  23923666.000   125719711.14008  23923663.700    97963418.62044
  22267995.200   117019116.77908  22267990.760    91183729.28345
  23519668.980   123596725.17007  23519666.240    96309067.94145
  20878374.420   109716607.22308  20878369.280    85493464.30447
  20964803.640   110170845.98109  20964799.580    85847456.98048
  20339751.700   106886139.73809  20339751.460    83287906.27548
  22427890.920   117859405.81807  22427890.600    91838495.23145
 15 02 21 03 25 30.0000000  0 10G01G04G11G14G16G18G19G22G27G32
  24133804.640   126823998.92008  24133807.180    98823894.29645
  21758880.660   114343733.27309  21758878.320    89099010.06346
  23146026.820   121633207.88108  23146023.400    94779113.02744
  23910441.540   125650216.78008  23910439.220    97909267.19344
  22285225.480   117109663.06908  22285221.160    91254284.81944
  23535523.000   123680039.97907  23535520.580    96373988.56545
  20870636.500   109675944.78608  20870631.260    85461779.28847
  20972291.360   110210193.18509  20972287.220    85878117.15148
  20340675.520   106890994.64708  20340675.200    83291689.31748
  22408242.300   117756151.68107  22408241.680    91758037.48944
 15 02 21 03 26  0.0000000  0 10G01G04G11G14G16G18G19G22G27G32
  24119549.460   126749087.91707  24119551.820    98765522.10646
  21747964.600   114286368.21009  21747962.080    89054310.01446
  23130611.880   121552203.16808  23130608.420    94715992.49544
  23897249.700   125580893.17208  23897247.080    97855248.83645
  22302511.920   117200504.84408  22302507.660    91325070.59145
  23551412.780   123763543.33907  23551410.640    96439056.07745
  20862954.020   109635573.35708  20862948.560    85430321.03147
  20979864.120   110249986.78309  20979859.720    85909125.16048
  20341675.160   106896248.44809  20341674.820    83295783.19148
  22388649.400   117653189.53508  22388648.040    91677807.26744
 15 02 21 03 26 30.0000000  0 10G01G04G11G14G16G18G19G22G27G32
  24105316.900   126674296.34707  24105319.000    98707242.99446
  21737090.840   114229225.40109  21737088.200    89009783.16746
  23115216.100   121471298.91208  23115212.400    94652950.23643
  23884091.240   125511744.71408  23884088.180    97801366.94444
  22319854.280   117291640.62708  22319850.140    91396085.46744
  23567338.400   123847234.83707  23567336.420    96504270.24344
  20855327.600   109595496.41308  20855321.900    85399092.23547
  20987521.800   110290226.41409  20987517.000    85940480.72248
  20342751.280   106901903.92509  20342751.000    83300190.05248
  22369113.040   117550523.83508  22369110.880    91597808.00944
 15 02 21 03 27  0.0000000  0 10G01G04G11G14G16G18G19G22G27G32
  24091106.780   126599623.28908  24091108.380    98649056.28344
  21726259.280   114172304.10209  21726256.560    88965428.92646
  23099839.440   121390495.05608  23099835.060    94589986.19744
  23870966.360   125442773.65107  23870963.120    97747623.28244
  22337251.820   117383066.13908  22337247.560    91467326.11144
  23583299.360   123931111.87907  23583297.640    96569628.96645
  20847757.300   109555714.46208  20847751.560    85368093.31747
  20995263.800   110330909.61309  20995258.680    85972181.91748
  20343904.020   106907961.24409  20343903.840    83304910.03749
  22349633.460   117448156.21508  22349630.900    91518041.03444
 15 02 21 03 27 30.0000000  0 10G01G04G11G14G16G18G19G22G27G32
  24076919.500   126525070.48907  24076919.940    98590963.19744
  21715470.140   114115606.02709  21715467.320    88921248.62646
  23084482.340   121309793.47108  23084477.380    94527101.89844
  23857876.060   125373984.76107  23857872.560    97694021.58544
  22354704.620   117474781.65308  22354699.760    91538792.74844
  23599295.480   124015174.02507  23599294.020    96635131.89544
  20840243.700   109516231.03708  20840238.240    85337327.01347
  21003090.040   110372036.32509  21003084.740    86004228.70547
  20345133.880   106914423.02209  20345133.760    83309945.19148
  22330211.300   117346090.94008  22330208.700    91438509.67144
 15 02 21 03 28  0.0000000  0 10G01G04G11G14G16G18G19G22G27G32
  24062754.160   126450632.74407  24062753.000    98532959.75444
  21704722.400   114059125.83109  21704719.520    88877238.10246
  23069143.940   121229189.54308  23069138.720    94464293.63944
  23844819.820   125305375.76707  23844816.360    97640560.03144
  22372211.120   117566778.42708  22372205.720    91610478.57244
  23615325.620   124099413.93107  23615324.300    96700773.37645
  20832786.060   109477042.15608  20832781.100    85306790.22547
  21010999.220   110413599.66209  21010993.720    86036615.71747
  20346439.960   106921284.96609  20346439.740    83315292.16948
  22310845.640   117244325.16507  22310843.680    91359211.70644
 15 02 21 03 28 30.0000000  0 10G01G04G11G14G16G18G19G22G27G32
  24048611.540   126376313.89307  24048610.140    98475048.98244
  21694016.820   114002867.62509  21694013.860    88833400.54846
  23053825.100   121148687.99608  23053819.520    94401565.18344
  23831799.040   125236953.51507  23831796.140    97587243.99343
  22389771.580   117659057.72008  22389765.760    91682384.54744
  23631389.940   124183833.14807  23631388.680    96766554.56844
  20825385.780   109438153.80608  20825381.140    85276487.61747
  21018991.860   110455601.81509  21018986.200    86069344.67747
  20347823.120   106928552.03909  20347822.720    83320954.82748
  22291537.900   117142865.48607  22291536.900    91280152.27744
 15 02 21 03 29  0.0000000  0 10G01G04G11G14G16G18G19G22G27G32
  24034491.380   126302112.04907  24034490.660    98417229.37244
  21683353.100   113946829.39609  21683349.840    88789734.40546
  23038525.460   121068287.43008  23038519.540    94338915.40243
  23818814.120   125168719.19707  23818811.900    97534074.43943
  22407384.800   117751614.50508  22407379.420    91754506.74144
  23647487.740   124268427.97407  23647486.360    96832472.60644
  20818042.720   109399565.41008  20818038.140    85246418.74147
  21027067.280   110498039.14809  21027061.480    86102412.73347
  20349283.100   106936223.28209  20349282.480    83326932.42549
  22272288.700   117041712.50707  22272287.960    91201331.80244
 15 02 21 03 29 30.0000000  0 10G01G04G11G14G16G18G19G22G27G32
  24020393.780   126228028.33807  24020394.280    98359501.82746
  21672731.480   113891012.70009  21672727.940    88746240.88846
  23023245.340   120987989.47108  23023239.740    94276345.60344
  23805866.000   125100676.71407  23805864.140    97481054.34344
  22425050.420   117844447.41508  22425046.120    91826844.07645
  23663618.840   124353197.48207  23663617.400    96898526.75145
  20810757.360   109361279.81008  20810752.680    85216585.81047
  21035225.500   110540911.23309  21035219.600    86135819.57547
  20350820.380   106944300.73609  20350819.540    83333226.55649
  22253099.000   116940869.90807  22253097.880    91122753.16644
 15 02 21 03 30  0.0000000  0 10G01G04G11G14G16G18G19G22G27G32
  24006318.720   126154062.80407  24006320.320    98301866.36746
  21662151.820   113835417.17409  21662148.240    88702919.71746
  23007984.840   120907794.84008  23007979.700    94213856.29444
  23792955.300   125032829.04108  23792953.520    97428186.03844
  22442768.000   117937553.36908  22442764.720    91899394.15445
  23679782.940   124438139.96207  23679781.660    96964715.67245
  20803529.980   109323298.69408  20803525.160    85186990.14047
  21043466.140   110584216.23609  21043460.300    86169563.75247
  20352435.140   106952785.30109  20352434.080    83339837.89749
  22233969.020   116840340.19407  22233967.240    91044418.35344
 15 02 21 03 30 30.0000000  0 10G01G04G11G14G16G18G19G22G27G32
  23992266.060   126080214.60007  23992268.320    98244322.40645
  21651614.060   113780042.09509  21651610.600    88659770.31446
  22992743.840   120827703.06708  22992739.100    94151447.12943
  23780082.120   124965178.42308  23780080.340    97375471.29044
  22460536.940   118030929.06508  22460534.280    91972154.40446
  23695979.420   124523252.18208  23695977.940    97031036.88544
  20796360.740   109285622.66209  20796355.700    85157632.19547
  21051788.720   110627951.52809  21051783.040    86203643.21747
  20354127.260   106961677.14709  20354126.140    83346766.59948
  22214898.820   116740125.02808  22214896.800    90966328.63544
 15 02 21 03 31  0.0000000  0 10G01G04G11G14G16G18G19G22G27G32
  23978235.980   126006485.53607  23978238.540    98186871.24046
  21641118.640   113724889.47309  21641115.200    88616794.26946
  22977522.840   120747716.90007  22977518.800    94089120.28644
  23767247.240   124897729.29608  23767245.420    97322913.53144
  22478356.900   118124573.20008  22478354.660    92045123.83346
  23712208.160   124608533.96607  23712206.580    97097490.18945
  20789250.280   109248255.21109  20789244.940    85128514.70448
  21060193.220   110672117.22209  21060187.800    86238058.05348
  20355897.340   106970978.95709  20355896.240    83354014.75949
  22195889.200   116640228.72207  22195887.140    90888487.38245
 15 02 21 03 31 30.0000000  0 10G01G04G11G14G16G18G19G22G27G32
  23964228.700   125932877.25307  23964231.600    98129514.20046
  21630665.800   113669960.92609  21630662.420    88573992.81046
  22962322.240   120667838.40607  22962319.000    94026877.35944
  23754451.440   124830486.50108  23754449.740    97270516.58644
  22496227.760   118218485.08208  22496225.680    92118301.90346
  23728469.040   124693984.86907  23728467.240    97164075.30745
  20782199.120   109211199.37409  20782193.420    85099640.01748
  21068679.560   110716713.25509  21068674.500    86272808.20547
  20357745.860   106980693.36009  20357744.860    83361584.41549
  22176941.040   116540655.51107  22176939.000    90810897.88445
 15 02 21 03 32  0.0000000  0 10G01G04G11G14G16G18G19G22G27G32
  23950243.900   125859387.57107  23950247.160    98072249.55646
  21620255.180   113615254.16809  21620251.980    88531364.18846
  22947141.620   120588066.08807  22947139.380    93964717.12144
  23741694.900   124763450.99607  23741693.460    97218281.15445
  22514148.440   118312659.29108  22514146.380    92191684.36246
  23744761.360   124779600.66307  23744759.420    97230788.89945
  20775207.160   109174454.94909  20775201.140    85071007.98448
  21077246.880   110761735.17309  21077242.200    86307890.21448
  20359672.620   106990818.94609  20359671.680    83369474.47449
  22158054.420   116441405.67407  22158052.560    90733560.40845
 15 02 21 03 32 30.0000000  0 10G01G04G11G14G16G18G19G22G27G32
  23936281.180   125786014.09907  23936284.720    98015075.52847
  21609886.360   113560766.98609  21609883.520    88488906.66146
  22931980.740   120508398.01607  22931979.460    93902638.15544
  23728977.940   124696623.21408  23728976.540    97166207.57344
  22532117.960   118407090.92808  22532115.900    92265267.43546
  23761084.240   124865377.15407  23761082.300    97297627.70544
  20768274.180   109138020.91809  20768268.040    85042617.84048
  21085894.560   110807179.36909  21085890.140    86343301.27848
  20361677.320   107001354.28109  20361676.460    83377683.83449
  22139229.420   116342479.19808  22139227.460    90656474.88145
 15 02 21 03 33  0.0000000  0 10G01G04G11G14G16G18G19G22G27G32
  23922341.200   125712759.50907  23922344.880    97957994.09547
  21599559.800   113506502.06308  21599557.540    88446622.32446
  22916840.300   120428837.25507  22916839.860    93840642.83944
  23716301.620   124630008.59308  23716300.200    97114300.09844
  22550136.220   118501779.48808  22550134.420    92339050.70346
  23777437.820   124951314.50207  23777435.660    97364591.88244
  20761401.020   109101901.49109  20761394.940    85014472.84648
  21094622.700   110853046.63509  21094618.280    86379042.01347
  20363760.620   107012302.93409  20363759.900    83386215.26349
  22120467.100   116243881.38708  22120464.720    90579645.43944
 15 02 21 03 33 30.0000000  0 10G01G04G11G14G16G18G19G22G27G32
  23908423.380   125639620.40808  23908426.880    97901002.64546
  21589274.800   113452456.26408  21589273.300    88404508.73847
  22901720.080   120349381.51507  22901720.040    93778729.31444
  23703665.880   124563606.79208  23703664.420    97062558.45645
  22568202.340   118596718.91408  22568200.600    92413029.44546
  23793820.960   125037407.88207  23793818.520    97431677.61044
  20754587.300   109066095.04809  20754581.400    84986571.72448
  21103430.340   110899331.87309  21103425.740    86415108.44147
  20365922.020   107023662.32909  20365921.520    83395066.72949
  22101767.240   116145611.27808  22101763.920    90503071.31344
 15 02 21 03 34  0.0000000  0 10G01G04G11G14G16G18G19G22G27G32
  23894527.940   125566598.09308  23894531.060    97844102.14846
  21579031.740   113398630.59908  21579030.820    88362566.69246
  22886620.500   120270032.51007  22886620.400    93716898.89944
  23691071.360   124497422.04308  23691069.800    97010985.92844
  22586316.160   118691907.74408  22586314.280    92487202.52246
  23810233.720   125123656.41707  23810231.200    97498884.25144
  20747833.580   109030604.50709  20747827.860    84958916.76548
  21112317.400   110946034.39009  21112312.600    86451500.02347
  20368161.900   107035434.68109  20368161.760    83404239.98649
  22083130.300   116047672.55908  22083125.940    90426755.40044
 15 02 21 03 34 30.0000000  0 10G01G04G11G14G16G18G19G22G27G32
  23880655.020   125493694.48708  23880657.800    97787294.22146
  21568831.240   113345027.35109  21568830.500    88320797.95346
  22871542.080   120190792.98708  22871541.840    93655153.87444
  23678519.060   124431459.28508  23678517.140    96959586.40344
  22604477.400   118787344.79508  22604475.220    92561569.05046
  23826675.960   125210059.79707  23826673.100    97566211.56044
  20741140.620   108995433.46909  20741134.980    84931510.77848
  21121283.900   110993154.47009  21121278.960    86488216.97447
  20370480.960   107047622.80009  20370481.140    83413737.22849
  22064556.960   115950069.78208  22064552.560    90350701.31844
 15 02 21 03 35  0.0000000  0 10G01G04G11G14G16G18G19G22G27G32
  23866803.960   125420906.04807  23866806.380    97730575.95745
  21558672.620   113291642.85109  21558671.620    88279199.66046
  22856484.140   120111660.11908  22856483.520    93593491.91644
  23666008.960   124365718.15308  23666006.860    96908359.56944
  22622684.880   118883024.08008  22622682.280    92636124.30645
  23843146.680   125296612.81107  23843143.360    97633655.44944
  20734508.020   108960579.85809  20734502.460    84904352.12048
  21130328.840   111040686.51009  21130323.800    86525254.92447
  20372878.760   107060223.93709  20372879.160    83423556.28748
  22046047.120   115852801.77908  22046043.720    90274908.07844
 15 02 21 03 35 30.0000000  0 10G01G04G11G14G16G18G19G22G27G32
  23852975.980   125348239.37808  23852977.880    97673952.60845
  21548557.060   113238483.91108  21548555.540    88237777.14846
  22841447.900   120032640.93108  22841446.520    93531918.52344
  23653542.820   124300207.74808  23653540.440    96857312.50544
  22640939.200   118978949.25508  22640935.900    92710871.20445
  23859646.660   125383320.21607  23859643.140    97701219.64844
  20727937.400   108926051.87408  20727932.020    84877447.21048
  21139453.180   111088635.29309  21139448.100    86562617.60948
  20375356.700   107073245.52609  20375357.180    83433702.97849
  22027602.840   115755877.59508  22027600.600    90199382.78445
 15 02 21 03 36  0.0000000  0 10G01G04G11G14G16G18G19G22G27G32
  23839169.920   125275688.39207  23839171.600    97617419.42245
  21538483.300   113185544.35509  21538481.220    88196525.56346
  22826432.320   119953730.00208  22826429.760    93470429.51444
  23641120.000   124234925.16007  23641117.520    96806442.97844
  22659238.600   119075110.99708  22659234.400    92785802.43145
  23876174.380   125470173.28507  23876170.680    97768897.36845
  20721427.960   108891845.11909  20721422.840    84850792.60448
  21148655.460   111136993.03609  21148650.400    86600298.96648
  20377913.680   107086682.25709  20377914.220    83444173.16649
  22009223.580   115659293.58508  22009222.140    90124122.56245
 15 02 21 03 36 30.0000000  0 10G01G04G11G14G16G18G19G22G27G32
  23825386.760   125203258.25908  23825388.260    97560980.39444
  21528452.200   113132829.19708  21528449.580    88155448.81846
  22811438.400   119874933.18608  22811435.000    93409029.40844
  23628741.780   124169878.52507  23628739.340    96755757.32144
  22677583.640   119171512.50208  22677578.600    92860920.49845
  23892730.460   125557175.82007  23892726.840    97836691.53944
  20714981.060   108857966.43609  20714976.140    84824393.62848
  21157936.320   111185763.24109  21157931.300    86638301.71348
  20380550.860   107100540.22209  20380551.340    83454971.57048
  21990910.600   115563057.42708  21990909.620    90049133.37845
 15 02 21 03 37  0.0000000  0 10G01G04G11G14G16G18G19G22G27G32
  23811626.140   125130946.68007  23811627.720    97504633.69544
  21518463.380   113080336.59508  21518460.320    88114545.49946
  22796465.760   119796249.04608  22796461.720    93347717.09344
  23616408.260   124105068.41707  23616405.960    96705255.97944
  22695973.120   119268148.36108  22695967.560    92936221.17945
  23909314.060   125644323.45807  23909310.440    97904598.76844
  20708596.540   108824415.05009  20708591.720    84798249.69948
  21167294.920   111234941.58909  21167289.860    86676622.49748
  20383267.880   107114817.85609  20383268.260    83466097.00448
  21972663.740   115467169.13908  21972662.960    89974415.28745
 15 02 21 03 37 30.0000000  0 10G01G04G11G14G16G18G19G22G27G32
  23797887.700   125058751.65007  23797889.520    97448377.83944
  21508516.500   113028064.37109  21508513.160    88073813.90146
  22781514.080   119717676.19008  22781509.520    93286491.49244
  23604119.980   124040495.87606  23604117.600    96654939.69744
  22714406.120   119365013.41608  22714400.200    93011700.44245
  23925924.500   125731612.27907  23925921.080    97972615.99944
  20702274.340   108791190.66609  20702269.460    84772360.57348
  21176730.480   111284524.42809  21176725.360    86715258.46948
  20386064.480   107129513.96509  20386064.680    83477548.50748
  21954482.980   115371629.17508  21954482.280    89899968.61645
 15 02 21 03 38  0.0000000  0 10G01G04G11G14G16G18G19G22G27G32
  23784171.740   124986674.84407  23784174.480    97392214.14444
  21498612.000   112976014.46909  21498608.540    88033255.54546
  22766583.820   119639216.91308  22766579.000    93225354.42644
  23591877.740   123976165.34806  23591875.720    96604812.09343
  22732882.440   119462106.38608  22732876.300    93087357.32145
  23942561.620   125819041.81807  23942558.280    98040742.93944
  20696014.940   108758296.19409  20696009.940    84746728.51448
  21186242.840   111334511.08209  21186237.720    86754209.11348
  20388941.200   107144631.03109  20388941.120    83489328.04148
  21936369.300   115276441.72508  21936368.580    89825796.61846
 15 02 21 03 38 30.0000000  0 10G01G04G11G14G16G18G19G22G27G32
  23770478.800   124914719.23106  23770482.020    97336144.82046
  21488750.380   112924189.87209  21488746.940    87992872.75447
  22751675.660   119560875.00908  22751670.920    93164308.80044
  23579682.740   123912082.96506  23579681.320    96554877.77944
  22751402.160   119559428.01708  22751396.020    93163192.35445
  23959225.540   125906613.11906  23959222.780    98108980.29845
  20689819.200   108725736.84308  20689814.220    84721357.61048
  21195832.280   111384903.19909  21195827.280    86793475.70048
  20391898.740   107160172.87509  20391898.380    83501438.56648
  21918323.840   115181612.02208  21918322.700    89751903.38145
 15 02 21 03 39  0.0000000  0 10G01G04G11G14G16G18G19G22G27G32
  23756807.440   124842876.85007  23756811.220    97280163.80045
  21478929.960   112872582.54409  21478926.700    87952659.25547
  22736788.240   119482642.87108  22736783.780    93103348.71844
  23567534.280   123848243.42807  23567533.080    96505132.72244
  22769963.020   119656967.03208  22769957.360    93239196.78145
  23975914.720   125994316.18707  23975912.320    98177320.33344
  20683685.820   108693505.87109  20683680.940    84696242.56948
  21205496.820   111435690.42609  21205491.900    86833050.15847
  20394935.700   107176132.09709  20394935.040    83513874.31848
  21900345.700   115087134.55308  21900343.760    89678284.58745
 15 02 21 03 39 30.0000000  0 10G01G04G11G14G16G18G19G22G27G32
  23743158.580   124771151.83007  23743162.240    97224274.23745
  21469151.580   112821196.72909  21469148.480    87912618.35647
  22721922.640   119404525.65708  22721918.780    93042478.18544
  23555433.940   123784654.01207  23555432.320    96455582.54844
  22788565.260   119754724.91708  22788560.260    93315371.72445
  23992629.320   126082153.32206  23992627.220    98245764.86844
  20677615.880   108661609.04308  20677611.180    84671387.91048
  21215237.000   111486875.41009  21215232.100    86872934.56547
  20398053.080   107192513.71109  20398052.120    83526639.21448
  21882436.060   114993015.96208  21882433.280    89604945.43145
 15 02 21 03 40  0.0000000  0 10G01G04G11G14G16G18G19G22G27G32
  23729531.680   124699541.72408  23729535.300    97168474.21645
  21459414.840   112770029.89909  21459411.820    87872748.11646
  22707078.640   119326521.57108  22707075.400    92981695.80044
  23543381.520   123721315.07207  23543379.480    96406227.54444
  22807208.040   119852696.30708  22807203.860    93391713.04645
  24009368.440   126170120.22207  24009367.020    98314310.48245
  20671609.240   108630045.48709  20671604.760    84646792.94448
  21225051.860   111538453.58009  21225046.940    86913125.35847
  20401250.440   107209315.91909  20401249.360    83539731.84648
  21864594.640   114899255.96809  21864591.380    89531885.71445
 15 02 21 03 40 30.0000000  0 10G01G04G11G14G16G18G19G22G27G32
  23715927.600   124628051.09707  23715930.500    97112767.24846
  21449720.720   112719086.96509  21449717.640    87833052.34146
  22692257.300   119248635.92308  22692254.760    92921005.67344
  23531378.220   123658233.98608  23531375.820    96357073.45344
  22825891.880   119950883.07108  22825888.360    93468222.17845
  24026132.820   126258219.41307  24026131.980    98382959.17544
  20665667.200   108598821.59808  20665662.940    84622462.64148
  21234941.900   111590427.73609  21234937.100    86953624.71247
  20404528.760   107226544.18809  20404527.820    83553156.46748
  21846822.700   114805861.72509  21846819.160    89459111.01845
 15 02 21 03 41  0.0000000  0 10G01G04G11G14G16G18G19G22G27G32
  23702345.240   124556674.71207  23702347.640    97057149.34746
  21440068.200   112668362.54009  21440064.860    87793526.81846
  22677457.780   119170864.09408  22677455.920    92860404.29144
  23519423.520   123595408.53408  23519420.980    96308118.56244
  22844615.440   120049276.77608  22844612.100    93544892.57545
  24042921.240   126346443.70707  24042920.560    98451705.37244
  20659789.120   108567933.55109  20659784.940    84598394.03848
  21244905.720   111642790.72008  21244901.220    86994427.03147
  20407887.180   107244193.83409  20407886.540    83566909.43648
  21829119.580   114712830.27709  21829115.780    89386619.00145
 15 02 21 03 41 30.0000000  0 10G01G04G11G14G16G18G19G22G27G32
  23688784.880   124485414.25307  23688786.700    97001621.73945
  21430457.560   112617858.56009  21430454.100    87754173.09546
  22662680.520   119093208.59808  22662679.020    92799893.53344
  23507518.300   123532843.55608  23507515.620    96259366.66144
  22863378.600   120147876.83308  22863375.080    93621723.78245
  24059733.540   126434792.91106  24059732.980    98520548.89244
  20653975.700   108537384.65509  20653971.500    84574589.70848
  21254943.440   111695542.35808  21254939.220    87035532.20447
  20411326.280   107262267.32309  20411326.020    83580992.67548
  21811486.020   114620165.49909  21811482.040    89314412.68445
 15 02 21 03 42  0.0000000  0 10G01G04G11G14G16G18G19G22G27G32
  23675247.240   124414273.01508  23675248.860    96946187.05546
  21420889.420   112567578.30408  21420885.980    87714993.69046
  22647926.280   119015673.37708  22647924.520    92739476.48444
  23495663.620   123470544.94008  23495660.600    96210822.31444
  22882181.300   120246683.17408  22882177.260    93698715.73445
  24076570.180   126523269.12607  24076569.600    98589491.38544
  20648227.880   108507179.83909  20648223.600    84551053.49448
  21265055.420   111748683.66208  21265051.420    87076941.00647
  20414846.800   107280768.64209  20414846.960    83595409.28248
  21793923.120   114527873.29209  21793919.000    89242496.70345
 15 02 21 03 42 30.0000000  0 10G01G04G11G14G16G18G19G22G27G32
  23661731.820   124343247.86308  23661732.880    96890842.80246
  21411363.260   112517518.60209  21411360.080    87675986.14646
  22633194.500   118938256.04709  22633192.140    92679151.31644
  23483859.400   123408512.42008  23483856.180    96162485.29844
  22901022.140   120345689.71608  22901017.420    93775863.69144
  24093429.960   126611866.06807  24093429.120    98658527.95943
  20642545.360   108477317.65809  20642540.940    84527784.26848
  21275240.920   111802210.22908  21275236.980    87118650.01547
  20418448.260   107299695.25109  20418448.700    83610157.28548
  21776430.800   114435952.67708  21776426.640    89170870.27044
 15 02 21 03 43  0.0000000  0 10G01G04G11G14G16G18G19G22G27G32
  23648238.540   124272338.66908  23648239.360    96835588.93345
  21401879.120   112467679.45708  21401876.280    87637150.45946
  22618485.260   118860957.11908  22618482.260    92618918.39744
  23472106.180   123346748.78508  23472102.980    96114357.78444
  22919900.500   120444894.17308  22919895.520    93853165.85945
  24110312.360   126700582.23107  24110311.240    98727657.43044
  20636928.340   108447799.49309  20636923.760    84504783.10548
  21285499.620   111856119.84109  21285495.460    87160657.49747
  20422130.800   107319047.82809  20422131.380    83625237.21348
  21759009.540   114344405.89708  21759005.520    89099535.13844
 15 02 21 03 43 30.0000000  0 10G01G04G11G14G16G18G19G22G27G32
  23634767.940   124201548.75608  23634768.400    96780427.98346
  21392437.660   112418064.35009  21392435.120    87598489.35947
  22603799.320   118783780.93008  22603795.940    92558781.12644
  23460405.180   123285260.26608  23460402.380    96066444.65945
  22938816.180   120544296.42708  22938811.340    93930622.15345
  24127217.660   126789419.22107  24127216.480    98796881.05444
  20631377.700   108418630.14709  20631372.940    84482053.75948
  21295831.700   111910413.65309  21295827.040    87202964.37247
  20425895.040   107338830.26509  20425895.800    83640652.09748
  21741660.420   114253238.58308  21741656.940    89028495.70145
 15 02 21 03 44  0.0000000  0 10G01G04G11G14G16G18G19G22G27G32
  23621319.940   124130878.33508  23621320.300    96725360.14145
  21383038.960   112368673.44109  21383036.560    87560002.95346
  22589136.800   118706728.46008  22589133.220    92498740.27344
  23448757.000   123224050.12008  23448754.860    96018748.46344
  22957768.940   120643894.42308  22957764.480    94008230.97945
  24144145.660   126878375.45507  24144144.460    98866197.61144
  20625893.780   108389811.63009  20625888.840    84459597.77548
  21306236.700   111965089.78309  21306231.480    87245569.15247
  20429741.160   107359043.50909  20429742.100    83656402.66848
  21724383.980   114162453.31208  21724380.960    88957753.98144
 15 02 21 03 44 30.0000000  0 10G01G04G11G14G16G18G19G22G27G32
  23607893.880   124060323.94708  23607894.600    96670382.77246
  21373682.360   112319503.46409  21373679.980    87521688.68746
  22574497.120   118629796.79308  22574493.580    92438793.54045
  23437161.660   123163117.58008  23437160.280    95971268.60045
  22976757.660   120743681.57408  22976753.620    94085987.18845
  24161095.180   126967445.11907  24161093.860    98935602.53644
  20620476.180   108361342.05809  20620471.060    84437413.69748
  21316713.540   112020143.19809  21316707.780    87288467.92547
  20433668.640   107379684.67408  20433669.740    83672486.68048
  21707180.180   114072048.92708  21707177.500    88887309.04745
 15 02 21 03 45  0.0000000  0 10G01G04G11G14G16G18G19G22G27G32
  23594489.900   123989886.33208  23594490.700    96615496.35746
  21364367.780   112270554.98408  21364365.320    87483547.05146
  22559880.740   118552987.68108  22559877.320    92378942.31445
  23425619.900   123102466.44608  23425619.140    95924008.02245
  22995782.040   120843655.66608  22995778.440    94163889.07745
  24178066.080   127056627.26407  24178064.640    99005095.14944
  20615125.420   108333223.58509  20615120.020    84415503.20348
  21327261.900   112075572.76009  21327255.700    87331659.80647
  20437677.800   107400755.02208  20437679.040    83688905.13648
  21690049.820   113982028.26708  21690047.020    88817163.10645
 15 02 21 03 45 30.0000000  0 10G01G04G11G14G16G18G19G22G27G32
  23581107.920   123919564.75908  23581109.020    96560700.40245
  21355095.120   112221827.69408  21355092.600    87445577.75146
  22545287.700   118476300.84608  22545284.280    92319186.37045
  23414132.200   123042098.82908  23414131.700    95876968.33145
  23014841.320   120943813.14708  23014837.840    94241933.86645
  24195057.880   127145919.35607  24195056.000    99074673.39244
  20609841.720   108305457.25409  20609836.040    84393867.09548
  21337881.240   112131375.61909  21337874.760    87375142.55647
  20441768.820   107422254.66508  20441770.040    83705658.09448
  21672993.100   113892393.08509  21672989.640    88747317.53345
 15 02 21 03 46  0.0000000  0 10G01G04G11G14G16G18G19G22G27G32
  23567748.320   123849360.65608  23567749.900    96505995.97445
  21345864.700   112173322.89908  21345862.060    87407781.82146
  22530718.420   118399738.71008  22530715.120    92259527.56545
  23402699.240   122982018.78908  23402698.900    95830152.74146
  23033935.240   121044152.52608  23033931.760    94320120.38745
  24212070.520   127235321.14307  24212068.460    99144337.11043
  20604625.600   108278045.89309  20604619.700    84372507.58948
  21348571.420   112187551.19909  21348564.900    87418915.72947
  20445942.140   107444185.52009  20445943.300    83722747.06248
  21656010.500   113803147.09909  21656006.100    88677775.21645
 15 02 21 03 46 30.0000000  0 10G01G04G11G14G16G18G19G22G27G32
  23554411.120   123779273.90708  23554412.940    96451382.98145
  21336676.520   112125040.57408  21336673.780    87370159.23446
  22516173.020   118323301.84608  22516169.720    92199966.37045
  23391321.520   122922229.15008  23391321.220    95783563.43945
  23053063.220   121144671.09408  23053059.560    94398446.52844
  24229103.700   127324830.37507  24229101.380    99214084.60344
  20599477.300   108250991.07909  20599471.240    84351425.90148
  21359331.980   112244097.32809  21359325.580    87462977.63547
  20450197.760   107466547.97209  20450198.860    83740172.33948
  21639102.280   113714292.24009  21639097.360    88608537.65945
 15 02 21 03 47  0.0000000  0 10G01G04G11G14G16G18G19G22G27G32
  23541095.820   123709301.83508  23541097.820    96396859.35144
  21327530.300   112076978.23208  21327527.260    87332708.07145
  22501651.140   118246988.57608  22501647.820    92140501.50745
  23379999.160   122862730.28308  23379998.900    95737200.73045
  23072224.260   121245363.38308  23072220.280    94476908.05245
  24246156.380   127414442.88707  24246153.700    99283912.56043
  20594396.600   108224291.72309  20594390.440    84330621.21647
  21370161.960   112301009.33309  21370155.820    87507324.65047
  20454535.240   107489339.99109  20454536.280    83757932.34748
  21622268.380   113625828.19209  21622263.280    88539604.64844
 15 02 21 03 47 30.0000000  0 10G01G04G11G14G16G18G19G22G27G32
  23527802.580   123639445.35808  23527804.120    96342425.79644
  21318426.220   112029136.70208  21318422.840    87295428.95746
  22487153.080   118170800.36008  22487149.720    92081134.09245
  23368732.980   122803525.92608  23368732.580    95691067.50246
  23091417.960   121346227.11008  23091413.920    94555503.18245
  24263228.380   127504157.36007  24263225.460    99353819.92944
  20589383.900   108197950.27208  20589377.760    84310095.40848
  21381061.160   112358286.45108  21381055.480    87551956.17447
  20458954.880   107512563.08509  20458955.820    83776028.26948
  21605509.300   113537757.98609  21605504.400    88470978.53545
 15 02 21 03 48  0.0000000  0 10G01G04G11G14G16G18G19G22G27G32
  23514531.740   123569706.29808  23514531.840    96288083.70044
  21309364.540   111981518.08508  21309361.180    87258323.54146
  22472679.400   118094740.00608  22472675.920    92021866.29745
  23357523.740   122744620.55708  23357523.100    95645167.24746
  23110644.220   121447261.54108  23110640.380    94634231.31445
  24280319.800   127593974.08506  24280316.960    99423806.99244
  20584439.860   108171970.25708  20584433.880    84289851.23948
  21392029.640   112415928.36208  21392024.480    87596871.93347
  20463457.140   107536219.65809  20463457.760    83794461.94148
  21588826.020   113450085.90909  21588821.340    88402662.63745
 15 02 21 03 48 30.0000000  0 10G01G04G11G14G16G18G19G22G27G32
  23501282.860   123500082.76108  23501281.240    96233831.60343
  21300344.880   111934120.32408  21300341.880    87221390.21946
  22458229.820   118018806.31808  22458226.160    91962697.20345
  23346371.580   122686015.28708  23346370.540    95599500.82645
  23129902.020   121548461.87907  23129898.720    94713088.72445
  24297429.840   127683889.03207  24297427.260    99493870.58943
  20579564.360   108146351.09408  20579558.720    84269888.26947
  21403066.780   112473931.24708  21403062.000    87642068.98847
  20468041.660   107560308.24609  20468041.800    83813232.26448
  21572218.560   113362812.10909  21572214.140    88334657.09145
 15 02 21 03 49  0.0000000  0 10G01G04G11G14G16G18G19G22G27G32
  23488056.020   123430574.99808  23488052.960    96179669.73144
  21291367.440   111886944.05508  21291364.840    87184629.50446
  22443804.500   117943000.47108  22443800.660    91903627.74545
  23335277.140   122627713.05408  23335275.640    95554070.55245
  23149190.660   121649825.80107  23149187.900    94792073.56845
  24314558.320   127773900.74206  24314555.700    99564009.60344
  20574758.000   108121094.99708  20574752.600    84250208.20848
  21414172.380   112532293.46808  21414167.800    87687546.04447
  20472708.440   107584829.69709  20472708.100    83832339.88248
  21555687.320   113275939.02908  21555683.120    88266963.82345
 15 02 21 03 49 30.0000000  0 10G01G04G11G14G16G18G19G22G27G32
  23474851.760   123361185.77308  23474848.600    96125600.22144
  21282432.680   111839991.87708  21282430.500    87148043.40546
  22429404.000   117867325.96908  22429400.280    91844660.62245
  23324241.480   122569719.07208  23324239.440    95508880.43745
  23168510.180   121751352.96007  23168508.220    94871185.61345
  24331705.360   127864010.20706  24331702.820    99634224.70544
  20570021.640   108096205.82208  20570016.260    84230814.05248
  21425346.620   112591015.62308  21425342.100    87733303.55547
  20477457.980   107609787.19309  20477457.300    83851787.26548
  21539233.080   113189471.55308  21539229.180    88199586.59245
 15 02 21 03 50  0.0000000  0 10G01G04G11G14G16G18G19G22G27G32
  23461669.180   123291909.46008  23461666.900    96071618.73045
  21273539.700   111793258.50808  21273537.740    87111627.82146
  22415027.480   117791778.12608  22415024.040    91785792.19445
  23313264.020   122512031.06308  23313261.280    95463928.77345
  23187859.220   121853034.90107  23187857.700    94950418.28745
  24348869.720   127954209.86607  24348867.000    99704510.17644
  20565354.560   108071679.77608  20565349.000    84211702.85747
  21436588.180   112650090.54308  21436583.560    87779335.96047
  20482289.340   107635175.72809  20482288.560    83871570.52448
  21522855.140   113103406.30408  21522851.620    88132522.79145
 15 02 21 03 50 30.0000000  0 10G01G04G11G14G16G18G19G22G27G32
  23448508.940   123222750.38208  23448507.860    96017728.59645
  21264689.320   111746747.94908  21264687.260    87075385.83646
  22400675.920   117716361.91908  22400672.720    91727026.34745
  23302346.040   122454656.07408  23302342.720    95419220.98544
  23207238.080   121954872.95607  23207236.860    95029772.59545
  24366051.800   128044502.21707  24366048.840    99774867.85644
  20560757.640   108047522.25108  20560752.000    84192878.81648
  21447897.340   112709519.92808  21447892.500    87825644.55947
  20487203.620   107660999.97309  20487202.760    83891693.29948
  21506555.020   113017749.75908  21506551.760    88065777.46945
 15 02 21 03 51  0.0000000  0 10G01G04G11G14G16G18G19G22G27G32
  23435370.860   123153708.10708  23435370.780    95963929.44646
  21255881.480   111700460.42008  21255879.360    87039317.66247
  22386349.520   117641078.12608  22386346.400    91668363.67845
  23291488.020   122397596.36508  23291484.380    95374758.90345
  23226646.200   122056864.08207  23226645.120    95109246.19545
  24383251.120   128134885.16706  24383247.800    99845296.14743
  20556231.260   108023735.00009  20556225.560    84174343.29747
  21459273.580   112769301.48509  21459268.480    87872227.58047
  20492200.840   107687260.04209  20492199.860    83912155.68048
  21490333.180   112932503.65109  21490330.320    87999351.94445
 15 02 21 03 51 30.0000000  0 10G01G04G11G14G16G18G19G22G27G32
  23422254.600   123084780.64008  23422255.180    95910219.77446
  21247115.480   111654393.48108  21247113.560    87003421.36247
  22372048.060   117565925.22208  22372044.980    91609802.98645
  23280690.020   122340852.75708  23280686.380    95330543.13544
  23246082.540   122159002.59707  23246081.200    95188834.62545
  24400467.020   128225355.12207  24400463.540    99915792.26143
  20551775.360   108000317.55309  20551769.500    84156095.94648
  21470716.160   112829431.23509  21470710.740    87919081.92747
  20497280.740   107713954.42409  20497279.620    83932956.50348
  21474189.620   112847668.05809  21474187.060    87933246.29246
 15 02 21 03 52  0.0000000  0 10G01G04G11G14G16G18G19G22G27G32
  23409160.200   123015968.43308  23409161.260    95856599.93046
  21238391.340   111608547.88608  21238389.900    86967697.54147
  22357771.780   117490904.28108  22357768.660    91551345.11045
  23269952.680   122284428.32808  23269948.980    95286576.05844
  23265546.840   122261287.59207  23265545.300    95268537.19545
  24417699.220   128315910.42407  24417695.460    99986354.82442
  20547390.260   107977271.57909  20547384.040    84138138.03448
  21482224.700   112889907.83109  21482219.000    87966206.52547
  20502443.380   107741083.97309  20502442.120    83954096.40748
  21458124.700   112763245.67409  21458122.360    87867462.62846
 15 02 21 03 52 30.0000000  0 10G01G04G11G14G16G18G19G22G27G32
  23396087.820   122947272.20008  23396089.180    95803070.42646
  21229709.400   111562924.46708  21229708.320    86932146.85747
  22343521.120   117416017.29009  22343517.900    91492991.64544
  23259276.760   122228326.97208  23259273.100    95242860.72044
  23285038.620   122363716.59707  23285036.960    95348351.98945
  24434947.540   128406550.18507  24434943.900   100056983.22743
  20543076.320   107954599.28309  20543069.620    84120471.30848
  21493798.920   112950729.62409  21493792.860    88013600.12847
  20507688.920   107768649.78409  20507687.620    83975576.26748
  21442138.920   112679239.22409  21442136.660    87802003.07346
 15 02 21 03 53  0.0000000  0 10G01G04G11G14G16G18G19G22G27G32
  23383037.100   122878690.40108  23383038.560    95749630.12046
  21221069.580   111517521.66208  21221068.420    86896768.05247
  22329295.980   117341263.64308  22329292.400    91434742.06045
  23248662.460   122172549.57908  23248658.920    95199397.82644
  23304556.860   122466284.90707  23304555.140    95428275.32845
  24452211.300   128497271.07307  24452207.400   100127674.83444
  20538833.400   107932300.60709  20538826.380    84103095.72848
  21505438.040   113011893.30508  21505431.640    88061260.13746
  20513017.200   107796650.81009  20513015.980    83997395.25048
  21426232.320   112595649.31909  21426230.020    87736868.11745
 15 02 21 03 53 30.0000000  0 10G01G04G11G14G16G18G19G22G27G32
  23370008.420   122810225.48608  23370010.140    95696280.87146
  21212472.400   111472342.09108  21212470.780    86861563.19447
  22315096.940   117266646.52209  22315093.020    91376598.86845
  23238110.700   122117101.16908  23238107.440    95156191.31244
  23324101.500   122568991.98507  23324099.820    95508306.80244
  24469490.660   128588073.53007  24469486.700   100198430.03644
  20534662.300   107910379.81709  20534655.160    84086014.60248
  21517142.140   113073399.37808  21517135.540    88109186.95346
  20518428.840   107825089.81409  20518427.720    84019555.50448
  21410405.720   112512480.41908  21410403.260    87672061.22245
 15 02 21 03 54  0.0000000  0 10G01G04G11G14G16G18G19G22G27G32
  23357001.920   122741879.13907  23357004.100    95643024.02046
  21203918.060   111427387.46708  21203915.820    86826533.60346
  22300924.480   117192168.86209  22300920.480    91318564.32545
  23227622.500   122061986.54408  23227619.280    95113244.86544
  23343672.380   122671836.93107  23343670.740    95588445.69345
  24486785.500   128678957.71307  24486781.420   100269248.87644
  20530563.560   107888839.97109  20530556.500    84069230.31248
  21528911.120   113135247.14408  21528904.500    88157380.01946
  20523924.260   107853969.00109  20523923.320    84042058.75248
  21394659.920   112429736.29108  21394657.120    87607585.29745
 15 02 21 03 54 30.0000000  0 10G01G04G11G14G16G18G19G22G27G32
  23344016.060   122673643.69906  23344019.080    95589853.66846
  21195405.100   111382650.58308  21195402.260    86791673.72847
  22286777.060   117117822.97508  22286772.960    91260632.48345
  23217196.980   122007200.49208  23217193.380    95070554.45444
  23363267.420   122774808.94607  23363265.520    95668683.62344
  24504094.080   128769913.90307  24504089.920   100340123.81744
  20526535.980   107867674.74809  20526529.200    84052737.94548
  21540743.340   113197427.29108  21540736.840    88205832.08846
  20529501.960   107883280.93909  20529501.240    84064899.22048
  21378993.880   112347411.30708  21378990.240    87543435.96144
 15 02 21 03 55  0.0000000  0 10G01G04G11G14G16G18G19G22G27G32
  23331052.100   122605525.80306  23331056.300    95536774.85845
  21186934.540   111338137.48708  21186931.420    86756988.21746
  22272656.160   117043616.83208  22272652.060    91202809.51945
  23206835.880   121952752.38408  23206831.980    95028127.35244
  23382887.440   122877911.96407  23382885.140    95749023.61844
  24521417.360   128860947.31807  24521413.100   100411058.95743
  20522581.100   107846892.21009  20522574.720    84036543.76248
  21552639.720   113259944.36408  21552633.560    88254546.68947
  20535163.360   107913032.60909  20535162.780    84088082.32748
  21363409.260   112265514.06008  21363404.780    87479619.92645
 15 02 21 03 55 30.0000000  0 10G01G04G11G14G16G18G19G22G27G32
  23318110.040   122537521.89506  23318115.120    95483784.89445
  21178505.800   111293845.28408  21178502.700    86722474.82246
  22258561.300   116969547.83508  22258557.360    91145093.43145
  23196538.980   121898641.50208  23196534.960    94985963.03544
  23402531.420   122981140.03108  23402528.220    95829461.07344
  24538754.260   128952052.67007  24538749.820   100482050.17143
  20518698.620   107826490.67509  20518692.680    84020646.47448
  21564599.320   113322792.76208  21564593.520    88303519.47047
  20540908.040   107943220.93309  20540907.420    84111605.69248
  21347905.740   112184043.16908  21347900.740    87416136.13644
 15 02 21 03 56  0.0000000  0 10G01G04G11G14G16G18G19G22G27G32
  23305190.320   122469631.00107  23305195.280    95430882.95045
  21170118.700   111249772.96508  21170116.000    86688132.78247
  22244492.480   116895615.87008  22244488.880    91087484.13345
  23186306.520   121844869.30908  23186302.680    94944062.64945
  23422198.340   123084488.78007  23422193.760    95909992.59843
  24556104.220   129043227.03106  24556099.600   100553095.17444
  20514888.720   107806470.50908  20514883.160    84005046.36148
  21576621.520   113385969.33508  21576615.980    88352747.96847
  20546735.700   107973845.09309  20546734.920    84135468.66448
  21332483.560   112102999.56508  21332478.820    87352985.28845
 15 02 21 03 56 30.0000000  0 10G01G04G11G14G16G18G19G22G27G32
  23292293.140   122401854.35007  23292297.140    95378070.02245
  21161773.680   111205921.93008  21161771.540    86653963.16746
  22230450.080   116821823.02809  22230446.800    91029983.21945
  23176139.400   121791440.16808  23176135.680    94902429.57344
  23441887.840   123187957.14407  23441881.460    95990617.35943
  24573467.120   129134470.14406  24573462.520   100624193.73243
  20511151.980   107786834.44609  20511146.720    83989745.54548
  21588706.120   113449473.66108  21588700.900    88402231.86547
  20552646.700   108004906.82309  20552645.680    84159672.59848
  21317143.400   112022386.56709  21317139.200    87290169.98745
 15 02 21 03 57  0.0000000  0 10G01G04G11G14G16G18G19G22G27G32
  23279417.980   122334190.98308  23279420.280    95325345.34344
  21153470.780   111162291.14908  21153469.060    86619965.16247
  22216434.160   116748169.13909  22216431.100    90972590.59145
  23166037.820   121738355.39508  23166034.100    94861064.81644
  23461599.160   123291541.04007  23461591.900    96071332.13443
  24590842.420   129225778.94106  24590838.240   100695343.41643
  20507488.380   107767582.77309  20507483.320    83974744.24448
  21600852.460   113513302.40408  21600847.480    88451968.54447
  20558640.920   108036405.27909  20558639.580    84184216.84248
  21301885.400   111942205.04409  21301881.580    87227690.88345
 15 02 21 03 57 30.0000000  0 10G01G04G11G14G16G18G19G22G27G32
  23266565.040   122266642.99408  23266565.240    95272710.53645
  21145210.420   111118882.78508  21145208.780    86586140.47147
  22202445.300   116674657.54409  22202442.240    90915308.85145
  23156002.660   121685620.05808  23155998.960    94819972.37344
  23481332.060   123395239.75607  23481325.460    96152136.34344
  24608230.320   129317154.07406  24608226.340   100766544.82443
  20503898.640   107748719.17409  20503893.680    83960045.34448
  21613060.440   113577455.40208  21613055.720    88501957.88747
  20564718.720   108068342.92809  20564717.180    84209103.32048
  21286710.300   111862459.24809  21286706.620    87165551.31345
 15 02 21 03 58  0.0000000  0 10G01G04G11G14G16G18G19G22G27G32
  23253734.580   122199212.82008  23253733.160    95220167.55144
  21136993.060   111075699.41609  21136991.300    86552491.09646
  22188484.040   116601291.23709  22188480.880    90858140.31445
  23146034.920   121633238.94408  23146031.420    94779155.93945
  23501086.580   123499052.97407  23501081.400    96233029.73744
  24625630.940   129408596.06806  24625627.200   100837798.33045
  20500383.640   107730247.56709  20500378.560    83945651.88148
  21625330.160   113641933.15808  21625325.700    88552200.27148
  20570880.540   108100722.42509  20570878.960    84234334.08749
  21271618.960   111783153.43709  21271615.160    87103754.59246
 15 02 21 03 58 30.0000000  0 10G01G04G11G14G16G18G19G22G27G32
  23240925.500   122131896.13308  23240922.720    95167712.98444
  21128817.820   111032736.72109  21128815.680    86519013.68446
  22174549.760   116528066.82909  22174546.440    90801082.35345
  23136134.320   121581210.51108  23136130.800    94738614.30745
  23520861.540   123602973.36007  23520857.680    96314006.62244
  24643043.020   129500098.92406  24643038.940   100909099.26743
  20496942.740   107712164.79309  20496937.460    83931561.41248
  21637660.440   113706729.40608  21637656.200    88602690.83847
  20577125.640   108133539.71509  20577124.160    84259905.99449
  21256610.800   111704285.21809  21256606.920    87042298.85445
 15 02 21 03 59  0.0000000  0 10G01G04G11G14G16G18G19G22G27G32
  23228138.620   122064697.63208  23228135.560    95115350.52244
  21120685.540   110989999.89809  21120682.840    86485712.26546
  22160643.580   116454990.21709  22160640.260    90744139.58145
  23126302.220   121529542.00408  23126298.640    94698353.14745
  23540657.600   123707002.79607  23540654.400    96395068.48444
  24660467.240   129591665.82306  24660463.560   100980450.13843
  20493577.120   107694477.54209  20493571.580    83917779.13048
  21650051.780   113771846.74908  21650047.740    88653431.61147
  20583454.860   108166799.73509  20583453.580    84285822.89449
  21241687.120   111625861.17609  21241683.180    86981189.24346
 15 02 21 03 59 30.0000000  0 10G01G04G11G14G16G18G19G22G27G32
  23215372.220   121997608.53608  23215369.520    95063073.26444
  21112594.460   110947479.96909  21112591.260    86452579.83946
  22146764.000   116382053.31209  22146760.760    90687305.66845
  23116537.440   121478227.37908  23116533.700    94658367.74945
  23560472.500   123811130.31807  23560469.580    96476206.80444
  24677901.720   129683286.31306  24677898.420   101051842.72843
  20490285.240   107677178.21708  20490279.440    83904299.13748
  21662502.140   113837274.34008  21662498.300    88704414.13047
  20589866.540   108200493.90609  20589865.500    84312078.07549
  21226846.780   111547874.45609  21226842.700    86920420.38646
 15 02 21 04 00  0.0000000  0 10G01G04G11G14G16G18G19G22G27G32
  23202628.020   121930637.68908  23202626.360    95010888.17345
  21104546.300   110905185.93509  21104542.640    86419623.44546
  22132912.880   116309265.93909  22132909.620    90630588.26945
  23106842.240   121427278.16508  23106838.400    94618667.05945
  23580307.020   123915361.55007  23580304.120    96557425.93244
  24695347.660   129774967.28806  24695344.520   101123282.44943
  20487069.020   107660277.09009  20487063.020    83891129.42248
  21675012.880   113903018.89108  21675009.120    88755643.62447
  20596362.440   108234631.27309  20596361.700    84338678.60549
  21212091.900   111470335.80009  21212087.540    86860000.66546
 15 02 21 04 00 30.0000000  0 10G01G04G11G14G16G18G19G22G27G32
  23189905.160   121863780.16708  23189904.440    94958791.45045
  21096540.120   110863112.84409  21096536.200    86386839.21846
  22119089.540   116236624.41209  22119086.240    90573984.50445
  23097216.080   121376692.03308  23097212.400    94579249.31845
  23600159.660   124019688.25106  23600156.760    96638719.44845
  24712803.940   129866702.03306  24712801.180   101194764.07644
  20483927.820   107643770.40408  20483921.860    83878267.06948
  21687582.800   113969073.70108  21687578.880    88807114.88447
  20602941.640   108269207.12909  20602941.260    84365620.82348
  21197421.660   111393242.18909  21197417.280    86799927.75846
 15 02 21 04 01  0.0000000  0 10G01G04G11G14G16G18G19G22G27G32
  23177203.800   121797036.25308  23177204.080    94906783.23645
  21088576.100   110821261.37109  21088572.320    86354227.68746
  22105294.160   116164129.45809  22105290.680    90517494.96345
  23087659.420   121326471.59208  23087656.040    94540116.52445
  23620030.200   124124108.62506  23620027.080    96720085.96344
  24730270.240   129958489.27806  24730267.860   101266286.59543
  20480861.920   107627660.00708  20480856.320    83865713.52548
  21700211.600   114035437.01908  21700207.320    88858826.54647
  20609604.320   108304221.90309  20609604.200    84392905.05948
  21182836.320   111316595.69709  21182832.100    86740203.24145
 15 02 21 04 01 30.0000000  0 10G01G04G11G14G16G18G19G22G27G32
  23164523.920   121730405.34108  23164524.780    94854863.08245
  21080654.140   110779630.89109  21080650.760    86321788.35846
  22091526.840   116091781.72409  22091523.180    90461120.11345
  23078172.700   121276618.81008  23078169.700    94501270.22145
  23639918.180   124228619.17007  23639914.420    96801522.71944
  24747746.300   130050327.04806  24747743.880   101337848.51044
  20477871.540   107611946.88108  20477866.460    83853469.52948
  21712898.620   114102105.87208  21712893.760    88910776.28047
  20616350.480   108339675.21309  20616350.540    84420530.99648
  21168336.100   111240397.51109  21168332.260    86680828.05445
 15 02 21 04 02  0.0000000  0 10G01G04G11G14G16G18G19G22G27G32
  23151865.360   121663886.54208  23151866.760    94803030.29946
  21072774.060   110738220.51509  21072771.100    86289520.52647
  22077787.520   116019581.01309  22077783.880    90404859.83145
  23068756.340   121227135.62508  23068753.640    94462711.91346
  23659822.880   124333215.76107  23659818.420    96883026.57544
  24765231.600   130142212.44406  24765229.100   101409447.53443
  20474956.760   107596631.34808  20474952.180    83841535.35148
  21725643.260   114169077.16908  21725637.660    88962961.69946
  20623180.040   108375566.20409  20623180.160    84448497.98648
  21153921.340   111164648.63709  21153917.720    86621802.96246
 15 02 21 04 02 30.0000000  0 10G01G04G11G14G16G18G19G22G27G32
  23139229.020   121597484.07908  23139230.920    94751288.17146
  21064936.680   110697034.64809  21064934.020    86257427.65346
  22064077.160   115947532.93209  22064073.860    90348718.49645
  23059411.600   121178028.57808  23059409.000    94424446.70245
  23679744.300   124437900.05907  23679738.940    96964598.77344
  24782726.460   130234148.10406  24782724.860   101481085.72343
  20472118.800   107581718.83508  20472114.400    83829915.21948
  21738445.780   114236353.27309  21738439.500    89015384.64646
  20630093.740   108411899.27509  20630093.860    84476809.45748
  21139593.380   111089355.08009  21139589.860    86563132.66845
 15 02 21 04 03  0.0000000  0 10G01G04G11G14G16G18G19G22G27G32
  23126614.620   121531196.21308  23126616.720    94699635.30346
  21057141.620   110656071.63609  21057139.120    86225508.43347
  22050395.460   115875636.23808  22050392.580    90292695.12645
  23050138.680   121129298.72008  23050136.000    94386475.39045
  23699681.200   124542667.15007  23699675.000    97046235.49443
  24800230.240   130326130.82606  24800228.940   101552760.63343
  20469357.660   107567209.21708  20469353.220    83818609.02748
  21751305.380   114303930.26009  21751298.420    89068042.06346
  20637091.300   108448672.79409  20637091.380    84505464.12548
  21125352.200   111014516.88809  21125348.720    86504817.19546
 15 02 21 04 03 30.0000000  0 10G01G04G11G14G16G18G19G22G27G32
  23114022.400   121465023.70808  23114024.500    94648072.35346
  21049389.040   110615332.23609  21049386.620    86193763.45446
  22036742.760   115803892.80408  22036740.320    90236791.18545
  23040938.160   121080949.15708  23040935.340    94348800.42245
  23719633.060   124647515.56506  23719626.880    97127935.58044
  24817742.820   130418159.48506  24817742.080   101624471.28443
  20466673.640   107553104.64908  20466669.100    83807618.45948
  21764221.840   114371806.88909  21764214.080    89120932.96945
  20644173.080   108485887.58109  20644172.940    84534462.63648
  21111198.200   110940136.56909  21111194.500    86446858.51646
 15 02 21 04 04  0.0000000  0 10G01G04G11G14G16G18G19G22G27G32
  23101452.140   121398965.34508  23101454.080    94596598.32246
  21041678.900   110574815.50509  21041676.300    86162191.98047
  22023119.240   115732302.35208  22023116.880    90181006.45445
  23031810.240   121032981.07008  23031807.120    94311422.70045
  23739599.160   124752441.33906  23739593.420    97209695.90745
  24835263.700   130510231.02007  24835263.080   101696215.38041
  20464066.660   107539404.88208  20464062.140    83796943.32448
  21777194.660   114439980.09409  21777186.220    89174054.98845
  20651338.700   108523542.45109  20651338.340    84563804.08148
  21097131.460   110866214.62109  21097127.280    86389257.01645
 15 02 21 04 04 30.0000000  0 10G01G04G11G14G16G18G19G22G27G32
  23088904.020   121333022.14908  23088905.500    94545214.04246
  21034011.400   110534522.60009  21034008.500    86130794.92147
  22009525.380   115660866.72208  22009522.520    90125342.34945
  23022755.460   120985398.08708  23022752.120    94274345.07645
  23759579.060   124857442.58106  23759574.120    97291514.95344
  24852792.760   130602345.07807  24852791.360   101767992.63844
  20461537.280   107526112.65608  20461532.800    83786585.76448
  21790223.660   114508448.50308  21790215.000    89227407.01345
  20658588.480   108561638.60209  20658587.740    84593489.38948
  21083152.420   110792753.88609  21083147.660    86332014.89146
 15 02 21 04 05  0.0000000  0 10G01G04G11G14G16G18G19G22G27G32
  23076376.700   121267187.84308  23076377.720    94493914.63646
  21026385.280   110494447.25809  21026382.140    86099567.39847
  21995960.200   115589580.97008  21995956.600    90069795.02045
  23013773.140   120938196.54208  23013769.760    94237564.65345
  23779571.980   124962510.08106  23779567.060    97373385.67743
  24870328.360   130694493.78607  24870326.300   101839796.84444
  20459084.560   107513223.04408  20459079.980    83776541.92148
  21803307.260   114577203.74408  21803298.940    89280982.53245
  20665921.060   108600169.74109  20665919.940    84623513.64348
  21069260.060   110719749.70909  21069255.260    86275128.52446
 15 02 21 04 05 30.0000000  0 10G01G04G11G14G16G18G19G22G27G32
  23063870.780   121201465.76008  23063871.320    94442702.65646
  21018801.120   110454592.86909  21018798.080    86068512.03447
  21982424.420   115518449.19109  21982420.180    90014367.64145
  23004864.260   120891382.09208  23004861.220    94201085.88645
  23799578.520   125067644.04707  23799573.320    97455308.32543
  24887870.820   130786678.72107  24887868.160   101911629.23944
  20456709.300   107500740.44308  20456704.480    83766815.22748
  21816445.740   114646247.22508  21816437.940    89334782.62946
  20673337.000   108639139.22909  20673335.540    84653879.46648
  21055455.440   110647207.21309  21055451.160    86218601.90846
 15 02 21 04 06  0.0000000  0 10G01G04G11G14G16G18G19G22G27G32
  23051386.280   121135856.63708  23051386.460    94391578.66046
  21011259.160   110414960.34809  21011256.480    86037629.57547
  21968918.320   115447473.18209  21968913.680    89959061.66645
  22996029.480   120844957.61908  22996027.140    94164911.00045
  23819597.820   125172842.51107  23819591.240    97537281.17141
  24905419.940   130878898.86307  24905416.900   101983489.10744
  20454411.880   107488666.99408  20454406.880    83757407.34748
  21829638.960   114715577.60208  21829631.640    89388806.26846
  20680836.440   108678547.80709  20680834.700    84684587.45848
  21041739.080   110575128.71909  21041735.720    86162436.86947
 15 02 21 04 06 30.0000000  0 10G01G03G04G11G14G16G19G22G27G32
  23038922.380   121070357.31008  23038922.160    94340540.26645
  24588335.520   129212579.80806  24588334.260   100685121.32745
  21003758.920   110375546.74109  21003756.700    86006917.68447
  21955441.540   115376650.88709  21955436.800    89903875.46145
  22987268.960   120798922.77508  22987267.200    94129039.72246
  23839628.460   125278100.17808  23839620.260    97619300.20541
  20452192.060   107477001.08308  20452186.840    83748317.03548
  21842885.900   114785189.55608  21842878.880    89443049.30047
  20688418.720   108718392.32109  20688416.780    84715635.13848
  21028110.720   110503512.67509  21028108.380    86106632.16847
 15 02 21 04 07  0.0000000  0 10G01G03G04G11G14G16G19G22G27G32
  23026481.020   121004978.16608  23026481.040    94289595.53045
  24568453.800   129108104.40606  24568452.580   100603711.95444
  20996302.400   110336362.51109  20996300.580    85976384.54047
  21941996.120   115305993.49309  21941991.460    89848817.76445
  22978585.120   120753290.22308  22978583.860    94093481.90846
  23859671.560   125383424.18907  23859663.320    97701370.90543
  20450051.980   107465754.17008  20450046.700    83739553.22048
  21856188.140   114855091.23708  21856181.180    89497518.10747
  20696085.820   108758683.09609  20696083.720    84747030.54748
  21014572.740   110432371.29709  21014571.320    86051197.35747
 15 02 21 04 07 30.0000000  0 10G01G03G04G11G14G16G19G22G27G32
  23014061.220   120939713.80208  23014061.600    94238740.23445
  24548597.040   129003760.38307  24548595.280   100522404.99644
  20988888.600   110297402.38809  20988886.980    85946026.01947
  21928581.060   115235496.56709  21928576.780    89793885.09846
  22969977.380   120708056.81108  22969976.420    94058235.12446
  23879725.380   125488806.23707  23879718.200    97783486.80542
  20447990.760   107454922.06508  20447985.500    83731112.65248
  21869544.220   114925275.46209  21869537.200    89552207.09848
  20703836.740   108799414.73609  20703834.520    84778769.49448
  21001124.520   110361700.67909  21001123.660    85996129.38847
 15 02 21 04 08  0.0000000  0 10G01G03G04G11G14G16G19G22G27G32
  23001663.440   120874565.05108  23001664.000    94187974.97845
  24528765.860   128899550.33907  24528763.280   100441202.37543
  20981517.660   110258666.95409  20981516.100    85915842.57448
  21915196.700   115165161.97709  21915192.960    89739078.95446
  22961446.260   120663225.85708  22961445.460    94023301.94346
  23899789.600   125594244.74007  23899783.260    97865646.65943
  20446008.800   107444507.00508  20446003.500    83722997.05248
  21882953.760   114995740.72409  21882946.580    89607115.07048
  20711671.740   108840587.98109  20711669.320    84810852.55448
  20987766.560   110291503.29809  20987765.840    85941430.16947
 15 02 21 04 08 30.0000000  0 10G01G03G04G11G14G16G19G22G27G32
  22989286.960   120809527.66808  22989287.480    94137296.52144
  24508959.820   128795471.85506  24508957.980   100360102.28445
  20974188.880   110220152.59909  20974187.060    85885831.40348
  21901842.440   115094986.42009  21901839.240    89684396.72746
  22952991.700   120618795.93808  22952990.760    93988681.23745
  23919862.900   125699732.51507  23919858.000    97947844.90844
  20444105.460   107434505.72908  20444100.140    83715203.87248
  21896415.340   115066480.56109  21896408.200    89662237.00548
  20719589.960   108882198.57409  20719587.480    84843276.39948
  20974498.220   110221776.45809  20974497.380    85887097.57447
 15 02 21 04 09  0.0000000  0 10G01G03G04G11G14G16G19G22G27G32
  22976932.520   120744605.12308  22976932.940    94086707.53144
  24489179.900   128691530.12206  24489179.780   100279108.81444
  20966902.800   110181862.56609  20966900.600    85855995.03247
  21888519.300   115024974.44709  21888516.360    89629841.97346
  22944614.540   120574772.48808  22944613.160    93954377.26545
  23939945.620   125805270.37507  23939941.960    98030082.18743
  20442281.640   107424923.33008  20442276.380    83707737.07148
  21909929.280   115137496.55409  21909922.240    89717574.13148
  20727592.060   108924249.80709  20727589.640    84876043.59948
  20961320.360   110152525.29809  20961319.360    85833135.64647
 15 02 21 04 09 30.0000000  0 10G01G03G04G11G14G16G19G22G27G32
  22964599.540   120679794.97108  22964599.520    94036206.11744
  24469425.880   128587724.43807  24469427.600   100198221.39045
  20959658.920   110143794.74309  20959656.480    85826331.80947
  21875227.060   114955124.38109  21875224.220    89575413.37146
  22936314.640   120531155.36208  22936312.800    93920389.90945
  23960036.820   125910852.64807  23960034.220    98112354.04944
  20440537.220   107415758.31708  20440532.180    83700595.51948
  21923494.740   115208784.09509  21923487.880    89773122.84848
  20735677.560   108966739.14609  20735675.420    84909152.18248
  20948232.700   110083748.76309  20948231.620    85779543.57147
 15 02 21 04 10  0.0000000  0 10G01G03G04G11G14G16G19G22G27G32
  22952287.840   120615096.71108  22952287.020    93985791.89344
  24449698.040   128484056.13306  24449701.060   100117441.01045
  20952457.060   110105948.66809  20952454.620    85796841.38847
  21861965.980   114885437.30309  21861963.040    89521111.79546
  22928092.520   120487946.40808  22928090.080    93886720.60845
  23980136.120   126016476.46407  23980133.820    98194658.34744
  20438872.620   107407011.43908  20438867.740    83693779.77248
  21937111.280   115280340.70409  21937104.680    89828881.24147
  20743846.320   109009665.99409  20743844.580    84942601.66948
  20935235.440   110015447.94209  20935234.420    85726322.18147
 15 02 21 04 10 30.0000000  0 10G01G03G04G11G14G16G19G22G27G32
  22939997.620   120550511.56808  22939996.080    93935465.83644
  24429996.960   128380528.17405  24430000.740   100036770.00645
  20945297.440   110068325.46209  20945295.360    85767524.64548
  21848736.420   114815915.03609  21848733.200    89466938.63546
  22919948.820   120445149.23409  22919945.760    93853372.18145
  24000243.000   126122140.23807  24000241.040    98276993.72641
  20437288.300   107398685.33708  20437283.400    83687291.91148
  21950778.780   115352164.94709  21950772.300    89884848.19047
  20752098.540   109053031.35809  20752097.180    84976392.86749
  20922329.240   109947625.50909  20922328.080    85673473.55647
 15 02 21 04 11  0.0000000  0 10G01G03G04G11G14G16G19G22G27G32
  22927729.100   120486040.93308  22927727.000    93885228.99644
  24410323.320   128277143.69306  24410327.420    99956210.79146
  20938180.460   110030926.91709  20938178.900    85738382.93648
  21835538.780   114746560.06409  21835535.220    89412895.80946
  22911884.080   120402767.41208  22911880.440    93820347.38545
  24020357.280   126227842.44106  24020355.320    98359359.09743
  20435784.740   107390782.63308  20435779.540    83681133.96048
  21964497.220   115424256.90809  21964490.640    89941023.75046
  20760434.480   109096836.52509  20760433.460    85010526.75449
  20909514.720   109880284.42309  20909513.200    85620999.99746
 15 02 21 04 11 30.0000000  0 10G01G03G04G11G14G16G19G22G27G32
  22915481.800   120421681.86708  22915479.500    93835079.09944
  24390677.000   128173901.50605  24390681.100    99875762.46145
  20931105.700   109993750.17909  20931104.600    85709414.07248
  21822372.580   114677370.40909  21822368.780    89358981.79745
  22903898.180   120360800.29509  22903894.200    93787645.74145
  24040477.840   126333577.49606  24040475.420    98441750.03342
  20434361.400   107383301.13108  20434355.800    83675304.21048
  21978265.660   115496611.50209  21978258.700    89997403.96146
  20768853.600   109141078.41409  20768852.820    85045000.94349
  20896791.560   109813423.22209  20896789.560    85568900.36246
 15 02 21 04 12  0.0000000  0 10G01G03G04G11G14G16G19G22G27G32
  22903256.360   120357437.57108  22903253.620    93785018.61544
  24371058.760   128070806.56005  24371062.900    99795428.86944
  20924073.860   109956798.47309  20924073.020    85680620.55948
  21809238.640   114608350.35309  21809234.680    89305199.93146
  22895992.320   120319253.67109  22895988.160    93755271.74945
  24060604.400   126439345.40306  24060601.620    98524166.60143
  20433019.020   107376245.38408  20433013.060    83669806.23248
  21992084.280   115569229.45508  21992076.600    90053989.38746
  20777356.460   109185760.00409  20777355.720    85079817.76349
  20884160.620   109747046.57009  20884158.080    85517178.28946
 15 02 21 04 12 30.0000000  0  9G01G04G11G14G16G19G22G27G32
  22891051.140   120293299.25108  22891048.060    93735040.74244
  20917083.280   109920062.96109  20917082.520    85651995.51548
  21796135.440   114539492.16209  21796131.560    89251544.21646
  22888165.060   120278120.47009  22888160.840    93723219.91845
  24080735.240   126545135.06107  24080732.180    98606600.10644
  20431756.120   107369607.99908  20431749.920    83664634.24348
  22005950.920   115642099.84408  22005942.480    90110771.52745
  20785941.280   109230872.20009  20785940.360    85114970.11749
  20871620.320   109681146.91909  20871617.220    85465827.90646
 15 02 21 04 13  0.0000000  0  9G01G04G11G14G16G19G22G27G32
  22878868.380   120229278.37808  22878864.600    93685154.33144
  20910136.180   109883555.52209  20910135.400    85623548.17548
  21783065.420   114470808.33409  21783061.660    89198024.37846
  22880419.040   120237414.71609  22880414.880    93691501.16545
  24100872.160   126650955.34007  24100868.800    98689057.47643
  20430575.020   107363401.47608  20430568.800    83659797.98348
  22019867.420   115715232.26508  22019858.220    90167757.82745
  20794610.160   109276426.36909  20794608.980    85150466.86249
  20859173.180   109615737.38809  20859169.680    85414859.42846
 15 02 21 04 13 30.0000000  0 10G01G03G04G11G14G16G19G22G27G32
  22866709.000   120165380.84708  22866704.640    93635364.09044
  24312370.540   127762364.72505  24312374.860    99555107.08044
  20903233.660   109847282.14609  20903232.780    85595283.23947
  21770029.960   114402305.81409  21770026.180    89144645.82546
  22872755.820   120197144.45409  22872751.900    93660121.75645
  24121015.720   126756809.34507  24121012.760    98771541.09543
  20429476.960   107357632.69508  20429471.080    83655302.82348
  22033834.420   115788630.25008  22033825.140    90224951.05645
  20803364.080   109322428.13509  20803362.660    85186312.37749
  20846820.680   109550825.13709  20846816.840    85364278.45646
 15 02 21 04 14  0.0000000  0 10G01G03G04G11G14G16G19G22G27G32
  22854567.740   120101579.46907  22854563.380    93585648.72744
  24292865.200   127659859.77806  24292867.440    99475233.17244
  20896370.540   109811215.71609  20896369.460    85567179.54247
  21757024.100   114333958.65009  21757020.260    89091388.33746
  22865170.580   120157284.31609  22865166.840    93629061.91345
  24141160.040   126862666.79007  24141157.320    98854027.41344
  20428457.180   107352275.60708  20428451.780    83651128.45648
  22047846.460   115862264.54808  22047837.220    90282328.42045
  20812197.740   109368849.95109  20812196.220    85222485.20748
  20834557.960   109486384.32709  20834554.060    85314064.82546
 15 02 21 04 14 30.0000000  0 10G01G03G04G11G14G16G19G22G27G32
  22842447.780   120037890.02608  22842443.820    93536020.60644
  24273389.200   127557507.96907  24273389.500    99395478.52744
  20889549.880   109775372.25109  20889548.420    85539249.58047
  21744051.000   114265783.42409  21744046.880    89038264.82346
  22857666.860   120117852.76909  22857663.380    93598336.06045
  24161307.500   126968540.46007  24161305.040    98936526.36344
  20427519.060   107347347.42408  20427514.060    83647288.31848
  22061906.140   115936149.11908  22061897.260    90339900.82246
  20821114.080   109415707.49209  20821112.780    85258997.56248
  20822388.260   109422432.16409  20822384.520    85264231.96846
 15 02 21 04 15  0.0000000  0 10G01G03G04G11G14G16G19G22G27G32
  22830349.880   119974315.81008  22830346.440    93486482.28044
  24253943.180   127455314.05108  24253942.000    99315846.92944
  20882772.220   109739754.91909  20882770.260    85511495.84147
  21731111.380   114197784.39309  21731106.800    88985278.60846
  22850245.740   120078855.02208  22850242.400    93567948.21445
  24181458.040   127074431.59007  24181456.080    99019038.91944
  20426663.480   107342852.39608  20426658.720    83643785.70448
  22076013.600   116010285.02609  22076005.100    90397669.05346
  20830113.720   109463003.57609  20830112.900    85295851.63548
  20810312.420   109358973.16708  20810308.940    85214783.43546
 15 02 21 04 15 30.0000000  0 10G01G03G04G11G14G16G19G22G27G32
  22818274.260   119910857.87308  22818271.660    93437034.52045
  24234527.640   127353280.87708  24234525.860    99236340.59244
  20876037.820   109704364.98009  20876035.200    85483919.27947
  21718205.600   114129963.76109  21718200.560    88932431.36346
  22842907.760   120040294.26208  22842904.640    93537900.88745
  24201611.600   127180338.52207  24201610.200    99101563.76644
  20425890.800   107338792.50008  20425885.980    83640622.14747
  22090168.560   116084670.92509  22090160.600    90455632.07947
  20839197.000   109510738.98609  20839196.700    85333048.04248
  20798330.900   109296009.73708  20798327.820    85165721.03347
