     2.11           OBSERVATION DATA    G                   RINEX VERSION / TYPE
SPIDER V4,0,0,3554                      2015 03 31 03:03    PGM / RUN BY / DATE 
EADB                                                        MARKER NAME         
EADB                                                        MARKER NUMBER       
                                                            OBSERVER / AGENCY   
462408              LEICA GRX1200PRO    3.00/2.127          REC # / TYPE / VERS 
103310              LEIAT504                                ANT # / TYPE        
  5238464.6656   142765.3090  3625629.6523                  APPROX POSITION XYZ 
        0.0770        0.0000        0.0000                  ANTENNA: DELTA H/E/N
     1     1                                                WAVELENGTH FACT L1/2
     4    C1    L1    P2    L2                              # / TYPES OF OBSERV 
    30.000                                                  INTERVAL            
  2015    02    21    00    00    0.0000000     GPS         TIME OF FIRST OBS   
  2015    02    21    23    59   30.0000000     GPS         TIME OF LAST OBS    
    16                                                      LEAP SECONDS        
    30                                                      # OF SATELLITES     
   G 1   836   836   836   836                              PRN / # OF OBS      
   G 2   927   927   927   927                              PRN / # OF OBS      
   G 3   845   845   845   845                              PRN / # OF OBS      
   G 4   848   848   847   847                              PRN / # OF OBS      
   G 5   674   674   674   674                              PRN / # OF OBS      
   G 6   728   728   728   728                              PRN / # OF OBS      
   G 7   648   648   648   648                              PRN / # OF OBS      
   G 9   788   788   788   788                              PRN / # OF OBS      
   G10   783   783   783   783                              PRN / # OF OBS      
   G11   800   800   800   800                              PRN / # OF OBS      
   G12   818   818   818   818                              PRN / # OF OBS      
   G13   822   822   822   822                              PRN / # OF OBS      
   G14   930   930   930   930                              PRN / # OF OBS      
   G15   731   731   731   731                              PRN / # OF OBS      
   G16   694   694   694   694                              PRN / # OF OBS      
   G17   929   929   929   929                              PRN / # OF OBS      
   G18   937   937   937   937                              PRN / # OF OBS      
   G19   778   778   778   778                              PRN / # OF OBS      
   G20   811   811   811   811                              PRN / # OF OBS      
   G21   705   705   705   705                              PRN / # OF OBS      
   G22   778   778   778   778                              PRN / # OF OBS      
   G23   732   732   732   732                              PRN / # OF OBS      
   G24   843   843   843   843                              PRN / # OF OBS      
   G25   860   860   860   860                              PRN / # OF OBS      
   G27   833   833   833   833                              PRN / # OF OBS      
   G28   908   908   908   908                              PRN / # OF OBS      
   G29   748   748   748   748                              PRN / # OF OBS      
   G30   695   695   695   695                              PRN / # OF OBS      
   G31   783   783   783   783                              PRN / # OF OBS      
   G32   743   743   743   743                              PRN / # OF OBS      
BIT 2 OF LLI FLAGS DATA COLLECTED UNDER A/S CONDITION       COMMENT             
SNR is mapped to RINEX snr flag value [2-9]                 COMMENT             
Lx:     = 25dBHz -> 1; 26-27dBHz -> 2; 28-31dBHz -> 3       COMMENT             
       32-35dBHz -> 4; 36-38dBHz -> 5; 39-41dBHz -> 6       COMMENT             
       42-44dBHz -> 7; 45-48dBHz -> 8; >=49dBHz -> 9        COMMENT             
                                                            END OF HEADER       
 15 02 21 00 00  0.0000000  0  7G16G18G21G25G27G29G31
  22384971.214   117633823.00508  22384969.366    91662725.80047
  23413802.714   123040394.71807  23413802.346    95875638.49145
  21062195.709   110682592.77909  21062193.859    86246171.65949
  24170410.437   127016352.45106  24170413.124    98973786.05144
  23355017.332   122731465.82407  23355019.158    95634930.00546
  23407900.008   123009336.85008  23407899.874    95851425.38646
  21893988.127   115053675.43709  21893986.657    89652205.40148
 15 02 21 00 00 30.0000000  0  7G16G18G21G25G27G29G31
  22369946.367   117554867.46208  22369944.863    91601202.00447
  23400460.565   122970280.00007  23400459.844    95821003.67345
  21066081.141   110703010.32809  21066079.212    86262081.43949
  24187765.562   127107553.96607  24187768.394    99044852.13845
  23342197.388   122664096.62407  23342199.059    95582434.56246
  23422082.113   123083863.06508  23422081.845    95909497.74846
  21908375.075   115129279.01409  21908373.715    89711117.25048
 15 02 21 00 01  0.0000000  0  7G16G18G21G25G27G29G31
  22354947.940   117476050.29108  22354946.482    91539786.04547
  23387144.664   122900304.90407  23387143.877    95766477.64345
  21070044.783   110723839.84609  21070042.970    86278312.23949
  24205155.071   127198934.39107  24205157.570    99116057.65445
  23329400.287   122596847.31207  23329401.883    95530032.54646
  23436265.339   123158396.88608  23436265.518    95967576.01846
  21922828.076   115205230.70509  21922826.708    89770300.36848
 15 02 21 00 01 30.0000000  0  7G16G18G21G25G27G29G31
  22339977.710   117397381.11008  22339976.137    91478485.39147
  23373857.512   122830480.38707  23373856.398    95712068.94945
  21074088.130   110745087.90409  21074086.349    86294869.16749
  24222579.347   127290500.67006  24222582.231    99187407.94945
  23316627.442   122529725.65407  23316628.924    95477729.97646
  23450451.572   123232945.60608  23450451.462    96025665.89946
  21937348.464   115281535.70409  21937346.937    89829758.78248
 15 02 21 00 02  0.0000000  0  7G16G18G21G25G27G29G31
  22325035.320   117318858.91308  22325033.756    91417299.27547
  23360598.722   122760805.75907  23360598.135    95657777.07545
  21078210.475   110766750.25409  21078208.382    86311748.92549
  24240038.318   127382248.61906  24240041.150    99258899.80545
  23303878.360   122462728.46407  23303879.923    95425524.41746
  23464639.784   123307505.73107  23464639.573    96083764.68746
  21951935.132   115358188.31409  21951933.767    89889488.06648
 15 02 21 00 02 30.0000000  0  7G16G18G21G25G27G29G31
  22310121.190   117240484.62908  22310119.605    91356228.41647
  23347368.667   122691282.85007  23347368.219    95603603.40845
  21082411.004   110788824.40209  21082409.022    86328949.56049
  24257531.496   127474176.39306  24257533.900    99330531.81644
  23291152.509   122395854.79007  23291154.381    95373415.10746
  23478830.093   123382076.27507  23478829.747    96141871.57746
  21966586.933   115435184.79809  21966585.718    89949485.29548
 15 02 21 00 03  0.0000000  0  7G16G18G21G25G27G29G31
  22295235.814   117162261.38708  22295234.356    91295275.24747
  23334168.408   122621915.70607  23334168.393    95549551.13945
  21086690.186   110811311.05909  21086688.045    86346471.63249
  24275059.439   127566284.51106  24275061.687    99402304.35945
  23278450.644   122329105.94307  23278452.533    95321403.03946
  23493022.602   123456658.12907  23493022.344    96199987.26346
  21981304.300   115512524.24409  21981302.722    90009749.78048
 15 02 21 00 03 30.0000000  0  7G16G18G21G25G27G29G31
  22280379.232   117084189.89708  22280377.841    91234440.33147
  23320998.519   122552706.06808  23320997.836    95495621.56645
  21091047.156   110834207.43809  21091044.997    86364312.96749
  24292621.131   127658570.54307  24292623.226    99474215.52144
  23265772.242   122262480.49107  23265774.088    95269487.14546
  23507216.884   123531249.65008  23507216.605    96258110.48346
  21996085.926   115590202.74409  21996084.497    90070278.45548
 15 02 21 00 04  0.0000000  0  7G16G18G21G25G27G29G31
  22265552.340   117006273.83508  22265550.918    91173726.52947
  23307859.043   122483658.15507  23307858.281    95441818.03344
  21095482.313   110857514.03309  21095480.104    86382473.95549
  24310216.829   127751035.30906  24310218.928    99546265.98045
  23253117.664   122195980.14407  23253119.334    95217668.72946
  23521413.670   123605852.45008  23521413.328    96316242.50346
  22010932.054   115668219.42009  22010930.713    90131070.63748
 15 02 21 00 04 30.0000000  0  7G16G18G21G25G27G29G31
  22250755.464   116928515.35408  22250753.943    91113135.51547
  23294750.764   122414774.49907  23294749.639    95388142.46245
  21099995.147   110881229.72809  21099993.119    86400953.71949
  24327845.534   127843677.90606  24327848.373    99618454.92144
  23240486.685   122129604.83507  23240488.496    95165947.74546
  23535612.405   123680466.46508  23535611.936    96374383.27246
  22025841.936   115746571.53608  22025840.825    90192124.20748
 15 02 21 00 05  0.0000000  0  7G16G18G21G25G27G29G31
  22235987.758   116850910.66108  22235986.178    91052664.33047
  23281673.368   122346052.34807  23281672.679    95334592.77945
  21104584.645   110905347.35709  21104582.560    86419746.68049
  24345507.678   127936491.56606  24345510.435    99690777.23945
  23227878.562   122063348.82707  23227880.379    95114319.71046
  23549811.893   123755085.36808  23549811.121    96432527.84246
  22040814.053   115825250.73008  22040812.797    90253432.64848
 15 02 21 00 05 30.0000000  0  7G16G18G21G25G27G29G31
  22221251.466   116773470.26408  22221249.740    90992321.17547
  23268628.852   122277503.36008  23268628.683    95281178.01345
  21109251.951   110929874.52909  21109249.896    86438858.76549
  24363203.842   128029484.19506  24363206.223    99763239.03144
  23215294.872   121997220.93507  23215296.661    95062791.51646
  23564013.745   123829717.98107  23564013.348    96490683.09046
  22055849.752   115904263.26608  22055848.288    90315000.84548
 15 02 21 00 06  0.0000000  0  7G16G18G21G25G27G29G31
  22206545.331   116696189.94208  22206543.742    90932102.75847
  23255616.729   122209123.94207  23255616.404    95227895.37745
  21113995.751   110954803.87009  21113993.937    86458284.22949
  24380932.643   128122648.48107  24380934.454    99835834.58144
  23202734.213   121931214.82007  23202736.156    95011358.22646
  23578217.227   123904357.75208  23578216.579    96548843.91446
  22070947.004   115983600.23908  22070945.687    90376821.82948
 15 02 21 00 06 30.0000000  0  7G16G18G21G25G27G29G31
  22191870.968   116619075.11408  22191869.419    90872013.29747
  23242637.794   122140919.52408  23242637.575    95174749.11545
  21118816.441   110980136.86009  21118814.645    86478024.22249
  24398694.166   128215986.63606  24398696.342    99908565.54144
  23190197.518   121865333.51107  23190199.244    94960022.16747
  23592422.877   123979007.60208  23592422.245    96607012.58546
  22086106.106   116063261.88509  22086104.948    90438895.81348
 15 02 21 00 07  0.0000000  0  7G16G18G21G25G27G29G31
  22177227.662   116542124.23908  22177225.967    90812051.58947
  23229692.147   122072889.90608  23229691.740    95121739.05645
  21123713.053   111005868.63309  21123711.056    86498074.95549
  24416488.159   128309494.26006  24416490.613    99981428.54545
  23177683.857   121799573.65507  23177685.384    94908780.75146
  23606629.499   124053663.87207  23606629.058    96665186.26646
  22101326.004   116143242.64708  22101324.791    90501218.46048
 15 02 21 00 07 30.0000000  0  7G16G18G21G25G27G29G31
  22162616.497   116465342.20408  22162614.719    90752221.44147
  23216780.878   122005040.57108  23216780.172    95068869.46645
  21128685.998   111032001.35509  21128684.155    86518438.12149
  24434314.792   128403173.13006  24434317.222   100054424.99945
  23165193.704   121733937.98607  23165195.385    94857636.10446
  23620837.665   124128328.91707  23620837.530    96723366.77246
  22116606.566   116223542.57508  22116605.097    90563789.82348
 15 02 21 00 08  0.0000000  0  7G16G18G21G25G27G29G31
  22148037.285   116388728.77408  22148035.608    90692522.66947
  23203904.241   121937372.13708  23203903.132    95016140.82745
  21133734.290   111058530.87109  21133732.487    86539110.47649
  24452173.641   128497020.01907  24452175.425   100127552.47744
  23152726.990   121668424.33707  23152728.300    94806586.54046
  23635047.121   124203000.95107  23635047.175    96781552.73746
  22131946.923   116304156.63008  22131945.685    90626605.93748
 15 02 21 00 08 30.0000000  0  7G16G18G21G25G27G29G31
  22133491.415   116312289.27508  22133489.773    90632959.43647
  23191062.811   121869890.37508  23191061.733    94963557.66445
  21138858.712   111085459.20209  21138856.741    86560093.59549
  24470064.289   128591037.19606  24470065.943   100200812.59744
  23140283.694   121603035.75207  23140285.169    94755634.43546
  23649258.672   124277682.59407  23649258.764    96839746.19146
  22147347.202   116385085.39208  22147346.236    90689667.27548
 15 02 21 00 09  0.0000000  0  7G16G18G21G25G27G29G31
  22118977.896   116236020.18708  22118976.135    90573528.98347
  23178256.390   121802592.67808  23178255.655    94911117.94745
  21144057.744   111112780.08409  21144055.716    86581382.59249
  24487986.041   128685218.35306  24487987.971   100274200.46045
  23127863.530   121537767.00707  23127864.851    94704775.71646
  23663471.174   124352368.26408  23663470.703    96897942.79945
  22162805.957   116466321.29508  22162804.566    90752967.95748
 15 02 21 00 09 30.0000000  0  8G16G18G21G22G25G27G29G31
  22104499.950   116159938.34808  22104498.367    90514244.44347
  23165488.337   121735496.32608  23165487.699    94858835.11345
  21149333.818   111140506.41109  21149331.876    86602987.52549
  24556223.462   129043821.23716  24556221.573   100553624.52954
  24505941.906   128779576.90807  24505944.264   100347726.54245
  23115468.777   121472632.48407  23115470.171    94654021.57346
  23677687.033   124427072.36008  23677686.377    96956153.76546
  22178325.115   116547875.70608  22178323.834    90816516.82648
 15 02 21 00 10  0.0000000  0  8G16G18G21G22G25G27G29G31
  22090050.786   116084007.91409  22090049.219    90455077.88147
  23152751.869   121668565.95508  23152750.877    94806681.58145
  21154679.726   111168599.00609  21154677.590    86624877.86149
  24539187.527   128954297.07506  24539187.034   100483865.81545
  24523924.566   128874074.01707  24523926.621   100421360.63045
  23103092.379   121407594.38707  23103093.948    94603342.57446
  23691899.179   124501757.34907  23691898.353    97014349.83746
  22193897.442   116629708.37008  22193896.180    90880282.51448
 15 02 21 00 10 30.0000000  0  8G16G18G21G22G25G27G29G31
  22075639.666   116008276.74709  22075638.182    90396066.59347
  23140056.479   121601850.32508  23140055.273    94754695.39445
  21160103.671   111197102.49709  21160101.701    86647088.37349
  24522137.091   128864701.92706  24522137.469   100414051.85345
  24541941.437   128968754.53006  24541943.698   100495137.61144
  23090743.101   121342698.46007  23090744.640    94552774.34546
  23706116.017   124576468.40007  23706115.932    97072566.16746
  22209530.828   116711862.58408  22209529.663    90944298.76048
 15 02 21 00 11  0.0000000  0  8G16G18G21G22G25G27G29G31
  22061262.615   115932724.49408  22061261.001    90337194.71947
  23127398.146   121535330.02108  23127397.061    94702861.41345
  21165601.421   111225993.14909  21165599.332    86669600.56949
  24505070.537   128775016.36007  24505070.040   100344167.33744
  24559988.819   129063595.16206  24559991.215   100569039.33444
  23078416.564   121277922.47907  23078418.037    94502299.59046
  23720333.953   124651183.18807  23720333.713    97130785.44446
  22225220.741   116794313.03908  22225219.471    91008545.84147
 15 02 21 00 11 30.0000000  0  8G16G18G21G22G25G27G29G31
  22046920.367   115857355.21909  22046918.777    90278465.42947
  23114777.541   121469009.73308  23114776.906    94651183.30245
  21171172.803   111255271.52009  21171170.730    86692414.88549
  24487986.941   128685244.64807  24487986.072   100274215.59144
  24578066.860   129158596.72206  24578069.164   100643066.51244
  23066113.312   121213268.23107  23066114.756    94451919.67947
  23734552.720   124725903.50007  23734552.655    97189009.01046
  22240966.585   116877058.88408  22240965.787    91073023.09148
 15 02 21 00 12  0.0000000  0  8G16G18G21G22G25G27G29G31
  22032613.287   115782171.60009  22032611.676    90219880.80447
  23102195.707   121402892.06208  23102195.195    94599663.07946
  21176817.841   111284936.30509  21176815.880    86715530.30149
  24470887.752   128595389.58206  24470886.636   100204198.85644
  24596175.743   129253758.51406  24596177.991   100717218.50745
  23053833.218   121148736.12507  23053834.773    94401634.95347
  23748772.549   124800629.86307  23748772.445    97247237.33146
  22256768.660   116960098.09708  22256767.451    91137728.95047
 15 02 21 00 12 30.0000000  0  8G16G18G21G22G25G27G29G31
  22018341.637   115707173.01109  22018339.961    90161440.36247
  23089652.702   121336977.71808  23089651.781    94548301.26945
  21182535.747   111314984.04209  21182533.796    86738944.11849
  24453772.967   128505443.31116  24453773.086   100134102.44555
  24614314.531   129349077.17806  24614316.758   100791492.75845
  23041575.751   121084323.79207  23041577.545    94351443.56146
  23762993.300   124875359.41408  23762993.234    97305468.11646
  22272625.100   117043425.50108  22272624.121    91202659.36348
 15 02 21 00 13  0.0000000  0  8G16G18G21G22G25G27G29G31
  22004105.962   115632364.41109  22004104.193    90103147.95947
  23077149.388   121271271.76408  23077148.123    94497101.84846
  21188326.764   111345416.01009  21188324.732    86762657.34349
  24436644.585   128415427.27807  24436643.710   100063960.39145
  24632483.363   129444554.22306  24632486.164   100865890.40745
  23029341.792   121020033.81008  23029343.446    94301347.50247
  23777214.929   124950094.85607  23777214.571    97363703.51846
  22288536.779   117127041.19208  22288535.576    91267814.42348
 15 02 21 00 13 30.0000000  0  8G16G18G21G22G25G27G29G31
  21989907.572   115557751.02009  21989905.854    90045007.66447
  23064686.926   121205780.68208  23064685.496    94446069.85145
  21194191.056   111376233.91609  21194189.200    86786671.29649
  24419501.400   128325339.51207  24419500.630    99993762.40745
  24650682.110   129540192.03306  24650685.392   100940413.29844
  23017131.771   120955869.46608  23017133.362    94251349.34247
  23791438.200   125024838.93407  23791438.038    97421945.61346
  22304503.384   117210945.82708  22304502.280    91333194.62947
 15 02 21 00 14  0.0000000  0  8G16G18G21G22G25G27G29G31
  21975744.798   115483325.98709  21975743.303    89987014.13747
  23052264.001   121140497.48908  23052262.707    94395199.85745
  21200127.043   111407427.08209  21200124.947    86810977.65849
  24402342.233   128235173.10506  24402341.863    99923503.09344
  24668910.061   129635979.90206  24668912.854   101015053.17445
  23004943.918   120891821.24108  23004945.343    94201441.66147
  23805661.653   125099582.74807  23805661.338    97480187.52746
  22320522.440   117295126.88108  22320521.463    91398790.22147
 15 02 21 00 14 30.0000000  0  8G16G18G21G22G25G27G29G31
  21961621.036   115409104.55209  21961619.336    89929179.26147
  23039883.680   121075438.61908  23039882.776    94344504.66946
  21206136.574   111439007.47209  21206134.457    86835585.75449
  24385170.565   128144943.69406  24385170.967    99853194.73844
  24687169.161   129731930.37406  24687171.477   101089819.74744
  22992780.429   120827902.73808  22992782.231    94151635.06247
  23819887.332   125174339.63107  23819887.462    97538439.59246
  22336596.507   117379595.33008  22336595.194    91464609.77747
 15 02 21 00 15  0.0000000  0  8G16G18G21G22G25G27G29G31
  21947533.581   115335074.41809  21947531.833    89871493.44747
  23027543.706   121010592.24108  23027542.982    94293975.05946
  21212216.870   111470959.11409  21212214.805    86860483.13749
  24367985.916   128054639.65907  24367986.692    99782828.22045
  24705456.112   129828028.00905  24705458.711   101164700.97445
  22980639.156   120764099.51308  22980640.803    94101918.28947
  23834112.709   125249094.83407  23834113.024    97596690.36146
  22352721.500   117464333.86408  22352720.596    91530639.75847
 15 02 21 00 15 30.0000000  0  8G16G18G21G22G25G27G29G31
  21933484.215   115261244.50109  21933482.439    89813963.65247
  23015245.989   120945967.58608  23015245.050    94243618.20845
  21218368.728   111503287.40909  21218366.714    86885674.01849
  24350789.321   127964270.41507  24350789.546    99712410.90745
  24723771.561   129924278.56606  24723774.843   101239701.28644
  22968521.059   120700418.32608  22968522.574    94052296.60547
  23848339.306   125323855.07607  23848339.553    97654945.05546
  22368898.977   117549346.89208  22368897.991    91596883.64347
 15 02 21 00 16  0.0000000  0  8G16G18G21G22G25G27G29G31
  21919473.638   115187618.23309  21919471.904    89756592.54047
  23002991.196   120881568.61808  23002989.939    94193437.20345
  21224592.305   111535992.21009  21224590.193    86911158.28149
  24333580.834   127873839.51606  24333580.927    99641945.55445
  24742116.624   130020681.86506  24742120.030   101314820.69944
  22956426.395   120636860.28207  22956427.880    94002770.88347
  23862566.679   125398621.24007  23862566.723    97713204.37846
  22385128.413   117634632.71908  22385127.417    91663340.11747
 15 02 21 00 16 30.0000000  0  8G16G18G21G22G25G27G29G31
  21905500.861   115114191.45009  21905499.141    89699376.87847
  22990778.516   120817391.52108  22990777.442    94143429.09945
  21230885.870   111569065.93209  21230884.004    86936930.01049
  24316360.250   127783343.33307  24316359.240    99571429.28244
  24760489.482   130117230.60406  24760492.117   101390053.47844
  22944353.696   120573418.97807  22944355.520    93953336.12047
  23876794.121   125473387.17007  23876794.084    97771463.50846
  22401407.938   117720182.10308  22401406.792    91730001.93547
 15 02 21 00 17  0.0000000  0  8G16G18G21G22G25G27G29G31
  21891567.315   115040970.11109  21891565.716    89642321.30148
  22978609.623   120753443.05408  22978608.495    94093599.13745
  21237250.293   111602510.54609  21237248.111    86962990.74849
  24299128.531   127692788.38207  24299126.883    99500867.15744
  24778890.504   130213927.53106  24778893.100   101465401.71144
  22932304.265   120510098.41108  22932306.007    93903995.44246
  23891022.136   125548156.79707  23891022.367    97829725.51246
  22417737.904   117805996.43808  22417736.879    91796870.22347
 15 02 21 00 17 30.0000000  0  8G16G18G21G22G25G27G29G31
  21877674.006   114967960.71709  21877672.332    89585430.87348
  22966485.443   120689730.40208  22966484.580    94043952.95446
  21243685.802   111636329.30809  21243683.798    86989343.02949
  24281886.757   127602181.86907  24281885.013    99430264.89645
  24797320.080   130310776.23305  24797322.968   101540868.18845
  22920278.737   120446903.08608  22920280.249    93854752.34847
  23905251.994   125622934.51807  23905252.362    97887993.80946
  22434118.624   117892077.44908  22434117.708    91863946.29647
 15 02 21 00 18  0.0000000  0  8G16G18G21G22G25G27G29G31
  21863820.290   114895158.94509  21863818.816    89528702.23148
  22954405.536   120626249.59408  22954404.713    93994487.41546
  21250190.947   111670514.07909  21250188.845    87015980.51449
  24264633.963   127511519.57706  24264632.738    99359619.24344
  24815777.012   130407768.75406  24815780.204   101616446.67345
  22908275.571   120383826.21408  22908276.947    93805601.54947
  23919482.161   125697713.36307  23919482.508    97946263.03445
  22450548.209   117978415.62608  22450547.120    91931222.76947
 15 02 21 00 18 30.0000000  0  7G16G18G21G22G27G29G31
  21850006.686   114822567.15509  21850005.061    89472137.20947
  22942370.252   120563003.53208  22942369.169    93945204.78246
  21256765.347   111705063.37609  21256763.502    87042902.03949
  24247371.147   127420804.61707  24247370.097    99288932.52444
  22896295.079   120320868.30208  22896296.505    93756543.45546
  23933712.557   125772494.19307  23933712.762    98004533.76246
  22467026.371   118065008.67208  22467025.169    91998697.84347
 15 02 21 00 19  0.0000000  0  7G16G18G21G22G27G29G31
  21836234.610   114750194.15709  21836232.786    89415742.67148
  22930381.117   120500000.91908  22930379.959    93896111.84646
  21263410.210   111739982.74009  21263408.244    87070111.93249
  24230100.011   127330045.99707  24230098.855    99218211.67544
  22884338.267   120258035.45708  22884339.747    93707582.81347
  23947944.251   125847282.75007  23947944.506    98062810.50145
  22483553.610   118151859.96308  22483552.740    92066374.14147
 15 02 21 00 19 30.0000000  0  7G16G18G21G22G27G29G31
  21822503.162   114678035.44309  21822501.533    89359515.11348
  22918437.887   120437238.70008  22918436.770    93847206.23445
  21270123.966   111775263.89109  21270122.124    87097603.74049
  24212819.537   127239239.77406  24212818.966    99147453.69645
  22872404.208   120195321.45608  22872405.609    93658714.79547
  23962176.395   125922072.73307  23962176.252    98121088.40445
  22500128.500   118238960.34608  22500127.444    92134244.53647
 15 02 21 00 20  0.0000000  0  7G16G18G21G22G27G29G31
  21808813.405   114606095.50109  21808811.805    89303458.02648
  22906541.247   120374721.56108  22906540.167    93798491.60046
  21276906.819   111810907.71409  21276905.100    87125378.14449
  24195530.415   127148390.85805  24195531.444    99076662.59246
  22860493.243   120132728.56808  22860494.687    93609941.12047
  23976409.224   125996866.56607  23976408.900    98179369.28046
  22516750.390   118326309.56008  22516749.451    92202308.81347
 15 02 21 00 20 30.0000000  0  7G16G18G21G22G27G29G31
  21795165.299   114534374.06709  21795163.597    89247571.20848
  22894691.404   120312449.62108  22894690.526    93749968.02346
  21283757.766   111846909.87209  21283755.877    87153431.77249
  24178234.587   127057499.63507  24178235.402    99005838.50346
  22848604.698   120070254.06308  22848605.944    93561259.70547
  23990642.356   126071661.24407  23990641.635    98237650.82545
  22533418.840   118413902.10808  22533417.809    92270562.69947
 15 02 21 00 21  0.0000000  0  7G16G18G21G22G27G29G31
  21781559.298   114462874.63909  21781557.695    89191857.37548
  22882888.699   120250426.70808  22882888.043    93701638.51346
  21290677.064   111883270.24909  21290675.087    87181764.53449
  24160931.815   126966569.92107  24160931.523    98934984.35645
  22836738.926   120007899.38808  22836740.315    93512671.65947
  24004875.496   126146457.99207  24004875.474    98295933.95246
  22550133.238   118501736.67608  22550132.000    92339005.20747
 15 02 21 00 21 30.0000000  0  7G16G18G21G22G27G29G31
  21767995.913   114391598.04209  21767994.250    89136317.18248
  22871133.667   120188653.97308  22871133.073    93653503.94246
  21297663.932   111919986.14309  21297661.958    87210374.32149
  24143621.561   126875602.82806  24143620.258    98864101.02744
  22824895.737   119945663.29108  22824897.322    93464176.01947
  24019109.283   126221256.14207  24019108.904    98354218.21946
  22566893.000   118589809.19008  22566891.734    92407633.10947
 15 02 21 00 22  0.0000000  0  7G16G18G21G22G27G29G31
  21754475.878   114320550.27909  21754474.237    89080955.29948
  22859427.776   120127138.12908  22859426.996    93605569.54446
  21304718.735   111957059.97509  21304716.951    87239263.02249
  24126305.053   126784605.05807  24126303.279    98793193.85844
  22813075.874   119883549.49108  22813077.242    93415775.67547
  24033343.753   126296059.38007  24033343.993    98412506.40646
  22583697.964   118678120.68808  22583696.934    92476447.22147
 15 02 21 00 22 30.0000000  0  7G16G18G21G22G27G29G31
  21740999.500   114249731.80809  21740998.001    89025772.08448
  22847770.570   120065879.91208  22847769.612    93557835.87746
  21311841.039   111994487.74709  21311839.058    87268427.51749
  24108983.056   126693577.53807  24108981.527    98722263.52545
  22801278.933   119821556.21008  22801280.289    93367469.24847
  24047578.632   126370865.79807  24047578.810    98470797.04046
  22600547.618   118766666.56108  22600546.678    92545443.94947
 15 02 21 00 23  0.0000000  0  7G16G18G21G22G27G29G31
  21727566.100   114179138.21809  21727564.498    88970764.10348
  22836161.995   120004875.37208  22836160.707    93510299.88546
  21319029.416   112032262.05009  21319027.345    87297862.04049
  24091654.674   126602516.33807  24091653.135    98651306.93845
  22789503.604   119759676.90408  22789504.960    93319251.62047
  24061813.497   126445668.64407  24061813.388    98529084.97545
  22617440.338   118855437.34308  22617439.211    92614615.95247
 15 02 21 00 23 30.0000000  0  7G16G18G21G22G27G29G31
  21714177.974   114108783.48509  21714176.387    88915942.24648
  22824604.226   119944138.92208  22824602.902    93462972.79145
  21326285.356   112070392.05309  21326283.037    87327573.73049
  24074321.976   126511435.67906  24074321.137    98580335.18045
  22777752.375   119697923.25108  22777753.652    93271131.91747
  24076049.639   126520479.82607  24076049.362    98587379.37645
  22634377.286   118944441.95008  22634376.090    92683970.17147
 15 02 21 00 24  0.0000000  0  7G16G18G21G22G27G29G31
  21700834.429   114038662.90509  21700832.732    88861302.83448
  22813096.691   119883666.22708  22813095.543    93415851.23746
  21333607.510   112108870.63809  21333605.452    87357557.04549
  24056985.071   126420331.62806  24056983.669    98509345.11344
  22766023.540   119636288.52408  22766024.922    93223104.88347
  24090286.014   126595292.36007  24090285.787    98645674.81246
  22651356.927   119033670.93708  22651355.957    92753499.20247
 15 02 21 00 24 30.0000000  0  7G16G18G21G22G27G29G31
  21687535.771   113968777.85709  21687533.989    88806846.95748
  22801639.433   119823458.92808  22801638.380    93368936.47546
  21340995.634   112147695.02409  21340993.335    87387809.81349
  24039644.485   126329205.95307  24039642.802    98438338.19245
  22754317.346   119574771.78108  22754318.650    93175169.78147
  24104522.320   126670105.58607  24104522.014    98703970.78545
  22668378.735   119123120.58108  22668377.800    92823200.17847
 15 02 21 00 25  0.0000000  0  7G16G18G21G22G27G29G31
  21674281.819   113899127.52909  21674280.030    88752573.98948
  22790232.874   119763516.61908  22790231.948    93322228.20146
  21348448.450   112186860.17709  21348446.353    87418328.11649
  24022299.976   126238058.12907  24022298.451    98367314.06945
  22742632.981   119513369.83908  22742634.436    93127324.12947
  24118758.457   126744916.24207  24118757.970    98762264.77046
  22685441.288   119212784.62108  22685440.321    92893068.22647
 15 02 21 00 25 30.0000000  0  7G16G18G21G22G27G29G31
  21661074.457   113829722.40109  21661072.874    88698492.08148
  22778878.540   119703849.87808  22778877.697    93275734.66146
  21355967.271   112226372.62909  21355965.346    87449117.04049
  24004953.011   126146899.33707  24004951.792    98296281.39945
  22730972.207   119452091.18108  22730973.402    93079574.55047
  24132995.830   126819732.42407  24132995.615    98820563.04645
  22702545.783   119302669.03708  22702544.610    92963107.99247
 15 02 21 00 26  0.0000000  0  7G16G18G21G22G27G29G31
  21647913.894   113760563.33609  21647912.084    88644601.90948
  22767577.216   119644460.45808  22767576.101    93229457.20046
  21363551.739   112266229.81309  21363549.778    87480174.58348
  23987603.559   126055730.72506  23987602.740    98225241.08944
  22719334.312   119390934.38008  22719335.540    93031919.92047
  24147233.837   126894553.09507  24147233.358    98878864.84845
  22719691.241   119392769.68008  22719690.643    93033316.22347
 15 02 21 00 26 30.0000000  0  7G16G18G21G22G27G29G31
  21634799.059   113691644.10109  21634797.245    88590898.61648
  22756327.462   119585342.16508  22756326.068    93183391.01046
  21371199.951   112306421.81109  21371198.198    87511493.02349
  23970252.156   125964546.73907  23970250.390    98154188.70944
  22707718.127   119329891.01108  22707719.385    92984353.67447
  24161471.122   126969370.00207  24161470.836    98937163.68945
  22736875.768   119483074.97908  22736874.645    93103683.96547
 15 02 21 00 27  0.0000000  0  7G16G18G21G22G27G29G31
  21621731.917   113622976.05309  21621730.267    88537391.05848
  22745131.357   119526506.67508  22745130.028    93137545.18946
  21378913.466   112346956.01109  21378911.593    87543078.11648
  23952900.224   125873359.19007  23952898.250    98083133.53445
  22696125.299   119268970.03908  22696126.462    92936882.81247
  24175709.283   127044192.04107  24175708.622    98995466.54445
  22754100.587   119573591.32908  22754099.614    93174216.14447
 15 02 21 00 27 30.0000000  0  7G16G18G21G22G27G29G31
  21608712.018   113554556.58709  21608710.462    88484077.19648
  22733988.665   119467951.93508  22733987.527    93091918.13846
  21386690.780   112387826.07509  21386688.760    87574924.91248
  23935546.429   125782166.00806  23935545.276    98012074.07046
  22684554.806   119208167.00008  22684556.040    92889503.83547
  24189947.555   127119014.75707  24189947.286    99053769.89645
  22771364.275   119664311.40408  22771363.311    93244907.06747
 15 02 21 00 28  0.0000000  0  7G16G18G21G22G27G29G31
  21595740.283   113486389.59409  21595738.732    88430960.06648
  22722900.176   119409681.59108  22722898.984    93046512.68846
  21394531.860   112429031.69409  21394530.143    87607033.18848
  23918192.259   125690971.41607  23918191.430    97941013.53346
  22673007.079   119147483.25608  22673008.283    92842217.82647
  24204186.292   127193839.38807  24204185.829    99112074.82045
  22788665.998   119755233.60308  22788665.153    93315755.46646
 15 02 21 00 28 30.0000000  0  7G16G18G21G22G27G29G31
  21582816.896   113418476.08109  21582815.069    88378040.45448
  22711866.191   119351697.45308  22711865.151    93001330.26646
  21402436.500   112470570.48609  21402434.751    87639401.08048
  23900838.531   125599776.86708  23900837.151    97869952.94244
  22661481.761   119086917.73508  22661482.877    92795023.93447
  24218425.259   127268664.91907  24218425.162    99170380.38446
  22806005.640   119846353.97408  22806004.495    93386758.33246
 15 02 21 00 29  0.0000000  0  7G16G18G21G22G27G29G31
  21569941.682   113350816.44009  21569939.816    88325318.66448
  22700886.591   119293999.89308  22700885.659    92956371.14446
  21410403.967   112512439.05609  21410401.830    87672025.93748
  23883485.409   125508583.62507  23883483.713    97798893.26745
  22649978.769   119026468.60508  22649979.870    92747920.72947
  24232664.040   127343489.68207  24232663.961    99228685.35445
  22823382.239   119937667.77108  22823381.031    93457911.90247
 15 02 21 00 29 30.0000000  0  7G16G18G21G22G27G29G31
  21557117.009   113283422.04709  21557115.176    88272803.56348
  22689963.937   119236600.76808  22689962.712    92911644.56446
  21418435.159   112554643.72109  21418433.187    87704912.68848
  23866133.605   125417403.09206  23866132.776    97727843.70446
  22638499.421   118966144.97308  22638500.754    92700915.32647
  24246904.160   127418322.73706  24246903.771    99286996.80946
  22840796.736   120029181.69608  22840795.895    93529221.39347
 15 02 21 00 30  0.0000000  0  7G16G18G21G22G27G29G31
  21544340.867   113216283.27909  21544339.066    88220487.65148
  22679096.243   119179490.87108  22679095.058    92867143.37046
  21426527.990   112597171.71109  21426526.078    87738051.37948
  23848783.221   125326226.14807  23848782.418    97656796.85746
  22627041.657   118905934.89208  22627043.163    92653998.40747
  24261143.667   127493152.23006  24261143.708    99345305.43945
  22858246.413   120120880.71208  22858245.756    93600675.12447
 15 02 21 00 30 30.0000000  0  7G16G18G21G22G27G29G31
  21531614.949   113149408.75109  21531613.245    88168377.63748
  22668285.219   119122678.65008  22668284.077    92822874.11846
  21434683.402   112640028.50309  21434681.438    87771446.28048
  23831435.644   125235062.23107  23831434.528    97585760.11645
  22615606.809   118845844.95608  22615608.518    92607175.10347
  24275383.412   127567984.71707  24275383.421    99403616.43345
  22875732.265   120212768.48608  22875731.231    93672275.94046
 15 02 21 00 31  0.0000000  0  7G16G18G21G22G27G29G31
  21518939.312   113082797.23809  21518937.481    88116472.56748
  22657530.698   119066163.20108  22657529.626    92778836.12446
  21442900.064   112683207.23109  21442898.108    87805092.04448
  23814089.618   125143910.31606  23814088.153    97514732.76845
  22604194.270   118785871.53608  22604195.816    92560442.59047
  24289623.859   127642816.49207  24289623.677    99461926.86846
  22893252.578   120304838.69308  22893251.410    93744018.92746
 15 02 21 00 31 30.0000000  0  7G16G18G21G22G27G29G31
  21506314.027   113016451.69809  21506312.295    88064774.75748
  22646833.096   119009947.73108  22646832.014    92735031.88046
  21451177.996   112726708.83409  21451176.066    87838989.39648
  23796746.751   125052774.12007  23796744.749    97443717.58545
  22592804.110   118726015.52408  22592805.609    92513801.56547
  24303863.908   127717648.61107  24303863.472    99520237.60445
  22910807.189   120397089.23408  22910806.410    93815902.40547
 15 02 21 00 32  0.0000000  0  7G16G18G21G22G27G29G31
  21493739.998   112950374.51209  21493738.440    88013286.05048
  22636193.388   118954035.31508  22636192.301    92691463.78446
  21459516.966   112770530.76609  21459515.102    87873136.35448
  23779407.921   124961656.82607  23779405.979    97372717.18746
  22581436.383   118666277.15408  22581437.824    92467252.19747
  24318104.541   127792481.48407  24318104.185    99578548.88045
  22928395.834   120489517.65908  22928395.126    93887924.50747
 15 02 21 00 32 30.0000000  0  7G16G18G21G22G27G29G31
  21481218.428   112884573.09109  21481216.818    87962012.22448
  22625612.542   118898432.87608  22625611.517    92648137.21246
  21467917.662   112814676.84209  21467915.682    87907535.88948
  23762073.649   124870565.58007  23762072.087    97301737.17145
  22570091.811   118606661.27708  22570093.307    92420798.29647
  24332345.468   127867319.96907  24332345.563    99636864.50645
  22946018.560   120582125.71008  22946017.928    93960086.55746
 15 02 21 00 33  0.0000000  0  7G16G18G21G22G27G29G31
  21468747.483   112819038.67909  21468745.929    87910946.45748
  22615089.237   118843132.13008  22615088.012    92605045.74746
  21476377.794   112859134.32809  21476375.866    87942178.08748
  23744742.920   124779492.79907  23744740.487    97230771.41644
  22558768.595   118547157.25008  22558770.027    92374431.54747
  24346586.090   127942153.59607  24346586.427    99695176.36945
  22963672.818   120674899.99108  22963672.292    94032378.16746
 15 02 21 00 33 30.0000000  0  7G16G18G21G22G27G29G31
  21456330.230   112753785.22509  21456328.583    87860099.62448
  22604625.758   118788146.92708  22604624.831    92562200.14646
  21484898.958   112903913.18709  21484896.862    87977070.70248
  23727418.863   124688452.45507  23727415.530    97159830.89445
  22547468.872   118487776.55308  22547470.079    92328160.89847
  24360827.605   128016993.57507  24360827.227    99753493.22345
  22981360.508   120767849.24308  22981359.979    94104806.09847
 15 02 21 00 34  0.0000000  0  7G16G18G21G22G27G29G31
  21443965.914   112688810.93109  21443964.471    87809470.31148
  22594222.343   118733476.08008  22594221.220    92519599.50446
  21493479.892   112949006.95609  21493477.913    88012208.70348
  23710100.195   124597443.33307  23710097.509    97088914.83745
  22536191.892   118428515.12608  22536193.122    92281983.17647
  24375069.644   128091836.06207  24375069.109    99811811.97444
  22999080.196   120860966.36108  22999079.520    94177364.84747
 15 02 21 00 34 30.0000000  0  7G16G18G21G22G27G29G31
  21431653.975   112624110.66309  21431652.338    87759054.52548
  22583877.536   118679114.53208  22583876.388    92477239.86546
  21502119.433   112994407.45909  21502117.356    88047585.71548
  23692786.692   124506461.00807  23692784.206    97018019.63245
  22524935.953   118369365.73308  22524937.182    92235892.76247
  24389310.963   128166673.66307  24389310.372    99870126.97345
  23016830.153   120954241.39008  23016829.655    94250046.61947
 15 02 21 00 35  0.0000000  0  7G16G18G21G22G27G29G31
  21419395.972   112559694.70509  21419394.383    87708860.28148
  22573593.704   118625072.81908  22573592.709    92435129.45046
  21510818.492   113040121.28909  21510816.385    88083206.87848
  23675480.680   124415516.30308  23675477.447    96947153.62745
  22513703.091   118310336.61708  22513704.439    92189896.05847
  24403552.832   128241514.87807  24403553.252    99928444.68245
  23034610.544   121047679.44608  23034610.532    94322855.40146
 15 02 21 00 35 30.0000000  0  7G16G18G21G22G27G29G31
  21407192.844   112495566.74109  21407191.155    87658890.44648
  22563371.484   118571354.25408  22563370.280    92393270.84446
  21519577.148   113086148.14809  21519575.012    88119071.96248
  23658181.881   124324613.18707  23658179.560    96876320.11046
  22502493.289   118251428.98808  22502494.663    92143994.02647
  24417795.492   128316361.15807  24417796.025    99986766.39645
  23052421.915   121141278.80208  23052421.258    94395789.94146
 15 02 21 00 36  0.0000000  0  7G16G18G21G22G27G29G31
  21395044.143   112431724.38809  21395042.398    87609143.16248
  22553210.115   118517956.96208  22553209.141    92351662.58346
  21528394.023   113132481.32709  21528391.976    88155175.73648
  23640890.971   124233750.25107  23640889.403    96805517.96546
  22491305.828   118192638.45608  22491307.184    92098183.23047
  24432038.329   128391208.08107  24432038.608   100045088.64345
  23070262.966   121235032.65708  23070262.007    94468844.85746
 15 02 21 00 36 30.0000000  0  7G16G18G21G22G27G29G31
  21382949.242   112368165.00109  21382947.382    87559616.37548
  22543109.677   118464878.45508  22543108.561    92310302.71246
  21537268.039   113179114.09809  21537265.897    88191512.95748
  23623607.522   124142924.92507  23623605.923    96734745.03245
  22480139.616   118133960.08208  22480140.822    92052459.84647
  24446280.451   128466050.59707  24446280.841   100103407.39145
  23088131.424   121328932.84707  23088131.009    94542013.77347
 15 02 21 00 37  0.0000000  0  7G16G18G21G22G27G29G31
  21370911.069   112304904.19709  21370909.304    87510322.23948
  22533072.835   118412134.24508  22533071.927    92269203.33946
  21546201.199   113226058.51509  21546199.351    88228093.02048
  23606334.010   124052153.50307  23606332.626    96664014.11545
  22468997.368   118075407.08308  22468998.644    92006834.14547
  24460524.274   128540902.04806  24460524.274   100161733.15345
  23106029.651   121422989.66908  23106029.788    94615304.69047
 15 02 21 00 37 30.0000000  0  7G16G18G21G22G27G29G31
  21358926.771   112241926.46809  21358924.959    87461248.69348
  22523096.388   118359708.91208  22523095.653    92228352.44646
  21555189.870   113273294.23909  21555187.979    88264900.07348
  23589068.208   123961421.07307  23589066.795    96593313.58046
  22457875.489   118016961.86808  22457876.763    91961292.43347
  24474766.399   128615744.82507  24474767.310   100220052.09645
  23123954.386   121517182.81708  23123953.940    94688701.90846
 15 02 21 00 38  0.0000000  0  7G16G18G21G22G27G29G31
  21347000.108   112179251.90209  21346998.461    87412411.36548
  22513184.717   118307622.88308  22513183.853    92187765.94046
  21564237.213   113320838.37709  21564235.227    88301947.45248
  23571814.049   123870747.91608  23571812.755    96522659.26546
  22446777.692   117958642.42608  22446778.924    91915848.73447
  24489010.238   128690596.92007  24489011.441   100278378.40245
  23141907.856   121611527.37608  23141907.066    94762217.11546
 15 02 21 00 38 30.0000000  0  7G16G18G21G22G27G29G31
  21335130.147   112116874.49409  21335128.390    87363805.59448
  22503336.614   118255870.31608  22503335.801    92147439.28346
  21573341.239   113368680.16809  21573339.110    88339226.76748
  23554570.365   123780129.27708  23554568.445    96452047.41745
  22435702.153   117900440.54408  22435703.496    91870496.64147
  24503254.106   128765450.20207  24503254.078   100336705.65145
  23159887.788   121706012.02408  23159887.115    94835841.43947
 15 02 21 00 39  0.0000000  0  7G16G18G21G22G27G29G31
  21323316.883   112054795.21409  21323315.242    87315432.13448
  22493551.973   118204451.96308  22493551.278    92107373.04746
  21582501.440   113416817.35009  21582499.425    88376736.25548
  23537336.742   123689566.10407  23537334.044    96381478.73646
  22424648.777   117842354.78508  22424650.278    91825235.03147
  24517497.872   128840303.85708  24517499.578   100395032.93245
  23177893.369   121800632.49208  23177893.045    94909571.58946
 15 02 21 00 39 30.0000000  0  7G16G18G21G22G27G29G31
  21311561.307   111993019.55609  21311559.710    87267295.25948
  22483832.165   118153373.37108  22483831.111    92067571.55546
  21591718.141   113465251.03209  21591715.886    88414476.78148
  23520114.524   123599064.29607  23520111.953    96310957.93245
  22413618.183   117784388.56108  22413619.561    91780066.55947
  24531742.269   128915160.76106  24531744.254   100453362.93746
  23195925.070   121895389.65908  23195924.766    94983408.28446
 15 02 21 00 40  0.0000000  0  7G16G18G21G22G27G29G31
  21299862.096   111931539.35209  21299860.325    87219388.60948
  22474175.330   118102626.48508  22474174.295    92028028.53947
  21600988.838   113513969.43809  21600986.827    88452439.17348
  23502903.019   123508616.63807  23502900.423    96240479.28345
  22402608.382   117726531.57508  22402609.802    91734983.21847
  24545986.523   128990010.60207  24545987.680   100511687.54445
  23213980.480   121990270.10208  23213979.952    95057341.03446
 15 02 21 00 40 30.0000000  0  7G16G18G21G22G27G29G31
  21288221.069   111870365.49709  21288219.282    87171720.67048
  22464583.649   118052221.61408  22464582.784    91988752.03046
  21610314.934   113562978.90509  21610313.010    88490628.36148
  23485703.908   123418234.50708  23485701.090    96170051.70346
  22391621.153   117668792.38908  22391622.305    91689991.66147
  24560230.924   129064862.49704  24560232.811   100570013.56645
  23232060.309   122085279.24608  23232059.623    95131374.07546
 15 02 21 00 41  0.0000000  0  6G16G18G21G22G27G31
  21276633.708   111809473.91209  21276631.984    87124272.68548
  22455052.648   118002135.92608  22455051.689    91949724.22846
  21619691.485   113612252.00809  21619689.309    88529022.98848
  23468512.517   123327894.54607  23468509.686    96099656.99745
  22380651.083   117611144.97108  22380652.387    91645071.61647
  23250158.966   122180388.33108  23250158.271    95205484.98546
 15 02 21 00 41 30.0000000  0  6G16G18G21G22G27G31
  21265111.347   111748923.55909  21265109.651    87077090.59448
  22445593.446   117952427.29908  22445592.466    91910990.25846
  21629128.154   113661842.50709  21629126.134    88567664.93048
  23451340.276   123237655.62408  23451337.634    96029341.00246
  22369709.443   117553645.63608  22369710.514    91600266.94547
  23268286.638   122275650.63808  23268286.346    95279715.26646
 15 02 21 00 42  0.0000000  0  6G16G18G21G22G27G31
  21253649.741   111688692.34909  21253648.148    87030157.18848
  22436201.802   117903074.06008  22436200.881    91872533.19546
  21638620.593   113711725.20709  21638618.649    88606534.56648
  23434183.695   123147496.55608  23434180.435    95959087.20045
  22358791.315   117496270.26908  22358792.381    91555558.89047
  23286438.580   122371039.54808  23286438.153    95354044.22146
 15 02 21 00 42 30.0000000  0  6G16G18G21G22G27G31
  21242246.921   111628770.50409  21242245.286    86983464.84348
  22426876.061   117854067.08608  22426874.929    91834345.95146
  21648166.049   113761887.19709  21648164.104    88645621.82648
  23417040.184   123057408.61107  23417037.183    95888888.85746
  22347894.468   117439007.57908  22347895.695    91510938.62848
  23304612.033   122466540.43908  23304611.406    95428460.43846
 15 02 21 00 43  0.0000000  0  6G16G18G21G22G27G31
  21230904.801   111569167.91709  21230903.390    86937021.26948
  22417617.896   117805415.16508  22417616.833    91796435.37746
  21657765.561   113812333.22709  21657763.679    88684930.41848
  23399911.945   122967401.67207  23399909.734    95818753.66046
  22337020.517   117381864.61208  22337021.726    91466411.66748
  23322807.462   122562157.43807  23322806.976    95502967.12846
 15 02 21 00 43 30.0000000  0  6G16G18G21G22G27G31
  21219621.517   111509873.64009  21219619.898    86890817.94148
  22408425.264   117757107.68408  22408424.288    91758793.19146
  21667416.286   113863048.25409  21667414.274    88724448.61948
  23382797.825   122877465.39608  23382795.285    95748673.47846
  22326166.918   117324828.28208  22326167.972    91421967.79748
  23341021.440   122657874.69707  23341021.186    95577551.90046
 15 02 21 00 44  0.0000000  0  6G16G18G21G22G27G31
  21208401.105   111450909.94409  21208399.670    86844872.20348
  22399302.397   117709166.91108  22399301.344    91721436.76147
  21677121.906   113914051.03709  21677119.872    88764191.04648
  23365701.564   122787622.80908  23365698.527    95678666.26846
  22315337.267   117267918.67808  22315338.463    91377622.67147
  23359258.335   122753709.41108  23359258.066    95652228.21846
 15 02 21 00 44 30.0000000  0  7G16G18G19G21G22G27G31
  21197243.606   111392276.82709  21197242.167    86799184.06348
  22390249.525   117661593.12108  22390248.479    91684366.28947
  24470695.244   128594380.20016  24470693.955   100203405.48154
  21686881.439   113965337.78909  21686879.248    88804154.74648
  23348622.697   122697874.57107  23348619.999    95608732.64545
  22304531.329   117211133.92908  22304532.636    91333374.83448
  23377516.769   122849656.69408  23377516.079    95726992.29446
 15 02 21 00 45  0.0000000  0  7G16G18G19G21G22G27G31
  21186147.239   111333964.33709  21186145.472    86753745.76448
  22381264.285   117614375.93308  22381263.165    91647573.68347
  24455918.426   128516729.77406  24455917.947   100142898.70245
  21696692.478   114016894.27109  21696690.227    88844328.62748
  23331560.539   122608211.01308  23331557.886    95538864.98946
  22293746.941   117154461.61908  22293748.236    91289214.61548
  23395793.776   122945701.17107  23395792.865    95801832.08346
 15 02 21 00 45 30.0000000  0  7G16G18G19G21G22G27G31
  21175112.516   111275976.73009  21175110.782    86708560.61448
  22372347.904   117567519.40708  22372346.882    91611062.12047
  24441157.697   128439161.68306  24441156.956   100082456.06545
  21706554.627   114068720.37009  21706552.482    88884712.59948
  23314515.454   122518636.92508  23314513.098    95469067.05346
  22282984.316   117097903.98908  22282985.598    91245143.75348
  23414088.554   123041842.25407  23414088.161    95876747.10446
 15 02 21 00 46  0.0000000  0  7G16G18G19G21G22G27G31
  21164140.179   111218316.61509  21164138.436    86663630.66148
  22363500.629   117521026.10208  22363499.388    91574833.57947
  24426412.871   128361676.53606  24426411.706   100022078.04344
  21716467.831   114120815.26709  21716466.016    88925306.01948
  23297487.578   122429155.89507  23297484.994    95399341.62646
  22272243.751   117041461.49908  22272245.007    91201162.61048
  23432401.457   123138077.58008  23432401.277    95951735.56546
 15 02 21 00 46 30.0000000  0  7G16G18G19G21G22G27G31
  21153231.630   111160991.61309  21153229.806    86618961.83248
  22354723.672   117474903.84808  22354722.549    91538894.17047
  24411684.651   128284279.47206  24411683.523    99961768.69044
  21726432.751   114173182.17909  21726431.030    88966111.40048
  23280478.902   122339775.85807  23280475.893    95329694.86146
  22261526.040   116985139.64108  22261527.394    91157275.46448
  23450733.110   123234409.66608  23450732.628    96026799.47946
 15 02 21 00 47  0.0000000  0  7G16G18G19G21G22G27G31
  21142386.419   111103999.74209  21142384.628    86574552.58048
  22346017.135   117429150.06408  22346015.790    91503241.88547
  24396972.479   128206966.48606  24396971.521    99901524.87644
  21736448.450   114225815.59709  21736446.804    89007124.44648
  23263489.571   122250495.44208  23263486.733    95260125.74646
  22250830.576   116928934.16508  22250831.989    91113479.00948
  23469081.501   123330831.14007  23469081.173    96101933.01346
 15 02 21 00 47 30.0000000  0  7G16G18G19G21G22G27G31
  21131605.156   111047343.76009  21131603.461    86530405.06648
  22337380.932   117383767.60308  22337379.837    91467878.94747
  24382276.336   128129737.95306  24382275.456    99841346.88345
  21746514.692   114278713.95909  21746512.958    89048343.94248
  23246519.876   122161318.00007  23246517.257    95190636.88846
  22240157.245   116872845.74408  22240158.475    91069773.75348
  23487446.390   123427339.87907  23487446.228    96177134.53346
 15 02 21 00 48  0.0000000  0  7G16G18G19G21G22G27G31
  21120888.593   110991027.37009  21120886.809    86486522.16748
  22328816.373   117338760.16908  22328815.378    91432808.23047
  24367596.723   128052595.81406  24367595.788    99781236.19045
  21756631.450   114331876.88409  21756629.617    89089769.59548
  23229570.025   122072247.96508  23229567.816    95121231.73346
  22229506.756   116816876.17108  22229507.931    91026161.11848
  23505827.803   123523934.69907  23505827.753    96252403.11846
 15 02 21 00 48 30.0000000  0  7G16G18G19G21G22G27G31
  21110236.869   110935052.31109  21110235.096    86442905.24448
  22320323.407   117294129.39508  22320322.403    91398031.01047
  24352933.425   127975539.53606  24352932.212    99721192.36245
  21766798.016   114385301.92509  21766796.095    89131399.49948
  23212641.398   121983287.55308  23212638.794    95051911.96646
  22218878.507   116761024.87408  22218879.663    90982640.63648
  23524225.242   123620612.14007  23524224.834    96327736.11946
 15 02 21 00 49  0.0000000  0  7G16G18G19G21G22G27G31
  21099650.632   110879421.19409  21099648.854    86399556.32248
  22311902.523   117249877.56608  22311901.424    91363549.07147
  24338286.344   127898569.35606  24338285.089    99661215.65445
  21777014.322   114438988.63209  21777012.397    89173233.29748
  23195734.088   121894440.16308  23195731.722    94982680.27046
  22208273.127   116705292.44508  22208274.060    90939212.77748
  23542637.261   123717369.77007  23542637.244    96403131.58046
 15 02 21 00 49 30.0000000  0  7G16G18G19G21G22G27G31
  21089129.297   110824131.42509  21089127.585    86356473.39148
  22303553.371   117206002.10508  22303552.174    91329360.41547
  24323654.825   127821680.73906  24323653.605    99601302.48645
  21787278.843   114492929.89809  21787277.016    89215265.44948
  23178848.229   121805703.84308  23178846.169    94913535.12846
  22197689.338   116649674.19808  22197690.248    90895873.90048
  23561063.466   123814200.10007  23561063.501    96478583.67646
 15 02 21 00 50  0.0000000  0  7G16G18G19G21G22G27G31
  21078674.119   110769189.28109  21078672.505    86313661.33848
  22295276.780   117162508.91608  22295275.738    91295469.63647
  24309039.865   127744877.76106  24309038.472    99541456.05245
  21797592.443   114547128.07309  21797590.501    89257497.78848
  23161984.390   121717085.17908  23161982.377    94844481.68846
  22187127.939   116594174.17108  22187129.060    90852627.13148
  23579503.739   123911103.94707  23579503.684    96554093.11246
 15 02 21 00 50 30.0000000  0  7G16G18G19G21G22G27G31
  21068286.171   110714600.81109  21068284.543    86271124.86948
  22287074.170   117119403.88009  22287073.156    91261881.31047
  24294441.501   127668163.93206  24294440.187    99481679.07745
  21807955.218   114601585.07609  21807953.353    89299931.80848
  23145144.306   121628590.81408  23145142.570    94775525.08646
  22176589.790   116538796.26108  22176590.850    90809475.51548
  23597958.262   124008082.59207  23597958.131    96629660.80046
 15 02 21 00 51  0.0000000  0  7G16G18G19G21G22G27G31
  21057965.212   110660363.11709  21057963.462    86228861.73448
  22278945.063   117076684.01108  22278943.708    91228593.10847
  24279859.355   127591534.42406  24279857.715    99421967.79545
  21818365.847   114656293.89109  21818364.298    89342562.04448
  23128327.779   121540218.55608  23128325.404    94706663.60546
  22166073.912   116483535.44808  22166075.097    90766415.14148
  23616425.355   124105128.10107  23616425.809    96705280.54246
 15 02 21 00 51 30.0000000  0  7G16G18G19G21G22G27G31
  21047710.645   110606475.94009  21047709.043    86186871.72948
  22270888.742   117034348.85109  22270887.438    91195604.68947
  24265292.733   127514987.31106  24265291.416    99362320.76545
  21828823.905   114711250.88909  21828822.144    89385385.67648
  23111534.483   121451969.00208  23111532.023    94637897.76846
  22155579.854   116428389.73908  22155581.137    90723444.47448
  23634904.229   124202235.48707  23634904.844    96780948.51045
 15 02 21 00 52  0.0000000  0  7G16G18G19G21G22G27G31
  21037524.777   110552948.43509  21037523.015    86145161.98948
  22262907.661   116992407.08009  22262906.127    91162922.80247
  24250743.385   127438529.18806  24250742.044    99302743.08145
  21839330.352   114766461.10809  21839328.330    89428406.62748
  23094766.304   121363851.93908  23094763.742    94569235.14446
  22145109.365   116373366.10708  22145110.346    90680568.92748
  23653395.844   124299408.39107  23653395.974    96856667.59346
 15 02 21 00 52 30.0000000  0  7G16G18G19G21G22G27G31
  21027406.465   110499776.50209  21027404.886    86103729.31748
  22255000.387   116950854.57409  22254999.110    91130544.23247
  24236209.467   127362153.99806  24236208.332    99243230.02245
  21849883.152   114821916.10209  21849881.147    89471618.30448
  23078022.817   121275863.76008  23078020.286    94500672.99446
  22134660.726   116318458.41708  22134661.830    90637783.72248
  23671898.227   124396638.13507  23671898.182    96932430.91945
 15 02 21 00 53  0.0000000  0  7G16G18G19G21G22G27G31
  21017356.873   110446965.85309  21017355.354    86062578.16548
  22247168.235   116909696.52509  22247167.173    91098473.04247
  24221692.353   127285865.20706  24221690.936    99183784.24646
  21860482.617   114877617.51009  21860480.566    89515021.99548
  23061305.159   121188010.53008  23061302.220    94432215.96446
  22124234.674   116263669.98908  22124235.958    90595091.45448
  23690411.486   124493925.15707  23690411.495    97008238.87246
 15 02 21 00 53 30.0000000  0  7G16G18G19G21G22G27G31
  21007376.561   110394518.08709  21007374.686    86021709.77948
  22239411.426   116868934.68809  22239410.334    91066710.58447
  24207191.367   127209662.53806  24207190.067    99124405.61245
  21871128.684   114933563.37909  21871126.862    89558616.17448
  23044613.818   121100295.00408  23044610.100    94363866.20846
  22113831.546   116209000.71408  22113832.853    90552492.04048
  23708934.892   124591266.15607  23708935.010    97084088.87946
 15 02 21 00 54  0.0000000  0  7G16G18G19G21G22G27G31
  20997465.698   110342436.39909  20997463.870    85981126.64649
  22231730.622   116828571.63209  22231729.426    91035258.86147
  24192706.890   127133546.66306  24192705.389    99065094.61845
  21881820.986   114989752.58609  21881819.082    89602399.96448
  23027948.695   121012720.40908  23027945.360    94295626.32246
  22103451.264   116154451.52708  22103452.458    90509986.18448
  23727468.204   124688658.99207  23727468.574    97159979.25845
 15 02 21 00 54 30.0000000  0  7G16G18G19G21G22G27G31
  20987624.078   110290718.64809  20987622.455    85940827.10149
  22224125.347   116788605.20509  22224124.287    91004116.21547
  24178238.492   127057513.59106  24178236.795    99005848.11446
  21892558.647   115046179.53009  21892557.001    89646369.00948
  23011310.323   120925285.76808  23011307.000    94227495.45946
  22093092.982   116100018.41708  22093094.056    90467570.79048
  23746010.414   124786096.92907  23746009.962    97235904.86045
 15 02 21 00 55  0.0000000  0  7G16G18G19G21G22G27G31
  20977852.348   110239367.98909  20977850.636    85900813.60649
  22216596.057   116749038.14809  22216594.652    90973284.74147
  24163785.981   126981564.26006  24163783.824    98946666.86545
  21903341.569   115102843.41809  21903339.611    89690522.68548
  22994699.741   120837995.04008  22994696.348    94159476.74147
  22082757.044   116045702.51008  22082758.122    90425246.71348
  23764560.530   124883578.44907  23764560.381    97311864.35145
 15 02 21 00 55 30.0000000  0  7G16G18G19G21G22G27G31
  20968151.545   110188389.42409  20968149.845    85861090.05149
  22209143.579   116709875.26509  22209142.297    90942768.22147
  24149349.779   126905701.60006  24149347.943    98887553.12544
  21914169.780   115159745.54909  21914167.925    89734862.00748
  22978116.971   120750853.71608  22978113.908    94091574.45046
  22072443.892   115991506.87308  22072445.151    90383016.35248
  23783118.923   124981103.30407  23783118.944    97387857.56446
 15 02 21 00 56  0.0000000  0  7G16G18G19G21G22G27G31
  20958521.924   110137785.82809  20958520.149    85821658.68049
  22201768.529   116671119.24009  22201767.113    90912568.72947
  24134930.094   126829926.48806  24134928.233    98828507.66645
  21925043.098   115216884.37909  21925040.930    89779385.76948
  22961563.258   120663865.33308  22961560.271    94023791.32646
  22062153.987   115937432.27508  22062155.137    90340880.30848
  23801685.460   125078669.11607  23801685.189    97463882.76545
 15 02 21 00 56 30.0000000  0  7G16G18G19G21G22G27G31
  20948963.817   110087557.73009  20948962.007    85782519.90349
  22194470.717   116632769.97909  22194469.600    90882686.19747
  24120526.829   126754237.10306  24120524.990    98769529.01346
  21935960.577   115274256.21409  21935958.609    89824091.09148
  22945039.020   120577030.88008  22945036.297    93956128.13146
  22051886.684   115883477.11108  22051887.792    90298837.33948
  23820258.657   125176271.67707  23820258.460    97539936.54846
 15 02 21 00 57  0.0000000  0  7G16G18G19G21G22G27G31
  20939477.665   110037707.44509  20939475.920    85743675.52749
  22187250.940   116594829.57709  22187249.800    90853122.25847
  24106139.839   126678633.71006  24106138.121    98710617.31445
  21946921.867   115331859.67909  21946919.930    89868976.89748
  22928544.863   120490353.21708  22928542.490    93888587.12247
  22041641.971   115829641.87508  22041643.168    90256887.81648
  23838838.537   125273908.51007  23838838.326    97616017.08745
 15 02 21 00 57 30.0000000  0  7G16G18G19G21G22G27G31
  20930063.261   109988234.67009  20930061.625    85705125.31449
  22180108.829   116557297.65609  22180107.586    90823876.61947
  24091769.111   126603114.30607  24091767.409    98651771.05945
  21957926.585   115389690.58209  21957924.783    89914039.93048
  22912080.313   120403833.20308  22912078.624    93821169.00247
  22031419.988   115775924.39808  22031421.279    90215030.04848
  23857423.748   125371574.42407  23857423.599    97692120.23945
 15 02 21 00 58  0.0000000  0  7G16G18G19G21G22G27G31
  20920721.347   109939142.11209  20920719.646    85666871.37849
  22173044.876   116520176.20509  22173043.627    90794950.82547
  24077414.348   126527679.11106  24077412.232    98592990.44545
  21968974.484   115447747.40109  21968972.863    89959279.00448
  22895646.735   120317474.04508  22895644.736    93753876.16546
  22021220.496   115722325.11008  22021221.538    90173264.37548
  23876014.069   125469266.81407  23876013.958    97768244.02546
 15 02 21 00 58 30.0000000  0  7G16G18G19G21G22G27G31
  20911452.761   109890435.98809  20911451.172    85628918.55549
  22166060.076   116483471.33409  22166058.971    90766349.64047
  24063076.275   126452332.46606  24063074.193    98534278.82346
  21980066.107   115506033.21409  21980064.168    90004696.51548
  22879244.889   120231282.32508  22879242.670    93686713.82047
  22011044.123   115668848.41308  22011045.233    90131594.23348
  23894610.033   125566987.32707  23894609.725    97844389.70745
 15 02 21 00 59  0.0000000  0  7G16G18G19G21G22G27G31
  20902257.410   109842113.96709  20902255.890    85591265.03749
  22159154.102   116447180.26209  22159152.829    90738070.89047
  24048754.046   126377069.64307  24048752.113    98475632.54745
  21991199.980   115564541.60809  21991197.953    90050287.46848
  22862874.871   120145256.64008  22862872.663    93619680.85047
  22000890.440   115615490.04008  22000891.374    90090016.28548
  23913209.520   125664728.72406  23913209.584    97920551.64645
 15 02 21 00 59 30.0000000  0  7G16G18G19G21G22G27G31
  20893135.485   109794177.36509  20893133.637    85553911.84349
  22152326.951   116411303.58909  22152325.866    90710115.05747
  24034448.017   126301890.20107  24034445.889    98417051.20345
  22002375.759   115623270.09909  22002373.527    90096049.92348
  22846536.905   120059399.42608  22846534.815    93552779.15346
  21990758.990   115562249.41308  21990760.068    90048530.09248
  23931812.495   125762487.42407  23931812.415    97996727.09645
 15 02 21 01 00  0.0000000  0  7G16G18G19G21G22G27G31
  20884088.363   109746634.73209  20884086.628    85516865.63449
  22145580.590   116375850.09609  22145579.041    90682488.96847
  24020158.867   126226800.80907  24020157.014    98358540.02245
  22013594.045   115682223.06109  22013592.092    90141987.28848
  22830232.486   119973719.53208  22830230.351    93486015.63247
  21980651.258   115509133.17108  21980652.179    90007140.82148
  23950419.486   125860266.88807  23950419.336    98072918.70245
 15 02 21 01 00 30.0000000  0  7G16G18G19G21G22G27G31
  20875115.783   109699483.91109  20875114.095    85480124.73749
  22138913.912   116340816.84209  22138912.620    90655190.33847
  24005885.827   126151796.85106  24005884.225    98300095.43445
  22024853.796   115741394.13809  22024851.948    90188094.61148
  22813961.690   119888215.42408  22813959.806    93419389.09547
  21970566.458   115456137.09608  21970567.457    89965845.19248
  23969029.407   125958060.11807  23969029.296    98149121.03546
 15 02 21 01 01  0.0000000  0  7G16G18G19G21G22G27G31
  20866218.023   109652725.86609  20866216.289    85443689.89749
  22132327.431   116306204.21609  22132326.051    90628219.46947
  23991629.200   126076877.67406  23991627.342    98241716.91345
  22036154.526   115800780.81409  22036152.749    90234369.93748
  22797724.425   119802888.67708  22797722.222    93352900.74747
  21960504.285   115403260.30108  21960505.256    89924642.50748
  23987640.813   126055863.12506  23987640.700    98225330.96645
 15 02 21 01 01 30.0000000  0  7G16G18G19G21G22G27G31
  20857394.847   109606359.89009  20857393.205    85407560.56449
  22125820.719   116272011.58709  22125819.351    90601575.87347
  23977387.938   126002039.87107  23977386.207    98183401.78344
  22047495.721   115860378.44709  22047493.831    90280809.64848
  22781521.030   119717739.82208  22781518.956    93286551.01846
  21950464.317   115350500.38208  21950465.297    89883530.89748
  24006252.416   126153670.69606  24006253.085    98301544.38345
 15 02 21 01 02  0.0000000  0  7G16G18G19G21G22G27G31
  20848648.752   109560398.72809  20848647.049    85371746.67349
  22119396.173   116238250.36809  22119394.946    90575268.44447
  23963164.364   125927294.82807  23963162.717    98125158.93846
  22058878.802   115920196.34709  22058876.676    90327420.99448
  22765354.518   119632782.00908  22765351.819    93220350.13847
  21940448.552   115297867.96108  21940449.784    89842518.63948
  24024867.290   126251490.39007  24024867.623    98377767.33645
 15 02 21 01 02 30.0000000  0  7G16G18G19G21G22G27G31
  20839978.020   109514833.12709  20839976.349    85336241.01049
  22113051.941   116204911.99009  22113050.867    90549290.50147
  23948956.429   125852631.06306  23948954.619    98066979.43045
  22070301.214   115980221.21209  22070299.133    90374193.61148
  22749221.907   119548006.69008  22749219.493    93154291.49247
  21930455.308   115245352.10908  21930456.476    89801597.21148
  24043481.817   126349308.45807  24043481.962    98453989.00545
 15 02 21 01 03  0.0000000  0  7G16G18G19G21G22G27G31
  20831384.551   109469674.26909  20831382.827    85301052.28949
  22106790.560   116172007.02109  22106789.324    90523650.27847
  23934765.378   125778057.61807  23934763.860    98008870.30246
  22081764.212   116040460.55109  22081762.412    90421133.35448
  22733126.637   119463425.88108  22733124.365    93088384.41247
  21920485.851   115192962.04008  21920486.812    89760773.79348
  24062097.157   126447131.22707  24062097.355    98530214.30445
 15 02 21 01 03 30.0000000  0  7G16G18G19G21G22G27G31
  20822867.022   109424914.32109  20822865.224    85266174.41049
  22100609.767   116139526.73209  22100608.342    90498340.97447
  23920589.864   125703564.85107  23920588.275    97950824.02545
  22093265.837   116100902.21509  22093264.046    90468230.74748
  22717067.316   119379032.26708  22717064.515    93022623.16847
  21910538.418   115140688.02308  21910539.377    89720040.80448
  24080710.785   126544946.09707  24080711.245    98606433.41345
 15 02 21 01 04  0.0000000  0  7G16G18G19G21G22G27G31
  20814427.305   109380563.30709  20814425.575    85231615.17749
  22094511.668   116107480.79009  22094510.275    90473370.12847
  23906431.283   125629161.07106  23906429.511    97892847.12945
  22104807.165   116161552.58509  22104805.487    90515490.76948
  22701045.531   119294837.25008  22701042.592    92957016.69847
  21900614.575   115088538.56108  21900615.654    89679404.87848
  24099323.909   126642758.47507  24099324.592    98682650.58445
 15 02 21 01 04 30.0000000  0  7G16G18G19G21G22G27G31
  20806065.229   109336620.77209  20806063.582    85197374.24249
  22088496.012   116075868.11709  22088494.449    90448736.88947
  23892289.026   125554843.13007  23892287.159    97834937.06245
  22116387.587   116222407.73509  22116385.988    90562910.35948
  22685061.422   119210840.37808  22685058.519    92891564.62247
  21890713.970   115036510.90608  21890715.117    89638863.86748
  24117935.538   126740562.52307  24117936.449    98758861.24845
 15 02 21 01 05  0.0000000  0  7G16G18G19G21G22G27G31
  20797780.799   109293085.48709  20797779.024    85163450.64349
  22082562.313   116044687.50509  22082561.087    90424440.32547
  23878162.614   125480608.27107  23878160.674    97777091.74946
  22128006.076   116283462.30709  22128004.317    90610485.34848
  22669115.139   119127041.62608  22669112.086    92826266.92447
  21880836.218   114984602.47008  21880837.225    89598415.73748
  24136544.691   126838352.71907  24136545.554    98835061.13845
 15 02 21 01 05 30.0000000  0  7G16G18G19G21G22G27G31
  20789575.539   109249966.27309  20789573.826    85129851.25949
  22076712.554   116013947.03209  22076711.137    90400486.72447
  23864053.237   125406463.09206  23864051.322    97719316.34245
  22139663.310   116344721.36409  22139661.428    90658219.67748
  22653208.334   119043450.11808  22653205.226    92761130.71147
  21870982.220   114932819.92408  21870983.359    89558065.71048
  24155152.031   126936132.51507  24155152.272    98911252.91444
 15 02 21 01 06  0.0000000  0  7G16G18G19G21G22G27G31
  20781449.271   109207262.22409  20781447.500    85096575.37649
  22070946.010   115983644.73409  22070944.836    90376874.56147
  23849960.243   125332404.75306  23849958.385    97661608.59145
  22151358.478   116406180.25909  22151356.628    90706109.72148
  22637340.721   118960065.90308  22637338.012    92696156.02847
  21861151.856   114881160.51408  21861152.904    89517811.63848
  24173756.181   127033896.73106  24173756.326    98987432.59245
 15 02 21 01 06 30.0000000  0  7G16G18G19G21G22G27G31
  20773401.377   109164970.22409  20773399.577    85063620.57149
  22065262.490   115953777.66209  22065261.247    90353601.52647
  23835883.024   125258428.43306  23835880.972    97603964.75046
  22163090.343   116467832.31509  22163088.758    90754150.27148
  22621512.411   118876887.04008  22621509.247    92631341.35347
  21851343.939   114829619.68808  21851344.906    89477649.96648
  24192355.582   127131637.83906  24192356.653    99063594.16745
 15 02 21 01 07  0.0000000  0  7G16G18G19G21G22G27G31
  20765433.589   109123099.68809  20765431.986    85030994.18149
  22059663.526   115924354.40809  22059662.183    90330674.32847
  23821822.742   125184541.56206  23821820.881    97546390.62145
  22174860.051   116529682.89009  22174858.445    90802345.51648
  22605725.044   118793923.43108  22605721.896    92566694.41347
  21841560.194   114778205.10308  21841561.158    89437586.65348
  24210951.802   127229360.48007  24210953.052    99139741.31246
 15 02 21 01 07 30.0000000  0  7G16G18G19G21G22G27G31
  20757545.365   109081646.16409  20757543.506    84998692.73749
  22054148.194   115895370.73809  22054146.731    90308089.66347
  23807778.151   125110737.95406  23807776.511    97488881.36645
  22186666.395   116591724.24109  22186664.560    90850689.42648
  22589977.846   118711171.53208  22589974.994    92502212.45147
  21831799.085   114726910.56508  21831800.012    89397616.89248
  24229542.866   127327054.99307  24229544.057    99215866.58546
 15 02 21 01 08  0.0000000  0  7G16G18G19G21G22G27G31
  20749737.448   109040615.12909  20749735.612    84966720.49749
  22048717.308   115866830.39509  22048715.789    90285850.45447
  23793750.300   125037020.63306  23793748.389    97431439.33545
  22198509.053   116653957.95409  22198507.348    90899183.22648
  22574272.032   118628637.33108  22574269.343    92437900.12347
  21822061.587   114675739.38809  21822062.599    89357743.25248
  24248128.999   127424722.28007  24248129.762    99291970.65945
 15 02 21 01 08 30.0000000  0  7G16G18G19G21G22G27G31
  20742010.204   109000008.49709  20742008.328    84935078.96649
  22043371.004   115838735.53409  22043369.609    90263958.36747
  23779738.759   124963389.92606  23779736.898    97374064.80645
  22210388.166   116716382.30009  22210386.268    90947825.57148
  22558608.126   118546323.66508  22558605.258    92373759.62747
  21812347.635   114624692.28508  21812348.616    89317966.30248
  24266709.113   127522360.09605  24266709.126    99368051.76844
 15 02 21 01 09  0.0000000  0  7G16G18G19G21G22G27G31
  20734364.204   108959828.59309  20734362.347    84903769.95449
  22038109.669   115811087.81409  22038108.434    90242414.70247
  23765743.999   124889846.52606  23765742.129    97316758.28945
  22222302.944   116778995.28909  22222300.999    90996614.90448
  22542986.915   118464233.55608  22542983.973    92309793.32647
  21802657.261   114573769.74508  21802658.282    89278286.41148
  24285282.574   127619965.82206  24285283.241    99444107.78944
 15 02 21 01 09 30.0000000  0  7G16G18G19G21G22G27G31
  20726799.226   108920074.96009  20726797.688    84872793.09749
  22032933.243   115783885.66709  22032932.186    90221218.24147
  23751765.246   124816387.68606  23751763.171    97259517.66746
  22234252.921   116841793.52909  22234251.113    91045548.59148
  22527408.286   118382367.71608  22527405.285    92246001.79447
  21792990.324   114522969.52609  21792991.142    89238701.83748
  24303849.756   127717534.05407  24303850.655    99520134.65345
 15 02 21 01 10  0.0000000  0  7G16G18G19G21G22G27G31
  20719316.664   108880753.51809  20719315.090    84842153.01349
  22027842.749   115757135.06609  22027841.452    90200373.62747
  23737803.441   124743017.40407  23737801.612    97202346.07246
  22246238.736   116904779.13308  22246236.911    91094628.27448
  22511873.588   118300732.76008  22511870.837    92182390.17347
  21783347.365   114472295.93308  21783348.227    89199215.93248
  24322409.897   127815066.50107  24322411.128    99596133.56446
 15 02 21 01 10 30.0000000  0  7G16G18G19G21G22G27G31
  20711916.321   108841864.57609  20711914.526    84811849.94249
  22022837.955   115730835.38509  22022836.716    90179880.38547
  23723858.066   124669734.37207  23723856.187    97145242.45146
  22258259.470   116967948.10909  22258257.413    91143850.84848
  22496382.988   118219329.82908  22496380.215    92118959.35247
  21773728.334   114421747.64809  21773729.319    89159827.67448
  24340962.474   127912558.73506  24340963.892    99672101.18545
 15 02 21 01 11  0.0000000  0  7G16G18G19G21G22G27G31
  20704597.984   108803406.36409  20704596.247    84781882.50049
  22017918.723   115704984.61609  22017917.236    90159736.93747
  23709928.389   124596534.92506  23709926.479    97088203.97046
  22270314.073   117031295.41509  22270312.103    91193212.38248
  22480936.430   118138157.80408  22480933.316    92055708.44547
  21764132.574   114371321.21309  21764133.597    89120534.36048
  24359505.519   128010004.52905  24359507.542    99748032.48844
 15 02 21 01 11 30.0000000  0  7G16G18G19G21G22G27G31
  20697363.030   108765386.67309  20697361.280    84752256.76849
  22013086.255   115679589.79409  22013084.727    90139948.77647
  23696015.892   124523424.91507  23696014.297    97031235.16046
  22282403.484   117094825.63309  22282401.508    91242716.44048
  22465535.675   118057225.41608  22465532.331    91992644.26647
  21754561.015   114321022.80208  21754562.068    89081340.79948
  24378040.572   128107406.76606  24378042.632    99823929.89644
 15 02 21 01 12  0.0000000  0  7G16G18G19G21G22G27G31
  20690210.795   108727801.70709  20690209.099    84722969.78249
  22008339.894   115654646.65509  22008338.208    90120512.57447
  23682119.518   124450398.82107  23682117.724    96974331.73646
  22294526.247   117158531.59108  22294524.354    91292357.43948
  22450179.613   117976529.79908  22450176.218    91929764.58147
  21745013.007   114270847.20909  21745013.920    89042242.94648
  24396566.406   128204757.62007  24396567.369    99899787.50544
 15 02 21 01 12 30.0000000  0  7G16G18G19G21G22G27G31
  20683142.316   108690656.47409  20683140.718    84694025.44349
  22003680.239   115630159.06409  22003678.438    90101431.34647
  23668239.773   124377459.64307  23668237.966    96917496.04045
  22306682.450   117222413.27108  22306680.647    91342135.36348
  22434869.732   117896076.04908  22434866.562    91867073.38047
  21735488.833   114220797.33709  21735489.993    89003243.05648
  24415082.344   128302056.71707  24415083.382    99975604.70245
 15 02 21 01 13  0.0000000  0  7G16G18G19G21G22G27G31
  20676158.344   108653955.79609  20676156.803    84665427.51249
  21999107.819   115606131.36609  21999106.137    90082708.47547
  23654377.119   124304610.18507  23654375.098    96860730.25646
  22318872.620   117286473.05009  22318870.936    91392052.06048
  22419607.112   117815870.56308  22419603.925    91804575.62347
  21725989.197   114170876.78809  21725990.234    88964343.94348
  24433588.249   128399304.87506  24433589.896   100051382.21945
 15 02 21 01 13 30.0000000  0  7G16G18G19G21G22G27G31
  20669258.116   108617694.94809  20669256.616    84637172.30549
  21994621.981   115582558.81309  21994620.579    90064340.26947
  23640530.176   124231844.44807  23640528.208    96804029.71246
  22331095.074   117350702.16709  22331093.193    91442100.72048
  22404391.053   117735909.57408  22404387.915    91742268.38647
  21716513.193   114121079.27209  21716514.183    88925540.69448
  24452082.514   128496493.42506  24452084.806   100127113.34846
 15 02 21 01 14  0.0000000  0  7G16G18G19G21G22G27G31
  20662442.173   108581876.14109  20662440.462    84609261.54649
  21990223.136   115559442.54209  21990221.640    90046327.60047
  23626699.490   124159163.10507  23626697.329    96747394.91846
  22343349.570   117415099.91409  22343347.607    91492280.77848
  22389222.099   117656196.33808  22389218.951    91680154.20247
  21707060.558   114071405.43109  21707061.567    88886833.81348
  24470564.783   128593619.74506  24470567.762   100202796.08845
 15 02 21 01 14 30.0000000  0  7G16G18G19G21G22G27G31
  20655712.236   108546510.14709  20655710.521    84581703.62549
  21985912.821   115536792.77709  21985911.674    90028678.44947
  23612886.335   124086574.95707  23612884.132    96690832.74746
  22355637.696   117479673.29809  22355635.557    91542597.69348
  22374102.518   117576742.18308  22374099.095    91618241.88947
  21697633.153   114021864.67609  21697634.271    88848230.64048
  24489036.876   128690690.06305  24489039.858   100278435.20141
 15 02 21 01 15  0.0000000  0  7G16G18G19G21G22G27G31
  20649067.414   108511591.56009  20649065.811    84554494.33649
  21981690.297   115514603.17209  21981688.968    90011387.85947
  23599089.518   124014072.22607  23599087.399    96634337.15146
  22367957.071   117544412.45808  22367955.022    91593043.78147
  22359030.879   117497541.77908  22359028.035    91556527.32247
  21688229.752   113972449.56309  21688230.907    88809725.37448
  24507496.351   128787694.00907  24507498.862   100354022.83044
 15 02 21 01 15 30.0000000  0  7G16G18G19G21G22G27G31
  20642508.429   108477123.17209  20642506.565    84527635.85049
  21977555.731   115492876.12709  21977554.459    89994457.70547
  23585309.131   123941656.58307  23585307.156    96577909.39246
  22380308.021   117609317.57508  22380306.183    91643619.18848
  22344008.783   117418599.72808  22344006.012    91495014.05547
  21678850.590   113923161.92309  21678851.722    88771319.42948
  24525942.717   128884630.37606  24525945.353   100429557.72145
 15 02 21 01 16  0.0000000  0  7G16G18G19G21G22G27G31
  20636035.213   108443106.82009  20636033.522    84501129.60049
  21973509.457   115471613.03609  21973508.323    89977889.07847
  23571545.358   123869328.50107  23571543.419    96521549.87946
  22392690.346   117674387.50608  22392688.659    91694323.01548
  22329036.458   117339919.41108  22329033.462    91433704.74947
  21669495.920   113874002.27209  21669496.945    88733013.21548
  24544375.772   128981496.76506  24544378.113   100505037.91545
 15 02 21 01 16 30.0000000  0  7G16G18G19G21G22G27G31
  20629648.367   108409543.90309  20629646.696    84474976.67949
  21969551.406   115450813.99409  21969550.414    89961682.04347
  23557798.064   123797086.63607  23557796.353    96465257.53546
  22405103.355   117739618.68408  22405101.592    91745152.49447
  22314113.971   117261501.80608  22314110.954    91372600.13347
  21660165.210   113824969.77609  21660166.284    88694806.09148
  24562794.832   129078288.89206  24562797.085   100580459.99743
 15 02 21 01 17  0.0000000  0  7G16G18G19G21G22G27G31
  20623348.483   108376437.63609  20623346.775    84449179.58549
  21965682.400   115430481.88209  21965681.086    89945838.85147
  23544067.542   123724932.84907  23544065.757    96409033.82046
  22417547.241   117805011.77508  22417545.489    91796108.14147
  22299242.510   117183351.40508  22299239.324    91311703.73447
  21650859.260   113776066.58509  21650860.136    88656699.72148
  24581199.818   129175006.74807  24581202.399   100655824.27645
 15 02 21 01 17 30.0000000  0  7G16G18G19G21G22G27G31
  20617135.403   108343787.58309  20617133.554    84423737.98449
  21961902.078   115410615.56509  21961900.669    89930358.61647
  23530353.813   123652865.15907  23530351.867    96352877.20146
  22430021.150   117870562.67108  22430019.223    91847186.74547
  22284421.931   117105468.48908  22284418.804    91251015.77547
  21641577.482   113727290.98509  21641578.421    88618692.77348
  24599589.811   129271644.87306  24599592.451   100731126.24644
 15 02 21 01 18  0.0000000  0  7G16G18G19G21G22G27G31
  20611009.850   108311597.89709  20611008.258    84398655.11049
  21958210.924   115391218.48209  21958209.636    89915244.01347
  23516656.682   123580886.18507  23516654.518    96296789.72246
  22442525.349   117936272.05908  22442523.324    91898388.85347
  22269653.365   117027858.36908  22269650.122    91190540.36647
  21632320.661   113678645.71609  21632321.542    88580787.37348
  24617964.869   129368204.11205  24617967.116   100806366.99043
 15 02 21 01 18 30.0000000  0  7G16G18G19G21G22G27G31
  20604971.814   108279867.02409  20604969.922    84373929.75849
  21954608.687   115372288.35009  21954607.247    89900493.27147
  23502975.830   123508992.75807  23502973.590    96240768.88846
  22455058.614   118002135.03008  22455056.757    91949710.63747
  22254936.370   116950520.78908  22254933.376    91130277.34347
  21623087.974   113630127.77409  21623088.918    88542981.19748
  24636323.468   129464678.01606  24636325.868   100881541.32243
 15 02 21 01 19  0.0000000  0  7G16G18G19G21G22G27G31
  20599021.892   108248600.31409  20599020.255    84349566.08649
  21951096.066   115353829.81009  21951094.837    89886110.00648
  23489311.971   123437188.10307  23489309.647    96184817.23446
  22467621.488   118068153.25108  22467619.756    92001153.39347
  22240272.478   116873461.07908  22240269.299    91070230.83947
  21613880.208   113581740.91809  21613881.285    88505277.16548
  24654665.937   129561067.27706  24654668.265   100956649.58844
 15 02 21 01 19 30.0000000  0  7G16G18G19G21G22G27G31
  20593160.719   108217799.83209  20593159.003    84325565.70649
  21947673.682   115335844.18209  21947672.264    89872095.23747
  23475664.844   123365472.83907  23475662.711    96128935.25046
  22480213.841   118134326.01408  22480212.034    92052716.57047
  22225662.052   116796683.17408  22225658.762    91010403.91347
  21604697.542   113533485.99709  21604698.514    88467675.94248
  24672991.889   129657369.71106  24672994.438   101031690.23744
 15 02 21 01 20  0.0000000  0  6G16G18G19G21G22G27
  20587385.157   108187448.64309  20587383.455    84301915.43049
  21944337.615   115318313.84509  21944336.371    89858435.25047
  23462031.526   123293828.67707  23462029.099    96073108.67146
  22492831.536   118200632.45008  22492829.574    92104383.91647
  22211102.166   116720170.61808  22211098.864    90950783.75247
  21595536.615   113485344.84209  21595537.677    88430163.37348
 15 02 21 01 20 30.0000000  0  6G16G18G19G21G22G27
  20581703.187   108157589.93709  20581701.433    84278648.90449
  21941096.452   115301281.20009  21941095.245    89845163.06747
  23448419.511   123222297.17907  23448416.979    96017369.87646
  22505482.248   118267112.66908  22505480.374    92156186.66947
  22196601.164   116643967.80608  22196597.994    90891404.95847
  21586405.326   113437359.25109  21586406.440    88392772.01948
 15 02 21 01 21  0.0000000  0  6G16G18G19G21G22G27
  20576109.275   108128193.66809  20576107.562    84255742.71949
  21937944.031   115284715.49009  21937942.729    89832254.72947
  23434822.742   123150846.55407  23434820.606    95961694.09646
  22518159.814   118333733.32508  22518157.785    92208098.86247
  22182153.585   116568045.57708  22182150.571    90832244.80147
  21577297.468   113389497.75909  21577298.635    88355477.35948
 15 02 21 01 21 30.0000000  0  6G16G18G19G21G22G27
  20570604.593   108099266.37309  20570602.842    84233201.96649
  21934881.601   115268622.46609  21934880.400    89819714.72247
  23421242.448   123079481.65707  23421240.357    95906085.12246
  22530864.623   118400497.38708  22530862.599    92260122.79447
  22167760.939   116492411.24208  22167757.886    90773308.97347
  21568214.394   113341765.79309  21568215.503    88318283.64048
 15 02 21 01 22  0.0000000  0  6G16G18G19G21G22G27
  20565189.785   108070811.33409  20565188.211    84211029.20849
  21931909.785   115253005.09709  21931908.531    89807545.35347
  23407679.154   123008205.31607  23407676.829    95850545.14846
  22543596.781   118467405.01608  22543594.795    92312258.60047
  22153423.762   116417069.52408  22153420.907    90714601.16047
  21559156.449   113294165.68409  21559157.545    88281192.65848
 15 02 21 01 22 30.0000000  0  6G16G18G19G21G22G27
  20559865.003   108042829.91509  20559863.448    84189225.50549
  21929028.550   115237864.25709  21929027.280    89795747.30247
  23394132.260   122937016.31407  23394129.903    95795073.21846
  22556355.782   118534454.67408  22556354.101    92364505.07847
  22139142.941   116342022.80208  22139139.877    90656123.19947
  21550123.649   113246697.50309  21550124.682    88244204.47248
 15 02 21 01 23  0.0000000  0  6G16G18G19G21G22G27
  20554632.334   108015331.33309  20554630.747    84167798.03449
  21926239.233   115223206.95409  21926238.198    89784326.03948
  23380603.356   122865921.85207  23380600.975    95739674.95746
  22569142.898   118601651.73408  22569141.206    92416866.41347
  22124919.953   116267280.25108  22124916.777    90597882.26347
  21541117.260   113199368.32809  21541118.181    88207324.60548
 15 02 21 01 23 30.0000000  0  6G16G18G19G21G22G27
  20549489.435   107988305.12509  20549487.692    84146738.64649
  21923540.147   115209022.72509  21923538.862    89773273.39747
  23367090.518   122794910.68807  23367088.174    95684341.60946
  22581955.547   118668982.75408  22581954.045    92469332.13247
  22110752.952   116192832.90609  22110750.016    90539871.36947
  21532135.220   113152167.17209  21532136.087    88170544.49548
 15 02 21 01 24  0.0000000  0  6G16G18G19G21G22G27
  20544437.517   107961757.49009  20544435.960    84126052.17849
  21920932.234   115195317.04809  21920930.685    89762593.66047
  23353594.316   122723987.85307  23353592.131    95629077.10146
  22594794.105   118736449.73908  22594792.425    92521903.80647
  22096643.799   116118688.08709  22096640.831    90482096.21048
  21523178.415   113105099.09109  21523179.385    88133868.07948
 15 02 21 01 24 30.0000000  0  6G16G18G19G21G22G27
  20539477.683   107935693.98209  20539476.070    84105742.94849
  21918416.043   115182094.62709  21918414.597    89752290.48048
  23340115.685   122653157.17207  23340113.505    95573884.41046
  22607659.383   118804056.76508  22607657.606    92574584.60147
  22082593.374   116044852.04309  22082590.157    90424561.64347
  21514247.689   113058168.40209  21514248.561    88097298.72048
 15 02 21 01 25  0.0000000  0  6G16G18G19G21G22G27
  20534610.167   107910114.10209  20534608.495    84085810.57049
  21915991.624   115169354.21809  21915990.119    89742362.89947
  23326653.995   122582416.32707  23326651.823    95518761.70046
  22620550.470   118871799.10208  22620548.443    92627370.83147
  22068601.617   115971325.70809  22068598.458    90367268.41047
  21505342.848   113011373.33409  21505343.880    88060835.04248
 15 02 21 01 25 30.0000000  0  6G16G18G19G21G22G27
  20529834.553   107885018.83209  20529832.977    84066255.81049
  21913658.966   115157096.05209  21913657.668    89732811.09147
  23313209.507   122511765.16007  23313207.306    95463708.86546
  22633466.620   118939674.86208  22633464.913    92680261.02547
  22054669.401   115898111.10409  22054666.255    90310218.08848
  21496463.688   112964713.81509  21496464.618    88024476.98148
 15 02 21 01 26  0.0000000  0  6G16G18G19G21G22G27
  20525150.635   107860404.36409  20525148.999    84047075.70449
  21911417.106   115145315.65509  21911415.752    89723631.57047
  23299781.080   122441198.61207  23299778.943    95408721.96746
  22646407.019   119007676.99708  22646405.143    92733249.69847
  22040795.849   115825205.09909  22040792.616    90253408.23148
  21487609.714   112918185.08909  21487610.468    87988220.84048
 15 02 21 01 26 30.0000000  0  6G16G18G19G21G22G27
  20520559.766   107836279.93609  20520558.348    84028277.44149
  21909267.726   115134020.99009  21909266.497    89714830.54148
  23286370.236   122370724.61807  23286368.288    95353807.19846
  22659372.715   119075811.37408  22659370.835    92786341.41447
  22026982.950   115752618.32609  22026979.924    90196847.12848
  21478782.026   112871795.24409  21478782.728    87952072.90848
 15 02 21 01 27  0.0000000  0  6G16G18G19G21G22G27
  20516062.361   107812645.85409  20516060.998    84009861.26649
  21907210.805   115123211.67209  21907209.416    89706407.69948
  23272976.870   122300341.81707  23272974.633    95298963.48646
  22672362.956   119144075.17808  22672360.898    92839533.98547
  22013231.019   115680351.96809  22013227.967    90140535.69348
  21469980.607   112825543.50609  21469981.409    87916032.60148
 15 02 21 01 27 30.0000000  0  6G16G18G19G21G22G27
  20511658.451   107789502.27209  20511656.882    83991827.30149
  21905246.236   115112887.42109  21905244.618    89698362.83747
  23259600.504   122230048.63607  23259598.258    95244189.62246
  22685377.290   119212466.02608  22685375.349    92892825.54847
  21999540.293   115608406.59709  21999537.259    90084474.37848
  21461205.249   112779428.84209  21461206.225    87880099.09748
 15 02 21 01 28  0.0000000  0  6G16G18G19G21G22G27
  20507347.908   107766850.93509  20507346.308    83974176.90949
  21903373.971   115103048.82009  21903372.463    89690696.39747
  23246241.501   122159846.00307  23246239.110    95189486.29846
  22698415.353   119280982.48008  22698413.480    92946214.98547
  21985911.167   115536785.83309  21985908.292    90028666.00648
  21452456.250   112733452.10409  21452457.214    87844273.07748
 15 02 21 01 28 30.0000000  0  6G16G18G19G21G22G27
  20503131.215   107744691.87809  20503129.769    83956910.10849
  21901594.004   115093694.87409  21901592.409    89683407.62047
  23232899.214   122089732.53207  23232896.836    95134852.44946
  22711476.931   119349621.22108  22711475.058    92999699.71447
  21972344.052   115465490.56909  21972341.191    89973111.27548
  21443733.169   112687612.22409  21443734.010    87808553.70248
 15 02 21 01 29  0.0000000  0  6G16G18G19G21G22G27
  20499008.703   107723027.21309  20499007.005    83940028.54649
  21899906.648   115084827.25609  21899904.936    89676497.79647
  23219574.261   122019709.18207  23219571.710    95080288.81846
  22724561.606   119418381.40408  22724559.829    93053279.07047
  21958839.516   115394523.97209  21958836.533    89917812.64548
  21435036.367   112641910.53709  21435037.215    87772942.00048
 15 02 21 01 29 30.0000000  0  6G16G18G19G21G22G27
  20494980.194   107701857.47309  20494978.513    83923532.63849
  21898311.767   115076446.19209  21898310.273    89669967.10447
  23206266.320   121949775.92007  23206263.958    95025795.39046
  22737669.141   119487261.09008  22737667.188    93106951.54447
  21945398.143   115323888.17709  21945395.061    89862771.78648
  21426366.064   112596347.12709  21426367.040    87737438.05348
 15 02 21 01 30  0.0000000  0  6G16G18G19G21G22G27
  20491046.854   107681187.41009  20491045.259    83907426.09049
  21896809.897   115068554.37709  21896808.390    89663817.64548
  23192975.951   121879934.93407  23192973.571    94971373.88646
  22750799.371   119556261.00808  22750797.357    93160717.70447
  21932020.407   115253587.73009  21932017.403    89807992.23048
  21417722.402   112550924.81409  21417723.433    87702044.05048
 15 02 21 01 30 30.0000000  0  6G16G18G19G21G22G27
  20487208.447   107661016.72809  20487206.707    83891708.67349
  21895401.045   115061151.49409  21895399.839    89658049.17548
  23179702.900   121810184.86007  23179700.789    94917023.21746
  22763951.813   119625378.65008  22763949.944    93214575.60147
  21918706.963   115183624.10809  21918703.802    89753475.13348
  21409105.510   112505642.65109  21409106.487    87666759.25449
 15 02 21 01 31  0.0000000  0  6G16G18G19G21G22G27
  20483465.575   107641347.49309  20483463.660    83876381.99049
  21894085.407   115054238.11509  21894084.268    89652662.13248
  23166447.451   121740526.81607  23166445.210    94862744.24346
  22777126.713   119694613.06208  22777124.804    93268524.48347
  21905457.832   115114000.36209  21905454.649    89699222.88248
  21400515.416   112460501.93109  21400516.365    87631584.67148
 15 02 21 01 31 30.0000000  0  6G16G18G19G21G22G27
  20479817.865   107622178.64709  20479816.148    83861445.22549
  21892862.555   115047812.98309  21892861.509    89647655.54448
  23153209.155   121670958.69607  23153206.658    94808535.33546
  22790323.032   119763960.21508  22790321.164    93322561.21447
  21892273.399   115044716.88909  21892270.340    89645235.77748
  21391951.945   112415500.83709  21391952.836    87596518.89148
 15 02 21 01 32  0.0000000  0  6G16G18G19G21G22G27
  20476265.656   107603511.88009  20476263.910    83846899.68849
  21891732.991   115041876.86709  21891732.049    89643030.00448
  23139988.014   121601481.06907  23139985.399    94754396.95746
  22803540.546   119833418.94008  22803538.551    93376684.89147
  21879154.510   114975776.31609  21879151.376    89591515.87448
  21383415.374   112370640.35509  21383416.195    87561562.67648
 15 02 21 01 32 30.0000000  0  6G16G18G19G21G22G27
  20472809.725   107585350.77709  20472808.104    83832748.17749
  21890697.006   115036432.10409  21890695.840    89638787.33748
  23126784.302   121532095.93907  23126781.965    94700330.66546
  22816779.481   119902989.26408  22816777.496    93430895.53047
  21866101.789   114907183.05309  21866098.569    89538066.59148
  21374905.810   112325922.88609  21374906.685    87526717.90648
 15 02 21 01 33  0.0000000  0  6G16G18G19G21G22G27
  20469450.085   107567695.03209  20469448.258    83818990.45049
  21889754.111   115031477.87609  21889752.857    89634926.91448
  23113598.214   121462802.20307  23113595.820    94646335.57446
  22830039.165   119972669.12308  22830037.250    93485191.50947
  21853115.279   114838938.10609  21853111.953    89484888.72948
  21366423.447   112281347.54909  21366424.252    87491983.88748
 15 02 21 01 33 30.0000000  0  6G16G18G19G21G22G27
  20466187.108   107550548.72209  20466185.377    83805629.68649
  21888905.503   115027017.03809  21888903.919    89631450.93748
  23100429.874   121393602.61007  23100427.454    94592413.84846
  22843319.501   120042458.95008  22843317.878    93539573.18047
  21840195.763   114771046.46709  21840192.654    89431986.16948
  21357968.698   112236917.48009  21357969.637    87457363.05948
 15 02 21 01 34  0.0000000  0  6G16G18G19G21G22G27
  20463020.609   107533908.97009  20463018.989    83792663.63849
  21888149.851   115023046.12209  21888148.342    89628356.72748
  23087278.861   121324493.44207  23087276.507    94538562.57646
  22856620.047   120112353.47408  22856618.308    93594036.43447
  21827343.227   114703506.65309  21827340.144    89379357.75748
  21349540.976   112192629.31709  21349541.629    87422852.80649
 15 02 21 01 34 30.0000000  0  6G16G18G19G21G22G27
  20459951.565   107517780.87909  20459950.038    83780096.29449
  21887488.291   115019569.22709  21887486.850    89625647.46647
  23074145.679   121255478.70107  23074143.162    94484784.88046
  22869940.916   120182355.27208  22869939.296    93648583.27947
  21814558.880   114636324.77209  21814555.905    89327008.24848
  21341141.012   112148487.20809  21341141.803    87388456.36148
 15 02 21 01 35  0.0000000  0  6G16G18G19G21G22G27
  20456979.960   107502164.14709  20456978.264    83767927.40849
  21886920.521   115016585.23009  21886919.069    89623322.27848
  23061030.145   121186556.63307  23061027.935    94431079.40447
  22883281.472   120252460.36408  22883279.765    93703210.61347
  21801842.878   114569501.73109  21801839.899    89274938.36348
  21332768.619   112104490.14309  21332769.372    87354172.93748
 15 02 21 01 35 30.0000000  0  6G16G18G19G21G22G27
  20454104.674   107487054.35109  20454102.927    83756153.53949
  21886445.443   115014088.42909  21886443.747    89621376.72748
  23047931.466   121117722.29907  23047929.165    94377442.28846
  22896640.527   120322662.70508  22896638.814    93757913.71847
  21789194.547   114503034.49009  21789191.446    89223145.71948
  21324422.884   112060633.23009  21324423.732    87319998.71849
 15 02 21 01 36  0.0000000  0  6G16G18G19G21G22G27
  20451328.263   107472464.96409  20451326.765    83744785.18449
  21886065.632   115012092.29009  21886064.003    89619821.30148
  23034851.872   121048988.13307  23034849.434    94323883.22746
  22910020.101   120392972.90608  22910018.475    93812700.88047
  21776616.766   114436937.77209  21776613.669    89171641.79148
  21316106.309   112016929.36209  21316107.171    87285943.76049
 15 02 21 01 36 30.0000000  0  6G16G18G19G21G22G27
  20448649.090   107458385.59809  20448647.528    83733814.24949
  21885778.833   115010585.08609  21885777.040    89618646.86048
  23021788.948   120980342.34807  23021786.560    94270393.03547
  22923417.662   120463377.06008  22923416.133    93867561.23747
  21764107.641   114371201.59409  21764104.571    89120418.81448
  21307816.767   111973367.11809  21307817.744    87251999.15949
 15 02 21 01 37  0.0000000  0  6G16G18G19G21G22G27
  20446068.905   107444826.94409  20446067.409    83723249.06449
  21885586.775   115009576.47309  21885585.078    89617860.93248
  23008744.650   120911794.84808  23008742.275    94216979.43046
  22936834.550   120533883.87808  22936832.957    93922501.60547
  21751669.422   114305838.15709  21751666.418    89069486.28348
  21299555.940   111929956.80209  21299556.878    87218172.94949
 15 02 21 01 37 30.0000000  0  6G16G18G19G21G22G27
  20443586.524   107431781.41109  20443584.705    83713083.71349
  21885487.956   115009057.85909  21885486.421    89617456.82447
  22995717.742   120843337.26408  22995715.151    94163635.87946
  22950269.134   120604482.09508  22950267.472    93977513.19947
  21739300.901   114240841.45409  21739297.985    89018839.52148
  21291322.732   111886690.31809  21291323.572    87184458.81249
 15 02 21 01 38  0.0000000  0  6G16G18G19G21G22G27
  20441202.747   107419254.64509  20441200.986    83703322.59149
  21885483.584   115009034.29409  21885482.091    89617438.46847
  22982708.625   120774974.55208  22982706.274    94110366.26446
  22963721.766   120675176.11808  22963720.055    94032599.43647
  21727003.283   114176217.66009  21727000.450    88968483.32848
  21283117.722   111843572.41809  21283118.569    87150860.44949
 15 02 21 01 38 30.0000000  0  7G04G16G18G19G21G22G27
  24605348.615   129301977.21916                                
  20438919.266   107407254.43109  20438917.396    83693971.76849
  21885574.547   115009512.55909  21885573.219    89617811.15248
  22969718.823   120706712.74408  22969716.465    94057175.26346
  22977193.569   120745971.01908  22977191.874    94087764.28247
  21714778.635   114111976.01509  21714775.461    88918424.91748
  21274942.291   111800610.67409  21274943.055    87117383.77349
 15 02 21 01 39  0.0000000  0  7G04G16G18G19G21G22G27
  24586220.802   129201460.35106  24586223.646   100676475.63153
  20436733.746   107395769.91709  20436731.996    83685022.79549
  21885758.779   115010480.67009  21885757.285    89618565.53048
  22956746.191   120638540.41208  22956743.471    94004053.99147
  22990681.958   120816853.01008  22990680.158    94142996.98847
  21702624.693   114048106.90009  21702621.583    88868656.78948
  21266794.453   111757793.71509  21266795.161    87084019.91649
 15 02 21 01 39 30.0000000  0  7G04G16G18G19G21G22G27
  24567120.957   129101090.36506  24567123.610   100598265.48644
  20434647.773   107384807.93009  20434646.006    83676480.98349
  21886037.327   115011944.70009  21886035.982    89619706.34148
  22943791.615   120570463.56208  22943789.052    93951007.12247
  23004187.518   120887825.55208  23004186.069    94198300.24947
  21690543.357   113984618.26809  21690540.324    88819185.14448
  21258675.384   111715127.62709  21258676.137    87050773.61949
 15 02 21 01 40  0.0000000  0  7G04G16G18G19G21G22G27
  24548048.888   129000869.18705  24548052.272   100520171.35744
  20432661.483   107374369.99909  20432659.862    83668347.52449
  21886410.448   115013905.49809  21886409.180    89621234.24248
  22930855.388   120502483.35708  22930852.621    93898035.56747
  23017710.350   120958888.79208  23017709.043    94253674.19147
  21678534.635   113921512.91509  21678531.824    88770012.15948
  21250585.207   111672613.74309  21250585.938    87017645.91749
 15 02 21 01 40 30.0000000  0  7G04G16G18G19G21G22G27
  24529005.258   128900795.32606  24529008.840   100442192.00144
  20430774.677   107364454.48409  20430773.100    83660621.14349
  21886877.664   115016360.61009  21886876.381    89623147.32148
  22917936.964   120434597.42508  22917934.350    93845137.46947
  23031249.732   121030038.50608  23031248.296    94309115.51447
  21666599.034   113858790.56109  21666595.979    88721137.61648
  21242523.733   111630250.06309  21242524.543    86984635.26049
 15 02 21 01 41  0.0000000  0  7G04G16G18G19G21G22G27
  24509990.193   128800870.36306  24509993.275   100364328.62644
  20428987.626   107355063.06009  20428985.977    83653303.14049
  21887438.986   115019310.25209  21887437.504    89625445.74648
  22905036.784   120366806.27108  22905034.096    93792313.21247
  23044805.362   121101273.29508  23044803.959    94364623.12447
  21654736.862   113796454.36509  21654733.645    88672563.96648
  21234490.858   111588037.71109  21234491.724    86951742.52349
 15 02 21 01 41 30.0000000  0  7G04G16G18G19G21G22G27
  24491003.496   128701095.65706  24491006.626   100286582.28643
  20427300.303   107346196.61909  20427298.702    83646394.22049
  21888094.256   115022754.90609  21888092.887    89628129.89848
  22892154.579   120299109.88908  22892151.756    93739562.80947
  23058376.690   121172591.88708  23058375.469    94420196.03246
  21642948.375   113734505.75909  21642945.274    88624292.34048
  21226487.110   111545977.10409  21226488.026    86918968.02749
 15 02 21 01 42  0.0000000  0  7G04G16G18G19G21G22G27
  24472046.211   128601474.13906  24472048.998   100208955.31544
  20425713.605   107337858.31109  20425711.805    83639896.83049
  21888844.345   115026696.40009  21888843.137    89631201.20148
  22879290.880   120231510.66308  22879288.178    93686888.10647
  23071964.508   121243995.22808  23071962.697    94475834.99046
  21631234.822   113672949.49809  21631231.594    88576326.43448
  21218512.692   111504071.03909  21218513.377    86886313.95749
 15 02 21 01 42 30.0000000  0  7G04G16G18G19G21G22G27
  24453117.722   128502006.32306  24453120.767   100131448.15443
  20424227.386   107330048.64409  20424225.780    83633811.36949
  21889688.877   115031134.31909  21889687.630    89634659.32348
  22866445.581   120164008.47508  22866443.013    93634289.02046
  23085567.880   121315481.70808  23085566.172    94531538.72747
  21619596.056   113611787.21609  21619592.679    88528667.52548
  21210567.641   111462319.60509  21210568.506    86853780.37949
 15 02 21 01 43  0.0000000  0  7G04G16G18G19G21G22G27
  24434218.424   128402691.09205  24434221.205   100054059.91845
  20422841.470   107322765.79609  20422839.898    83628136.41549
  21890627.366   115036066.52009  21890626.069    89638502.60448
  22853618.263   120096600.99608  22853615.626    93581763.73447
  23099186.214   121387046.69108  23099184.555    94587303.63547
  21608032.018   113551018.65909  21608028.857    88481315.41848
  21202651.651   111420720.98809  21202652.439    86821365.87849
 15 02 21 01 43 30.0000000  0  7G04G16G18G19G21G22G27
  24415349.493   128303535.41006  24415352.675    99976796.00545
  20421557.194   107316016.69009  20421555.592    83622877.36449
  21891660.997   115041498.63209  21891659.730    89642735.42948
  22840810.299   120029294.37908  22840807.817    93529317.05347
  23112820.363   121458694.25608  23112818.662    94643132.90046
  21596544.455   113490651.73609  21596541.448    88434276.27648
  21194766.056   111379281.68509  21194766.866    86789075.52649
 15 02 21 01 44  0.0000000  0  7G04G16G18G19G21G22G27
  24396509.947   128204533.11306  24396512.791    99899651.58144
  20420373.368   107309795.11209  20420371.671    83618029.37349
  21892788.515   115047423.49709  21892787.296    89647352.21648
  22828020.042   119962081.74908  22828017.470    93476943.59847
  23126468.610   121530416.93608  23126467.094    94699020.69647
  21585132.612   113430681.31609  21585129.491    88387546.09548
  21186909.571   111337995.04909  21186910.351    86756904.12649
 15 02 21 01 44 30.0000000  0  7G04G16G18G19G21G22G27
  24377700.699   128105690.43906  24377703.230    99822631.50744
  20419290.995   107304107.20509  20419289.296    83613597.22749
  21894010.802   115053846.28109  21894009.390    89652356.98948
  22815248.816   119894968.47108  22815246.253    93424647.56647
  23140131.947   121602217.91108  23140130.466    94754969.48546
  21573797.402   113371114.66209  21573794.270    88341130.53748
  21179083.079   111296867.05209  21179083.900    86724856.33949
 15 02 21 01 45  0.0000000  0  7G04G16G18G19G21G22G27
  24358921.770   128007007.28106  24358924.239    99745735.71344
  20418310.033   107298952.33609  20418308.318    83609580.44349
  21895327.438   115060765.34609  21895326.161    89657748.47848
  22802496.241   119827953.54808  22802493.964    93372428.17047
  23153809.771   121674094.58008  23153808.077    94810977.26646
  21562539.250   113311952.89709  21562536.141    88295030.47648
  21171286.471   111255896.91409  21171287.513    86692931.56149
 15 02 21 01 45 30.0000000  0  7G04G16G18G19G21G22G27
  24340173.077   127908483.17705  24340175.625    99668963.86644
  20417430.299   107294329.86809  20417428.704    83605978.50949
  21896738.343   115068179.17009  21896736.928    89663525.48948
  22789762.145   119761035.79808  22789759.872    93320284.50547
  23167501.256   121746043.85108  23167499.376    94867041.62746
  21551358.333   113253196.71809  21551355.109    88249246.45648
  21163519.963   111215083.86009  21163521.133    86661129.19149
 15 02 21 01 46  0.0000000  0  7G04G16G18G19G21G22G27
  24321455.287   127810123.05506  24321458.174    99592319.84444
  20416652.978   107290244.51609  20416651.431    83602795.11249
  21898243.976   115076091.82609  21898242.734    89669691.20048
  22777047.406   119694219.33108  22777044.988    93268219.74047
  23181206.908   121818067.81808  23181205.308    94923164.19046
  21540255.658   113194851.92109  21540252.305    88203782.98748
  21155784.291   111174432.44109  21155785.243    86629452.76349
 15 02 21 01 46 30.0000000  0  7G04G16G18G19G21G22G27
  24302768.437   127711923.24606  24302771.059    99515800.70044
  20415977.093   107286692.24909  20415975.478    83600027.10649
  21899843.501   115084497.97709  21899842.297    89676241.45348
  22764351.016   119627499.76008  22764348.749    93216230.48347
  23194925.891   121890161.87308  23194924.400    94979341.35747
  21529230.679   113136915.80009  21529227.424    88158637.97348
  21148078.536   111133938.45309  21148079.678    86597899.01449
 15 02 21 01 47  0.0000000  0  7G04G16G18G19G21G22G27
  24284112.721   127613886.79906  24284115.101    99439408.85745
  20415403.003   107283675.69609  20415401.347    83597676.53949
  21901537.389   115093399.73509  21901536.131    89683177.89247
  22751673.645   119560879.19508  22751671.146    93164318.38047
  23208658.242   121962325.30208  23208656.638    95035572.58046
  21518284.377   113079392.43409  21518281.263    88113814.58848
  21140403.299   111093604.59109  21140404.385    86566470.03349
 15 02 21 01 47 30.0000000  0  7G04G16G18G19G21G22G27
  24265488.412   127516015.42106  24265490.891    99363145.64345
  20414931.307   107281196.35909  20414929.535    83595744.58249
  21903325.768   115102797.56909  21903324.482    89690500.88848
  22739015.114   119494358.35008  22739012.500    93112483.96847
  23222403.607   122034557.49308  23222402.115    95091857.38546
  21507417.089   113022284.48409  21507413.863    88069314.90148
  21132758.871   111053432.13409  21132759.578    86535166.82649
 15 02 21 01 48  0.0000000  0  7G04G16G18G19G21G22G27
  24246895.553   127418311.13506  24246898.223    99287012.68544
  20414561.964   107279255.94509  20414560.316    83594232.56549
  21905208.685   115112692.20909  21905207.615    89698211.00548
  22726375.894   119427938.95808  22726373.346    93060728.62047
  23236162.093   122106858.13908  23236160.485    95148195.54646
  21496629.321   112965594.87909  21496626.371    88025141.20448
  21125145.207   111013422.83909  21125146.048    86503990.75649
 15 02 21 01 48 30.0000000  0  7G04G16G18G19G21G22G27
  24228334.238   127320772.67206  24228336.698    99211008.84243
  20414295.182   107277853.27609  20414293.411    83593139.56949
  21907185.635   115123081.46409  21907184.481    89706306.53548
  22713755.682   119361618.79708  22713753.067    93009050.59347
  23249932.677   122179223.76808  23249931.179    95204584.33146
  21485921.322   112909323.56009  21485918.215    87981293.43948
  21117562.557   110973575.15209  21117563.332    86472940.61449
 15 02 21 01 49  0.0000000  0  7G04G16G18G19G21G22G27
  24209805.200   127223401.98306  24209807.340    99135135.68844
  20414130.761   107276989.58209  20414129.076    83592466.55249
  21909256.814   115133965.80609  21909255.605    89714787.84548
  22701154.488   119295398.88908  22701151.820    92957450.68847
  23263715.881   122251654.11508  23263714.167    95261023.55046
  21475293.380   112853473.53309  21475290.128    87937773.95248
  21110010.768   110933890.60909  21110011.639    86442017.60049
 15 02 21 01 49 30.0000000  0  7G04G16G18G19G21G22G27
  24191308.625   127126200.35407  24191310.365    99059394.29244
  20414069.107   107276665.74509  20414067.557    83592214.20449
  21911422.416   115145345.14809  21911420.961    89723654.86748
  22688572.349   119229279.83208  22688569.673    92905929.36847
  23277510.788   122324147.75008  23277509.436    95317512.08746
  21464745.968   112798046.82109  21464742.894    87894584.32048
  21102490.369   110894370.05409  21102491.205    86411222.36949
 15 02 21 01 50  0.0000000  0  7G04G16G18G19G21G22G27
  24172843.975   127029168.62306  24172845.839    98983785.29945
  20414110.426   107276882.06909  20414108.575    83592382.76049
  21913681.797   115157218.90109  21913680.654    89732907.15148
  22676009.662   119163262.06208  22676006.732    92854486.97347
  23291317.743   122396703.37908  23291316.180    95374048.92946
  21454279.568   112743045.30009  21454276.456    87851726.00748
  21095001.193   110855014.07109  21095002.028    86380555.37649
 15 02 21 01 50 30.0000000  0  7G04G16G18G19G21G22G27
  24154411.538   126932309.79105  24154414.524    98908311.11545
  20414254.857   107277641.49309  20414253.155    83592974.51049
  21916035.754   115169588.78209  21916034.604    89742546.02648
  22663466.608   119097348.02208  22663463.800    92803125.38947
  23305136.546   122469321.61808  23305135.054    95430634.56346
  21443894.670   112688472.79209  21443891.381    87809201.98848
  21087543.775   110815825.35909  21087544.582    86350018.72749
 15 02 21 01 51  0.0000000  0  7G04G16G18G19G21G22G27
  24136012.733   126835624.04306  24136015.620    98832971.74145
  20414502.592   107278943.94409  20414501.033    83593989.40449
  21918483.944   115182453.73009  21918482.556    89752570.66748
  22650942.939   119031536.63508  22650940.215    92751843.80947
  23318966.864   122542000.08608  23318965.295    95487267.11946
  21433591.818   112634330.78509  21433588.581    87767013.42948
  21080118.142   110776803.86409  21080119.125    86319612.37649
 15 02 21 01 51 30.0000000  0  7G04G16G18G19G21G22G27
  24117646.799   126739108.87607  24117649.295    98757765.20944
  20414853.317   107280786.11009  20414851.484    83595424.85149
  21921025.514   115195809.95809  21921024.262    89762978.12448
  22638438.317   118965824.87108  22638435.763    92700639.85447
  23332807.610   122614734.00808  23332805.958    95543942.88546
  21423370.623   112580617.01209  21423367.248    87725158.56348
  21072723.853   110737946.64009  21072724.902    86289334.02249
 15 02 21 01 52  0.0000000  0  7G04G16G18G19G21G22G27
  24099313.965   126642767.55907  24099315.642    98682694.09344
  20415306.997   107283170.71309  20415305.242    83597282.97349
  21923661.143   115209659.43909  21923659.519    89773769.93448
  22625953.355   118900215.61208  22625950.716    92649515.76947
  23346659.091   122687524.68908  23346657.601    95600662.89046
  21413231.570   112527336.33509  21413228.376    87683641.17048
  21065361.325   110699256.83009  21065362.439    86259186.12249
 15 02 21 01 52 30.0000000  0  7G04G16G18G19G21G22G27
  24081014.536   126546603.59806  24081016.016    98607761.18445
  20415864.780   107286101.16709  20415863.016    83599566.43549
  21926390.913   115224004.32209  21926389.276    89784947.77148
  22613488.416   118834711.50708  22613485.695    92598473.62047
  23360521.840   122760373.08308  23360520.157    95657427.86446
  21403175.590   112474492.92709  21403172.507    87642464.50748
  21058031.376   110660737.59209  21058032.474    86229171.14149
 15 02 21 01 53  0.0000000  0  7G04G16G18G19G21G22G27
  24062748.177   126450617.95605  24062750.752    98532967.38545
  20416526.420   107289578.17109  20416524.597    83602275.78149
  21929214.879   115238844.23609  21929213.340    89796511.34248
  22601043.625   118769313.09708  22601040.675    92547513.84647
  23374395.244   122833278.18708  23374393.852    95714237.01246
  21393203.600   112422089.10909  21393200.344    87601630.38348
  21050733.934   110622389.90009  21050734.931    86199289.82649
 15 02 21 01 53 30.0000000  0  7G04G16G18G19G21G22G27
  24044515.757   126354805.47307  24044518.214    98458308.47245
  20417290.793   107293595.60109  20417289.232    83605406.23749
  21932131.492   115254171.98709  21932130.138    89808455.04948
  22588617.468   118704013.88908  22588614.707    92496631.36647
  23388277.677   122906231.89908  23388276.569    95771084.04546
  21383314.092   112370119.89809  21383310.789    87561134.90348
  21043468.105   110584207.80309  21043469.167    86169537.55149
 15 02 21 01 54  0.0000000  0  7G04G16G18G19G21G22G27
  24026318.264   126259175.93807  24026320.741    98383792.08345
  20418160.070   107298163.02509  20418158.381    83608965.25849
  21935142.868   115269996.52809  21935141.251    89820785.86448
  22576212.186   118638823.50208  22576209.318    92445833.68547
  23402171.130   122979242.01508  23402169.934    95827975.02046
  21373509.641   112318596.28109  21373506.167    87520986.64448
  21036235.835   110546201.22109  21036236.870    86139922.03549
 15 02 21 01 54 30.0000000  0  7G04G16G18G19G21G22G27
  24008154.696   126163724.21006  24008156.629    98309414.20544
  20419132.490   107303273.97309  20419130.792    83612947.80749
  21938247.538   115286311.30509  21938245.859    89833498.68347
  22563826.313   118573735.92308  22563823.721    92395116.10947
  23416073.792   123052301.27808  23416072.416    95884904.29846
  21363788.854   112267513.70409  21363785.701    87481182.05448
  21029035.773   110508364.51209  21029036.564    86110438.89349
 15 02 21 01 55  0.0000000  0  7G04G16G18G19G21G22G27
  23990025.049   126068454.77505  23990026.753    98235178.39144
  20420209.591   107308933.55109  20420207.756    83617357.85749
  21941445.966   115303119.43909  21941444.250    89846595.93548
  22551460.944   118508755.59808  22551458.399    92344482.12147
  23429986.514   123125412.50308  23429984.973    95941874.07946
  21354153.103   112216877.83509  21354149.883    87441725.55248
  21021869.031   110470702.43809  21021869.710    86081091.82549
 15 02 21 01 55 30.0000000  0  7G04G16G18G19G21G22G27
  23971929.885   125973367.70006  23971931.800    98161084.67944
  20421390.785   107315140.73609  20421389.011    83622194.61649
  21944738.056   115320419.45709  21944736.465    89860076.47348
  22539115.805   118443881.70608  22539113.278    92293931.07147
  23443908.568   123198572.92008  23443907.002    95998882.17946
  21344602.638   112166689.52109  21344599.368    87402617.79248
  21014735.353   110433214.61309  21014736.098    86051880.53249
 15 02 21 01 56  0.0000000  0  7G04G16G18G19G21G22G27
  23953869.955   125878460.62807  23953871.951    98087131.20844
  20422675.653   107321892.45009  20422673.832    83627455.68049
  21948122.998   115338207.38709  21948121.418    89873937.19848
  22526790.420   118379111.27408  22526787.776    92243460.63847
  23457838.922   123271777.80207  23457837.334    96055924.93746
  21335137.003   112116947.24109  21335133.777    87363857.59248
  21007634.345   110395898.50009  21007635.193    86022803.04249
 15 02 21 01 56 30.0000000  0  7G04G16G18G19G21G22G27
  23935845.079   125783736.07707  23935846.550    98013319.95545
  20424064.407   107329190.93309  20424062.662    83633142.80349
  21951600.946   115356484.15809  21951599.167    89888178.84247
  22514485.032   118314446.27608  22514482.473    92193072.35347
  23471777.809   123345027.39608  23471776.470    96113002.52446
  21325756.768   112067654.33409  21325753.638    87325447.55348
  21000566.426   110358756.39909  21000567.220    85993861.15849
 15 02 21 01 57  0.0000000  0  7G04G16G18G19G21G22G27
  23917855.329   125689199.05506  23917856.863    97939654.85045
  20425558.199   107337040.86509  20425556.498    83639259.62549
  21955172.558   115375253.51309  21955170.963    89902804.31248
  22502200.582   118249891.20908  22502197.901    92142769.74047
  23485725.716   123418324.89308  23485724.597    96170117.42746
  21316463.195   112018816.74609  21316460.135    87287392.30448
  20993532.526   110321793.31709  20993533.244    85965058.76549
 15 02 21 01 57 30.0000000  0  7G04G16G18G19G21G22G27
  23899900.277   125594847.55806  23899902.322    97866134.35144
  20427156.472   107345439.06409  20427154.666    83645803.66749
  21958837.113   115394511.81709  21958835.591    89917810.79048
  22489936.620   118185443.46808  22489933.802    92092550.74347
  23499682.270   123491666.04507  23499681.000    96227266.37846
  21307256.310   111970433.27309  21307252.839    87249690.90648
  20986532.314   110285007.01409  20986533.234    85936394.11349
 15 02 21 01 58  0.0000000  0  7G04G16G18G19G21G22G27
  23881981.564   125500685.55206  23881983.470    97792761.42842
  20428859.594   107354389.55909  20428858.054    83652778.06949
  21962595.330   115414261.78509  21962593.985    89933200.37948
  22477693.812   118121106.60908  22477690.961    92042418.13747
  23513647.480   123565053.03708  23513646.104    96284451.01846
  21298136.505   111922508.46709  21298133.017    87212346.91548
  20979566.350   110248401.47409  20979567.434    85907870.32449
 15 02 21 01 58 30.0000000  0  7G04G16G18G19G21G22G27
  23864100.459   125406719.77307  23864101.687    97719541.36144
  20430668.902   107363897.85209  20430667.390    83660187.12149
  21966448.259   115434508.40509  21966446.621    89948976.96747
  22465473.150   118056886.50508  22465470.264    91992376.51947
  23527622.158   123638490.14807  23527620.551    96341674.73346
  21289105.313   111875049.98109  21289102.086    87175366.29248
  20972636.183   110211983.10209  20972637.234    85879492.37749
 15 02 21 01 59  0.0000000  0  7G04G16G18G19G21G22G27
  23846252.205   125312925.16307  23846253.404    97646454.72044
  20432579.661   107373938.17709  20432577.831    83668010.74549
  21970390.636   115455225.20709  21970388.875    89965119.93247
  22453269.777   117992757.62708  22453266.808    91942405.97147
  23541600.996   123711949.81508  23541599.708    96398916.01046
  21280158.403   111828033.77809  21280155.280    87138730.30748
  20965736.722   110175726.81509  20965737.817    85851240.73249
 15 02 21 01 59 30.0000000  0  7G04G16G18G19G21G22G27
  23828441.173   125219327.18207  23828442.643    97573521.34845
  20434596.031   107384534.92809  20434594.286    83676267.94949
  21974426.691   115476435.94609  21974425.185    89981647.78847
  22441088.627   117928745.56208  22441085.792    91892526.46647
  23555588.960   123785456.09108  23555587.466    96456193.60445
  21271300.564   111781485.67809  21271297.551    87102459.07648
  20958873.284   110139658.05009  20958874.267    85823135.20249
 15 02 21 02 00  0.0000000  0  7G04G16G18G19G21G22G27
  23810666.049   125125918.33806  23810667.715    97500735.33445
  20436717.264   107395681.24109  20436715.487    83684953.37949
  21978555.224   115498131.87409  21978553.769    89998553.71147
  22428928.079   117864841.86008  22428925.366    91842731.39847
  23569583.824   123858999.13307  23569582.281    96513499.84546
  21262530.659   111735399.13909  21262527.526    87066547.50648
  20952043.894   110103769.02109  20952044.676    85795169.73349
 15 02 21 02 00 30.0000000  0  7G04G16G18G19G21G22G27
  23792927.778   125032705.62606  23792929.475    97428102.14445
  20438943.947   107407382.78509  20438942.200    83694071.46049
  21982777.193   115520318.09509  21982775.606    90015841.68047
  22416789.624   117801053.06708  22416786.631    91793025.86847
  23583586.429   123932583.75608  23583584.872    96570838.48946
  21253850.068   111689782.07609  21253846.792    87031001.75848
  20945249.884   110068066.78909  20945250.745    85767349.81549
 15 02 21 02 01  0.0000000  0  7G04G16G18G19G21G22G27
  23775225.357   124939679.49407  23775226.729    97355614.32843
  20441274.449   107419629.34609  20441272.694    83703614.22649
  21987090.176   115542983.41209  21987088.620    90033502.97148
  22404670.942   117737369.08908  22404668.205    91743402.00347
  23597594.831   124006198.30907  23597593.077    96628200.46646
  21245257.068   111644625.55609  21245253.703    86995814.87048
  20938489.720   110032541.70109  20938490.487    85739667.93749
 15 02 21 02 01 30.0000000  0  7G04G16G18G19G21G22G27
  23757560.319   124846847.09007  23757561.245    97283277.43444
  20443709.591   107432426.91609  20443707.959    83713586.35149
  21991495.477   115566133.39309  21991493.932    90051541.92147
  22392573.361   117673796.80508  22392570.708    91693865.18047
  23611609.733   124079847.99307  23611608.007    96685589.82646
  21236753.257   111599937.29309  21236749.829    86960992.86548
  20931764.552   109997200.89209  20931765.385    85712129.64549
 15 02 21 02 02  0.0000000  0  7G04G16G18G19G21G22G27
  23739932.260   124754210.04507  23739932.867    97211092.76845
  20446250.000   107445776.60609  20446248.243    83723988.70349
  21995993.037   115589768.17209  21995991.626    90069958.63547
  22380497.407   117610337.45708  22380494.719    91644416.36747
  23625631.511   124153532.33708  23625629.962    96743006.16546
  21228338.800   111555719.55309  21228335.484    86926537.49848
  20925074.771   109962045.98109  20925075.697    85684736.20949
 15 02 21 02 02 30.0000000  0  7G04G16G18G19G21G22G27
  23722340.895   124661768.79806  23722341.978    97139060.70545
  20448895.427   107459678.35609  20448893.824    83734821.22849
  22000582.523   115613886.61209  22000581.343    90088752.22647
  22368442.868   117546990.90008  22368440.274    91595055.42947
  23639659.508   124227249.80207  23639658.031    96800448.32746
  21220014.339   111511974.02409  21220011.059    86892450.08748
  20918420.573   109927077.52509  20918421.452    85657488.06349
 15 02 21 02 03  0.0000000  0  7G04G16G18G19G21G22G27
  23704787.319   124569526.54406  23704788.956    97067183.76245
  20451646.296   107474134.17509  20451644.636    83746085.49949
  22005264.584   115638490.47909  22005263.310    90107924.06947
  22356410.397   117483759.83608  22356407.775    91545784.48447
  23653694.151   124301001.72407  23653692.445    96857917.34546
  21211780.299   111468704.20009  21211777.027    86858733.35448
  20911802.314   109892298.52909  20911803.154    85630387.55149
 15 02 21 02 03 30.0000000  0  7G04G16G18G19G21G22G27
  23687271.114   124477478.20107  23687272.635    96995457.89145
  20454501.468   107489138.54809  20454499.948    83757777.21249
  22010037.617   115663572.84009  22010036.197    90127468.77448
  22344398.843   117420638.88008  22344396.246    91496599.34447
  23667733.826   124374780.81007  23667732.102    96915407.51846
  21203635.891   111425905.48509  21203632.645    86825383.71848
  20905219.087   109857703.84109  20905220.004    85603430.65249
 15 02 21 02 04  0.0000000  0  7G04G16G18G19G21G22G27
  23669791.858   124385622.81107  23669793.205    96923882.32844
  20457460.727   107504689.24809  20457459.093    83769894.63649
  22014901.192   115689130.66609  22014899.683    90147383.96548
  22332407.987   117357626.66708  22332405.212    91447498.93747
  23681778.182   124448584.02307  23681776.314    96972916.50045
  21195581.146   111383577.70109  21195578.146    86792401.04848
  20898670.863   109823292.44409  20898671.757    85576616.58049
 15 02 21 02 04 30.0000000  0  7G04G16G18G19G21G22G27
  23652351.643   124293973.11407  23652352.293    96852467.01844
  20460526.204   107520798.56509  20460524.669    83782447.34349
  22019857.447   115715175.39709  22019855.991    90167678.56547
  22320440.273   117294735.74608  22320437.699    91398493.03547
  23695829.115   124522422.39207  23695827.248    97030452.88046
  21187618.714   111341734.30309  21187615.440    86759795.81648
  20892159.969   109789077.30909  20892160.880    85549955.44249
 15 02 21 02 05  0.0000000  0  7G04G16G18G19G21G22G27
  23634949.122   124202524.71406  23634950.027    96781208.61845
  20463697.048   107537461.52709  20463695.523    83795431.46249
  22024905.109   115741700.85409  22024903.459    90188347.75747
  22308494.900   117231961.45208  22308492.076    91349578.01747
  23709885.503   124596289.68007  23709883.566    97088011.77845
  21179747.641   111300371.84909  21179744.489    86727565.34148
  20885685.608   109755054.18709  20885686.361    85523443.93149
 15 02 21 02 05 30.0000000  0  7G04G16G18G19G21G22G27
  23617584.375   124111273.57507  23617585.780    96710103.92845
  20466972.381   107554673.14109  20466970.882    83808843.10149
  22030043.272   115768701.70509  22030041.543    90209387.38247
  22296570.677   117169299.39108  22296567.696    91300750.45547
  23723946.199   124670179.57507  23723944.577    97145588.29745
  21171967.479   111259486.75909  21171964.197    86695706.84548
  20879247.012   109721219.01309  20879247.737    85497078.87549
 15 02 21 02 06  0.0000000  0  7G04G16G18G19G21G22G27
  23600258.212   124020223.69007  23600259.923    96639156.06545
  20470352.402   107572435.73709  20470350.960    83822684.08049
  22035272.240   115796179.83909  22035270.374    90230798.91547
  22284668.339   117106752.83808  22284665.311    91252012.89847
  23738011.736   124744094.21807  23738010.295    97203184.12346
  21164278.988   111219083.53009  21164275.699    86664223.82448
  20872844.738   109687575.64809  20872845.719    85470863.27549
 15 02 21 02 06 30.0000000  0  7G04G16G18G19G21G22G27
  23582970.489   123929375.49707  23582971.903    96568365.35745
  20473837.507   107590749.86909  20473835.846    83836954.82449
  22040591.928   115824134.36409  22040590.089    90252581.66748
  22272788.385   117044322.07308  22272785.286    91203365.55947
  23752081.663   124818032.68707  23752080.347    97260798.47945
  21156682.430   111179163.59709  21156679.298    86633117.39349
  20866479.200   109654124.98509  20866480.066    85444797.83449
 15 02 21 02 07  0.0000000  0  7G04G16G18G19G21G22G27
  23565721.683   123838732.75707  23565722.840    96497734.70445
  20477427.960   107609617.79509  20477426.443    83851657.09749
  22046002.406   115852566.64609  22046000.649    90274736.69247
  22260930.801   116982010.26808  22260927.694    91154810.92147
  23766156.566   124891996.14507  23766155.143    97318432.32445
  21149178.512   111139730.65109  21149175.431    86602390.43748
  20860151.182   109620870.31109  20860152.081    85418885.10549
 15 02 21 02 07 30.0000000  0  7G04G16G18G19G21G22G27
  23548512.154   123748297.35106  23548513.173    96427265.62044
  20481124.043   107629040.62809  20481122.324    83866791.76549
  22051503.984   115881477.38609  22051502.248    90297264.54147
  22249096.238   116919819.56408  22249093.238    91106350.64447
  23780236.056   124965984.70707  23780234.680    97376085.73546
  21141767.947   111100787.27309  21141764.571    86572044.95748
  20853860.867   109587814.01209  20853861.448    85393126.95349
 15 02 21 02 08  0.0000000  0  7G04G16G18G19G21G22G27
  23531341.102   123658064.92407  23531342.431    96356954.73944
  20484924.817   107649013.23309  20484922.974    83882354.82349
  22057095.312   115910860.10209  22057093.578    90320160.16447
  22237283.893   116857745.17408  22237281.039    91057981.00948
  23794319.439   125039992.28907  23794317.895    97433753.95946
  21134449.828   111062330.14109  21134446.472    86542078.37448
  20847607.239   109554951.79109  20847608.191    85367520.03649
 15 02 21 02 08 30.0000000  0  7G04G16G18G19G21G22G27
  23514208.932   123568033.92307  23514210.323    96286800.77945
  20488829.467   107669532.40109  20488827.686    83898343.77949
  22062775.695   115940711.56309  22062774.178    90343421.05047
  22225493.094   116795784.98608  22225490.327    91009700.35847
  23808405.521   125114015.64907  23808404.166    97491434.47746
  21127223.988   111024358.22109  21127220.522    86512489.88048
  20841390.526   109522282.08709  20841391.363    85342063.13249
 15 02 21 02 09  0.0000000  0  7G04G16G18G19G21G22G27
  23497117.188   123478214.82607  23497118.391    96216811.95545
  20492840.035   107690608.48609  20492838.374    83914766.69149
  22068547.023   115971040.41009  22068545.458    90367053.91848
  22213726.236   116733949.47608  22213723.311    90961516.86148
  23822496.356   125188063.39507  23822494.815    97549133.98946
  21120092.499   110986882.21009  21120089.123    86483287.80848
  20835212.267   109489815.64409  20835213.099    85316764.61049
 15 02 21 02 09 30.0000000  0  7G04G16G18G19G21G22G27
  23480064.420   123388601.80107  23480065.862    96146983.70045
  20496955.265   107712234.47709  20496953.852    83931618.10449
  22074407.806   116001839.65409  22074406.545    90391053.33647
  22201981.818   116672232.58508  22201978.965    90913425.79148
  23836590.384   125262127.63907  23836589.009    97606846.38545
  21113054.440   110949897.05809  21113051.268    86454468.21848
  20829071.670   109457546.74609  20829072.680    85291620.02649
 15 02 21 02 10  0.0000000  0  7G04G16G18G19G21G22G27
  23463050.868   123299195.97907  23463052.178    96077316.91345
  20501175.192   107734410.40709  20501173.835    83948898.04149
  22080358.047   116033108.13509  22080356.715    90415418.38447
  22190260.233   116610635.26608  22190257.303    90865427.88848
  23850687.390   125336207.65407  23850686.072    97664571.06445
  21106110.055   110913404.31909  21106106.903    86426032.32948
  20822968.891   109425476.61609  20822969.862    85266630.32249
 15 02 21 02 10 30.0000000  0  7G04G16G18G19G21G22G27
  23446077.419   123210001.78106  23446078.961    96007815.02244
  20505500.354   107757139.47209  20505498.855    83966608.99249
  22086397.874   116064848.42109  22086396.638    90440151.07547
  22178562.080   116549161.49708  22178559.360    90817526.26748
  23864787.793   125410306.46107  23864786.455    97722310.37045
  21099260.203   110877408.75809  21099256.981    86397983.85548
  20816904.806   109393609.94709  20816905.907    85241799.15649
 15 02 21 02 11  0.0000000  0  7G04G16G18G19G21G22G27
  23429144.280   123121016.91007  23429145.183    95938476.21944
  20509930.260   107780418.78809  20509928.804    83984748.70849
  22092526.848   116097056.51809  22092525.536    90465248.29847
  22166887.135   116487809.15208  22166884.341    90769719.26848
  23878890.991   125484419.82907  23878889.830    97780061.01946
  21092504.723   110841908.71909  21092501.591    86370321.50548
  20810879.207   109361944.58609  20810880.035    85217124.84449
 15 02 21 02 11 30.0000000  0  7G04G16G18G19G21G22G27
  23412251.002   123032239.63107  23412251.511    95869299.14145
  20514464.443   107804245.32809  20514462.827    84003314.83449
  22098744.182   116129728.70809  22098742.932    90490707.14847
  22155234.651   116426575.93608  22155232.159    90722005.09348
  23892996.727   125558544.03207  23892995.250    97837820.10945
  21085843.524   110806903.01009  21085840.182    86343044.33648
  20804891.463   109330478.84109  20804892.441    85192606.08449
 15 02 21 02 12  0.0000000  0  7G04G16G18G19G21G22G27
  23395397.924   122943676.45407  23395398.481    95800288.95945
  20519103.670   107828624.56709  20519102.093    84022311.63449
  22105050.766   116162869.65409  22105049.521    90516531.26547
  22143606.359   116365468.13208  22143603.659    90674388.63948
  23907105.223   125632684.11407  23907103.582    97895591.58746
  21079277.490   110772398.32909  21079274.086    86316157.58449
  20798943.088   109299219.57309  20798943.955    85168248.21449
 15 02 21 02 12 30.0000000  0  7G04G16G18G19G21G22G27
  23378585.350   122855328.09307  23378586.812    95731446.17345
  20523848.063   107853556.24409  20523846.362    84041738.90349
  22111446.369   116196478.30509  22111444.914    90542719.82847
  22132001.986   116304486.36308  22131999.233    90626870.39348
  23921216.242   125706838.55607  23921214.914    97953374.22845
  21072807.141   110738396.16909  21072803.731    86289662.40549
  20793034.079   109268167.64609  20793034.786    85144051.90849
 15 02 21 02 13  0.0000000  0  7G04G16G18G19G21G22G27
  23361813.567   122767192.09207  23361814.932    95662768.84645
  20528696.732   107879036.17009  20528695.196    84061593.38049
  22117930.071   116230550.63909  22117928.642    90569269.70747
  22120421.047   116243628.30608  22120418.263    90579448.53948
  23935329.384   125781003.70807  23935327.954    98011165.23745
  21066431.947   110704894.82609  21066428.616    86263557.46848
  20787164.099   109237320.85209  20787164.920    85120015.44549
 15 02 21 02 13 30.0000000  0  7G04G16G18G19G21G22G27
  23345082.112   122679267.36107  23345083.426    95594256.12545
  20533649.314   107905062.75709  20533647.781    84081873.82749
  22124501.547   116265083.38609  22124500.013    90596178.34047
  22108863.344   116182892.54408  22108860.536    90532121.98348
  23949444.102   125855176.64807  23949442.758    98068962.31045
  21060152.022   110671893.13009  21060148.551    86237841.87449
  20781333.077   109206678.31209  20781333.877    85096138.14149
 15 02 21 02 14  0.0000000  0  7G04G16G18G19G21G22G27
  23328391.496   122591557.48507  23328392.111    95525910.82644
  20538706.585   107931638.36609  20538705.102    84102582.08449
  22131161.014   116300078.30709  22131159.335    90623447.12047
  22097329.657   116122282.42208  22097326.964    90484893.34148
  23963560.705   125929359.45807  23963559.311    98126767.07945
  21053967.781   110639395.19209  21053964.472    86212518.82349
  20775541.468   109176243.92009  20775542.443    85072423.03149
 15 02 21 02 14 30.0000000  0  7G04G16G18G19G21G22G27
  23311742.606   122504067.60507  23311743.146    95457736.94145
  20543869.039   107958767.27209  20543867.451    84123721.48149
  22137909.097   116335539.00209  22137907.198    90651078.83647
  22085820.930   116061803.43308  22085818.053    90437766.86748
  23977679.708   126003555.28707  23977678.116    98184581.97445
  21047880.433   110607406.46309  21047877.329    86187592.55249
  20769790.753   109146023.11209  20769791.547    85048874.35449
 15 02 21 02 15  0.0000000  0  7G04G16G18G19G21G22G27
  23295134.221   122416790.95207  23295135.253    95389729.23846
  20549135.201   107986441.51909  20549133.644    84145285.81449
  22144743.825   116371456.52409  22144742.275    90679066.52147
  22074335.681   116001448.26108  22074332.788    90390736.87848
  23991799.481   126077755.60407  23991798.137    98242400.38145
  21041888.893   110575920.83409  21041885.824    86163058.30749
  20764079.272   109116009.29909  20764079.965    85025486.97349
 15 02 21 02 15 30.0000000  0  7G04G16G18G19G21G22G27
  23278567.161   122329730.49307  23278568.435    95321890.01145
  20554505.452   108014662.31209  20554504.063    84167276.03449
  22151665.625   116407831.76809  22151664.203    90707410.87647
  22062874.439   115941219.68308  22062871.668    90343805.53848
  24005920.378   126151961.82507  24005919.049    98300223.40446
  21035993.850   110544941.23509  21035990.536    86138918.37149
  20758407.771   109086205.66909  20758408.699    85002263.37149
 15 02 21 02 16  0.0000000  0  7G04G16G18G19G21G22G27
  23262042.400   122242893.54207  23262043.621    95254224.91045
  20559981.025   108043436.02009  20559979.546    84189697.09749
  22158675.711   116444670.23809  22158674.422    90736116.17847
  22051438.731   115881124.91608  22051435.995    90296978.46548
  24020043.535   126226179.48507  24020042.436    98358055.31445
  21030196.387   110514475.26809  21030192.928    86115178.66749
  20752777.751   109056619.74909  20752778.717    84979209.40849
 15 02 21 02 16 30.0000000  0  7G04G16G18G19G21G22G27
  23245558.700   122156270.82907  23245559.517    95186726.73145
  20565559.665   108072752.09409  20565558.038    84212540.77849
  22165771.862   116481961.04409  22165770.307    90765173.95247
  22040026.984   115821155.12308  22040024.028    90250248.77248
  24034166.837   126300398.65507  24034165.693    98415888.41045
  21024495.014   110484514.84909  21024491.530    86091832.89549
  20747187.537   109027242.87809  20747188.506    84956318.33749
 15 02 21 02 17  0.0000000  0  7G04G16G18G19G21G22G27
  23229116.833   122069866.82807  23229117.305    95119398.96345
  20571242.005   108102613.84009  20571240.545    84235809.66149
  22172954.445   116519706.33109  22172952.914    90794585.87147
  22028639.700   115761314.32208  22028636.751    90203619.58848
  24048291.118   126374621.37707  24048289.779    98473724.27645
  21018890.866   110455064.48109  21018887.283    86068884.56548
  20741638.041   108998079.77109  20741638.852    84933593.83749
 15 02 21 02 17 30.0000000  0  7G04G16G18G19G21G22G27
  23212716.920   121983684.89207  23212717.686    95052244.26545
  20577028.864   108133023.61109  20577027.360    84259505.57649
  22180223.826   116557907.40509  22180222.275    90824352.93947
  22017277.471   115701605.87308  22017274.629    90157093.53648
  24062416.303   126448849.47507  24062414.668    98531564.33645
  21013384.253   110426127.47109  21013380.840    86046336.25949
  20736129.829   108969133.95109  20736130.723    84911038.65549
 15 02 21 02 18  0.0000000  0  7G04G16G18G19G21G22G27
  23196358.582   121897722.18607  23196359.444    94985260.40545
  20582919.231   108163977.41809  20582917.709    84283625.41249
  22187579.266   116596560.22209  22187577.938    90854472.02547
  22005940.262   115642027.15608  22005937.109    90110668.56748
  24076541.678   126523078.57107  24076540.094    98589405.18745
  21007974.928   110397701.34109  21007971.546    86024186.03949
  20730662.697   108940403.01209  20730663.330    84888650.90949
 15 02 21 02 18 30.0000000  0  7G04G16G18G19G21G22G27
  23180042.914   121811983.24107  23180043.609    94918450.88245
  20588913.707   108195478.25809  20588912.094    84308171.51149
  22195020.901   116635666.93709  22195019.545    90884944.78747
  21994628.207   115582582.44108  21994625.327    90064348.02548
  24090667.751   126597311.74506  24090666.183    98647249.19045
  21002663.643   110369790.75309  21002660.209    86002437.53649
  20725236.981   108911891.77309  20725237.906    84866434.36349
 15 02 21 02 19  0.0000000  0  7G04G16G18G19G21G22G27
  23163769.006   121726463.40007  23163769.823    94851812.07446
  20595011.076   108227520.08509  20595009.539    84333139.15749
  22202547.882   116675220.83409  22202546.533    90915766.01047
  21983340.958   115523267.39008  21983337.991    90018128.51948
  24104793.521   126671542.35307  24104792.139    98705091.21345
  20997449.724   110342391.48909  20997446.358    85981087.46949
  20719852.409   108883595.97109  20719853.258    84844385.68949
 15 02 21 02 19 30.0000000  0  7G04G16G18G19G21G22G27
  23147537.926   121641168.34107  23147538.705    94785348.42445
  20601212.191   108260107.16409  20601210.508    84358531.67949
  22210160.439   116715224.86709  22210158.728    90946937.98947
  21972079.339   115464087.43108  21972076.469    89972014.28248
  24118919.425   126745774.94907  24118917.788    98762934.76045
  20992334.248   110315509.94609  20992330.966    85960140.82549
  20714510.082   108855521.60209  20714510.883    84822509.55949
 15 02 21 02 20  0.0000000  0  7G04G16G18G19G21G22G27
  23131349.484   121556098.07007  23131350.408    94719059.95745
  20607516.767   108293238.46909  20607515.275    84384348.27149
  22217858.580   116755678.56009  22217856.887    90978460.35247
  21960843.419   115405042.74408  21960840.556    89926005.44148
  24133045.509   126820007.67607  24133043.816    98820778.41844
  20987317.577   110289146.06909  20987314.220    85939597.55649
  20709210.010   108827669.12909  20709210.772    84800806.33449
 15 02 21 02 20 30.0000000  0  7G04G16G18G19G21G22G27
  23115203.698   121471252.14207  23115204.618    94652946.30245
  20613924.715   108326912.58509  20613923.137    84410587.83249
  22225641.548   116796578.95909  22225639.783    91010330.79347
  21949633.150   115346132.85108  21949630.266    89880101.64648
  24147171.314   126894239.09607  24147169.699    98878621.05045
  20982399.117   110263299.54509  20982395.785    85919457.41749
  20703952.037   108800038.38809  20703952.686    84779275.88249
 15 02 21 02 21  0.0000000  0  7G04G16G18G19G21G22G27
  23099100.816   121386631.23607  23099101.585    94587007.98045
  20620435.845   108361128.36909  20620434.289    84437249.47549
  22233509.405   116837924.01509  22233507.504    91042547.73147
  21938448.801   115287358.38708  21938445.861    89834303.37848
  24161296.590   126968468.10807  24161295.040    98936461.80445
  20977579.391   110237971.27609  20977576.023    85899721.11149
  20698736.464   108772630.49409  20698737.343    84757919.08149
 15 02 21 02 21 30.0000000  0  7G04G16G18G19G21G22G27
  23083040.580   121302233.90707  23083041.291    94521243.85645
  20627049.560   108395883.17609  20627047.984    84464331.13949
  22241461.020   116879710.93709  22241459.329    91075108.96947
  21927289.939   115228718.04408  21927286.903    89788609.62348
  24175420.983   127042692.04707  24175419.628    98994298.63045
  20972858.042   110213160.13609  20972854.447    85880387.76449
  20693563.142   108745444.53309  20693564.013    84736735.21949
 15 02 21 02 22  0.0000000  0  7G04G16G18G19G21G22G27
  23067023.601   121218063.21007  23067024.238    94455656.35846
  20633765.776   108431177.97309  20633764.259    84491833.56949
  22249497.168   116921940.80809  22249495.734    91108015.36047
  21916156.976   115170214.90008  21916154.144    89743022.77448
  24189544.501   127116911.91607  24189543.309    99052132.27245
  20968235.611   110188869.34809  20968231.982    85861459.88749
  20688432.608   108718483.80009  20688433.435    84715726.85949
 15 02 21 02 22 30.0000000  0  7G04G16G18G19G21G22G27
  23051049.955   121134122.07007  23051050.664    94390247.74245
  20640585.532   108467015.21809  20640583.881    84519758.68649
  22257617.768   116964614.43909  22257616.264    91141267.54247
  21905050.819   115111851.99308  21905048.232    89697545.20248
  24203667.796   127191129.45407  24203666.588    99109964.08245
  20963712.671   110165101.79309  20963709.145    85842939.72049
  20683345.674   108691751.78409  20683346.562    84694896.71649
 15 02 21 02 23  0.0000000  0  7G04G16G18G19G21G22G27
  23035119.507   121050408.87507  23035120.366    94325016.74345
  20647507.840   108503392.09709  20647506.283    84548104.29649
  22265822.056   117007728.70609  22265820.705    91174863.07647
  21893971.374   115053628.15008  21893968.370    89652175.98848
  24217789.856   127265342.00607  24217788.515    99167792.01644
  20959289.171   110141856.36409  20959285.704    85824826.40749
  20678302.130   108665247.43609  20678302.922    84674243.97949
 15 02 21 02 23 30.0000000  0  7G04G16G18G19G21G22G27
  23019232.495   120966921.62407  23019233.278    94259961.77245
  20654531.916   108540304.42909  20654530.540    84576867.14249
  22274109.311   117051278.92809  22274107.892    91208798.31447
  21882917.781   114995541.28208  21882914.869    89606913.50048
  24231910.415   127339546.26507  24231908.704    99225613.48645
  20954964.665   110119131.11809  20954961.168    85807118.43649
  20673301.577   108638969.00709  20673302.448    84653767.28149
 15 02 21 02 24  0.0000000  0  8G04G11G16G18G19G21G22G27
  23003389.708   120883666.12607  23003390.279    94195087.40245
  24695547.809   129775974.77515  24695548.521   101124131.34154
  20661658.806   108577756.55009  20661657.355    84606050.60349
  22282480.331   117095268.56209  22282478.582    91243075.95447
  21871891.369   114937597.19108  21871888.523    89561762.26748
  24246030.277   127413745.79507  24246028.736    99283431.31245
  20950740.111   110096931.84609  20950736.813    85789820.31349
  20668345.001   108612922.74209  20668345.931    84633471.48549
 15 02 21 02 24 30.0000000  0  8G04G11G16G18G19G21G22G27
  22987588.824   120800633.07707  22987589.566    94130386.37346
  24678462.210   129686195.12705  24678462.388   101054173.20143
  20668886.558   108615738.48809  20668884.984    84635646.90749
  22290932.849   117139686.71709  22290931.184    91277687.50647
  21860890.378   114879786.93508  21860887.616    89516715.32848
  24260147.231   127487930.73607  24260145.792    99341237.70345
  20946614.163   110075249.56309  20946610.860    85772925.03749
  20663431.004   108587099.95109  20663431.934    84613349.83149
 15 02 21 02 25  0.0000000  0  8G04G11G16G18G19G21G22G27
  22971833.561   120717839.01607  22971834.286    94065871.57145
  24661394.797   129596508.64405  24661395.270   100984287.80344
  20676217.840   108654264.44609  20676216.349    84665667.12449
  22299469.663   117184547.85109  22299468.073    91312644.23447
  21849918.035   114822126.94709  21849915.257    89471785.47948
  24274264.002   127562115.27406  24274262.435    99399043.83745
  20942589.641   110054100.52509  20942586.273    85756445.27849
  20658562.923   108561517.45209  20658563.839    84593415.42049
 15 02 21 02 25 30.0000000  0  8G04G11G16G18G19G21G22G27
  22956121.630   120635272.63907  22956122.568    94001534.18145
  24644343.772   129506904.02605  24644344.359   100914466.13943
  20683650.203   108693321.62309  20683648.651    84696101.28149
  22308088.298   117229838.70909  22308086.607    91347935.81547
  21838972.392   114764606.45209  21838969.464    89426964.31648
  24288378.336   127636287.25606  24288377.093    99456840.15845
  20938664.718   110033474.00809  20938661.119    85740372.67849
  20653738.423   108536164.63009  20653739.212    84573659.97549
 15 02 21 02 26  0.0000000  0  8G04G11G16G18G19G21G22G27
  22940453.795   120552937.39007  22940454.440    93937376.91245
  24627308.626   129417384.04205  24627308.923   100844710.34543
  20691184.118   108732912.61609  20691182.510    84726951.39549
  22316788.867   117275560.47608  22316787.437    91383563.16847
  21828053.725   114707228.93909  21828050.804    89382254.57548
  24302490.856   127710448.98507  24302489.699    99514628.48444
  20934839.756   110013373.32309  20934836.102    85724709.81249
  20648958.442   108511045.21909  20648959.286    84554086.41249
 15 02 21 02 26 30.0000000  0  8G04G11G16G18G19G21G22G27
  22924830.124   120470834.03607  22924830.716    93873400.30945
  24610289.867   129327949.86205  24610289.912   100775021.43544
  20698819.468   108773036.64709  20698817.758    84758216.86549
  22325571.023   117321711.86608  22325569.679    91419525.29147
  21817162.607   114649995.16709  21817159.499    89337656.84348
  24316601.396   127784600.52806  24316599.818    99572408.87544
  20931115.030   109993799.09809  20931111.459    85709457.17849
  20644223.009   108486160.69609  20644223.742    84534695.87349
 15 02 21 02 27  0.0000000  0  8G04G11G16G18G19G21G22G27
  22909250.722   120388964.69907  22909251.380    93809606.06745
  24593287.663   129238603.11306  24593287.335   100705400.66142
  20706556.398   108813694.23909  20706554.836    84789898.09449
  22334435.236   117368293.18009  22334433.640    91455822.41847
  21806299.103   114592907.78609  21806296.273    89293173.18648
  24330710.261   127858742.08206  24330708.551    99630181.56045
  20927490.724   109974753.86609  20927487.160    85694616.74749
  20639532.870   108461513.84909  20639533.626    84515490.53749
 15 02 21 02 27 30.0000000  0  8G04G11G16G18G19G21G22G27
  22893715.692   120307327.31307  22893716.133    93745992.54745
  24576301.836   129149341.05406  24576300.948   100635845.87344
  20714393.957   108854881.29709  20714392.287    84821991.89649
  22343380.167   117415299.54609  22343378.438    91492450.74447
  21795463.213   114535964.86509  21795460.366    89248802.08548
  24344816.185   127932869.24807  24344814.728    99687942.90545
  20923966.833   109956235.25909  20923963.174    85680186.67449
  20634887.624   108437102.69709  20634888.255    84496468.86049
 15 02 21 02 28  0.0000000  0  8G04G11G16G18G19G21G22G27
  22878225.083   120225923.08407  22878225.475    93682560.73545
  24559331.973   129060165.22905  24559332.055   100566358.30943
  20722332.242   108896597.73609  20722330.865    84854498.20249
  22352406.040   117462730.86109  22352404.385    91529410.20947
  21784655.246   114479168.04908  21784652.096    89204544.83948
  24358919.690   128006983.48006  24358918.665    99745694.23045
  20920543.366   109938245.03609  20920539.796    85666168.32749
  20630287.629   108412929.31109  20630288.334    84477632.45649
 15 02 21 02 28 30.0000000  0  8G04G11G16G18G19G21G22G27
  22862779.342   120144755.91307  22862779.724    93619313.62145
  24542379.326   128971079.34306  24542379.657   100496940.82544
  20730371.737   108938845.75409  20730370.263    84887418.72249
  22361513.310   117510589.01108  22361511.578    91566702.26647
  21773875.609   114422521.11308  21773872.654    89160404.38948
  24373021.097   128081086.49607  24373019.731    99803436.80045
  20917220.864   109920786.57809  20917217.534    85652564.34349
  20625733.701   108388998.03809  20625734.326    84458984.71149
 15 02 21 02 29  0.0000000  0  8G04G11G16G18G19G21G22G27
  22847378.288   120063823.39107  22847378.776    93556249.37645
  24525443.443   128882080.70606  24525444.005   100427591.28443
  20738511.789   108981621.80009  20738510.355    84920750.69449
  22370700.731   117558869.01508  22370699.163    91604323.04747
  21763124.153   114366022.04909  21763121.295    89116379.15148
  24387119.714   128155174.82507  24387118.065    99861167.93345
  20913999.235   109903857.11509  20913995.852    85639372.56249
  20621225.273   108365306.96509  20621226.240    84440524.13249
 15 02 21 02 29 30.0000000  0  8G04G11G16G18G19G21G22G27
  22832022.090   119983125.09107  22832022.459    93493367.60745
  24508524.122   128793168.79306  24508524.455   100358309.33743
  20746751.938   109024923.38309  20746750.538    84954492.18049
  22379967.878   117607568.54909  22379966.261    91642270.73547
  21752400.750   114309670.71909  21752398.011    89072469.03248
  24401215.557   128229247.29107  24401213.501    99918886.73144
  20910878.390   109887457.05609  20910875.057    85626593.30449
  20616762.904   108341856.40109  20616763.578    84422250.96649
 15 02 21 02 30  0.0000000  0  8G04G11G16G18G19G21G22G27
  22816710.665   119902663.88507  22816711.052    93430670.61245
  24491621.840   128704346.01506  24491621.746   100289096.78744
  20755092.391   109068752.01009  20755090.838    84988644.34449
  22389315.071   117656688.06609  22389313.431    91680545.67647
  21741706.235   114253470.22409  21741703.261    89028676.44348
  24415308.119   128303304.64206  24415305.932    99976593.75744
  20907858.653   109871588.88809  20907855.371    85614228.50949
  20612346.761   108318649.72509  20612347.533    84404167.84149
 15 02 21 02 30 30.0000000  0  8G04G11G16G18G19G21G22G27
  22801444.372   119822439.22407  22801444.657    93368157.93146
  24474736.161   128615611.79605  24474736.128   100219953.28644
  20763532.511   109113105.45509  20763530.991    85023205.45649
  22398741.610   117706225.01908  22398739.931    91719145.89847
  21731040.314   114197420.33609  21731037.340    88985001.21848
  24429397.538   128377345.47306  24429395.759   100034287.86745
  20904940.156   109856251.55109  20904936.798    85602277.34449
  20607977.055   108295686.89009  20607977.902    84386274.71649
 15 02 21 02 31  0.0000000  0  8G04G11G16G18G19G21G22G27
  22786223.437   119742452.51308  22786223.968    93305830.66046
  24457867.791   128526967.63405  24457867.551   100150879.97044
  20772072.536   109157983.77709  20772071.072    85058175.56549
  22408247.368   117756178.95908  22408246.054    91758071.03947
  21720403.331   114141522.92809  21720400.289    88941444.80348
  24443484.117   128451370.41807  24443482.599   100091969.59244
  20902122.951   109841446.88109  20902119.603    85590741.24749
  20603654.319   108272970.13409  20603655.170    84368573.35049
 15 02 21 02 31 30.0000000  0  8G04G11G16G18G19G21G22G27
  22771047.680   119662702.49508  22771047.856    93243687.83445
  24441016.414   128438412.29906  24441015.912   100081875.85943
  20780711.855   109203383.64309  20780710.446    85093552.07649
  22417832.125   117806546.47408  22417830.558    91797318.44747
  21709795.433   114085777.29509  21709792.340    88898006.65348
  24457567.102   128525376.81607  24457565.842   100149636.86545
  20899406.986   109827173.60609  20899403.492    85579619.22649
  20599378.033   108250498.69609  20599379.074    84351063.13949
 15 02 21 02 32  0.0000000  0  8G04G11G16G18G19G21G22G27
  22755917.238   119583192.05007  22755917.708    93181731.68746
  24424181.948   128349947.70806  24424182.137   100012942.52044
  20789450.460   109249305.72909  20789449.071    85129335.50549
  22427495.462   117857327.68708  22427493.922    91836888.21547
  21699216.791   114030186.34609  21699213.927    88854689.03848
  24471646.714   128599365.52006  24471645.498   100207290.35944
  20896792.621   109813434.09109  20896788.982    85568913.11849
  20595149.081   108228275.77409  20595150.056    84333746.58249
 15 02 21 02 32 30.0000000  0  8G04G11G16G18G19G21G22G27
  22740832.204   119503920.59908  22740832.792    93119961.75846
  24407365.198   128261573.93706  24407365.092    99944079.84443
  20798288.423   109295749.12909  20798287.046    85165525.15849
  22437237.219   117908520.90108  22437235.688    91876779.02547
  21688667.410   113974749.97409  21688664.525    88811491.87348
  24485722.853   128673336.12706  24485721.155   100264929.76144
  20894279.660   109800228.04609  20894275.811    85558622.70049
  20590967.571   108206301.85409  20590968.665    84316624.04549
 15 02 21 02 33  0.0000000  0  8G04G11G16G18G19G21G22G27
  22725792.628   119424886.77808  22725793.039    93058376.98446
  24390565.074   128173289.06406  24390564.892    99875286.55243
  20807224.669   109342709.51309  20807223.223    85202117.65249
  22447056.658   117960121.68208  22447054.875    91916987.42447
  21678147.332   113919466.87109  21678144.647    88768414.13748
  24499794.915   128747285.22006  24499793.118   100322552.41044
  20891867.645   109787553.60209  20891864.024    85548746.52149
  20586833.276   108184575.80109  20586834.129    84299694.65549
 15 02 21 02 33 30.0000000  0  8G04G11G16G18G19G21G22G27
  22710798.956   119346094.75108  22710799.334    92996980.64546
  24373782.607   128085097.38506  24373782.190    99806565.81943
  20816260.036   109390190.25109  20816258.519    85239115.61949
  22456954.046   118012132.40108  22456952.307    91957515.25547
  21667657.377   113864341.82009  21667654.575    88725459.54648
  24513863.402   128821216.83806  24513862.261   100380161.38645
  20889557.814   109775415.01909  20889554.047    85539287.89749
  20582747.112   108163102.71009  20582747.997    84282962.37949
 15 02 21 02 34  0.0000000  0  9G04G11G16G18G19G21G22G27G32
  22695850.988   119267542.77708  22695851.309    92935771.32446
  24357017.353   127996996.81506  24357017.585    99737916.12743
  20825393.608   109438187.39809  20825391.978    85276515.98249
  22466928.630   118064549.19408  22466926.876    91998359.50947
  21657197.331   113809373.90509  21657194.529    88682627.41048
  24527928.369   128895127.23706  24527927.085   100437753.89745
  20887349.406   109763810.63009  20887345.921    85530245.52249
  20578708.916   108141881.34709  20578709.752    84266426.25349
  24497652.854   128736034.33416  24497656.594   100313809.66854
 15 02 21 02 34 30.0000000  0  9G04G11G16G18G19G21G22G27G32
  22680949.266   119189233.35108  22680949.666    92874751.02546
  24340269.997   127908989.83806  24340270.267    99669339.31244
  20834625.496   109486701.98909  20834624.125    85314319.54949
  22476980.514   118117372.39108  22476978.863    92039520.43447
  21646767.735   113754565.50609  21646764.825    88639919.57748
  24541988.960   128969017.30006  24541987.878   100495330.49345
  20885243.128   109752742.31309  20885239.632    85521620.86849
  20574718.984   108120914.98809  20574719.851    84250088.83749
  24475114.171   128617594.06805  24475117.674   100221518.90244
 15 02 21 02 35  0.0000000  0  9G04G11G16G18G19G21G22G27G32
  22666093.176   119111164.54108  22666093.761    92813918.23446
  24323540.023   127821074.44706  24323540.162    99600833.89344
  20843955.357   109535730.24009  20843953.896    85352523.36949
  22487108.819   118170597.86508  22487107.203    92080994.82547
  21636368.224   113699915.30509  21636365.368    88597335.00748
  24556045.355   129042884.71506  24556044.019   100552889.51044
  20883238.278   109742207.72709  20883235.168    85513412.11249
  20570777.598   108100202.33009  20570778.539    84233949.10349
  24452577.206   128499163.51305  24452580.538   100129235.69243
 15 02 21 02 35 30.0000000  0  9G04G11G16G18G19G21G22G27G32
  22651282.968   119033337.06308  22651283.579    92753273.48446
  24306827.584   127733250.76906  24306827.748    99532399.91444
  20853382.435   109585270.30309  20853381.122    85391126.00349
  22497313.451   118224223.94708  22497311.975    92122781.37647
  21625998.992   113645424.21709  21625995.915    88554874.42648
  24570097.532   129116729.09206  24570096.090   100610430.57645
  20881335.284   109732207.54809  20881332.031    85505619.77349
  20566884.535   108079744.64709  20566885.579    84218008.05549
  24430042.613   128380745.30406  24430046.034   100036962.07244
 15 02 21 02 36  0.0000000  0  9G04G11G16G18G19G21G22G27G32
  22636519.522   118955754.16108  22636520.042    92692819.30046
  24290133.385   127645522.16405  24290133.826    99464040.03044
  20862907.405   109635324.67309  20862905.996    85430129.39549
  22507594.563   118278251.99008  22507593.153    92164881.14447
  21615660.770   113591096.08309  21615657.471    88512540.81848
  24584145.920   129190553.33607  24584144.235   100667955.91544
  20879534.663   109722745.19209  20879531.437    85498246.51649
  20563040.783   108059545.93709  20563041.702    84202268.80149
  24407511.517   128262345.15906  24407515.046    99944702.50644
 15 02 21 02 36 30.0000000  0  9G04G11G16G18G19G21G22G27G32
  22621801.716   118878411.12808  22621802.022    92632552.02945
  24273456.532   127557884.02105  24273456.521    99395750.63144
  20872529.090   109685886.68609  20872527.617    85469528.35449
  22517951.122   118332675.14008  22517949.373    92207288.79247
  21605352.514   113536926.61309  21605349.327    88470330.84748
  24598189.251   129264350.85106  24598187.655   100725460.46544
  20877835.286   109713815.12209  20877832.203    85491288.02949
  20559245.771   108039602.23509  20559246.702    84186728.25249
  24384983.488   128143960.63006  24384987.188    99852455.16045
 15 02 21 02 37  0.0000000  0  9G04G11G16G18G19G21G22G27G32
  22607130.137   118801312.68308  22607130.487    92572475.35945
  24256797.561   127470340.84806  24256797.651    99327535.18644
  20882247.832   109736958.86309  20882246.281    85509324.84649
  22528383.118   118387495.61408  22528381.482    92250006.03647
  21595075.681   113482921.11809  21595072.463    88428248.64948
  24612227.871   129338124.95506  24612226.445   100782946.74644
  20876237.970   109705421.95209  20876234.793    85484747.90449
  20555500.082   108019918.94309  20555500.989    84171390.62249
  24362459.715   128025598.53105  24362463.452    99760225.28845
 15 02 21 02 37 30.0000000  0  9G04G11G16G18G19G21G22G27G32
  22592505.526   118724460.20508  22592506.027    92512590.35646
  24240157.079   127382894.02705  24240156.842    99259394.88744
  20892063.792   109788541.17709  20892062.088    85549518.84449
  22538890.675   118442712.98408  22538888.823    92293032.55947
  21584830.182   113429081.40709  21584827.117    88386295.64348
  24626262.051   129411876.53406  24626261.403   100840415.45845
  20874743.446   109697567.23609  20874740.176    85478627.35249
  20551804.627   108000498.13509  20551805.333    84156257.52949
  24339940.872   127907262.58805  24339944.780    99668015.87444
 15 02 21 02 38  0.0000000  0  9G04G11G16G18G19G21G22G27G32
  22577927.200   118647850.62008  22577927.559    92452894.59146
  24223534.274   127295540.59706  24223534.139    99191327.32144
  20901975.578   109840628.49409  20901974.133    85590106.35349
  22549472.665   118498321.93508  22549470.929    92336364.20247
  21574615.769   113375404.80809  21574612.812    88344469.74048
  24640291.689   129485601.68906  24640290.898   100897863.61144
  20873350.591   109690247.42309  20873347.150    85472923.61049
  20548158.371   107981337.45809  20548159.270    84141327.13449
  24317427.136   127788952.04106  24317430.502    99575826.10843
 15 02 21 02 38 30.0000000  0  9G04G11G16G18G19G21G22G27G32
  22563395.401   118571485.96908  22563395.934    92393389.70546
  24206929.804   127208282.29806  24206929.248    99123333.88044
  20911983.491   109893220.90209  20911982.216    85631087.43649
  22560129.179   118554322.32308  22560127.361    92380000.85447
  21564433.210   113321894.28409  21564430.237    88302773.23448
  24654316.284   129559301.02506  24654315.794   100955291.59344
  20872059.886   109683464.06809  20872056.207    85467637.88449
  20544562.174   107962439.69009  20544563.030    84126601.60349
  24294918.930   127670671.21207  24294921.576    99483659.44444
 15 02 21 02 39  0.0000000  0  9G04G11G16G18G19G21G22G27G32
  22548909.670   118495362.46808  22548910.056    92334072.70546
  24190342.573   127121115.49706  24190341.946    99055411.74644
  20922086.574   109946312.80309  20922085.235    85672457.73749
  22570858.982   118610708.31908  22570857.273    92423937.98347
  21554281.461   113268546.38809  21554278.450    88261203.45448
  24668335.005   129632970.18506  24668334.565   101012696.14745
  20870870.402   109677213.00109  20870866.647    85462766.93049
  20541015.453   107943801.89009  20541016.367    84112078.64349
  24272415.961   127552418.78006  24272418.453    99391514.97744
 15 02 21 02 39 30.0000000  0  9G04G11G16G18G19G21G22G27G32
  22534471.980   118419492.30208  22534472.440    92274953.11546
  24173774.841   127034051.94806  24173774.683    98987570.07243
  20932286.920   109999915.10809  20932285.389    85714225.75449
  22581663.979   118667489.52508  22581662.634    92468183.06846
  21544162.992   113215373.57209  21544160.063    88219770.10348
  24682350.186   129706620.42406  24682349.093   101070085.89043
  20869784.405   109671506.11209  20869780.855    85458320.01149
  20537520.698   107925436.85909  20537521.754    84097768.22249
  24249920.700   127434208.88905  24249924.002    99299403.80745
 15 02 21 02 40  0.0000000  0  9G04G11G16G18G19G21G22G27G32
  22520080.395   118343864.26008  22520080.814    92216022.21546
  24157224.608   126947080.66606  24157224.548    98919800.28644
  20942581.646   110054014.16609  20942580.117    85756380.85249
  22592541.922   118724652.40408  22592540.290    92512725.56447
  21534075.845   113162365.34609  21534072.682    88178464.99748
  24696359.521   129780239.38106  24696358.611   101127451.27645
  20868799.860   109666332.10909  20868796.139    85454288.32849
  20534075.963   107907334.09209  20534076.934    84083662.16849
  24227432.421   127316032.80907  24227435.615    99207318.90044
 15 02 21 02 40 30.0000000  0  9G04G11G16G18G19G21G22G27G32
  22505735.185   118268479.98608  22505735.744    92157281.24146
  24140692.334   126860203.07606  24140691.879    98852103.48944
  20952970.751   110108609.84209  20952969.273    85798922.92649
  22603492.303   118782196.86008  22603490.711    92557565.39547
  21524020.459   113109524.34609  21524017.551    88137290.19748
  24710362.867   129853827.43406  24710362.179   101184792.54444
  20867916.959   109661692.17909  20867913.046    85450672.80349
  20530681.504   107889496.15609  20530682.396    84069762.47749
  24204951.569   127197894.69707  24204954.413    99115263.48044
 15 02 21 02 41  0.0000000  0  9G04G11G16G18G19G21G22G27G32
  22491438.234   118193348.03408  22491438.495    92098736.89846
  24124179.404   126773427.69806  24124178.855    98784486.35444
  20963455.747   110163708.46309  20963454.280    85841856.90449
  22614516.609   118840129.00908  22614514.898    92602707.31746
  21513998.563   113056859.14209  21513995.652    88096252.38448
  24724362.024   129927392.37306  24724360.635   101242115.88344
  20867137.176   109657594.05209  20867133.307    85447479.46449
  20527339.241   107871932.15909  20527340.146    84056076.24149
  24182479.962   127079805.16806  24182481.857    99023245.84143
 15 02 21 02 41 30.0000000  0  9G04G11G16G18G19G21G22G27G32
  22477187.940   118118462.73208  22477188.316    92040384.73446
  24107684.990   126686749.03306  24107684.382    98716944.58743
  20974034.979   110219302.57709  20974033.478    85885176.98349
  22625613.014   118898441.01008  22625611.255    92648145.23346
  21504009.047   113004364.72509  21504006.255    88055347.65748
  24738355.313   130000927.60406  24738354.153   101299416.02844
  20866459.164   109654031.98009  20866455.370    85444703.83149
  20524048.149   107854637.14009  20524048.929    84042599.60149
  24160015.997   126961760.67604  24160018.797    98931263.39345
 15 02 21 02 42  0.0000000  0  9G04G11G16G18G19G21G22G27G32
  22462984.755   118043824.55408  22462985.165    91982225.14146
  24091208.733   126600167.34006  24091208.817    98649478.40644
  20984708.068   110275390.88309  20984707.008    85928882.14549
  22636781.115   118957130.84208  22636779.335    92693877.56047
  21494052.519   112952042.35009  21494049.525    88014576.98248
  24752343.011   130074433.48206  24752342.019   101356693.31444
  20865883.284   109651005.89409  20865879.489    85442345.85049
  20520808.432   107837612.62309  20520809.247    84029333.73849
  24137561.544   126843764.47606  24137564.927    98839318.70945
 15 02 21 02 42 30.0000000  0  8G04G11G16G18G19G22G27G32
  22448828.422   117969432.24108  22448828.751    91924257.11746
  24074750.920   126513681.51206  24074751.009    98582086.87144
  20995474.859   110331970.06109  20995473.496    85972969.80348
  22648020.827   119016195.33008  22648018.817    92739901.82946
  21484128.581   112899891.39209  21484125.504    87973939.87048
  20865409.225   109648514.42109  20865405.517    85440404.45149
  20517620.267   107820858.10609  20517621.106    84016278.27149
  24115117.159   126725817.74807  24115120.519    98747412.45445
 15 02 21 02 43  0.0000000  0  9G04G11G16G18G19G21G22G27G32
  22434719.945   117895291.22408  22434719.903    91866484.90246
  24058312.429   126427296.56506  24058312.444    98514773.97744
  21006335.546   110389043.57809  21006334.260    86017442.66048
  22659332.247   119075637.78008  22659330.436    92786220.61046
  21474238.288   112847917.70509  21474235.243    87933440.90448
  24780300.433   130221349.60416  24780301.071   101471182.36555
  20865037.524   109646561.89909  20865034.088    85438883.01249
  20514484.407   107804379.55509  20514485.195    84003437.83649
  24092683.541   126607927.94806  24092686.586    98655550.52744
 15 02 21 02 43 30.0000000  0  9G04G11G16G18G19G21G22G27G32
  22420658.937   117821400.03408  22420659.047    91808907.35746
  24041892.955   126341011.30306  24041892.841    98447538.79044
  21017289.874   110446608.11409  21017288.561    86062298.12948
  22670715.111   119135454.41508  22670713.229    92832830.96347
  21464381.626   112796120.60109  21464378.705    87893079.53048
  24794271.667   130294765.40206  24794270.791   101528389.50444
  20864768.442   109645147.20709  20864764.707    85437780.66149
  20511401.044   107788176.49409  20511402.007    83990812.06849
  24070260.447   126490096.13504  24070263.198    98563733.75343
 15 02 21 02 44  0.0000000  0  9G04G11G16G18G19G21G22G27G32
  22406645.066   117747757.89708  22406645.315    91751523.90746
  24025492.030   126254824.86306  24025492.050    98380380.57144
  21028336.796   110504660.48909  21028335.412    86107533.73248
  22682168.617   119195642.05308  22682166.737    92879730.41446
  21454558.493   112744499.84409  21454555.581    87852855.57048
  24808235.324   130368153.63216  24808231.985   101585561.97755
  20864601.121   109644268.46109  20864597.443    85437095.93149
  20508370.022   107772248.83909  20508370.867    83978400.90249
  24047848.454   126372323.78906  24047851.364    98471963.32244
 15 02 21 02 44 30.0000000  0  9G04G11G16G18G19G21G22G27G32
  22392678.411   117674362.25408  22392678.573    91694332.52446
  24009109.704   126168734.74806  24009109.599    98313297.42644
  21039475.790   110563196.92009  21039474.584    86153146.52748
  22693691.496   119256195.97608  22693689.802    92926915.28246
  21444768.622   112693053.84809  21444765.612    87812767.78448
  24822194.239   130441502.97706  24822194.008   101642717.22144
  20864535.389   109643923.03809  20864531.752    85436826.78149
  20505391.353   107756595.01109  20505392.225    83966203.11149
  24025448.711   126254611.06407  24025451.291    98380239.35945
 15 02 21 02 45  0.0000000  0  9G04G11G16G18G19G21G22G27G32
  22378759.707   117601218.37708  22378759.759    91637337.31046
  23992746.755   126082746.34006  23992746.367    98246293.53944
  21050707.603   110622220.28009  21050706.314    86199138.73948
  22705284.858   119317119.53608  22705283.207    92974388.18046
  21435013.230   112641788.35709  21435010.084    87772820.65548
  24836146.747   130514822.11806  24836145.302   101699849.03444
  20864571.895   109644115.37409  20864568.400    85436976.66149
  20502465.597   107741220.96709  20502466.565    83954223.33449
  24003061.386   126136965.49806  24003063.699    98288567.72345
 15 02 21 02 45 30.0000000  0  9G04G11G16G18G19G21G22G27G32
  22364888.646   117528325.27508  22364888.612    91580537.49946
  23976402.691   125996858.54806  23976402.312    98179368.05344
  21062031.439   110681727.31309  21062030.138    86245507.84348
  22716947.896   119378409.14808  22716946.215    93022146.31346
  21425291.897   112590702.96809  21425288.791    87733013.86448
  24850092.474   130588109.03506  24850091.373   101756955.64144
  20864710.352   109644843.97509  20864707.103    85437544.40849
  20499593.316   107726126.43709  20499594.163    83942461.36049
  23980686.733   126019388.31306  23980689.502    98196949.44244
 15 02 21 02 46  0.0000000  0  9G04G11G16G18G19G21G22G27G32
  22351064.852   117455681.49608  22351064.834    91523931.96946
  23960077.509   125911069.61006  23960077.235    98112519.62344
  21073446.671   110741714.73509  21073445.514    86292251.27648
  22728679.773   119440061.33108  22728678.003    93070186.96146
  21415605.003   112539797.09009  21415601.779    87693346.95248
  24864031.792   130661361.46006  24864031.091   101814035.39544
  20864950.642   109646106.98609  20864947.394    85438528.58049
  20496774.130   107711311.04709  20496774.749    83930916.89249
  23958325.604   125901880.84506  23958328.146    98105385.39444
 15 02 21 02 46 30.0000000  0  9G04G11G16G18G19G21G22G27G32
  22337289.547   117383292.34308  22337289.648    91467524.85846
  23943772.306   125825385.24906  23943772.104    98045752.64744
  21084953.993   110802185.86909  21084952.747    86339371.62948
  22740481.411   119502079.07608  22740479.601    93118512.46946
  21405953.123   112489076.52309  21405950.178    87653824.44648
  24877965.777   130734583.95107  24877964.747   101871091.85744
  20865293.529   109647908.96409  20865290.272    85439932.72949
  20494008.968   107696780.80209  20494009.811    83919594.62049
  23935979.482   125784450.71806  23935981.477    98013881.55144
 15 02 21 02 47  0.0000000  0  9G04G11G16G18G19G21G22G27G32
  22323561.579   117311151.19608  22323561.580    91411310.99446
  23927485.723   125739798.77106  23927485.209    97979061.91044
  21096551.584   110863131.37009  21096550.295    86386861.61648
  22752350.920   119564453.23408  22752348.968    93167115.70146
  21396335.493   112438535.47409  21396332.447    87614441.82048
  24891892.695   130807768.67906  24891891.239   101928118.91744
  20865737.659   109650242.72809  20865734.479    85441751.24849
  20491297.096   107682529.84809  20491297.881    83908489.97349
  23913647.045   125667093.62407  23913649.088    97922434.65144
 15 02 21 02 47 30.0000000  0  9G04G11G16G18G19G21G22G27G32
  22309881.408   117239261.87908  22309881.655    91355293.36246
  23911218.567   125654314.22806  23911217.986    97912450.66544
  21108239.883   110924554.26409  21108238.686    86434723.59248
  22764288.485   119627185.97008  22764286.783    93215998.33946
  21386752.875   112388178.91309  21386749.844    87575202.94448
  24905812.735   130880919.45405  24905811.235   101985119.50845
  20866283.572   109653111.98809  20866280.506    85443987.04349
  20488639.471   107668563.09209  20488640.124    83897606.77749
  23891329.959   125549816.16707  23891331.943    97831049.83245
 15 02 21 02 48  0.0000000  0  9G04G11G16G18G19G21G22G27G32
  22296249.934   117167627.62708  22296249.953    91299474.47846
  23894971.431   125568934.70307  23894970.875    97845921.18144
  21120019.274   110986455.06909  21120017.878    86482957.97648
  22776294.705   119690278.01608  22776292.706    93265160.96146
  21377206.186   112338010.50909  21377203.177    87536110.68848
  24919726.525   130954038.60005  24919725.692   102042095.38245
  20866931.886   109656518.93309  20866928.637    85446641.81049
  20486036.442   107654884.51909  20486037.331    83886948.14849
  23869028.595   125432623.80706  23869030.705    97739731.30143
 15 02 21 02 48 30.0000000  0  9G04G11G16G18G19G21G22G27G32
  22282666.268   117096245.45008  22282666.566    91243852.02846
  23878743.612   125483657.18706  23878742.897    97779471.23144
  21131888.542   111048828.49309  21131887.295    86531560.62948
  22788367.817   119753723.80608  22788366.151    93314599.23046
  21367694.895   112288028.02609  21367691.920    87497163.30748
  24933634.415   131027122.27306  24933633.248   102099043.68844
  20867682.006   109660460.11909  20867678.575    85449712.86949
  20483488.021   107641492.04009  20483488.765    83876512.44549
  23846743.749   125315516.14806  23846745.725    97648478.78244
 15 02 21 02 49  0.0000000  0  9G04G11G16G18G19G21G22G27G32
  22269130.600   117025115.00308  22269130.868    91188425.73347
  23862535.168   125398481.52406  23862534.163    97713100.64344
  21143847.434   111111672.14309  21143846.117    86580529.69548
  22800508.092   119817521.06808  22800506.343    93364311.37946
  21358218.837   112238231.25409  21358215.804    87458360.63248
  24947534.570   131100169.11205  24947534.154   102155963.29244
  20868533.273   109664933.93209  20868529.890    85453198.95849
  20480993.821   107628385.77109  20480994.663    83866299.76549
  23824475.541   125198495.02107  23824477.247    97557293.65444
 15 02 21 02 49 30.0000000  0  9G04G11G16G18G19G21G22G27G32
  22255643.229   116954238.29408  22255643.654    91133197.15947
  23846346.426   125313409.70106  23846345.671    97646810.97544
  21155895.710   111174986.20309  21155894.523    86629865.31148
  22812714.987   119881669.67308  22812713.436    93414297.29246
  21348778.756   112188623.66609  21348775.802    87419705.37348
  24961428.022   131173180.75806  24961427.632   102212855.44844
  20869486.492   109669942.47709  20869483.086    85457101.72749
  20478554.793   107615568.99909  20478555.748    83856312.66049
  23802224.649   125081565.20006  23802225.789    97466179.58844
 15 02 21 02 50  0.0000000  0  9G04G11G16G18G19G21G22G27G32
  22242203.997   116883615.08908  22242204.404    91078166.11446
  23830177.454   125228441.49106  23830177.071    97580602.04144
  21168032.977   111238768.31509  21168031.784    86679565.64548
  22824988.596   119946167.20608  22824986.984    93464555.10846
  21339374.821   112139205.72009  21339371.712    87381197.88348
  24975314.759   131246156.14705  24975314.061   102269719.33744
  20870541.121   109675484.46209  20870537.851    85461420.15949
  20476171.131   107603042.43109  20476172.035    83846551.69249
  23779991.140   124964729.10206  23779992.253    97375138.63245
 15 02 21 02 50 30.0000000  0  9G04G11G16G18G19G21G22G27G32
  22228813.169   116813246.47108  22228813.679    91023333.45846
  23814028.434   125143578.16406  23814027.903    97514474.83444
  21180258.920   111303016.82709  21180258.011    86729629.40648
  22837328.310   120011012.15108  22837326.413    93515083.63346
  21330007.435   112089979.99209  21330004.521    87342840.17848
  24989194.688   131319095.98006  24989194.399   102326555.46944
  20871697.344   109681560.77009  20871693.952    85466154.95049
  20473842.860   107590807.81509  20473843.993    83837018.21849
  23757776.140   124847990.11307  23757777.733    97284173.38445
 15 02 21 02 51  0.0000000  0  9G04G11G16G18G19G21G22G27G32
  22215470.371   116743129.84308  22215470.904    90968697.15046
  23797898.908   125058817.21606  23797898.689    97448427.43044
  21192573.083   111367727.22309  21192572.039    86780053.07748
  22849733.006   120076199.89408  22849731.433    93565879.26946
  21320676.223   112040943.89009  21320673.248    87304630.23548
  25003067.349   131391996.61806  25003066.744   102383361.15345
  20872954.596   109688167.79909  20872951.337    85471303.29149
  20471570.015   107578863.49609  20471570.933    83827710.95049
  23735580.060   124731348.36507  23735581.554    97193283.83845
 15 02 21 02 51 30.0000000  0  9G04G11G16G18G19G21G22G27G32
  22202176.566   116673269.71108  22202176.792    90914260.70547
  23781789.647   124974163.28907  23781789.260    97382463.35544
  21204975.525   111432902.52809  21204974.492    86830839.01748
  22862203.463   120141732.39908  22862201.867    93616943.54946
  21311382.080   111992102.87009  21311379.120    87266572.30548
  25016933.094   131464862.38006  25016932.413   102440139.62543
  20874313.646   109695309.15509  20874310.109    85476867.98849
  20469353.325   107567214.89909  20469354.522    83818634.11649
  23713403.418   124614810.75906  23713405.171    97102475.44145
 15 02 21 02 52  0.0000000  0  9G04G11G16G18G19G21G22G27G32
  22188931.367   116603665.56308  22188931.640    90860023.73846
  23765700.677   124889615.96206  23765700.333    97316582.38944
  21217465.826   111498539.87509  21217464.593    86881984.98648
  22874738.951   120207607.43008  22874737.588    93668274.73346
  21302125.194   111943457.73209  21302122.382    87228667.00948
  25030792.519   131537691.96105  25030791.351   102496889.96944
  20875774.178   109702984.14409  20875770.765    85482848.50349
  20467193.146   107555862.51709  20467194.266    83809788.10349
  23691246.799   124498379.44106  23691248.387    97011749.89944
 15 02 21 02 52 30.0000000  0  9G04G11G16G18G19G21G22G27G32
  22175733.930   116534312.87508  22175734.354    90805982.71446
  23749631.520   124805171.00106  23749631.020    97250781.14445
  21230042.956   111564632.35809  21230041.685    86933485.60748
  22887338.410   120273818.06208  22887337.172    93719867.42346
  21292904.892   111895004.18709  21292901.964    87190911.00348
  25044643.942   131610480.39806  25044643.516   102553608.14644
  20877335.175   109711187.27209  20877331.732    85489240.56049
  20465088.542   107544802.84309  20465089.663    83801170.17149
  23669110.489   124382052.50307  23669111.959    96921105.64645
 15 02 21 02 53  0.0000000  0  9G04G11G16G18G19G21G22G27G32
  22162585.602   116465217.31808  22162585.879    90752142.03247
  23733582.579   124720833.47006  23733581.895    97185063.63144
  21242707.005   111631182.97609  21242705.889    86985343.21748
  22900002.301   120340367.38708  22900001.184    93771724.03046
  21283722.088   111846748.78609  21283719.168    87153309.39648
  25058488.397   131683232.00007  25058487.480   102610297.77144
  20878997.608   109719923.13209  20878994.020    85496047.72749
  20463041.024   107534042.00109  20463041.973    83792785.09449
  23646995.591   124265837.83806  23646996.948    96830548.87245
 15 02 21 02 53 30.0000000  0  9G04G11G16G18G19G21G22G27G32
  22149484.383   116396370.07608  22149484.347    90698494.85647
  23717552.553   124636595.26806  23717551.990    97119423.53545
  21255456.513   111698181.46809  21255455.197    87037549.81548
  22912728.754   120407244.78208  22912727.398    93823836.28046
  21274575.778   111798684.07309  21274572.758    87115856.37348
  25072326.205   131755953.80116  25072324.516   102666957.65254
  20880759.562   109729182.45409  20880755.973    85503262.78549
  20461048.660   107523572.40009  20461049.459    83784626.96149
  23624900.828   124149729.51307  23624902.074    96740074.96344
 15 02 21 02 54  0.0000000  0  9G04G11G16G18G19G21G22G27G32
  22136433.278   116327786.58508  22136433.551    90645053.21547
  23701544.327   124552471.78507  23701543.781    97053872.78445
  21268293.575   111765640.53009  21268292.357    87090115.30648
  22925520.105   120474463.09908  22925518.656    93876214.18546
  21265468.522   111750825.80609  21265465.639    87078564.21148
  25086155.662   131828615.62017  25086147.562   102723625.39953
  20882623.887   109738979.57609  20882620.273    85510896.90849
  20459114.925   107513410.27609  20459115.816    83776708.41949
  23602829.577   124033745.33606  23602831.108    96649697.79644
 15 02 21 02 54 30.0000000  0  8G04G11G16G18G19G22G27G32
  22123431.110   116259460.95008  22123431.564    90591812.50246
  23685556.958   124468457.34606  23685556.566    96988407.03045
  21281216.775   111833552.15209  21281215.512    87143033.43448
  22938374.530   120542014.49708  22938373.164    93928851.62346
  21256399.878   111703169.26409  21256396.901    87041429.24748
  20884589.232   109749307.78409  20884585.644    85518944.86749
  20457238.623   107503550.58209  20457239.532    83769025.53849
  23580781.235   123917881.92407  23580783.176    96559414.76345
 15 02 21 02 55  0.0000000  0  9G01G04G11G16G18G19G22G27G32
  24597333.630   129259867.25216  24597339.676   100721990.38355
  22110479.667   116191400.78508  22110480.105    90538778.62846
  23669591.707   124384559.44707  23669591.355    96923032.06444
  21294226.970   111901921.62909  21294225.772    87196308.33548
  22951293.500   120609904.14208  22951292.282    93981752.62846
  21247370.985   111655722.79709  21247367.987    87004457.97748
  20886657.134   109760174.15409  20886653.652    85527412.16849
  20455421.500   107494001.91309  20455422.572    83761585.01649
  23558758.416   123802149.69807  23558759.922    96469233.90545
 15 02 21 02 55 30.0000000  0  9G01G04G11G16G18G19G22G27G32
  24581521.102   129176769.10506  24581524.873   100657238.71945
  22097572.985   116123575.21108  22097573.234    90485927.55846
  23653642.662   124300747.58707  23653642.487    96857724.17944
  21307318.277   111970716.22209  21307316.822    87249914.49848
  22964270.470   120678098.76708  22964269.338    94034891.28446
  21238376.620   111608456.77509  21238373.754    86967627.31648
  20888821.185   109771546.94409  20888817.860    85536274.08349
  20453658.048   107484734.41009  20453658.879    83754363.58149
  23536755.009   123686520.26106  23536756.135    96379133.10645
 15 02 21 02 56  0.0000000  0  9G01G04G11G16G18G19G22G27G32
  24565736.736   129093824.10806  24565740.781   100592606.41144
  22084716.573   116056014.78108  22084716.938    90433283.08047
  23637715.989   124217052.35507  23637715.775    96792507.14445
  21320495.759   112039964.07709  21320494.194    87303873.85448
  22977311.062   120746626.82108  22977309.646    94088289.75946
  21229422.561   111561402.78609  21229419.519    86930961.87849
  20891087.415   109783455.71509  20891083.864    85545553.64849
  20451953.938   107475779.62509  20451954.763    83747385.82449
  23514776.868   123571026.94406  23514778.248    96289138.46045
 15 02 21 02 56 30.0000000  0  9G01G04G11G16G18G19G22G27G32
  24549980.329   129011024.53506  24549984.905   100528087.38544
  22071909.127   115988711.72508  22071909.551    90380839.15846
  23621809.986   124133465.90107  23621809.549    96727374.86945
  21333757.465   112109655.65509  21333756.109    87358178.96148
  22990413.205   120815478.45608  22990411.735    94141940.37246
  21220507.445   111514553.81809  21220504.602    86894456.18949
  20893454.069   109795892.00509  20893450.488    85555244.26449
  20450308.074   107467130.58709  20450309.035    83740646.31049
  23492824.186   123455664.41707  23492825.468    96199245.65145
 15 02 21 02 57  0.0000000  0  9G01G04G11G16G18G19G22G27G32
  24534251.866   128928372.06105  24534256.473   100463682.99344
  22059151.074   115921667.67708  22059151.443    90328597.06047
  23605925.164   124049990.41007  23605924.604    96662329.08344
  21347103.487   112179789.25709  21347102.215    87412828.50348
  23003576.596   120884652.94508  23003575.056    94195842.56446
  21211631.981   111467912.12809  21211629.060    86858112.01649
  20895921.009   109808856.70809  20895917.497    85565346.63049
  20448720.836   107458789.87209  20448721.910    83734147.04849
  23470897.193   123340437.00907  23470898.508    96109458.16746
 15 02 21 02 57 30.0000000  0  9G01G04G11G16G18G19G22G27G32
  24518550.533   128845861.56405  24518554.915   100399389.20844
  22046441.435   115854877.29308  22046441.536    90276552.61547
  23590060.360   123966620.64907  23590059.826    96597365.68644
  21360532.290   112250358.37609  21360531.076    87467817.41148
  23016800.003   120954142.63708  23016798.577    94249990.36146
  21202794.924   111421473.73209  21202792.053    86821926.26249
  20898487.551   109822343.54009  20898483.918    85575855.85049
  20447191.662   107450753.16609  20447192.423    83727884.68049
  23448995.187   123225342.03707  23448996.522    96019773.88245
 15 02 21 02 58  0.0000000  0  9G01G04G11G16G18G19G22G27G32
  24502877.874   128763501.84206  24502882.751   100335212.93844
  22033781.570   115788349.40508  22033781.638    90224712.72747
  23574217.501   123883365.64107  23574216.866    96532491.69744
  21374045.085   112321368.62409  21374043.979    87523150.05148
  23030084.543   121023953.92808  23030083.173    94304388.74846
  21193998.580   111375248.35409  21193995.588    86785906.49049
  20901154.878   109836360.06009  20901151.181    85586777.81449
  20445722.054   107443030.10809  20445722.780    83721866.71049
  23427120.782   123110390.79307  23427122.191    95930201.55945
 15 02 21 02 58 30.0000000  0  9G01G04G11G16G18G19G22G27G32
  24487233.083   128681286.00506  24487237.305   100271148.73544
  22021170.262   115722076.88008  22021170.315    90173071.81247
  23558395.104   123800218.07207  23558394.394    96467701.41445
  21387640.345   112392811.00809  21387638.918    87578819.42848
  23043428.793   121094077.62708  23043427.391    94359030.59146
  21185241.473   111329229.57009  21185238.436    86750047.69549
  20903921.349   109850898.21709  20903917.823    85598106.25249
  20444310.852   107435614.53309  20444311.781    83716088.34249
  23405272.504   122995578.78407  23405273.811    95840737.71945
 15 02 21 02 59  0.0000000  0  9G01G04G11G16G18G19G22G27G32
  24471615.558   128599216.16706  24471620.119   100207198.31344
  22008607.971   115656061.68708  22008608.220    90121631.41647
  23542593.563   123717180.38607  23542592.747    96402996.74545
  21401317.537   112464685.38809  21401316.146    87634825.42248
  23056832.461   121164513.75108  23056830.896    94413915.85946
  21176524.338   111283420.62009  21176521.313    86714352.41149
  20906787.366   109865959.36109  20906783.887    85609842.21149
  20442958.834   107428509.50709  20442959.587    83710551.95849
  23383451.860   122880910.83907  23383453.114    95751386.14845
 15 02 21 02 59 30.0000000  0  9G01G04G11G16G18G19G22G27G32
  24456025.918   128517293.15205  24456030.459   100143362.32544
  21996094.788   115590304.65608  21996095.077    90070392.18847
  23526813.105   123634253.57907  23526812.280    96338378.49744
  21415076.541   112536989.81509  21415075.225    87691166.51948
  23070295.225   121235260.52208  23070293.783    94469043.22346
  21167847.489   111237823.28609  21167844.536    86678822.02049
  20909752.910   109881543.11609  20909749.338    85621985.39349
  20441666.203   107421716.68409  20441667.000    83705258.84249
  23361659.470   122766390.24307  23361660.808    95662149.41945
 15 02 21 03 00  0.0000000  0  9G01G04G11G16G18G19G22G27G32
  24440464.807   128435520.61506  24440469.776   100079643.55445
  21983631.532   115524809.36608  21983631.556    90019356.90347
  23511054.328   123551441.17907  23511053.617    96273849.37545
  21428917.727   112609725.83509  21428916.341    87747843.92148
  23083817.106   121306319.39408  23083815.754    94524413.74546
  21159211.581   111192441.84609  21159208.590    86643459.85949
  20912818.312   109897652.07309  20912814.665    85634537.83449
  20440433.856   107415240.56209  20440434.726    83700212.51049
  23339895.982   122652023.27907  23339897.566    95573032.42745
 15 02 21 03 00 30.0000000  0  9G01G04G11G16G18G19G22G27G32
  24424931.933   128353893.09306  24424936.300   100016037.75445
  21971216.735   115459569.94808  21971217.155    89968521.00447
  23495316.269   123468737.87007  23495315.785    96209405.27045
  21442839.594   112682885.11209  21442838.322    87804851.13648
  23097396.949   121377682.44808  23097395.675    94580021.31446
  21150616.235   111147272.27709  21150613.139    86608262.79849
  20915982.256   109914279.77209  20915978.865    85647494.48249
  20439260.877   107409076.45309  20439261.795    83695409.30449
  23318161.380   122537807.01907  23318162.200    95484032.76745
 15 02 21 03 01  0.0000000  0  9G01G04G11G16G18G19G22G27G32
  24409426.730   128272413.42306  24409431.150    99952547.16045
  21958851.475   115394589.38408  21958851.527    89917886.82547
  23479599.674   123386146.60407  23479599.027    96145048.46045
  21456841.976   112756468.56409  21456840.624    87862188.87948
  23111034.917   121449350.17408  23111033.527    94635866.28746
  21142061.759   111102318.32709  21142058.698    86573233.76349
  20919245.402   109931427.84509  20919241.951    85660856.61949
  20438148.025   107403228.09409  20438148.904    83690852.14049
  23296456.114   122423746.79707  23296456.951    95395154.74645
 15 02 21 03 01 30.0000000  0  9G01G04G11G16G18G19G22G27G32
  24393950.337   128191084.20906  24393954.447    99889173.86944
  21946535.773   115329869.90108  21946536.001    89867456.08647
  23463904.941   123303670.03807  23463904.267    96080781.04245
  21470925.253   112830476.52709  21470924.058    87919857.40648
  23124730.844   121521322.69408  23124729.248    94691948.76046
  21133548.742   111057582.80809  21133545.745    86538374.92649
  20922607.940   109949097.88409  20922604.517    85674625.48449
  20437095.711   107397698.96009  20437096.608    83686543.72749
  23274781.937   122309847.76107  23274782.899    95306402.31146
 15 02 21 03 02  0.0000000  0  9G01G04G11G16G18G19G22G27G32
  24378500.976   128109897.64106  24378504.988    99825911.66644
  21934268.249   115265403.65608  21934268.354    89817222.68647
  23448230.506   123221300.54707  23448229.986    96016597.04745
  21485087.367   112904898.16009  21485085.983    87977848.27748
  23138482.922   121593589.91308  23138481.386    94748260.87046
  21125076.273   111013059.24909  21125073.326    86503681.25449
  20926068.060   109967280.87209  20926064.756    85688794.05049
  20436102.949   107392481.99109  20436103.906    83682478.56049
  23253137.432   122196104.61707  23253138.495    95217771.37645
 15 02 21 03 02 30.0000000  0  9G01G04G11G16G18G19G22G27G32
  24363080.928   128028865.65205  24363085.133    99762769.94045
  21922051.186   115201202.65008  21922051.156    89767195.95947
  23432578.849   123139050.31707  23432577.930    95952505.99145
  21499329.768   112979742.79309  21499328.440    88036168.75948
  23152292.778   121666161.60408  23152291.654    94804810.23346
  21116646.416   110968760.61309  21116643.394    86469162.84249
  20929627.887   109985987.63809  20929624.352    85703370.75449
  20435172.190   107387590.07309  20435172.990    83678666.67549
  23231524.957   122082531.95007  23231526.360    95129273.29946
 15 02 21 03 03  0.0000000  0  9G01G04G11G16G18G19G22G27G32
  24347688.595   127947980.76906  24347693.267    99699742.88345
  21909883.151   115137259.32308  21909883.346    89717370.02847
  23416948.183   123056911.64107  23416947.609    95888501.84645
  21513650.762   113055000.50209  21513649.602    88094811.11548
  23166158.551   121739027.94908  23166157.739    94861589.19146
  21108258.218   110924680.39709  21108255.233    86434814.63049
  20933285.712   110005209.51409  20933282.131    85718348.84149
  20434301.760   107383016.58609  20434302.608    83675102.91849
  23209944.248   121969124.90107  23209945.547    95040904.22544
 15 02 21 03 03 30.0000000  0  9G01G04G11G16G18G19G22G27G32
  24332325.180   127867244.25906  24332329.464    99636831.39845
  21897764.299   115073574.66608  21897764.337    89667745.65147
  23401339.035   122974885.80007  23401338.456    95824585.63345
  21528050.158   113130670.52409  21528048.957    88153774.75348
  23180080.404   121812187.71808  23180079.394    94918596.78946
  21099911.970   110880820.53409  21099909.118    86400638.12249
  20937041.567   110024946.63609  20937038.073    85733728.41949
  20433492.399   107378763.55509  20433493.252    83671788.86649
  23188396.068   121855887.26607  23188396.846    94952667.14845
 15 02 21 03 04  0.0000000  0  9G01G04G11G16G18G19G22G27G32
  24316989.992   127786657.89606  24316993.956    99574036.93044
  21885695.099   115010150.28108  21885695.205    89618324.07347
  23385752.013   122892975.06807  23385751.678    95760759.10145
  21542528.168   113206752.10709  21542526.957    88213059.08948
  23194058.139   121885640.20908  23194056.979    94975832.47946
  21091608.128   110837183.92709  21091605.250    86366635.57749
  20940895.594   110045199.37009  20940891.972    85749509.77349
  20432744.514   107374833.70309  20432745.463    83668726.63949
  23166880.632   121742823.41507  23166881.378    94864565.49545
 15 02 21 03 04 30.0000000  0  9G01G04G11G16G18G19G22G27G32
  24301683.742   127706222.97906  24301687.537    99511360.42144
  21873675.618   114946987.35808  21873675.590    89569106.22647
  23370186.918   122811180.78807  23370186.594    95697023.34144
  21557084.164   113283243.72309  21557082.696    88272662.93748
  23208091.340   121959384.46308  23208089.868    95033295.53046
  21083347.506   110793773.00209  21083344.304    86332808.88449
  20944847.609   110065967.91109  20944844.278    85765693.05549
  20432058.697   107371229.18009  20432059.460    83665917.91649
  23145398.774   121629937.21007  23145400.022    94776602.34346
 15 02 21 03 05  0.0000000  0  9G01G04G11G16G18G19G22G27G32
  24286405.470   127625935.33806  24286409.136    99448798.64444
  21861704.934   114884081.74008  21861704.827    89520088.89247
  23354643.434   122729498.97907  23354642.986    95633375.20745
  21571716.758   113360138.96209  21571715.545    88332581.28848
  23222178.601   122033413.98908  23222177.033    95090980.86846
  21075128.937   110750584.66109  21075125.883    86299155.63549
  20948896.861   110087246.87609  20948893.523    85782274.06949
  20431433.973   107367946.73109  20431434.983    83663360.16149
  23123950.987   121517227.17507  23123952.070    94688776.40945
 15 02 21 03 05 30.0000000  0  9G01G04G11G16G18G19G22G27G32
  24271156.047   127545800.76606  24271160.302    99386356.21545
  21849784.620   114821439.25408  21849784.427    89471276.59547
  23339122.602   122647935.64207  23339121.800    95569819.35745
  21586426.748   113437440.70209  21586425.526    88392816.39148
  23236320.951   122107732.31808  23236319.621    95148891.24346
  21066954.192   110707625.58809  21066951.189    86265681.03749
  20953044.118   110109040.79409  20953040.715    85799256.34649
  20430872.043   107364993.02209  20430872.780    83661058.56449
  23102538.004   121404701.68607  23102538.865    94601094.25845
 15 02 21 03 06  0.0000000  0  9G01G04G11G16G18G19G22G27G32
  24255934.726   127465811.21606  24255938.905    99324026.76745
  21837912.494   114759051.30908  21837912.366    89422662.64547
  23323622.647   122566482.92107  23323621.706    95506349.75345
  21601212.341   113515139.17009  21601211.010    88453360.63248
  23250516.070   122182328.95308  23250515.008    95207018.48046
  21058821.636   110664888.68409  21058818.483    86232379.56149
  20957287.668   110131340.77309  20957284.131    85816632.95649
  20430370.971   107362360.77409  20430371.886    83659007.45849
  23081158.917   121292355.17107  23081159.769    94513551.58746
 15 02 21 03 06 30.0000000  0  9G01G04G11G16G18G19G22G27G32
  24240742.807   127385977.92206  24240747.125    99261819.09145
  21826091.009   114696929.23408  21826090.941    89374255.85647
  23308146.105   122485152.05207  23308145.322    95442975.07645
  21616074.923   113593242.28709  21616073.725    88514220.18448
  23264766.175   122257212.85508  23264764.960    95265369.55746
  21050733.675   110622386.32009  21050730.455    86199260.84449
  20961629.390   110154156.36109  20961625.939    85834411.34049
  20429933.663   107360062.11509  20429934.528    83657216.29849
  23059816.643   121180201.54307  23059817.764    94426159.23845
 15 02 21 03 07  0.0000000  0  9G01G04G11G16G18G19G22G27G32
  24225579.311   127306293.24406  24225583.393    99199727.20445
  21814318.727   114635065.25908  21814318.659    89326050.17547
  23292691.011   122403935.38907  23292690.267    95379689.39745
  21631012.498   113671739.39709  21631011.125    88575386.74548
  23279069.133   122332374.18808  23279067.477    95323936.81646
  21042688.921   110580111.60209  21042685.953    86166319.51449
  20966067.414   110177478.58609  20966063.951    85852584.50849
  20429558.424   107358090.25109  20429559.209    83655679.77649
  23038510.503   121068235.80407  23038511.418    94338913.22145
 15 02 21 03 07 30.0000000  0  9G01G04G11G16G18G19G22G27G32
  24210445.005   127226762.52506  24210449.221    99137755.30245
  21802596.380   114573464.68908  21802596.274    89278049.74547
  23277258.794   122322838.57607  23277258.141    95316497.10745
  21646025.770   113750634.61209  21646024.383    88636863.52848
  23293425.118   122407815.90008  23293423.534    95382722.56445
  21034688.966   110538071.21209  21034685.912    86133560.77949
  20970602.673   110201311.74909  20970599.161    85871155.80749
  20429246.546   107356451.50609  20429247.380    83654402.82549
  23017241.177   120956465.90107  23017242.390    94251819.88746
 15 02 21 03 08  0.0000000  0  9G01G04G11G16G18G19G22G27G32
  24195339.043   127147380.59606  24195343.011    99075899.27244
  21790923.361   114512122.21708  21790923.259    89230250.42247
  23261848.398   122241856.67707  23261847.796    95253394.35145
  21661113.034   113829919.91009  21661111.968    88698644.25848
  23307833.185   122483530.33208  23307831.402    95441720.81546
  21026732.703   110496261.05109  21026729.828    86100981.44449
  20975234.025   110225649.23409  20975230.546    85890120.08749
  20428997.230   107355141.53009  20428998.305    83653382.05849
  22996008.953   120844889.36907  22996010.132    94164877.18245
 15 02 21 03 08 30.0000000  0  9G01G04G11G16G18G19G22G27G32
  24180262.004   127068150.53406  24180265.848    99014161.62345
  21779299.919   114451040.71008  21779299.824    89182654.46247
  23246460.661   122160993.04207  23246459.748    95190383.77645
  21676274.855   113909595.47209  21676273.743    88760729.09848
  23322293.088   122559518.29108  23322291.487    95500932.19346
  21018821.039   110454685.09709  21018818.150    86068584.60049
  20979961.509   110250492.54909  20979957.928    85909478.51949
  20428811.339   107354164.26109  20428812.259    83652620.54449
  22974814.160   120733511.82707  22974815.359    94078089.56746
 15 02 21 03 09  0.0000000  0  9G01G04G11G16G18G19G22G27G32
  24165214.148   126989073.17506  24165217.809    98952542.94845
  21767726.415   114390221.00408  21767726.126    89135262.50847
  23231095.406   122080248.48807  23231094.419    95127465.97845
  21691510.530   113989659.51709  21691509.320    88823116.64848
  23336804.945   122635778.70908  23336803.343    95560355.88446
  21010954.138   110413344.97309  21010951.387    86036371.52049
  20984785.225   110275841.65709  20984781.811    85929231.07649
  20428688.980   107353521.44709  20428689.942    83652119.64749
  22953658.338   120622336.73307  22953658.976    93991459.65345
 15 02 21 03 09 30.0000000  0  9G01G04G11G16G18G19G22G27G32
  24150195.214   126910147.39306  24150198.939    98891042.37345
  21756202.301   114329661.81808  21756202.068    89088073.54047
  23215752.810   121999622.38407  23215751.844    95064640.45045
  21706819.571   114070108.10109  21706818.257    88885803.84248
  23351368.116   122712307.75108  23351366.514    95619988.88445
  21003132.559   110372241.30109  21003129.566    86004342.69049
  20989704.904   110301694.33709  20989701.368    85949376.02849
  20428630.167   107353212.81909  20428631.357    83651879.15749
  22932541.299   120511365.59807  22932542.051    93904988.69046
 15 02 21 03 10  0.0000000  0  9G01G04G11G16G18G19G22G27G32
  24135205.199   126831374.76906  24135208.959    98829661.13145
  21744728.114   114269364.77308  21744727.818    89041088.84347
  23200432.958   121919116.51907  23200431.933    95001908.66045
  21722201.690   114150941.14909  21722200.318    88948790.62248
  23365982.048   122789104.82608  23365980.617    95679830.75246
  20995356.256   110331376.58209  20995353.421    85972500.05549
  20994720.307   110328050.24109  20994716.693    85969913.10449
  20428635.573   107353240.85509  20428636.753    83651901.00249
  22911463.653   120400602.72807  22911465.049    93818680.04546
 15 02 21 03 10 30.0000000  0  9G01G04G11G16G18G19G22G27G32
  24120244.600   126752756.47606  24120248.655    98768400.15645
  21733303.980   114209330.57708  21733303.709    88994308.96347
  23185136.251   121838731.93607  23185135.298    94939271.37145
  21737656.255   114232156.59309  21737655.113    89012075.36248
  23380646.732   122866168.44708  23380645.458    95739880.29445
  20987625.797   110290752.71309  20987622.956    85940845.09149
  20999831.451   110354909.42009  20999827.743    85990842.34149
  20428705.426   107353607.49809  20428706.338    83652186.69349
  22890426.263   120290051.77608  22890427.347    93732536.51845
 15 02 21 03 11  0.0000000  0  9G01G04G11G16G18G19G22G27G32
  24105312.430   126674286.42306  24105315.866    98707254.69345
  21721928.708   114149553.33608  21721928.657    88947729.30847
  23169861.437   121758462.87407  23169860.588    94876724.08245
  21753182.059   114313745.30609  21753180.681    89075650.96748
  23395360.625   122943490.57408  23395359.201    95800131.30046
  20979940.243   110250364.85609  20979937.363    85909374.03149
  21005036.994   110382264.32809  21005033.072    86012157.85749
  20428838.635   107354307.58009  20428839.658    83652732.20949
  22869429.369   120179709.45108  22869429.546    93646555.46745
 15 02 21 03 11 30.0000000  0 10G01G04G11G14G16G18G19G22G27G32
  24090410.173   126595974.47206  24090413.702    98646232.44945
  21710604.083   114090042.59608  21710604.051    88901357.31747
  23154610.696   121678319.40707  23154609.710    94814274.66145
  24675329.859   129669739.73416  24675329.856   101041352.19354
  21768780.446   114395715.31909  21768779.226    89139523.68448
  23410125.082   123021078.91208  23410123.569    95860589.73345
  20972301.662   110210223.93309  20972298.676    85878095.38449
  21010338.372   110410123.47909  21010334.585    86033866.29149
  20429037.292   107355351.83909  20429038.190    83653545.91249
  22848473.999   120069588.17607  22848474.294    93560746.74546
 15 02 21 03 12  0.0000000  0 10G01G04G11G14G16G18G19G22G27G32
  24075535.387   126517807.97706  24075539.158    98585323.55045
  21699327.876   114030785.60008  21699328.044    88855183.04647
  23139381.358   121598289.32107  23139380.449    94751913.60245
  24661987.381   129599626.22706  24661988.228   100986718.33543
  21784448.343   114478050.89409  21784447.359    89203681.25748
  23424937.672   123098918.09708  23424936.004    95921243.64745
  20964707.984   110170318.63609  20964704.966    85847000.34749
  21015732.978   110438472.82409  21015729.142    86055956.69449
  20429299.299   107356728.53709  20429300.211    83654618.65849
  22827558.199   119959677.96807  22827559.447    93475102.53946
 15 02 21 03 12 30.0000000  0 10G01G04G11G14G16G18G19G22G27G32
  24060690.492   126439797.71406  24060694.175    98524536.39145
  21688101.985   113971793.11508  21688101.959    88809214.88647
  23124175.655   121518383.43707  23124174.931    94689649.32845
  24648658.868   129529579.10206  24648659.009   100932136.16042
  21800187.558   114560760.58809  21800186.615    89268130.34848
  23439799.230   123177016.67208  23439797.868    95982099.65245
  20957161.288   110130660.67209  20957158.429    85816098.04149
  21021222.796   110467321.70009  21021218.986    86078436.34349
  20429626.749   107358449.29909  20429627.713    83655959.50749
  22806686.276   119849992.42508  22806686.870    93389633.29346
 15 02 21 03 13  0.0000000  0 10G01G04G11G14G16G18G19G22G27G32
  24045875.910   126361946.31206  24045879.396    98463873.00345
  21676926.770   113913067.68508  21676926.826    88763454.80347
  23108994.179   121438604.49007  23108993.271    94627483.96945
  24635342.060   129459603.58905  24635341.316   100877609.71643
  21815997.848   114643844.38009  21815996.694    89332870.94748
  23454710.215   123255375.30608  23454709.109    96043158.31645
  20949662.334   110091253.86909  20949659.435    85785391.44449
  21026807.891   110496671.25709  21026804.075    86101306.12949
  20430020.272   107360517.62109  20430021.386    83657571.18649
  22785857.278   119740536.52207  22785857.713    93304343.00245
 15 02 21 03 13 30.0000000  0 10G01G04G11G14G16G18G19G22G27G32
  24031089.607   126284243.85906  24031092.800    98403325.67745
  21665800.675   113854599.21808  21665800.657    88717894.97247
  23093834.826   121358942.89707  23093834.290    94565410.03845
  24622038.463   129389692.61805  24622038.745   100823133.66145
  21831876.951   114727289.28409  21831875.644    89397892.93748
  23469668.430   123333981.47108  23469667.086    96104409.85745
  20942209.632   110052089.59409  20942206.622    85754873.82749
  21032486.007   110526510.11609  21032482.252    86124557.18949
  20430478.303   107362924.49709  20430479.270    83659446.67649
  22765070.845   119631303.20408  22765071.292    93219226.17546
 15 02 21 03 14  0.0000000  0 10G01G04G11G14G16G18G19G22G27G32
  24016333.130   126206698.33106  24016336.391    98342900.67846
  21654724.935   113796395.50308  21654724.930    88672541.43847
  23078699.865   121279407.10907  23078699.186    94503434.13045
  24608748.764   129319856.90606  24608749.688   100768716.28644
  21847825.889   114811101.46009  21847824.780    89463201.10548
  23484674.945   123412840.83608  23484673.530    96165858.70345
  20934804.746   110013176.65709  20934801.928    85724552.06149
  21038258.511   110556845.11009  21038254.679    86148194.84749
  20431002.374   107365678.72809  20431003.344    83661592.82749
  22744328.866   119522303.09008  22744329.563    93134291.07646
 15 02 21 03 14 30.0000000  0 10G01G04G11G14G16G18G19G22G27G32
  24001605.117   126129303.44206  24001608.910    98282593.04645
  21643698.355   113738450.27608  21643698.323    88627389.32647
  23063587.524   121199991.00507  23063586.531    94441551.48945
  24595473.666   129250092.91905  24595473.994   100714354.75744
  21863842.976   114895271.72509  21863841.807    89528788.31248
  23499728.059   123491944.86008  23499726.744    96227498.19345
  20927446.874   109974510.15009  20927443.854    85694422.32149
  21044123.919   110587668.25409  21044120.099    86172212.88249
  20431591.552   107368774.94209  20431592.600    83664005.45149
  22723630.535   119413532.53208  22723630.903    93049534.83746
 15 02 21 03 15  0.0000000  0 10G01G04G11G14G16G18G19G22G27G32
  23986906.895   126052064.29406  23986910.625    98222406.77445
  21632721.846   113680768.51808  21632721.784    88582442.51547
  23048498.911   121120700.30307  23048497.832    94379766.57446
  24582213.275   129180408.37307  24582213.870   100660055.14144
  21879928.439   114979801.87309  21879927.406    89594655.93248
  23514828.152   123571296.63007  23514826.660    96289330.72945
  20920136.943   109936096.42409  20920133.905    85664489.55449
  21050082.934   110618983.09209  21050079.336    86196614.05649
  20432247.155   107372219.15809  20432248.050    83666689.25249
  22702977.140   119304999.36108  22702977.523    92964963.57345
 15 02 21 03 15 30.0000000  0 10G01G04G11G14G16G18G19G22G27G32
  23972237.785   125974978.66506  23972241.811    98162340.12345
  21621795.023   113623347.83608  21621795.058    88537699.14647
  23033433.690   121041532.72307  23033432.672    94318077.57245
  24568968.147   129110803.78706  24568967.792   100605817.76144
  21896081.742   115064687.71009  21896080.595    89660800.72547
  23529974.382   123650891.51507  23529973.144    96351352.70645
  20912874.974   109897934.17509  20912871.864    85634752.74049
  21056134.831   110650786.11609  21056131.135    86221395.63349
  20432968.387   107376009.94709  20432969.458    83669643.11049
  22682369.244   119196704.01308  22682369.590    92880577.62446
 15 02 21 03 16  0.0000000  0 10G01G04G11G14G16G18G19G22G27G32
  23957598.699   125898049.37406  23957602.338    98102395.27245
  21610918.622   113566191.21108  21610918.442    88493161.53547
  23018392.721   120962491.20807  23018391.399    94256486.79545
  24555738.737   129041284.83006  24555738.707   100551647.18144
  21912302.875   115149929.55709  21912301.552    89727222.92948
  23545167.129   123730729.97208  23545166.109    96413564.45145
  20905661.538   109860027.62709  20905658.604    85605215.17749
  21062279.809   110683078.69709  21062276.217    86246558.68349
  20433756.607   107380151.04009  20433757.313    83672869.93249
  22661807.281   119088651.91908  22661808.162    92796381.23346
 15 02 21 03 16 30.0000000  0 10G01G04G11G14G16G18G19G22G27G32
  23942988.438   125821271.93206  23942991.939    98042568.75345
  21600091.355   113509293.53808  21600091.120    88448825.68247
  23003374.663   120883571.75107  23003373.734    94194991.15345
  24542525.441   128971849.71205  24542524.703   100497541.88843
  21928590.050   115235519.61409  21928588.840    89793916.46348
  23560405.204   123810805.15707  23560404.001    96475960.69945
  20898496.245   109822373.50609  20898493.218    85575874.30749
  21068516.889   110715854.73909  21068513.328    86272098.45549
  20434610.459   107384638.81009  20434611.352    83676366.89349
  22641291.684   118980841.29208  22641292.650    92712373.01546
 15 02 21 03 17  0.0000000  0 10G01G04G11G14G16G18G19G22G27G32
  23928407.863   125744650.36806  23928411.264    97982863.70044
  21589314.247   113452659.11108  21589313.776    88404694.98047
  22988380.902   120804778.69407  22988379.819    94133593.98245
  24529329.937   128902505.43306  24529329.683   100443507.36144
  21944944.008   115321459.55809  21944942.777    89860882.63248
  23575688.348   123891119.18207  23575687.324    96538543.03945
  20891380.005   109784977.01009  20891376.933    85546734.18549
  21074846.463   110749116.65809  21074842.799    86298016.83149
  20435531.491   107389478.18109  20435532.323    83680137.83249
  22620823.197   118873278.82208  22620824.062    92628558.13346
 15 02 21 03 17 30.0000000  0 10G01G04G11G14G16G18G19G22G27G32
  23913856.383   125668182.85906  23913860.004    97923278.66344
  21578586.508   113396285.87008  21578586.337    88360767.78547
  22973410.919   120726110.62208  22973409.954    94072294.20345
  24516151.783   128833252.92406  24516152.064   100389544.40244
  21961363.669   115407745.23909  21961362.565    89928118.19847
  23591016.095   123971667.82108  23591014.965    96601308.19845
  20884312.462   109747837.35209  20884309.461    85517794.19549
  21081267.935   110782861.28409  21081264.387    86324311.34649
  20436519.122   107394668.15509  20436519.964    83684181.96349
  22600402.136   118765965.42108  22600402.440    92544937.31645
 15 02 21 03 18  0.0000000  0 10G01G04G11G14G16G18G19G22G27G32
  23899334.563   125591870.52406  23899338.146    97863814.58345
  21567908.924   113340174.87708  21567908.758    88317044.94747
  22958464.830   120647568.92108  22958463.670    94011092.88545
  24502991.839   128764095.82506  24502991.815   100335655.75645
  21977848.776   115494374.83909  21977847.338    89995621.77947
  23606388.511   124052449.75607  23606387.254    96664255.15045
  20877294.230   109710956.88309  20877291.320    85489056.17249
  21087781.107   110817088.16909  21087777.508    86350981.64649
  20437573.733   107400210.73309  20437574.727    83688500.85449
  22580028.969   118658904.77108  22580029.530    92461513.46846
 15 02 21 03 18 30.0000000  0 10G01G04G11G14G16G18G19G22G27G32
  23884842.217   125515712.54506  23884845.616    97804470.75045
  21557281.221   113284325.14408  21557280.950    88273525.69147
  22943542.754   120569152.85208  22943541.786    93949989.48345
  24489849.892   128695036.14805  24489850.602   100281843.12345
  21994398.659   115581344.40809  21994397.217    90063390.26447
  23621804.876   124133462.07807  23621803.459    96727381.61945
  20870325.460   109674335.93809  20870322.495    85460520.37649
  21094385.455   110851794.69409  21094381.948    86378025.69349
  20438695.506   107406105.93809  20438696.646    83693094.51849
  22559704.469   118552098.86608  22559705.522    92378288.14946
 15 02 21 03 19  0.0000000  0 10G01G04G11G14G16G18G19G22G27G32
  23870379.575   125439710.78406  23870383.012    97745248.68145
  21546703.315   113228738.52508  21546703.227    88230211.46747
  22928645.016   120490864.61808  22928643.960    93888985.69145
  24476727.718   128626078.81206  24476727.658   100228110.14543
  22011012.895   115668653.96209  22011011.773    90131423.65547
  23637264.834   124214704.58408  23637263.598    96790687.43044
  20863406.754   109637977.61009  20863403.790    85432189.21449
  21101081.333   110886981.33109  21101077.666    86405443.84949
  20439885.013   107412356.43809  20439886.220    83697965.03549
  22539429.396   118445552.07308  22539430.036    92295264.70346
 15 02 21 03 19 30.0000000  0 10G01G04G11G14G16G18G19G22G27G32
  23855946.538   125363865.97406  23855950.143    97686148.93145
  21536175.649   113173415.51608  21536175.544    88187102.64447
  22913771.854   120412705.49708  22913770.762    93828082.52346
  24463625.226   128557227.25306  24463625.478   100174459.59444
  22027691.708   115756301.15308  22027690.544    90199720.15547
  23652768.200   124296175.35307  23652767.099    96854171.14545
  20856538.470   109601884.16009  20856535.406    85404064.45549
  21107868.392   110922647.34609  21107864.729    86433235.55049
  20441142.301   107418963.93709  20441143.410    83703113.73449
  22519203.876   118339267.87308  22519204.500    92212445.89146
 15 02 21 03 20  0.0000000  0 10G01G04G11G14G16G18G19G22G27G32
  23841543.011   125288174.86806  23841546.526    97627168.90244
  21525697.541   113118352.93908  21525697.414    88144196.76947
  22898922.624   120334672.20807  22898921.471    93767277.37745
  24450543.549   128488481.10606  24450543.784   100120891.15043
  22044433.522   115844279.69809  22044432.149    90268274.85547
  23668313.946   124377869.14007  23668312.701    96917828.62945
  20849719.807   109566052.93709  20849717.052    85376144.02849
  21114745.633   110958787.49409  21114741.948    86461396.70849
  20442467.354   107425926.04409  20442468.261    83708538.74849
  22499028.730   118233245.89008  22499029.309    92129831.38746
 15 02 21 03 20 30.0000000  0 10G01G04G11G14G16G18G19G22G27G32
  23827168.895   125212638.50106  23827172.221    97568309.43445
  21515269.247   113063551.47808  21515269.200    88101494.34947
  22884097.517   120256766.86907  22884096.385    93706571.97345
  24437482.256   128419843.98406  24437482.503   100067407.70044
  22061238.225   115932588.91309  22061237.137    90337087.22147
  23683901.942   124459784.83107  23683900.779    96981659.01445
  20842951.847   109530486.97309  20842948.985    85348430.30249
  21121713.034   110995401.65209  21121709.514    86489927.22449
  20443859.918   107433244.61009  20443860.983    83714241.52249
  22478903.990   118127489.66708  22478904.681    92047423.99146
 15 02 21 03 21  0.0000000  0 10G01G04G11G14G16G18G19G22G27G32
  23812824.267   125137257.06806  23812827.671    97509570.71145
  21504890.523   113009011.50808  21504890.363    88058995.68447
  22869297.038   120178989.64007  22869296.099    93645966.36845
  24424442.718   128351319.28406  24424442.923   100014011.86144
  22078105.025   116021225.57908  22078104.012    90406154.72347
  23699532.007   124541920.34907  23699530.503    97045660.71545
  20836234.665   109495187.79009  20836231.723    85320924.45449
  21128770.412   111032488.67409  21128766.887    86518826.20649
  20445320.629   107440920.66609  20445321.580    83720222.86249
  22458830.416   118022002.07408  22458830.853    91965225.89746
 15 02 21 03 21 30.0000000  0 10G01G04G11G14G16G18G19G22G27G32
  23798509.974   125062034.20206  23798513.218    97450955.54545
  21494562.316   112954736.38508  21494562.322    88016703.39647
  22854521.739   120101344.29507  22854520.646    93585463.54645
  24411424.604   128282912.94406  24411425.873    99960708.28244
  22095034.707   116110191.06508  22095033.670    90475478.46547
  23715203.829   124624276.89107  23715202.395    97109834.61745
  20829569.315   109460160.07809  20829566.271    85293630.13849
  21135918.196   111070050.40609  21135914.648    86548095.09149
  20446850.226   107448958.68909  20446851.286    83726486.25149
  22438809.119   117916789.35708  22438809.461    91883241.99046
 15 02 21 03 22  0.0000000  0 10G01G04G11G14G16G18G19G22G27G32
  23784224.999   124986966.18206  23784228.157    97392461.04645
  21484283.787   112900722.34808  21484283.725    87974614.54147
  22839770.585   120023827.73807  22839769.776    93525061.07645
  24398429.772   128214624.45206  24398430.973    99907496.49744
  22112025.528   116199478.71308  22112024.497    90545053.24947
  23730916.787   124706848.79207  23730915.422    97174176.33945
  20822954.924   109425401.28109  20822951.809    85266545.36549
  21143155.278   111108081.18209  21143151.565    86577729.46649
  20448448.128   107457355.84609  20448449.142    83733029.48849
  22418840.016   117811850.63408  22418840.540    91801471.59346
 15 02 21 03 22 30.0000000  0 10G01G04G11G14G16G18G19G22G27G32
  23769969.494   124912053.27606  23769972.515    97334087.38445
  21474054.924   112846969.52808  21474054.955    87932729.25047
  22825044.274   119946440.60607  22825043.303    93464759.44245
  24385457.831   128146456.63006  24385458.666    99854378.78444
  22129077.314   116289086.14208  22129076.160    90614877.20847
  23746670.299   124789633.86807  23746669.167    97238684.16545
  20816391.885   109390912.34209  20816388.676    85239670.86949
  21150481.246   111146579.56509  21150477.572    86607728.20849
  20450114.725   107466113.21509  20450115.681    83739853.40349
  22398923.506   117707188.76408  22398923.917    91719916.94646
 15 02 21 03 23  0.0000000  0 10G01G04G11G14G16G18G19G22G27G32
  23755743.395   124837295.77806  23755746.516    97275834.83046
  21463875.922   112793478.14009  21463875.826    87891047.66747
  22810342.685   119869183.57907  22810341.816    93404559.18745
  24372510.050   128078412.99106  24372510.185    99801357.73344
  22146189.207   116379010.55808  22146188.635    90684948.15447
  23762464.147   124872630.57107  23762462.758    97303356.90545
  20809880.567   109356695.25609  20809877.541    85213008.20649
  21157896.044   111185544.36909  21157892.176    86638090.39649
  20451849.771   107475231.97609  20451850.802    83746958.93449
  22379060.404   117602806.79908  22379060.758    91638580.37946
 15 02 21 03 23 30.0000000  0 10G01G04G11G14G16G18G19G22G27G32
  23741547.282   124762693.13807  23741550.040    97217702.94445
  21453746.388   112740247.45309  21453746.466    87849569.22347
  22795665.988   119792056.29508  22795665.104    93344460.03545
  24359585.788   128010495.37906  24359585.498    99748434.95544
  22163360.977   116469248.88308  22163360.350    90755263.70747
  23778297.586   124955835.88507  23778296.256    97368192.21445
  20803420.994   109322750.81609  20803417.884    85186557.99149
  21165399.111   111224973.56809  21165395.258    86668814.44949
  20453653.914   107484712.37509  20453655.013    83754346.25149
  22359250.837   117498706.66808  22359251.264    91557463.43946
 15 02 21 03 24  0.0000000  0 10G01G04G11G14G16G18G19G22G27G32
  23727380.927   124688248.41106  23727384.084    97159694.10145
  21443667.123   112687280.39909  21443667.195    87808296.20347
  22781014.465   119715062.21108  22781013.427    93284464.68145
  24346686.756   127942710.00506  24346686.652    99695615.18144
  22180592.579   116559801.87208  22180591.743    90825824.47347
  23794170.971   125039250.67707  23794169.378    97433190.74344
  20797014.325   109289083.07609  20797011.265    85160323.39149
  21172990.793   111264868.37209  21172987.025    86699901.30949
  20455527.525   107494558.29609  20455528.590    83762018.39349
  22339496.022   117394894.25908  22339496.044    91476570.67746
 15 02 21 03 24 30.0000000  0 10G01G04G11G14G16G18G19G22G27G32
  23713243.849   124613958.97106  23713247.170    97101806.26845
  21433637.629   112634574.39709  21433637.424    87767226.59147
  22766387.836   119638199.25708  22766386.830    93224571.49145
  24333812.470   127875057.24206  24333813.409    99642898.80844
  22197883.281   116650664.34208  22197882.370    90896626.38947
  23810083.404   125122870.23507  23810081.606    97498348.84645
  20790660.025   109255691.37809  20790656.907    85134303.88849
  21180670.155   111305224.34909  21180666.435    86731347.52349
  20457470.219   107504767.97109  20457471.251    83769973.98549
  22319795.888   117291369.63708  22319796.163    91395902.17846
 15 02 21 03 25  0.0000000  0 10G01G04G11G14G16G18G19G22G27G32
  23699136.722   124539826.60906  23699139.959    97044040.84846
  21423657.867   112582130.98909  21423657.732    87726361.60648
  22751786.546   119561469.58208  22751785.646    93164782.17845
  24320964.860   127807541.56406  24320965.573    99590289.19344
  22215232.364   116741834.48508  22215231.779    90967668.03447
  23826034.491   125206694.10807  23826033.099    97563666.13645
  20784358.892   109222578.60809  20784355.809    85108501.73049
  21188437.310   111346041.77509  21188433.794    86763153.30849
  20459482.964   107515344.02009  20459483.989    83778215.06049
  22300151.461   117188137.13008  22300151.618    91315461.29947
 15 02 21 03 25 30.0000000  0 10G01G04G11G14G16G18G19G22G27G32
  23685059.588   124465850.92906  23685063.144    96986397.48746
  21413728.202   112529949.71409  21413727.836    87685700.87347
  22737210.807   119484873.15508  22737209.703    93105096.66045
  24308143.722   127740165.30906  24308144.055    99537788.25245
  22232639.529   116833309.72108  22232638.908    91038947.41547
  23842023.827   125290719.54007  23842022.531    97629140.46845
  20778110.984   109189745.22109  20778107.939    85082917.27549
  21196292.032   111387318.36809  21196288.384    86795316.88649
  20461565.192   107526286.82509  20461566.100    83786741.92349
  22280562.995   117085199.14108  22280563.150    91235249.92446
 15 02 21 03 26  0.0000000  0 10G01G04G11G14G16G18G19G22G27G32
  23671012.210   124392031.46006  23671015.545    96928875.88445
  21403848.359   112478030.16709  21403848.059    87645244.09047
  22722660.262   119408409.92808  22722659.061    93045514.92945
  24295349.446   127672931.12206  24295349.523    99485398.00343
  22250104.279   116925087.29108  22250103.595    91110462.38647
  23858051.403   125374944.02207  23858049.965    97694769.91345
  20771916.379   109157192.32309  20771913.290    85057551.37949
  21204233.795   111429052.64809  21204230.405    86827837.10549
  20463717.410   107537596.77609  20463718.319    83795554.86849
  22261030.713   116982557.77708  22261031.100    91155269.69446
 15 02 21 03 26 30.0000000  0 10G01G04G11G14G16G18G19G22G27G32
  23656994.283   124318367.72306  23656997.896    96871475.64546
  21394017.866   112426371.54409  21394017.638    87604990.62748
  22708135.180   119332079.79408  22708133.902    92986036.92545
  24282582.386   127605840.95606  24282581.645    99433119.89544
  22267625.719   117017163.48508  22267624.956    91182210.05647
  23874115.985   125459364.78007  23874114.710    97760552.32745
  20765775.268   109124920.72309  20765772.140    85032404.67949
  21212262.241   111471241.82209  21212258.646    86860711.78449
  20465939.678   107549274.15309  20465940.654    83804654.11849
  22241555.783   116880215.29908  22241555.917    91075522.32546
 15 02 21 03 27  0.0000000  0 10G01G04G11G14G16G18G19G22G27G32
  23643006.749   124244863.20806  23643010.200    96814199.43045
  21384237.882   112374977.44609  21384237.784    87564943.29148
  22693636.141   119255886.95908  22693634.877    92926665.90545
  24269844.251   127538901.44806  24269843.881    99380959.25644
  22285204.272   117109538.47008  22285203.284    91254190.55747
  23890218.277   125543983.49207  23890216.905    97826488.96745
  20759688.762   109092935.10509  20759685.488    85007480.82449
  21220377.605   111513887.84409  21220374.089    86893942.44849
  20468232.575   107561323.34809  20468233.586    83814043.10049
  22222138.402   116778177.89708  22222138.648    90996012.69947
 15 02 21 03 27 30.0000000  0 10G01G04G11G14G16G18G19G22G27G32
  23629048.297   124171511.79806  23629051.727    96757042.53545
  21374506.943   112323841.60809  21374506.947    87525097.20247
  22679162.251   119179825.46408  22679161.060    92867397.23445
  24257133.926   127472109.39806  24257133.928    99328913.52743
  22302837.922   117202204.83008  22302837.380    91326398.07747
  23906356.549   125628791.80707  23906355.815    97892573.32745
  20753655.520   109061230.86309  20753652.555    84982776.22549
  21228578.420   111556982.76209  21228574.672    86927522.90249
  20470595.123   107573738.99709  20470596.097    83823717.62849
  22202778.720   116676442.05008  22202779.238    90916738.05747
 15 02 21 03 28  0.0000000  0 10G01G04G11G14G16G18G19G22G27G32
  23615120.348   124098318.30506  23615123.490    96700008.70045
  21364826.044   112272968.54609  21364825.949    87485455.88448
  22664714.147   119103900.50908  22664712.790    92808234.94845
  24244453.243   127405472.55406  24244453.581    99276988.72045
  22320527.539   117295163.83408  22320526.936    91398833.63247
  23922531.869   125713792.31107  23922530.832    97958807.47145
  20747677.006   109029813.77609  20747674.098    84958295.38149
  21236865.236   111600529.68109  21236861.460    86961455.56749
  20473028.598   107586526.64809  20473029.650    83833682.02749
  22183477.929   116575015.17908  22183478.371    90837704.16946
 15 02 21 03 28 30.0000000  0 10G01G04G11G14G16G18G19G22G27G32
  23601221.449   124025279.37706  23601224.752    96643095.31945
  21355194.618   112222355.00209  21355194.533    87446016.78548
  22650291.647   119028109.44908  22650290.197    92749176.99945
  24231802.212   127338990.34006  24231802.862    99225184.42445
  22338271.870   117388409.57908  22338270.563    91471492.66347
  23938742.488   125798979.19307  23938741.281    98025186.83045
  20741752.926   108998682.27809  20741750.071    84934037.07249
  21245237.009   111644523.48909  21245233.210    86995736.45449
  20475532.267   107599683.86209  20475533.300    83843934.39849
  22164235.475   116473896.68208  22164235.786    90758910.56246
 15 02 21 03 29  0.0000000  0 10G01G04G11G14G16G18G19G22G27G32
  23587351.846   123952394.56206  23587354.922    96586301.99645
  21345612.339   112172000.25109  21345612.432    87406779.33848
  22635894.576   118952452.20208  22635893.338    92690223.32946
  24219181.292   127272665.39606  24219181.342    99173502.65744
  22356069.841   117481938.57608  22356068.552    91544372.38947
  23954987.905   125884350.15107  23954986.670    98091709.64145
  20735883.121   108967836.98909  20735880.202    84910001.78649
  21253693.275   111688961.99609  21253689.455    87030363.86348
  20478106.381   107613210.95409  20478107.259    83854474.98649
  22145052.136   116373088.67708  22145052.549    90680358.91347
 15 02 21 03 29 30.0000000  0 10G01G04G11G14G16G18G19G22G27G32
  23573513.673   123879675.59706  23573517.015    96529637.92346
  21336081.734   112121916.36809  21336081.604    87367752.94148
  22621525.100   118876940.97308  22621523.882    92631383.43546
  24206592.724   127206512.15106  24206592.735    99121954.69745
  22373923.447   117575760.16008  22373922.600    91617480.07847
  23971270.189   125969914.75507  23971268.895    98158383.35045
  20730070.577   108937291.14709  20730067.447    84886199.83649
  21262236.166   111733855.38309  21262232.390    87065345.72448
  20480753.369   107627120.47009  20480754.250    83865313.56549
  22125930.975   116272605.67508  22125931.443    90602060.49347
 15 02 21 03 30  0.0000000  0 10G01G04G11G14G16G18G19G22G27G32
  23559703.918   123807104.21607  23559707.089    96473088.86646
  21326599.090   112072084.51809  21326598.855    87328922.95048
  22607180.169   118801557.94708  22607178.914    92572643.43946
  24194033.783   127140515.15706  24194033.420    99070528.46644
  22391828.869   117669853.00808  22391827.765    91690799.17047
  23987585.816   126055652.92307  23987584.339    98225192.30244
  20724311.499   108907027.80009  20724308.668    84862618.00649
  21270861.644   111779183.41909  21270858.066    87100666.27048
  20483469.609   107641394.81509  20483470.605    83876436.42749
  22106868.319   116172431.89808  22106869.162    90524003.04946
 15 02 21 03 30 30.0000000  0 10G01G04G11G14G16G18G19G22G27G32
  23545924.894   123734694.92807  23545928.218    96416666.06845
  21317167.253   112022519.28609  21317166.903    87290300.71748
  22592862.657   118726318.00408  22592861.180    92514014.92945
  24181507.760   127074692.05506  24181507.542    99019237.77544
  22409788.303   117764229.25108  22409786.995    91764339.09147
  24003936.681   126141576.73607  24003935.148    98292145.91245
  20718609.390   108877062.70209  20718606.303    84839268.58649
  21279572.273   111824958.86209  21279568.736    87136335.44548
  20486258.366   107656049.42309  20486259.228    83887855.59449
  22087867.983   116072584.67708  22087868.741    90446200.06046
 15 02 21 03 31  0.0000000  0 10G01G04G11G14G16G18G19G22G27G32
  23532175.109   123662439.22706  23532178.193    96360362.98146
  21307784.516   111973212.10809  21307784.101    87251879.55348
  22578570.620   118651213.31308  22578569.241    92455491.79746
  24169014.116   127009036.82507  24169013.754    98968077.86444
  22427798.973   117858877.33708  22427797.648    91838090.82847
  24020320.605   126227675.49507  24020319.561    98359235.81344
  20712962.623   108847388.71309  20712959.394    84816146.00049
  21288366.328   111871171.40209  21288362.743    87172345.21348
  20489117.896   107671076.44909  20489118.653    83899564.96049
  22068928.889   115973058.03608  22068929.153    90368646.86647
 15 02 21 03 31 30.0000000  0 10G01G04G11G14G16G18G19G22G27G32
  23518455.177   123590341.18106  23518458.488    96304182.74045
  21298451.287   111924166.84609  21298451.068    87213662.46748
  22564305.184   118576248.40808  22564304.005    92397077.60346
  24156554.026   126943556.61006  24156553.468    98917054.32744
  22445862.085   117953799.00408  22445860.568    91912055.74747
  24036738.360   126313951.13107  24036737.307    98426463.58545
  20707372.189   108818010.99909  20707369.177    84793254.27749
  21297244.033   111917823.30909  21297240.291    87208697.35248
  20492049.136   107686480.78109  20492050.173    83911568.32749
  22050051.903   115873858.67608  22050052.179    90291348.68747
 15 02 21 03 32  0.0000000  0 10G01G04G11G14G16G18G19G22G27G32
  23504765.761   123518402.66107  23504769.072    96248126.80945
  21289168.507   111875385.31709  21289168.138    87175650.89048
  22550066.862   118501425.70908  22550065.669    92338774.21946
  24144127.864   126878256.59506  24144127.588    98866171.23944
  22463977.091   118048993.09908  22463975.452    91986232.95147
  24053189.644   126400403.49506  24053188.412    98493829.07645
  20701839.046   108788933.29809  20701835.866    84770596.32449
  21306205.289   111964914.33809  21306201.432    87245391.66248
  20495052.930   107702265.07509  20495053.724    83923867.76949
  22031238.037   115774991.20608  22031238.564    90214309.14047
 15 02 21 03 32 30.0000000  0 10G01G04G11G14G16G18G19G22G27G32
  23491105.044   123446615.16907  23491108.225    96192188.54745
  21279934.180   111826858.94809  21279934.057    87137838.15548
  22535854.039   118426736.94508  22535852.921    92280575.20345
  24131734.855   126813130.80306  24131734.586    98815423.87244
  22482141.472   118144448.62708  22482140.089    92060613.85347
  24069672.884   126487022.06607  24069670.959    98561324.06945
  20696361.478   108760148.10509  20696358.248    84748166.30249
  21315248.147   112012434.59509  21315244.382    87282420.43648
  20498127.301   107718421.54009  20498128.309    83936457.21349
  22012486.101   115676449.58808  22012486.659    90137523.50446
 15 02 21 03 33  0.0000000  0 10G01G04G11G14G16G18G19G22G27G32
  23477474.863   123374988.14907  23477477.985    96136375.30746
  21270750.438   111778597.15209  21270749.973    87100231.58348
  22521668.842   118352192.04708  22521667.425    92222488.28146
  24119377.365   126748191.53206  24119377.038    98764821.87544
  22500356.992   118240171.92408  22500355.474    92135203.43547
  24086188.874   126573813.80507  24086187.169    98628954.00345
  20690941.509   108731666.19409  20690938.314    84725972.60749
  21324374.015   112060391.70009  21324370.316    87319789.61248
  20501274.545   107734960.44509  20501275.449    83949344.66549
  21993798.741   115578246.06608  21993799.035    90061001.30947
 15 02 21 03 33 30.0000000  0 10G01G04G11G14G16G18G19G22G27G32
  23463873.977   123303515.82507  23463877.182    96080682.63445
  21261615.742   111730594.15409  21261615.254    87062826.65648
  22507509.562   118277785.96208  22507508.393    92164509.53546
  24107054.506   126683435.93907  24107054.549    98714363.02944
  22518621.929   118336154.66008  22518620.726    92209995.15147
  24102736.301   126660771.34007  24102734.785    98696713.10045
  20685578.462   108703483.31909  20685575.252    84704011.92549
  21333581.605   112108778.12909  21333578.078    87357493.32648
  20504493.521   107751876.68409  20504494.616    83962526.14749
  21975174.946   115480377.42708  21975175.129    89984740.05947
 15 02 21 03 34  0.0000000  0 10G01G04G11G14G16G18G19G22G27G32
  23450303.643   123232202.70807  23450306.725    96025114.00545
  21252531.141   111682854.10109  21252530.641    87025626.62248
  22493377.885   118203523.74808  22493376.686    92106642.90346
  24094768.501   126618871.54706  24094768.272    98664053.12244
  22536936.537   118432398.69908  22536935.450    92284990.47746
  24119315.819   126747897.01407  24119314.398    98764603.18545
  20680273.443   108675605.37809  20680270.296    84682288.85849
  21342871.237   112157596.38109  21342867.829    87395533.52348
  20507785.461   107769175.57109  20507786.324    83976005.79549
  21956615.984   115382850.76608  21956616.402    89908745.30147
 15 02 21 03 34 30.0000000  0 10G01G04G11G14G16G18G19G22G27G32
  23436762.991   123161046.03907  23436765.843    95969667.29545
  21243496.048   111635374.39809  21243495.703    86988629.46548
  22479273.205   118129403.06008  22479272.017    92048886.54546
  24082518.865   126554498.37207  24082518.431    98613892.22744
  22555300.014   118528898.11108  22555298.260    92360184.83547
  24135926.274   126835185.57307  24135924.962    98832620.23244
  20675026.074   108648030.89309  20675023.198    84660802.24549
  21352242.116   112206841.87209  21352238.904    87433906.63348
  20511149.864   107786855.00709  20511150.584    83989781.97349
  21938122.399   115285665.97908  21938122.707    89833016.92847
 15 02 21 03 35  0.0000000  0 10G01G04G11G14G16G18G19G22G27G32
  23423251.858   123090045.52407  23423255.074    95914342.26745
  21234510.329   111588154.50009  21234509.921    86951834.75448
  22465195.513   118055424.45008  22465194.177    91991240.89346
  24070305.710   126490319.33706  24070305.662    98563882.63744
  22573711.211   118625650.38308  22573709.972    92435576.18547
  24152567.591   126922635.12807  24152565.497    98900762.78244
  20669836.729   108620760.95109  20669833.717    84639552.93849
  21361694.160   112256512.38809  21361690.812    87472610.93148
  20514586.596   107804915.49709  20514587.637    84003855.06949
  21919694.497   115188825.35608  21919694.504    89757556.73647
 15 02 21 03 35 30.0000000  0 10G01G04G11G14G16G18G19G22G27G32
  23409770.896   123019202.30607  23409773.889    95859139.78745
  21225574.290   111541195.64109  21225573.957    86915243.44348
  22451145.157   117981589.23808  22451143.821    91933706.97346
  24058130.502   126426338.03207  24058130.507    98514027.10044
  22592170.364   118722653.70008  22592169.185    92511163.17347
  24169238.970   127010244.81907  24169237.027    98969030.07044
  20664705.797   108593797.97209  20664702.825    84618542.82449
  21371227.000   112306607.14109  21371223.566    87511645.80948
  20518096.226   107823358.85409  20518097.206    84018226.50749
  21901332.413   115092332.63908  21901332.381    89682367.63247
 15 02 21 03 36  0.0000000  0 10G01G04G11G14G16G18G19G22G27G32
  23396319.900   122948516.03307  23396322.698    95804059.59645
  21216687.750   111494497.24609  21216687.650    86878855.09448
  22437122.119   117907897.76508  22437121.078    91876285.06246
  24045993.391   126362557.30307  24045993.310    98464327.86945
  22610676.422   118819904.66008  22610675.458    92586943.10746
  24185940.131   127098011.70107  24185938.452    99037419.82944
  20659633.703   108567143.12909  20659630.569    84597772.81649
  21380840.148   112357124.13809  21380836.579    87551009.70748
  20521678.899   107842185.45709  20521679.818    84032896.58049
  21883037.026   114996190.07508  21883037.204    89607451.37747
 15 02 21 03 36 30.0000000  0 10G01G04G11G14G16G18G19G22G27G32
  23382897.966   122877984.82407  23382901.112    95749100.25946
  21207850.530   111448057.09109  21207850.124    86842667.96848
  22423126.268   117834348.60308  22423125.127    91818974.04246
  24033894.823   126298978.18106  24033894.772    98414785.72144
  22629229.148   118917399.36308  22629228.166    92662913.00347
  24202671.129   127185932.21507  24202669.720    99105929.32744
  20654619.893   108540795.84909  20654616.948    84577242.46849
  21390532.902   112408059.68709  21390529.194    87590699.75048
  20525334.249   107861394.14009  20525335.206    84047864.37649
  21864808.396   114900398.35308  21864808.745    89532808.50947
 15 02 21 03 37  0.0000000  0 10G01G04G11G14G16G18G19G22G27G32
  23369506.453   122807611.16907  23369509.352    95694263.67746
  21199062.966   111401878.00409  21199062.667    86806684.26948
  22409157.922   117760944.98208  22409156.721    91761776.44346
  24021835.122   126235605.89807  24021835.491    98365404.76445
  22647828.063   119015137.32208  22647827.143    92739072.42347
  24219431.223   127274006.85507  24219429.791    99174558.92144
  20649665.621   108514760.00109  20649662.408    84556954.80049
  21400305.479   112459414.26809  21400301.723    87630716.31248
  20529062.854   107880988.09009  20529063.832    84063132.38549
  21846647.565   114804962.57108  21846647.554    89458442.99847
 15 02 21 03 37 30.0000000  0 10G01G04G11G14G16G18G19G22G27G32
  23356144.466   122737394.23306  23356147.493    95639549.22345
  21190324.729   111355958.91709  21190324.568    86770903.18048
  22395217.437   117687686.67408  22395216.163    91704692.06246
  24009815.945   126172442.79407  24009815.398    98316186.77244
  22666472.504   119113114.70608  22666471.494    92815418.42546
  24236219.922   127362232.87707  24236218.645    99243306.44143
  20644770.549   108489036.25709  20644767.473    84536910.32549
  21410157.088   112511185.44809  21410153.421    87671057.49348
  20532864.695   107900967.21309  20532865.709    84078700.53049
  21828554.768   114709884.50308  21828554.852    89384356.22347
 15 02 21 03 38  0.0000000  0 10G01G04G11G14G16G18G19G22G27G32
  23342812.527   122667334.51307  23342815.465    95584957.23645
  21181636.275   111310300.31209  21181636.104    86735325.06248
  22381304.760   117614574.53408  22381303.208    91647721.58846
  23997836.566   126109491.98007  23997836.401    98267134.22045
  22685162.226   119211329.04508  22685161.053    92891949.07646
  24253036.982   127450608.40306  24253035.583    99312170.49144
  20639935.011   108463625.98809  20639932.076    84517110.12249
  21420087.587   112563371.22609  21420084.036    87711721.73148
  20536739.984   107921332.64909  20536741.100    84094569.69949
  21810530.537   114615167.21508  21810530.668    89310550.57847
 15 02 21 03 38 30.0000000  0 10G01G04G11G14G16G18G19G22G27G32
  23329509.872   122597428.40607  23329512.702    95530484.98946
  21172996.556   111264898.44209  21172996.266    86699946.99348
  22367419.117   117541605.67408  22367417.672    91590862.76646
  23985898.062   126046752.96906  23985897.491    98218246.69245
  22703895.519   119309774.53808  22703894.810    92968659.80546
  24269881.423   127539127.72507  24269880.251    99381146.58944
  20635159.049   108438527.60609  20635155.754    84497552.94449
  21430096.016   112615966.62609  21430092.819    87752705.15248
  20540688.365   107942081.46909  20540689.497    84110737.60349
  21792574.832   114520809.47408  21792575.154    89237025.09447
 15 02 21 03 39  0.0000000  0 10G01G04G11G14G16G18G19G22G27G32
  23316238.186   122527685.19507  23316241.076    95476139.64845
  21164407.489   111219762.59009  21164407.399    86664776.20648
  22353562.654   117468789.78208  22353561.353    91534123.14146
  23974001.567   125984237.74707  23974001.203    98169533.56745
  22722674.418   119408457.41308  22722673.556    93045555.53646
  24286755.130   127627798.31107  24286753.909    99450240.55445
  20630444.283   108413751.56509  20630441.023    84478246.94049
  21440183.892   112668978.67909  21440180.640    87794013.24848
  20544711.584   107963223.65709  20544712.836    84127212.03249
  21774689.784   114426823.38308  21774690.237    89163789.22347
 15 02 21 03 39 30.0000000  0 10G01G04G11G14G16G18G19G22G27G32
  23302994.410   122458089.39707  23302997.521    95421909.19146
  21155866.158   111174877.09109  21155865.861    86629800.50748
  22339732.585   117396112.12408  22339731.235    91477491.21546
  23962145.807   125921934.02707  23962145.672    98120985.24545
  22741494.961   119507359.47008  22741493.804    93122622.08446
  24303654.348   127716602.55307  24303653.056    99519438.67344
  20625788.114   108389283.63509  20625785.154    84459181.02949
  21450347.913   112722390.28509  21450344.392    87835632.67748
  20548806.928   107984744.37009  20548807.945    84143981.41449
  21756872.925   114333195.93708  21756873.290    89090832.80147
 15 02 21 03 40  0.0000000  0 10G01G04G11G14G16G18G19G22G27G32
  23289782.043   122388657.78707  23289784.968    95367806.68245
  21147375.465   111130258.44709  21147375.143    86595032.74948
  22325931.998   117323590.08208  22325930.572    91420980.55646
  23950333.682   125859861.16907  23950333.080    98072616.81145
  22760359.428   119606494.75808  22760358.862    93199870.31547
  24320581.354   127805555.38306  24320580.158    99588752.54744
  20621193.991   108365141.98109  20621191.067    84440369.35649
  21460590.766   112776216.05809  21460587.059    87877574.83948
  20552977.438   108006660.98309  20552978.521    84161059.28949
  21739128.311   114239946.33108  21739128.196    89018170.79547
 15 02 21 03 40 30.0000000  0 10G01G04G11G14G16G18G19G22G27G32
  23276598.967   122319379.84607  23276601.648    95313823.88045
  21138933.630   111085896.36909  21138933.233    86560464.91048
  22312159.025   117251213.71308  22312157.836    91364583.41146
  23938564.173   125798011.57506  23938563.825    98024422.33745
  22779266.410   119705850.05808  22779265.794    93277290.00947
  24337534.138   127894644.11506  24337533.198    99658172.31744
  20616660.413   108341317.62109  20616657.321    84421804.92449
  21470909.869   112830443.68409  21470906.317    87919830.13448
  20557221.591   108028963.75309  20557222.604    84178438.06949
  21721453.651   114147066.74108  21721453.964    88945797.11447
 15 02 21 03 41  0.0000000  0 10G01G04G11G14G16G18G19G22G27G32
  23263445.581   122250258.65007  23263448.437    95259963.24246
  21130541.105   111041793.66609  21130540.953    86526099.17848
  22298414.684   117178986.68008  22298413.296    91308302.63146
  23926837.984   125736391.35107  23926837.642    97976406.60845
  22798214.769   119805425.41908  22798214.214    93354881.18246
  24354513.383   127983869.83207  24354511.648    99727698.88844
  20612187.908   108317814.91609  20612185.097    84403491.13249
  21481305.752   112885074.32509  21481302.059    87962399.46048
  20561539.962   108051656.32209  20561540.695    84196120.58449
  21703850.726   114054562.74708  21703851.269    88873716.11447
 15 02 21 03 41 30.0000000  0 10G01G04G11G14G16G18G19G22G27G32
  23250322.055   122181294.77107  23250325.072    95206225.19346
  21122198.256   110997951.01009  21122198.014    86491936.08148
  22284699.141   117106910.20408  22284697.729    91252139.17646
  23915156.222   125675004.15206  23915155.369    97928572.43344
  22817204.931   119905219.20808  22817204.222    93432642.56046
  24371518.536   128073231.20407  24371516.670    99797331.11144
  20607777.109   108294635.82509  20607774.202    84385429.50449
  21491777.954   112940106.64909  21491774.330    88005281.78448
  20565932.541   108074739.91609  20565933.302    84214107.79449
  21686319.980   113962437.33508  21686320.439    88801930.11047
 15 02 21 03 42  0.0000000  0 10G01G04G11G14G16G18G19G22G27G32
  23237227.925   122112484.81007  23237230.934    95152607.07346
  21113903.970   110954364.86609  21113903.622    86457972.87248
  22271011.507   117034981.48608  22271009.986    91196090.84446
  23903518.600   125613849.19007  23903518.232    97880919.24044
  22836235.384   120005224.75508  22836234.634    93510568.94646
  24388548.591   128162723.40406  24388546.478    99867065.32844
  20603427.606   108271778.34109  20603424.584    84367618.48449
  21502325.525   112995534.94509  21502322.014    88048472.66148
  20570399.124   108098211.78109  20570399.926    84232397.55949
  21668860.924   113870689.78008  21668861.107    88730438.53247
 15 02 21 03 42 30.0000000  0 10G01G04G11G14G16G18G19G22G27G32
  23224163.752   122043831.55907  23224166.623    95099111.05946
  21105659.152   110911037.89909  21105658.808    86424211.61248
  22257352.561   116963203.95708  22257351.342    91140160.32246
  23891926.484   125552932.17807  23891925.901    97833451.45744
  22855306.168   120105442.02508  22855305.605    93588660.29346
  24405602.911   128252346.30307  24405600.949    99936901.31544
  20599139.989   108249246.82909  20599136.989    84350061.46549
  21512948.896   113051360.79309  21512945.464    88091973.32148
  20574940.256   108122075.30809  20574941.064    84250992.51349
  21651474.944   113779325.30908  21651474.980    88659245.46847
 15 02 21 03 43  0.0000000  0 10G01G04G11G14G16G18G19G22G27G32
  23211130.135   121975339.18807  23211132.975    95045740.42146
  21097464.540   110867974.14009  21097464.042    86390655.44448
  22243723.599   116891582.21608  22243722.151    91084351.19046
  23880381.067   125492260.13507  23880380.724    97786174.57645
  22874417.550   120205873.04808  22874416.814    93666918.21846
  24422682.884   128342102.35707  24422680.965   100006841.12843
  20594915.521   108227046.62809  20594912.371    84332762.61149
  21523648.418   113107586.13009  21523644.827    88135785.26648
  20579556.750   108146335.27209  20579557.620    84269896.37949
  21634163.027   113688350.53908  21634163.245    88588356.05647
 15 02 21 03 43 30.0000000  0 10G01G04G11G14G16G18G19G22G27G32
  23198124.936   121906996.77907  23198127.773    94992486.63846
  21089317.649   110825162.72309  21089317.120    86357295.91148
  22230122.163   116820106.27908  22230120.660    91028655.67346
  23868880.772   125431825.05107  23868880.730    97739082.33545
  22893566.965   120306503.52808  22893566.103    93745331.57246
  24439785.643   128431978.90106  24439783.951   100076874.77744
  20590752.309   108205168.11409  20590749.059    84315714.42149
  21534421.133   113164197.90909  21534417.644    88179898.34048
  20584246.697   108170981.33009  20584247.700    84289101.10049
  21616923.695   113597757.05308  21616923.686    88517763.75847
 15 02 21 03 44  0.0000000  0 10G01G04G11G14G16G18G19G22G27G32
  23185150.254   121838814.33707  23185153.062    94939357.48945
  21081220.792   110782613.45109  21081220.340    86324140.64048
  22216550.461   116748786.81708  22216549.144    90973082.08346
  23857427.660   125371639.94607  23857427.548    97692184.87845
  22912755.491   120407341.37908  22912755.013    93823906.48146
  24456913.141   128521984.07105  24456911.471   100147008.70044
  20586652.218   108183622.89509  20586648.994    84298925.93449
  21545268.964   113221203.99009  21545265.465    88224318.66348
  20589012.139   108196024.14809  20589013.051    84308614.97949
  21599759.222   113507557.42108  21599759.349    88447478.35447
 15 02 21 03 44 30.0000000  0 10G01G04G11G14G16G18G19G22G27G32
  23172204.837   121770786.64607  23172207.586    94886348.92846
  21073172.817   110740321.15309  21073172.364    86291185.61648
  22203007.850   116677619.07608  22203006.192    90917626.70646
  23846021.829   125311702.40007  23846022.021    97645480.33945
  22931982.468   120508378.32608  22931981.741    93902636.56346
  24474063.382   128612110.32007  24474061.813   100217236.92343
  20582615.086   108162407.15809  20582611.941    84282394.18849
  21556190.576   113278597.60609  21556186.991    88269040.95648
  20593852.188   108221459.08609  20593853.348    84328434.40249
  21582669.099   113417748.93508  21582669.287    88377497.75047
 15 02 21 03 45  0.0000000  0 10G01G04G11G14G16G18G19G22G27G32
  23159288.980   121702913.76807  23159291.869    94833460.97846
  21065173.604   110698285.69209  21065173.301    86258430.72548
  22189494.076   116606604.12008  22189492.591    90862290.39546
  23834663.848   125252015.55807  23834663.562    97598971.12844
  22951246.442   120609611.66608  22951245.639    93981519.66346
  24491236.549   128702355.95306  24491235.581   100287558.22544
  20578640.767   108141522.25009  20578637.659    84266120.23049
  21567185.527   113336376.96509  21567182.029    88314063.82948
  20598766.863   108247286.75509  20598768.089    84348559.85349
  21565654.093   113328333.97208  21565654.089    88307823.76447
 15 02 21 03 45 30.0000000  0 10G01G04G11G14G16G18G19G22G27G32
  23146403.108   121635198.58407  23146406.155    94780695.94646
  21057224.065   110656510.04909  21057223.777    86225878.28548
  22176009.886   116535744.97308  22176008.494    90807075.49346
  23823354.524   125192584.97107  23823354.134    97552661.59645
  22970547.878   120711041.36108  22970547.014    94060555.78646
  24508432.628   128792721.89806  24508431.726   100357973.22044
  20574730.194   108120972.45909  20574727.140    84250107.40449
  21578254.206   113394542.64209  21578250.566    88359387.73248
  20603757.166   108273510.62909  20603758.547    84368994.03849
  21548714.830   113239317.86008  21548714.899    88238460.58447
 15 02 21 03 46  0.0000000  0 10G01G04G11G14G16G18G19G22G27G32
  23133546.744   121567637.59207  23133549.989    94728051.02946
  21049322.991   110614990.46709  21049322.836    86193525.38148
  22162555.144   116465039.07708  22162553.722    90751980.01246
  23812094.060   125133409.89907  23812093.686    97506551.16444
  22989885.510   120812661.14908  22989884.882    94139739.99746
  24525650.749   128883202.70306  24525649.756   100428477.80244
  20570882.986   108100755.52409  20570879.863    84234353.94749
  21589395.432   113453089.14809  21589391.747    88405008.38048
  20608822.290   108300127.72409  20608823.497    84389734.62749
  21531851.376   113150699.68308  21531851.595    88169407.48547
 15 02 21 03 46 30.0000000  0 10G01G04G11G14G16G18G19G22G27G32
  23120720.107   121500232.44107  23120723.043    94675527.55146
  21041471.058   110573728.68809  21041470.931    86161373.36148
  22149129.717   116394488.72908  22149128.230    90697005.74046
  23800883.018   125074495.00507  23800882.549    97460643.46245
  23009259.146   120914470.22908  23009258.344    94219071.74146
  24542890.168   128973758.33516  24542890.559   100499016.75654
  20567099.765   108080874.68909  20567096.827    84218862.38949
  21600609.006   113512016.15909  21600605.222    88450925.53248
  20613962.796   108327140.26409  20613963.887    84410783.35449
  21515064.398   113062483.39708  21515064.399    88100667.53547
 15 02 21 03 47  0.0000000  0 10G01G04G11G14G16G18G19G22G27G32
  23107923.605   121432986.27607  23107926.481    94623127.95547
  21033668.749   110532727.78109  21033668.598    86129424.61048
  22135734.683   116324097.91208  22135733.257    90642155.78646
  23789722.502   125015846.44407  23789722.198    97414943.31645
  23028669.095   121016469.04308  23028668.095    94298551.33246
  24560152.251   129064469.97406  24560151.645   100569701.20745
  20563381.452   108061334.44609  20563378.495    84203636.22449
  21611894.973   113571324.75309  21611891.417    88497140.01748
  20619179.039   108354551.93109  20619180.184    84432143.09349
  21498354.892   112974674.69208  21498354.892    88032245.17847
 15 02 21 03 47 30.0000000  0 10G01G04G11G14G16G18G19G22G27G32
  23095155.710   121365891.31607  23095158.903    94570846.20246
  21025914.639   110491979.72009  21025914.441    86097672.88148
  22122368.768   116253859.24408  22122367.297    90587424.38146
  23778611.569   124957459.22207  23778611.213    97369446.81545
  23048112.664   121118646.65508  23048111.887    94378170.22546
  24577433.483   129155287.67806  24577433.716   100640468.17845
  20559726.654   108042128.32509  20559723.623    84188670.41749
  21623251.867   113631005.41409  21623248.193    88543644.42948
  20624470.034   108382355.48509  20624470.924    84453808.19849
  21481722.030   112887268.00708  21481722.143    87964136.10047
 15 02 21 03 48  0.0000000  0 10G01G04G11G14G16G18G19G22G27G32
  23082418.357   121298956.98007  23082421.562    94518689.60846
  21018210.633   110451494.01809  21018210.332    86066125.59348
  22109033.531   116183782.97708  22109032.238    90532819.51246
  23767552.824   124899345.40307  23767552.626    97324163.34345
  23067591.628   121221009.99108  23067590.953    94457933.83546
  24594737.598   129246219.04307  24594736.694   100711323.79444
  20556137.555   108023267.22809  20556134.446    84173973.46249
  21634680.754   113691065.34109  21634677.254    88590444.37048
  20629837.220   108410560.83409  20629838.117    84475786.38949
  21465167.774   112800275.36708  21465167.934    87896349.66447
 15 02 21 03 48 30.0000000  0 10G01G04G11G14G16G18G19G22G27G32
  23069710.341   121232175.09307  23069713.255    94466651.80646
  21010554.772   110411262.29409  21010554.620    86034776.20448
  22095728.011   116113861.62008  22095726.674    90478335.36046
  23756544.912   124841499.96807  23756545.124    97279089.02545
  23087104.390   121323548.15608  23087103.247    94537833.69845
  24612060.956   129337253.93406  24612060.372   100782260.13943
  20552612.756   108004744.22109  20552609.528    84159539.94949
  21646179.968   113751494.55109  21646176.573    88637532.06548
  20635279.525   108439160.37109  20635280.311    84498071.73649
  21448691.268   112713690.96009  21448691.466    87828881.31547
 15 02 21 03 49  0.0000000  0 10G01G04G11G14G16G18G19G22G27G32
  23057031.657   121165548.03207  23057034.557    94414734.66046
  21002947.821   110371287.02609  21002947.468    86003626.65548
  22082452.467   116044098.25708  22082451.178    90423974.32746
  23745589.323   124783927.89507  23745589.204    97234227.67845
  23106649.895   121426260.94308  23106648.912    94617869.61646
  24629404.137   129428392.90206  24629403.581   100853277.49544
  20549153.026   107986563.31509  20549150.046    84145373.00949
  21657749.686   113812293.36509  21657746.020    88684907.76748
  20640797.189   108468156.89109  20640798.219    84520666.42549
  21432293.415   112627519.41508  21432293.367    87761734.68247
 15 02 21 03 49 30.0000000  0 10G01G04G11G14G16G18G19G22G27G32
  23044381.736   121099072.90407  23044384.609    94362935.89146
  20995389.014   110331565.13409  20995388.631    85972674.54448
  22069206.535   115974490.73208  22069205.171    90369734.70846
  23734685.605   124726628.87807  23734685.652    97189579.11145
  23126227.889   121529142.52908  23126226.996    94698037.06946
  24646766.432   129519631.22406  24646765.825   100924372.26144
  20545758.008   107968722.65709  20545755.059    84131471.20049
  21669388.639   113873456.82009  21669385.046    88732567.59948
  20646390.207   108497548.02409  20646391.096    84543568.60549
  21415973.969   112541760.27209  21415974.026    87694909.39747
 15 02 21 03 50  0.0000000  0 10G01G04G11G14G16G18G19G22G27G32
  23031762.130   121032756.93007  23031765.262    94311261.15246
  20987879.719   110292103.96009  20987879.338    85941925.58748
  22055992.010   115905047.05808  22055990.498    90315622.76646
  23723836.135   124669613.46707  23723835.524    97145151.52845
  23145838.368   121632197.41608  23145837.470    94778339.55746
  24664148.650   129610974.08407  24664147.810   100995548.55343
  20542429.647   107951231.06009  20542426.458    84117841.38449
  21681098.253   113934990.53709  21681094.409    88780515.95248
  20652059.589   108527341.54309  20652060.705    84566784.33149
  21399734.762   112456423.12809  21399734.770    87628412.95348
 15 02 21 03 50 30.0000000  0 10G01G04G11G14G16G18G19G22G27G32
  23019171.582   120966593.93307  23019174.764    94259705.60346
  20980418.992   110252896.94609  20980418.477    85911374.67248
  22042807.357   115835761.61308  22042806.086    90261634.11546
  23713039.698   124612878.30407  23713039.372    97100942.33945
  23165480.337   121735416.56808  23165479.361    94858770.06446
  24681549.784   129702406.50416  24681548.081   101066808.09954
  20539166.549   107934083.30209  20539163.303    84104479.49849
  21692876.476   113996885.73409  21692872.749    88828745.97448
  20657804.630   108557531.69009  20657805.835    84590309.11649
  21383575.199   112371504.21109  21383575.418    87562242.38947
 15 02 21 03 51  0.0000000  0 10G01G04G11G14G16G18G19G22G27G32
  23006612.595   120900595.13707  23006615.419    94208277.99846
  20973008.771   110213955.72409  20973008.129    85881030.87948
  22029655.178   115766646.72608  22029653.879    90207778.36946
  23702299.226   124556437.24407  23702299.293    97056962.32345
  23185155.207   121838808.61508  23185154.477    94939335.28146
  24698968.240   129793951.98105  24698969.381   101138142.22144
  20535971.339   107917292.55009  20535968.015    84091395.79549
  21704725.229   114059151.69509  21704721.620    88877264.89948
  20663627.523   108588130.13709  20663628.602    84614152.05949
  21367497.911   112287017.02109  21367497.994    87496408.24248
 15 02 21 03 51 30.0000000  0 10G01G04G11G14G16G18G19G22G27G32
  22994083.000   120834751.54507  22994085.963    94156971.34546
  20965647.198   110175270.77109  20965646.685    85850886.78048
  22016533.864   115697693.78808  22016532.433    90154048.83646
  23691613.688   124500284.20707  23691613.608    97013206.72845
  23204860.540   121942360.96108  23204860.067    95020025.38046
  24716405.742   129885595.76816  24716407.966   101209548.59554
  20532842.717   107900851.21809  20532839.426    84078584.37149
  21716642.416   114121777.46709  21716639.053    88926064.20148
  20669526.328   108619128.41009  20669527.246    84638306.55349
  21351501.290   112202954.89809  21351501.465    87430905.31848
 15 02 21 03 52  0.0000000  0 10G01G04G11G14G16G18G19G22G27G32
  22981578.871   120769041.46707  22981581.582    94105768.71646
  20958330.368   110136820.41509  20958329.912    85820925.47148
  22003439.303   115628881.49808  22003437.873    90100428.89646
  23680979.485   124444400.09507  23680979.438    96969660.67645
  23224592.281   122046050.64808  23224591.392    95100822.54345
  24733861.530   129977307.99116  24733860.738   101281018.71754
  20529776.488   107884738.57509  20529773.361    84066029.06949
  21728623.652   114184739.44409  21728620.256    88975125.47748
  20675497.288   108650505.14309  20675497.972    84662755.95749
  21335582.061   112119298.47309  21335582.139    87365718.52648
 15 02 21 03 52 30.0000000  0 10G01G04G11G14G16G18G19G22G27G32
  22969106.824   120703500.94807  22969109.692    94054698.22346
  20951064.868   110098640.76809  20951064.637    85791175.10648
  21990378.647   115560247.13008  21990377.120    90046947.57946
  23670403.601   124388824.26007  23670403.738    96926354.85545
  23244356.160   122149910.71907  23244355.170    95181752.47646
  24751334.994   130069116.10317  24751333.336   101352572.36354
  20526780.097   107868992.08809  20526776.906    84053759.08749
  21740675.400   114248071.43009  21740672.009    89024475.07948
  20681546.956   108682296.89109  20681547.793    84687528.74549
  21319747.239   112036086.11209  21319747.099    87300877.74848
 15 02 21 03 53  0.0000000  0 10G01G04G11G14G16G18G19G22G27G32
  22956664.460   120638115.79107  22956667.119    94003748.77846
  20943848.343   110060717.45209  20943847.973    85761624.47748
  21977349.209   115491777.31908  21977347.637    89993594.49246
  23659884.143   124333544.97807  23659884.508    96883280.08745
  23264148.892   122253923.88408  23264148.262    95262801.65946
  24768822.980   130161032.05616  24768821.116   101424179.96454
  20523850.708   107853598.82909  20523847.621    84041764.34249
  21752794.549   114311757.36409  21752790.962    89074100.47848
  20687673.024   108714489.88109  20687674.074    84712614.18649
  21303994.554   111953305.90709  21303994.588    87236373.72548
 15 02 21 03 53 30.0000000  0 10G01G04G11G14G16G18G19G22G27G32
  22944252.648   120572891.61907  22944255.212    93952924.78246
  20936681.699   110023056.14309  20936681.341    85732278.00648
  21964352.276   115423478.34908  21964350.764    89940374.53246
  23649422.949   124278570.50007  23649423.050    96840442.85245
  23283971.775   122358092.84108  23283971.400    95343972.25146
  24786327.998   130253033.45506  24786329.020   101495869.30944
  20520990.174   107838566.12109  20520986.933    84030050.55049
  21764981.557   114375800.93209  21764978.056    89124004.55748
  20693876.658   108747090.10209  20693877.490    84738016.94849
  21288325.692   111870965.73509  21288325.724    87172212.56448
 15 02 21 03 54  0.0000000  0 10G01G04G11G14G16G18G19G22G27G32
  22931868.520   120507812.09207  22931871.006    93902213.49546
  20929561.636   109985640.30309  20929561.108    85703122.81248
  21951384.875   115355334.94408  21951383.481    89887275.79946
  23639017.060   124223887.59307  23639017.142    96797832.80645
  23303820.705   122462398.73408  23303820.000    95425249.57445
  24803852.612   130345113.29417  24803853.543   101567605.48854
  20518195.077   107823878.75309  20518191.944    84018605.85149
  21777233.171   114440183.34409  21777229.574    89174172.66248
  20700154.501   108780081.67109  20700155.643    84763724.65549
  21272738.083   111789051.51709  21272738.030    87108383.31448
 15 02 21 03 54 30.0000000  0 10G01G04G11G14G16G18G19G22G27G32
  22919514.170   120442890.44807  22919516.905    93851625.23647
  20922490.881   109948483.51509  20922490.484    85674169.47648
  21938449.854   115287360.32408  21938448.359    89834308.57546
  23628670.000   124169512.11407  23628670.186    96755462.31445
  23323697.107   122566851.93007  23323696.426    95506641.65545
  24821388.482   130437276.76007  24821384.233   101639421.26544
  20515468.715   107809551.25209  20515465.581    84007441.56849
  21789551.374   114504916.25209  21789547.774    89224613.88448
  20706509.689   108813478.18909  20706510.688    84789747.90749
  21257234.340   111707578.76509  21257234.292    87044898.06548
 15 02 21 03 55  0.0000000  0 10G01G04G11G14G16G18G19G22G27G32
  22907190.134   120378127.38807  22907192.907    93801160.55746
  20915469.377   109911585.79309  20915469.170    85645418.02648
  21925547.118   115219556.36508  21925545.771    89781474.32146
  23618381.786   124115447.49707  23618382.119    96713334.05745
  23343601.651   122671450.39208  23343600.877    95588146.92945
  24838943.425   130529518.07316  24838941.773   101711338.70751
  20512811.020   107795585.56209  20512808.060    83996559.21649
  21801936.119   114569998.24609  21801932.716    89275327.11948
  20712942.059   108847280.67609  20712943.170    84816087.50349
  21241815.105   111626550.35609  21241815.133    86981759.06148
 15 02 21 03 55 30.0000000  0 10G01G04G11G14G16G18G19G22G27G32
  22894891.617   120313498.05807  22894894.393    93750800.07546
  20908492.639   109874922.66009  20908492.335    85616849.36348
  21912672.316   115151898.98108  21912670.966    89728754.30246
  23608148.724   124061671.76907  23608148.676    96671430.90945
  23363528.795   122776167.02208  23363528.053    95669744.29146
  24856509.585   130621842.46316  24856511.953   101783272.40755
  20510217.898   107781958.49209  20510214.808    83985940.71949
  21814382.174   114635402.32909  21814378.622    89326291.33748
  20719447.150   108881464.75509  20719448.220    84842724.44049
  21226476.003   111545943.73709  21226476.035    86918948.74248
 15 02 21 03 56  0.0000000  0 10G01G04G11G14G16G18G19G22G27G32
  22882627.285   120249049.12107  22882629.983    93700580.14746
  20901569.382   109838540.76609  20901568.972    85588499.84848
  21899834.652   115084435.76008  21899833.084    89676185.57246
  23597980.030   124008234.23207  23597980.431    96629791.30446
  23383486.731   122881045.18107  23383485.910    95751467.53445
  24874093.613   130714254.87506  24874093.492   101855282.15344
  20507698.452   107768718.02509  20507695.322    83975623.47149
  21826897.990   114701173.13809  21826894.392    89377541.32148
  20726033.903   108916077.37509  20726034.873    84869695.30949
  21211226.673   111465807.81309  21211226.767    86856505.19448
 15 02 21 03 56 30.0000000  0 10G01G04G11G14G16G18G19G22G27G32
  22870389.383   120184738.45007  22870391.836    93650467.94946
  20894691.585   109802397.81909  20894691.309    85560336.53148
  21887026.047   115017125.11608  21887024.266    89623735.72847
  23587867.859   123955095.72507  23587868.211    96588384.70345
  23403466.182   122986040.55907  23403465.822    95833282.05945
  24891690.919   130806727.27705  24891689.432   101927338.67644
  20505244.622   107755823.24709  20505241.498    83965575.59649
  21839475.003   114767266.69209  21839471.513    89429042.78248
  20732694.016   108951076.81909  20732695.030    84896967.59949
  21196059.440   111386102.58609  21196059.280    86794397.24548
 15 02 21 03 57  0.0000000  0 10G01G04G11G14G16G18G19G22G27G32
  22858181.958   120120588.68807  22858184.750    93600481.16046
  20887863.683   109766516.36109  20887863.197    85532376.96248
  21874250.687   114949990.55408  21874249.186    89571423.09947
  23577817.729   123902281.43807  23577817.838    96547230.73245
  23423472.252   123091172.76108  23423471.321    95915203.29546
  24909303.824   130899280.31206  24909302.551   101999457.89544
  20502861.213   107743298.03709  20502857.977    83955815.69349
  21852117.555   114833703.34809  21852114.025    89480811.59748
  20739432.074   108986485.99109  20739433.353    84924559.15449
  21180978.592   111306852.85209  21180978.516    86732644.22548
 15 02 21 03 57 30.0000000  0 10G01G04G11G14G16G18G19G22G27G32
  22846002.734   120056586.68407  22846005.526    93550609.49046
  20881082.930   109730883.10409  20881082.433    85504610.80348
  21861506.620   114883019.96508  21861505.133    89519238.24047
  23567827.576   123849781.20307  23567827.290    96506321.45045
  23443501.363   123196425.91807  23443500.592    95997218.71845
  24926928.477   130991899.49007  24926927.137   102071628.68844
  20500545.794   107731130.61409  20500542.608    83946334.58349
  21864822.383   114900467.67009  21864818.783    89532835.74048
  20746245.865   109022292.08009  20746246.847    84952459.99449
  21165982.401   111228047.74309  21165982.300    86671237.66548
 15 02 21 03 58  0.0000000  0  9G01G04G11G14G16G19G22G27G32
  22833852.885   119992738.48407  22833855.600    93500857.67046
  20874350.534   109695504.12909  20874350.071    85477042.78048
  21848795.039   114816219.87808  21848793.486    89467186.23547
  23557898.400   123797603.46907  23557897.857    96465663.48945
  23463554.124   123301803.48407  23463553.588    96079331.07246
  20498299.982   107719328.42009  20498296.841    83937138.07249
  21877590.421   114967563.75609  21877586.812    89585118.40248
  20753136.130   109058501.44609  20753137.487    84980675.07649
  21151072.635   111149695.39509  21151072.423    86610183.89748
 15 02 21 03 58 30.0000000  0 10G01G03G04G11G14G16G19G22G27G32
  22821733.486   119929050.45307  22821736.147    93451230.66046
  24631177.697   129437717.65014  24631181.358   100860559.75752
  20867667.613   109660385.57909  20867667.234    85449677.67948
  21836117.236   114749597.47708  21836115.494    89415272.69347
  23548032.517   123745757.49907  23548032.022    96425264.04345
  23483630.846   123407308.86907  23483630.634    96161543.03245
  20496124.942   107707898.82209  20496121.625    83928231.89649
  21890422.313   115034995.99209  21890418.609    89637662.99948
  20760104.522   109095120.71709  20760105.749    85009209.56749
  21136250.447   111071804.30209  21136250.329    86549489.55848
 15 02 21 03 59  0.0000000  0 10G01G03G04G11G14G16G19G22G27G32
  22809642.646   119865512.91007  22809645.405    93401720.90546
  24610584.571   129329500.16405  24610587.574   100776234.62244
  20861032.601   109625518.16909  20861032.265    85422508.27948
  21823471.521   114683144.13908  21823469.817    89363490.88547
  23538228.388   123694236.16907  23538227.937    96385117.57945
  23503730.059   123512929.69707  23503729.007    96243845.00845
  20494019.317   107696833.99809  20494016.006    83919609.95849
  21903315.951   115102752.60809  21903312.432    89690460.35948
  20767149.322   109132140.52109  20767150.427    85038056.15749
  21121514.359   110994366.89009  21121514.249    86489148.74048
 15 02 21 03 59 30.0000000  0 10G01G03G04G11G14G16G19G22G27G32
  22797580.964   119802128.46907  22797583.693    93352330.45946
  24590011.394   129221386.23406  24590014.718   100691990.15544
  20854445.763   109590904.22509  20854445.401    85395536.39148
  21810858.544   114616863.12408  21810857.107    89311843.35347
  23528487.030   123643045.05107  23528486.643    96345228.42045
  23523851.189   123618666.57507  23523850.126    96326237.37945
  20491983.946   107686137.64309  20491980.756    83911275.13749
  21916271.363   115170834.19809  21916267.773    89743510.93948
  20774270.761   109169563.77509  20774271.787    85067217.12649
  21106865.805   110917387.96809  21106865.698    86429165.18448
 15 02 21 04 00  0.0000000  0 10G01G03G04G11G14G16G19G22G27G32
  22785549.059   119738900.85107  22785551.877    93303062.21646
  24569458.583   129113381.54806  24569462.253   100607830.80745
  20847907.876   109556547.33509  20847907.404    85368764.79448
  21798279.211   114550759.00208  21798277.768    89260333.65547
  23518809.580   123592190.52207  23518809.551    96305601.53245
  23543994.305   123724519.98607  23543993.703    96408720.51945
  20490019.571   107675814.75609  20490016.330    83903231.32749
  21929288.984   115239242.22509  21929285.400    89796815.88348
  20781469.788   109207394.38609  20781470.567    85096695.51949
  21092305.687   110840873.21509  21092305.458    86369543.31448
 15 02 21 04 00 30.0000000  0 10G01G03G04G11G14G16G19G22G27G32
  22773544.561   119675816.25908  22773547.191    93253905.43946
  24548924.492   129005474.38706  24548928.231   100523747.45245
  20841416.192   109522433.55609  20841415.833    85342182.64548
  21785731.244   114484819.08408  21785729.709    89208951.92147
  23509194.054   123541661.46707  23509194.151    96266228.26746
  23564156.541   123830472.97407  23564155.877    96491281.28345
  20488123.853   107665852.56509  20488120.519    83895468.58349
  21942365.812   115307961.17109  21942362.356    89850363.11348
  20788743.572   109245618.87909  20788744.329    85126480.83049
  21077831.543   110764811.01809  21077831.398    86310274.08048
 15 02 21 04 01  0.0000000  0 10G01G03G04G11G14G16G19G22G27G32
  22761570.743   119612893.51308  22761573.192    93204874.76046
  24528412.644   128897685.65105  24528416.638   100439756.40845
  20834974.339   109488581.98309  20834974.043    85315804.80848
  21773218.074   114419062.61808  21773216.851    89157713.13847
  23499644.508   123491479.20207  23499644.668    96227125.23145
  23584340.876   123936542.46207  23584339.991    96573932.82545
  20486300.620   107656271.41109  20486297.263    83888002.74549
  21955504.926   115377007.86609  21955501.382    89904165.72748
  20796096.061   109284256.28609  20796096.835    85156587.89349
  21063447.362   110689222.29209  21063447.100    86251373.78648
 15 02 21 04 01 30.0000000  0 10G01G03G04G11G14G16G19G22G27G32
  22749625.625   119550121.61708  22749627.933    93155961.64146
  24507921.293   128790006.37305  24507925.768   100355850.69145
  20828580.391   109454981.40409  20828580.123    85289622.55748
  21760738.024   114353479.57708  21760736.588    89106609.48647
  23490159.551   123441635.32107  23490159.351    96188285.84845
  23604544.775   124042714.51407  23604543.964    96656664.28145
  20484547.946   107647061.64109  20484544.831    83880826.30049
  21968703.906   115446368.82109  21968700.538    89958213.22248
  20803524.818   109323295.82309  20803526.060    85187008.29649
  21049151.462   110614097.92309  21049151.534    86192835.33448
 15 02 21 04 02  0.0000000  0 10G01G03G04G11G14G16G19G22G27G32
  22737709.797   119487503.64408  22737712.180    93107168.43546
  24487452.235   128682441.81106  24487456.535   100272034.31944
  20822234.658   109421634.85209  20822234.543    85263638.25148
  21748291.695   114288073.83008  21748290.184    89055643.98047
  23480739.789   123392135.92207  23480739.351    96149714.89945
  23624768.276   124148989.32107  23624767.007    96739475.82345
  20482866.827   107638227.58209  20482863.712    83873942.61849
  21981962.887   115516045.04709  21981959.487    90012506.37248
  20811030.860   109362740.84009  20811032.194    85217744.66149
  21034945.364   110539443.22009  21034945.099    86134662.85448
 15 02 21 04 02 30.0000000  0 10G01G03G04G11G14G16G19G22G27G32
  22725822.729   119425036.43208  22725825.065    93058492.71746
  24467005.129   128574990.89006  24467008.983   100188306.41744
  20815936.869   109388539.08809  20815936.565    85237849.36448
  21735878.959   114222843.33708  21735877.472    89004815.03147
  23471386.020   123342980.15707  23471385.419    96111411.70545
  23645010.052   124255361.07407  23645009.003    96822362.88144
  20481256.920   107629767.05509  20481253.643    83867349.99849
  21995280.748   115586031.40909  21995277.532    90067041.19648
  20818613.728   109402588.29809  20818614.964    85248794.61549
  21020828.128   110465256.98709  21020827.957    86076855.42548
 15 02 21 04 03  0.0000000  0 10G01G03G04G11G14G16G19G22G27G32
  22713964.986   119362723.75808  22713967.347    93009937.41146
  24446580.783   128467659.41206  24446584.366   100104671.62045
  20809687.277   109355697.88709  20809686.935    85212258.82948
  21723500.173   114157792.41308  21723498.672    88954126.00947
  23462098.417   123294174.81907  23462098.263    96073381.60245
  23665270.427   124361830.59007  23665269.806    96905326.14045
  20479718.963   107621685.44209  20479715.879    83861052.64049
  22008657.988   115656329.59409  22008654.668    90121818.98948
  20826273.968   109442842.22409  20826275.136    85280161.30249
  21006801.101   110391544.99409  21006800.900    86019417.53348
 15 02 21 04 03 30.0000000  0 10G01G03G04G11G14G16G19G22G27G32
  22702136.044   119300562.37208  22702138.545    92961500.00547
  24426178.686   128360446.10606  24426182.319   100021128.96045
  20803485.588   109323107.79109  20803485.179    85186863.95848
  21711155.156   114092918.72008  21711153.590    88903575.08647
  23452877.835   123245719.02107  23452877.340    96035623.83945
  23685548.669   124468392.37907  23685547.922    96988361.29045
  20478252.784   107613980.71509  20478249.649    83855048.95549
  22022093.829   115726934.22809  22022090.382    90176835.58648
  20834010.889   109483499.45309  20834011.970    85311842.25149
  20992864.095   110318305.87409  20992864.130    85962348.10448
 15 02 21 04 04  0.0000000  0 10G01G03G04G11G14G16G19G22G27G32
  22690336.148   119238553.34508  22690338.602    92913181.30447
  24405799.513   128253354.17106  24405803.305    99937680.90145
  20797332.006   109290770.02909  20797331.594    85161665.71048
  21698844.335   114028224.23208  21698842.419    88853163.80747
  23443724.044   123197616.39607  23443724.063    95998141.29446
  23705843.648   124575045.05607  23705843.296    97071467.23645
  20476858.706   107606654.88009  20476855.704    83849340.51649
  22035587.568   115797844.61609  22035584.241    90232090.43148
  20841824.813   109524561.27909  20841825.667    85343838.47349
  20979017.791   110245542.74409  20979017.687    85905649.57748
 15 02 21 04 04 30.0000000  0 10G01G03G04G11G14G16G19G22G27G32
  22678564.738   119176694.16808  22678567.129    92864979.36947
  24385443.373   128146383.12206  24385447.443    99854327.01746
  20791225.901   109258682.01309  20791225.593    85136662.06548
  21686567.155   113963707.05708  21686565.248    88802890.68847
  23434637.795   123149867.11607  23434637.654    95960934.09245
  23726155.302   124681783.02107  23726154.677    97154639.66545
  20475536.589   107599706.95309  20475533.543    83843926.54849
  22049138.514   115869055.75709  22049135.178    90287579.62848
  20849715.152   109566025.35509  20849716.032    85376148.13549
  20965261.940   110173255.07109  20965261.747    85849321.55248
 15 02 21 04 05  0.0000000  0 10G01G03G04G11G14G16G19G22G27G32
  22666823.121   119114992.92708  22666825.690    92816900.51547
  24365112.091   128039543.20206  24365116.096    99771075.26945
  20785168.714   109226851.71609  20785168.414    85111859.24048
  21674325.363   113899376.57008  21674323.796    88752763.04847
  23425620.735   123102482.02107  23425620.509    95924010.67445
  23746484.266   124788611.75807  23746483.113    97237882.86644
  20474288.291   107593146.31909  20474285.128    83838814.37449
  22062747.943   115940573.72509  22062744.517    90343307.90948
  20857683.352   109607899.89909  20857684.307    85408777.63749
  20951598.240   110101452.84109  20951598.186    85793371.77448
 15 02 21 04 05 30.0000000  0 10G01G03G04G11G14G16G19G22G27G32
  22655109.887   119053439.90708  22655112.593    92768937.15647
  24344804.338   127932826.61606  24344808.322    99687919.60844
  20779158.932   109195269.41209  20779158.390    85087249.66748
  21662117.352   113835223.72608  21662115.820    88702773.83547
  23416671.378   123055453.80507  23416671.380    95887365.33145
  23766828.063   124895518.60407  23766826.818    97321186.90645
  20473111.918   107586964.22009  20473108.766    83833997.15149
  22076413.458   116012386.80409  22076410.250    90399266.14648
  20865728.054   109650175.31409  20865729.087    85441719.51249
  20938025.735   110030128.31709  20938025.730    85737794.24148
 15 02 21 04 06  0.0000000  0 10G01G03G04G11G14G16G19G22G27G32
  22643425.789   118992039.49708  22643428.228    92721092.69547
  24324521.566   127826239.83506  24324525.415    99604865.12145
  20773197.055   109163939.41609  20773196.441    85062836.70348
  21649944.177   113771253.82408  21649942.954    88652927.17047
  23407791.628   123008789.15307  23407791.268    95851003.28645
  23787186.835   125002505.29607  23787186.147    97404553.11445
  20472008.583   107581166.34409  20472005.437    83829479.32549
  22090135.755   116084497.30609  22090132.376    90455456.14548
  20873849.896   109692856.06709  20873851.061    85474977.23149
  20924545.110   109959287.68709  20924544.998    85682593.77348
 15 02 21 04 06 30.0000000  0 10G01G03G04G11G14G16G19G22G27G32
  22631770.492   118930790.21408  22631773.149    92673366.00347
  24304263.752   127719783.49006  24304267.482    99521912.27246
  20767282.915   109132860.33709  20767282.352    85038619.24448
  21637805.845   113707466.45908  21637804.449    88603222.74247
  23398980.950   122962489.50807  23398980.574    95814925.65746
  23807560.255   125109568.30907  23807559.699    97487978.80945
  20470978.310   107575752.72209  20470975.114    83825260.91849
  22103913.849   116156901.64809  22103910.495    90511875.11148
  20882048.595   109735940.83609  20882049.756    85508549.76749
  20911156.776   109888931.39009  20911156.645    85627770.70748
 15 02 21 04 07  0.0000000  0 10G01G03G04G11G14G16G19G22G27G32
  22620144.248   118869694.98608  22620147.061    92625759.36347
  24284031.265   127613444.42916  24284034.657    99439058.86256
  20761417.103   109102035.00409  20761416.434    85014599.50848
  21625702.959   113643865.17408  21625701.599    88553663.31347
  23390240.951   122916560.22407  23390240.486    95779136.61045
  23827948.232   125216707.41707  23827947.146    97571463.84044
  20470022.065   107570727.27509  20470018.751    83821344.99049
  22117747.985   116229600.55109  22117744.551    90568523.60148
  20890325.005   109779432.53709  20890326.102    85542439.39649
  20897861.497   109819064.32209  20897861.335    85573328.85348
 15 02 21 04 07 30.0000000  0 10G01G03G04G11G14G16G19G22G27G32
  22608546.790   118808749.33808  22608549.512    92578269.27747
  24263824.109   127507256.29806  24263827.788    99356315.01845
  20755598.373   109071458.93609  20755598.056    84990774.00648
  21613634.697   113580446.40408  21613633.436    88504246.10847
  23381570.933   122870999.15807  23381570.292    95743634.49345
  23848349.215   125323915.40007  23848348.175    97655002.55045
  20469138.939   107566086.60309  20469135.669    83817728.88549
  22131636.903   116302587.68609  22131633.541    90625396.69748
  20898677.842   109823326.83709  20898678.830    85576642.73449
  20884658.740   109749683.67509  20884658.848    85519266.03148
 15 02 21 04 08  0.0000000  0 10G01G03G04G11G14G16G19G22G27G32
  22596978.396   118747957.14308  22596980.966    92530898.76447
  24243643.402   127401205.96616  24243646.997    99273677.26954
  20749828.038   109041135.58709  20749827.588    84967145.43648
  21601602.038   113517214.94808  21601600.632    88454974.84947
  23372972.170   122825812.85207  23372971.713    95708424.40645
  23868763.576   125431193.80607  23868762.905    97738596.07946
  20468330.017   107561835.94209  20468326.818    83814416.68349
  22145581.003   116375864.60909  22145577.706    90682495.59648
  20907108.043   109867627.62409  20907108.933    85611162.81349
  20871549.901   109680795.29509  20871549.601    85465586.79248
 15 02 21 04 08 30.0000000  0 10G01G03G04G11G14G16G19G22G27G32
  22585438.702   118687315.26408  22585441.311    92483645.36946
  24223489.369   127295294.36906  24223492.611    99191148.86344
  20744105.319   109011062.28009  20744104.792    84943711.70048
  21589604.806   113454168.50708  21589603.206    88405847.77047
  23364444.888   122781001.09107  23364444.501    95673506.17645
  23889190.370   125538536.61407  23889189.724    97822239.80445
  20467595.089   107557973.05509  20467591.712    83811406.64149
  22159579.275   116449425.93609  22159576.135    90739816.10448
  20915614.888   109912331.86309  20915615.964    85645997.27549
  20858534.192   109612397.78209  20858534.144    85412290.04748
 15 02 21 04 09  0.0000000  0 10G01G03G04G11G14G16G19G22G27G32
  22573927.133   118626821.21508  22573929.723    92436507.15647
  24203361.047   127189520.01006  24203364.157    99108727.43145
  20738429.597   108981236.18709  20738429.091    84920470.59048
  21577642.374   113391305.59808  21577640.759    88356863.70747
  23355988.688   122736563.52007  23355988.271    95638879.51745
  23909628.374   125645938.89707  23909627.651    97905929.88544
  20466933.613   107554497.03809  20466930.393    83808698.05749
  22173631.052   116523267.33409  22173627.541    90797354.85448
  20924198.234   109957437.05609  20924199.179    85681144.17249
  20845611.921   109544490.53909  20845611.738    85359375.33048
 15 02 21 04 09 30.0000000  0 10G01G03G04G11G14G16G19G22G27G32
  22562444.778   118566481.84608  22562447.479    92389489.47347
  24183260.536   127083891.86307  24183263.593    99026419.88845
  20732802.251   108951664.41209  20732801.739    84897427.64948
  21565716.314   113328633.79208  21565714.731    88308028.55447
  23347605.384   122692509.46107  23347605.227    95604551.69946
  23930078.296   125753404.40106  23930077.324    97989669.25044
  20466347.121   107551415.62709  20466343.800    83806296.96149
  22187736.710   116597393.53209  22187733.393    90855115.52248
  20932859.001   110002950.10509  20932859.823    85716608.87449
  20832784.525   109477082.05909  20832784.320    85306849.26148
 15 02 21 04 10  0.0000000  0 10G01G03G04G11G14G16G19G22G27G32
  22550991.405   118506293.02708  22550994.042    92342589.09347
  24163187.738   126978407.72306  24163190.811    98944224.57446
  20727222.502   108922342.56909  20727222.048    84874579.46748
  21553826.187   113266150.31209  21553824.564    88259340.15247
  23339294.815   122648837.22007  23339294.772    95570521.39845
  23950539.161   125860926.75307  23950538.017    98073452.90045
  20465835.218   107548725.80909  20465832.197    83804201.00249
  22201895.377   116671798.36109  22201892.204    90913093.30148
  20941596.526   110048866.82509  20941597.681    85752388.12849
  20820051.399   109410169.96409  20820051.184    85254709.97848
 15 02 21 04 10 30.0000000  0 10G01G03G04G11G14G16G19G22G27G32
  22539566.208   118446253.59008  22539568.797    92295805.12447
  24143142.161   126873068.44005  24143145.711    98862142.17946
  20721690.097   108893269.36609  20721689.736    84851925.04348
  21541971.759   113203854.62309  21541970.109    88210798.07747
  23331057.212   122605548.19907  23331056.883    95536789.71546
  23971010.215   125968501.99407  23971009.497    98157277.75145
  20465397.916   107546427.86609  20465394.799    83802410.39949
  22216106.396   116746478.02108  22216103.239    90971285.23848
  20950411.036   110095186.04309  20950412.039    85788481.01249
  20807413.074   109343754.89909  20807412.753    85202957.99648
 15 02 21 04 11  0.0000000  0 10G01G03G04G11G14G16G19G22G27G32
  22528170.892   118386370.32708  22528173.090    92249142.86147
  24123125.403   126767882.66606  24123129.145    98780179.43745
  20716206.226   108864451.74409  20716205.685    84829469.76948
  21530154.524   113141754.41808  21530152.693    88162408.32847
  23322894.224   122562651.50107  23322893.976    95503363.75446
  23991492.069   126076134.23306  23991491.323    98241146.99844
  20465036.722   107544529.65209  20465033.635    83800931.27349
  22230370.769   116821437.93309  22230367.558    91029695.55048
  20959303.118   110141914.53009  20959304.088    85824892.80849
  20794871.055   109277845.30409  20794870.575    85151599.87748
 15 02 21 04 11 30.0000000  0 10G01G03G04G11G14G16G19G22G27G32
  22516802.944   118326631.51608  22516805.282    92202593.15047
  24103136.689   126662840.89007  24103139.749    98698328.73244
  20710768.828   108835877.89509  20710768.332    84807204.43748
  21518372.234   113079838.81809  21518370.463    88114162.40947
  23314804.041   122520137.80607  23314803.875    95470236.20845
  24011981.359   126183809.18006  24011981.292    98325049.52744
  20464749.559   107543020.16009  20464746.479    83799755.04649
  22244686.165   116896664.25109  22244682.656    91088313.45448
  20968270.861   110189040.52709  20968271.994    85861614.35649
  20782423.165   109212431.17009  20782422.705    85100627.83448
 15 02 21 04 12  0.0000000  0 10G01G03G04G11G14G16G19G22G27G32
  22505463.766   118267043.86008  22505466.080    92156161.23147
  24083177.224   126557951.82006  24083180.096    98616597.04045
  20705379.146   108807554.49209  20705378.639    84785134.26448
  21506626.695   113018115.59008  21506624.898    88066066.40647
  23306788.711   122478016.58408  23306788.106    95437414.50445
  24032480.230   126291530.35107  24032479.704    98408988.12845
  20464537.776   107541907.45709  20464534.762    83798888.00349
  22259052.742   116972161.25108  22259049.241    91147142.28248
  20977315.468   110236570.72809  20977316.557    85898650.86049
  20770070.931   109147520.95909  20770070.818    85050048.45548
 15 02 21 04 12 30.0000000  0 10G01G03G04G11G14G16G19G22G27G32
  22494153.461   118207607.52108  22494155.762    92109847.21447
  24063246.944   126453217.52206  24063249.777    98534985.99946
  20700036.978   108779481.49009  20700036.564    84763259.20448
  21494917.857   112956585.82809  21494916.274    88018121.14547
  23298848.434   122436289.96107  23298847.806    95404900.27345
  24052987.375   126399295.93906  24052986.652    98492961.34145
  20464401.938   107541193.02609  20464398.748    83798331.30149
  22273470.474   117047927.00508  22273466.907    91206180.52548
  20986437.183   110284505.16409  20986438.266    85936002.35849
  20757815.169   109083116.37109  20757815.084    84999863.08248
 15 02 21 04 13  0.0000000  0 10G01G03G04G11G14G16G19G22G27G32
  22482872.204   118148324.80508  22482874.375    92063652.91447
  24043346.571   126348642.23405  24043349.873    98453498.93646
  20694742.969   108751661.31409  20694742.552    84741581.14248
  21483246.514   112895252.62908  21483245.102    87970329.05247
  23290984.086   122394962.81107  23290983.349    95372697.32245
  24073502.389   126507105.62506  24073502.366    98576968.82245
  20464342.372   107540880.06709  20464339.156    83798087.43749
  22287939.193   117123961.79508  22287935.896    91265428.39848
  20995636.218   110332846.04009  20995637.151    85973670.56749
  20745656.407   109019221.42309  20745656.131    84950074.82948
 15 02 21 04 13 30.0000000  0 10G01G03G04G11G14G16G19G22G27G32
  22471619.073   118089189.17308  22471621.376    92017573.23347
  24023475.780   126244221.52106  24023479.365    98372132.30746
  20689495.830   108724087.50509  20689495.426    84720095.06748
  21471611.459   112834110.56809  21471610.014    87922685.90647
  23283195.144   122354031.02108  23283194.254    95340802.43845
  24094024.718   126614950.22207  24094024.587    98661003.54445
  20464358.098   107540963.08609  20464355.031    83798152.13149
  22302457.768   117200256.85509  22302454.431    91324879.08948
  21004911.127   110381586.79709  21004912.198    86011650.36649
  20733593.771   108955831.15909  20733593.330    84900679.83048
 15 02 21 04 14  0.0000000  0 10G01G03G04G11G14G16G19G22G27G32
  22460394.266   118030203.84908  22460396.759    91971610.67647
  24003635.785   126139960.58207  24003639.048    98290890.08945
  20684296.205   108696763.16809  20684295.668    84698803.39648
  21460013.592   112773163.95409  21460012.539    87875195.06047
  23275482.120   122313499.77507  23275481.412    95309219.67146
  24114553.808   126722830.00507  24114553.099    98745065.74344
  20464450.022   107541446.39909  20464446.851    83798528.74249
  22317026.172   117276813.33909  22317022.453    91384533.48648
  21014262.934   110430730.47209  21014263.980    86049944.12949
  20721627.901   108892950.39809  20721627.470    84851681.85348
 15 02 21 04 14 30.0000000  0 10G01G03G04G11G14G16G19G22G27G32
  22449198.675   117971370.40208  22449201.171    91925766.45847
  23983826.649   126035862.93306  23983829.782    98209775.08345
  20679144.144   108669689.87209  20679143.830    84677707.32748
  21448453.679   112712415.01609  21448452.301    87827858.25447
  23267846.455   122273373.43008  23267845.677    95277952.42345
  24135089.266   126830743.57006  24135088.546    98829154.28044
  20464618.653   107542332.87109  20464615.596    83799219.50449
  22331643.951   117353630.97308  22331640.398    91444391.37348
  21023691.635   110480278.56509  21023692.780    86088553.02149
  20709759.640   108830582.26709  20709759.308    84803083.30748
