     2.11           OBSERVATION DATA    G                   RINEX VERSION / TYPE
SPIDER V4,0,0,3554                      2015 04 16 00:49    PGM / RUN BY / DATE 
CABS                                                        MARKER NAME         
CABS                                                        MARKER NUMBER       
                                                            OBSERVER / AGENCY   
462287              LEICA GRX1200PRO    8.10/2.127          REC # / TYPE / VERS 
103298              LEIAT504                                ANT # / TYPE        
  5116912.3402   671231.6412  3737143.4301                  APPROX POSITION XYZ 
        0.0600        0.0000        0.0000                  ANTENNA: DELTA H/E/N
     1     1                                                WAVELENGTH FACT L1/2
     4    C1    L1    P2    L2                              # / TYPES OF OBSERV 
    30.000                                                  INTERVAL            
  2015    02    04    00    00    0.0000000     GPS         TIME OF FIRST OBS   
  2015    02    04    23    59   30.0000000     GPS         TIME OF LAST OBS    
    16                                                      LEAP SECONDS        
    30                                                      # OF SATELLITES     
   G 1   779   779   779   779                              PRN / # OF OBS      
   G 2   941   941   941   941                              PRN / # OF OBS      
   G 3   847   847   847   847                              PRN / # OF OBS      
   G 4   832   832   832   832                              PRN / # OF OBS      
   G 5   643   643   643   643                              PRN / # OF OBS      
   G 6   818   818   818   818                              PRN / # OF OBS      
   G 7   670   670   670   670                              PRN / # OF OBS      
   G 9   808   808   808   808                              PRN / # OF OBS      
   G10   753   753   753   753                              PRN / # OF OBS      
   G11   770   770   769   769                              PRN / # OF OBS      
   G12   816   816   816   816                              PRN / # OF OBS      
   G13   792   792   792   792                              PRN / # OF OBS      
   G14   941   941   941   941                              PRN / # OF OBS      
   G15   700   700   700   700                              PRN / # OF OBS      
   G16   658   658   658   658                              PRN / # OF OBS      
   G17   941   941   941   941                              PRN / # OF OBS      
   G18   894   894   894   894                              PRN / # OF OBS      
   G19   750   750   750   750                              PRN / # OF OBS      
   G20   811   811   811   811                              PRN / # OF OBS      
   G21   743   743   743   743                              PRN / # OF OBS      
   G22   657   657   657   657                              PRN / # OF OBS      
   G23   755   755   755   755                              PRN / # OF OBS      
   G24   817   817   817   817                              PRN / # OF OBS      
   G25   856   856   856   856                              PRN / # OF OBS      
   G27   791   791   791   791                              PRN / # OF OBS      
   G28   877   877   877   877                              PRN / # OF OBS      
   G29   771   771   771   771                              PRN / # OF OBS      
   G30   684   684   684   684                              PRN / # OF OBS      
   G31   871   871   870   870                              PRN / # OF OBS      
   G32   769   769   769   769                              PRN / # OF OBS      
BIT 2 OF LLI FLAGS DATA COLLECTED UNDER A/S CONDITION       COMMENT             
SNR is mapped to RINEX snr flag value [2-9]                 COMMENT             
Lx:     = 25dBHz -> 1; 26-27dBHz -> 2; 28-31dBHz -> 3       COMMENT             
       32-35dBHz -> 4; 36-38dBHz -> 5; 39-41dBHz -> 6       COMMENT             
       42-44dBHz -> 7; 45-48dBHz -> 8; >=49dBHz -> 9        COMMENT             
                                                            END OF HEADER       
 15 02 04 00 00  0.0000000  0  4G21G25G29G31
  21400892.600   112462506.82608  21400893.360    87633152.44648
  21812000.120   114622931.49408  21812004.360    89316628.03248
  21150144.460   111144958.22408  21150146.140    86606549.87548
  20981703.720   110259598.14409  20981704.340    85916571.81449
 15 02 04 00 00 30.0000000  0  4G21G25G29G31
  21391663.180   112414006.08008  21391663.980    87595359.67048
  21823333.340   114682487.49208  21823337.460    89363035.29048
  21160655.280   111200192.92208  21160657.020    86649589.90248
  20983913.060   110271208.25109  20983913.660    85925618.64749
 15 02 04 00 01  0.0000000  0  4G21G25G29G31
  21382513.720   112365925.49308  21382514.560    87557894.28848
  21834721.900   114742334.62408  21834725.960    89409669.40048
  21171198.060   111255595.42908  21171199.800    86692760.69048
  20986229.660   110283382.01409  20986230.220    85935104.68849
 15 02 04 00 01 30.0000000  0  4G21G25G29G31
  21373445.500   112318271.66808  21373446.320    87520761.44548
  21846166.900   114802478.82008  21846170.960    89456534.99447
  21181773.660   111311170.39308  21181775.380    86736065.86748
  20988654.580   110296124.97509  20988655.100    85945034.26249
 15 02 04 00 02  0.0000000  0  4G21G25G29G31
  21364457.020   112271036.80008  21364457.820    87483955.06448
  21857666.580   114862910.35408  21857670.640    89503624.48048
  21192380.020   111366906.93308  21192381.660    86779496.93848
  20991185.940   110309427.34409  20991186.440    85955399.73449
 15 02 04 00 02 30.0000000  0  4G21G25G29G31
  21355548.560   112224222.55508  21355549.360    87447476.44548
  21869221.100   114923630.00308  21869225.160    89550938.47847
  21203017.080   111422805.05808  21203018.700    86823053.91648
  20993823.840   110323289.47009  20993824.320    85966201.38149
 15 02 04 00 03  0.0000000  0  4G21G25G29G31
  21346722.200   112177839.67308  21346722.960    87411333.95348
  21880832.300   114984647.14208  21880836.340    89598484.28448
  21213686.360   111478872.53708  21213688.000    86866742.85248
  20996569.940   110337720.42809  20996570.480    85977446.27349
 15 02 04 00 03 30.0000000  0  4G21G25G29G31
  21337977.100   112131883.96808  21337977.840    87375524.32948
  21892499.160   115045956.81308  21892503.220    89646258.04148
  21224386.800   111535103.58408  21224388.420    86910559.23048
  20999423.300   110352715.05209  20999423.900    85989130.39549
 15 02 04 00 04  0.0000000  0  4G21G25G29G31
  21329312.580   112086351.80208  21329313.320    87340044.73248
  21904220.780   115107554.21008  21904224.860    89694256.01147
  21235117.240   111591492.14608  21235118.800    86954498.37148
  21002382.960   110368268.29109  21002383.620    86001249.79649
 15 02 04 00 04 30.0000000  0  4G21G25G29G31
  21320730.780   112041254.19408  21320731.500    87304903.74148
  21915998.960   115169448.97708  21916003.080    89742485.69048
  21245879.320   111648046.88008  21245880.780    86998566.99948
  21005450.740   110384389.54209  21005451.440    86013811.81249
 15 02 04 00 05  0.0000000  0  4G21G25G29G31
  21312230.360   111996584.40108  21312231.140    87270096.11048
  21927832.300   115231633.73208  21927836.440    89790941.33147
  21256671.440   111704759.35108  21256672.780    87042758.51948
  21008625.180   110401071.07109  21008625.860    86026810.39649
 15 02 04 00 05 30.0000000  0  4G21G25G29G31
  21303812.480   111952348.16408  21303813.280    87235626.31948
  21939721.640   115294112.91708  21939725.820    89839626.38747
  21267494.180   111761632.96108  21267495.440    87087075.60148
  21011906.960   110418316.75209  21011907.620    86040248.58149
 15 02 04 00 06  0.0000000  0  4G21G25G29G31
  21295476.080   111908540.17308  21295476.900    87201490.23048
  21951665.840   115356879.99908  21951669.980    89888535.78547
  21278346.080   111818659.92808  21278347.300    87131512.19848
  21015294.800   110436119.82209  21015295.420    86054121.08649
 15 02 04 00 06 30.0000000  0  4G21G25G29G31
  21287221.360   111865161.10108  21287222.120    87167688.36448
  21963664.900   115419935.31408  21963668.940    89937669.77247
  21289226.980   111875839.50308  21289228.200    87176067.71648
  21018788.720   110454480.41709  21018789.300    86068428.03949
 15 02 04 00 07  0.0000000  0  4G21G25G29G31
  21279050.380   111822221.96108  21279051.100    87134229.30248
  21975720.540   115483287.81908  21975724.500    89987035.34147
  21300138.460   111933179.79908  21300139.680    87220748.46448
  21022390.280   110473406.79209  21022390.840    86083175.84649
 15 02 04 00 07 30.0000000  0  4G21G25G29G31
  21270961.920   111779716.49708  21270962.560    87101108.18148
  21987831.420   115546930.69708  21987835.320    90036627.17347
  21311079.060   111990673.28708  21311080.300    87265548.58148
  21026098.140   110492891.93509  21026098.720    86098359.06449
 15 02 04 00 08  0.0000000  0  4G21G25G29G31
  21262955.420   111737641.94708  21262956.000    87068322.82548
  21999996.820   115610860.06708  22000000.740    90086442.24447
  21322047.820   112048314.88808  21322049.120    87310464.11448
  21029911.560   110512931.65309  21029912.120    86113974.42249
 15 02 04 00 08 30.0000000  0  4G21G25G29G31
  21255032.780   111696008.18808  21255033.340    87035880.93848
  22012218.320   115675084.67208  22012222.360    90136487.37647
  21333046.240   112106112.38808  21333047.600    87355501.13148
  21033832.080   110533534.17709  21033832.660    86130028.32749
 15 02 04 00 09  0.0000000  0  4G21G25G29G31
  21247192.140   111654805.64108  21247192.700    87003775.06348
  22024494.000   115739594.15508  22024498.160    90186754.49247
  21344072.100   112164054.27008  21344073.560    87400650.64748
  21037857.600   110554688.54909  21037858.260    86146512.24949
 15 02 04 00 09 30.0000000  0  4G21G25G29G31
  21239434.380   111614038.77808  21239435.000    86972008.68148
  22036824.560   115804391.80608  22036828.760    90237246.16447
  21355125.880   112222142.76508  21355127.460    87445914.40148
  21041988.680   110576397.47609  21041989.380    86163428.29849
 15 02 04 00 10  0.0000000  0  5G16G21G25G29G31
  24571105.240   129122026.96106  24571108.860   100614578.97044
  21231761.380   111573717.06208  21231762.000    86940589.15848
  22049211.600   115869486.05908  22049215.800    90287968.94047
  21366209.000   112280384.93508  21366210.580    87491297.91548
  21046226.900   110598669.23309  21046227.600    86180782.90849
 15 02 04 00 10 30.0000000  0  5G16G21G25G29G31
  24553774.420   129030953.90606  24553777.040   100543612.98944
  21224167.160   111533809.19008  21224167.780    86909492.11748
  22061649.000   115934844.55708  22061653.140    90338897.62347
  21377315.360   112338748.90408  21377316.880    87536776.33648
  21050565.920   110621470.93209  21050566.660    86198550.46349
 15 02 04 00 11  0.0000000  0  5G16G21G25G29G31
  24536444.740   128939886.36405  24536446.660   100472651.27644
  21216661.260   111494365.26408  21216661.880    86878756.60748
  22074146.060   116000516.50908  22074150.100    90390070.55247
  21388453.980   112397282.31108  21388455.440    87582386.77548
  21055015.020   110644850.96009  21055015.740    86216768.66349
 15 02 04 00 11 30.0000000  0  5G16G21G25G29G31
  24519111.400   128848799.31106  24519112.900   100401674.34745
  21209238.820   111455359.88708  21209239.440    86848362.82148
  22086697.720   116066475.61508  22086701.780    90441467.24648
  21399619.640   112455957.64908  21399620.960    87628107.80948
  21059569.140   110668782.79409  21059569.800    86235416.83749
 15 02 04 00 12  0.0000000  0  5G16G21G25G29G31
  24501775.020   128757696.09805  24501776.460   100330684.84144
  21201900.340   111416795.75908  21201900.960    86818312.85748
  22099304.280   116132723.60308  22099308.460    90493089.03648
  21410812.540   112514776.19108  21410813.760    87673940.43548
  21064228.480   110693267.70709  21064229.080    86254495.98249
 15 02 04 00 12 30.0000000  0  5G16G21G25G29G31
  24484435.620   128666577.14305  24484437.100   100259683.08144
  21194645.900   111378673.21208  21194646.480    86788606.98748
  22111965.600   116199259.84608  22111969.940    90544935.45147
  21422032.360   112573736.21508  21422033.460    87719883.30948
  21068992.740   110718304.05709  21068993.320    86274004.82049
 15 02 04 00 13  0.0000000  0  5G16G21G25G29G31
  24467093.280   128575442.66805  24467094.700   100188669.20444
  21187475.460   111340992.27208  21187476.040    86759245.23548
  22124681.560   116266083.17908  22124685.980    90597005.56847
  21433278.660   112632835.92008  21433279.760    87765935.01548
  21073861.680   110743890.49609  21073862.260    86293942.29949
 15 02 04 00 13 30.0000000  0  5G16G21G25G29G31
  24449747.980   128484292.52805  24449749.240   100117643.10244
  21180388.900   111303752.33508  21180389.520    86730227.11548
  22137451.940   116333191.95008  22137456.280    90649298.10347
  21444551.000   112692072.80608  21444552.180    87812093.61148
  21078834.920   110770024.87809  21078835.460    86314306.74449
 15 02 04 00 14  0.0000000  0  5G16G21G25G29G31
  24432400.540   128393131.21805  24432401.880   100046608.34845
  21173386.880   111266956.70508  21173387.560    86701555.21248
  22150277.220   116400589.03608  22150281.440    90701815.29447
  21455849.840   112751448.99208  21455851.100    87858360.77348
  21083912.800   110796709.14709  21083913.320    86335099.67049
 15 02 04 00 14 30.0000000  0  5G16G21G25G29G31
  24415050.620   128301957.00905  24415051.900    99975563.50044
  21166469.140   111230603.86508  21166469.840    86673228.33348
  22163156.920   116468271.72008  22163160.980    90754555.02347
  21467174.440   112810960.91808  21467175.860    87904733.70748
  21089094.660   110823940.00009  21089095.240    86356318.51749
 15 02 04 00 15  0.0000000  0  5G16G21G25G29G31
  24397698.600   128210771.36606  24397699.780    99904509.75844
  21159635.900   111194694.95908  21159636.600    86645247.38048
  22176090.940   116536239.98808  22176094.920    90807517.30347
  21478524.700   112870607.55408  21478526.260    87951211.59148
  21094380.380   110851716.75309  21094381.040    86377962.73049
 15 02 04 00 15 30.0000000  0  5G16G21G25G29G31
  24380345.260   128119578.69406  24380346.320    99833450.52945
  21152887.780   111159233.29708  21152888.460    86617614.92248
  22189079.820   116604496.74508  22189083.760    90860704.36147
  21489901.080   112930390.94808  21489902.700    87997796.04348
  21099770.420   110880041.88609  21099771.180    86400034.25849
 15 02 04 00 16  0.0000000  0  5G16G21G25G29G31
  24362990.660   128028379.44806  24362991.740    99762386.19144
  21146224.740   111124218.87208  21146225.400    86590330.96948
  22202123.220   116673040.67408  22202127.320    90914115.21147
  21501303.260   112990309.47208  21501304.860    88044485.79648
  21105264.440   110908913.35309  21105265.240    86422531.50749
 15 02 04 00 16 30.0000000  0  5G16G21G25G29G31
  24345634.600   127937172.53706  24345635.840    99691315.85945
  21139646.520   111089650.37108  21139647.220    86563394.48348
  22215220.840   116741869.60808  22215225.080    90967748.12847
  21512730.640   113050360.38308  21512732.200    88091278.71248
  21110861.960   110938328.58709  21110862.760    86445452.45949
 15 02 04 00 17  0.0000000  0  5G16G21G25G29G31
  24328277.160   127845958.20106  24328278.380    99620239.74945
  21133153.000   111055526.94008  21133153.720    86536804.80548
  22228372.420   116810981.95808  22228376.800    91021601.90347
  21524182.780   113110541.28108  21524184.280    88138172.91148
  21116562.420   110968284.87209  21116563.260    86468795.00849
 15 02 04 00 17 30.0000000  0  5G16G21G25G29G31
  24310918.760   127754739.09906  24310920.020    99549159.93945
  21126744.640   111021851.04408  21126745.380    86510563.85348
  22241578.300   116880379.15808  22241582.640    91075677.62747
  21535659.640   113170852.66108  21535661.180    88185168.78848
  21122366.060   110998783.03609  21122366.840    86492559.80749
 15 02 04 00 18  0.0000000  0  5G16G21G25G29G31
  24293559.320   127663514.54706  24293560.580    99478075.87745
  21120421.220   110988621.23208  21120421.940    86484670.50748
  22254837.980   116950058.85808  22254842.180    91129973.48247
  21547160.700   113231291.32008  21547162.240    88232263.83348
  21128272.260   111029820.04009  21128272.980    86516744.47749
 15 02 04 00 18 30.0000000  0  5G16G21G25G29G31
  24276199.600   127572288.85206  24276200.980    99406990.96145
  21114183.260   110955840.67508  21114184.000    86459127.22248
  22268151.840   117020023.45708  22268155.960    91184491.32347
  21558686.400   113291859.44508  21558687.900    88279459.76848
  21134281.320   111061397.66909  21134282.020    86541350.41549
 15 02 04 00 19  0.0000000  0  5G16G21G25G29G31
  24258839.900   127481063.13906  24258841.360    99335906.02145
  21108030.980   110923510.37308  21108031.760    86433934.78349
  22281519.880   117090273.14408  22281523.960    91239231.31947
  21570236.620   113352556.43208  21570238.100    88326756.11548
  21140393.140   111093515.40809  21140393.840    86566377.21949
 15 02 04 00 19 30.0000000  0  5G16G21G25G29G31
  24241480.040   127389836.65406  24241481.480    99264820.46444
  21101964.200   110891629.01008  21101964.940    86409092.17549
  22294941.720   117160805.48608  22294945.780    91294191.56547
  21581810.780   113413379.12708  21581812.280    88374150.40748
  21146607.140   111126170.07209  21146607.860    86591822.40649
 15 02 04 00 20  0.0000000  0  5G16G21G25G29G31
  24224120.500   127298612.12605  24224121.940    99193736.43246
  21095983.080   110860198.01508  21095983.800    86384600.50748
  22308417.460   117231621.27008  22308421.640    91349372.67247
  21593409.000   113474327.90608  21593410.460    88421642.96048
  21152923.260   111159361.53809  21152924.040    86617685.88049
 15 02 04 00 20 30.0000000  0  5G16G21G25G29G31
  24206761.020   127207387.82106  24206762.440    99122652.57945
  21090087.160   110829214.85208  21090087.900    86360457.78948
  22321946.540   117302717.23608  22321950.860    91404772.11047
  21605030.500   113535398.91208  21605031.920    88469230.75248
  21159340.720   111193085.64709  21159341.560    86643964.40449
 15 02 04 00 21  0.0000000  0  5G16G21G25G29G31
  24189401.900   127116165.58906  24189403.340    99051570.35145
  21084276.680   110798680.68108  21084277.400    86336664.94148
  22335529.120   117374093.70508  22335533.460    91460390.12647
  21616675.140   113596591.85508  21616676.540    88516913.56548
  21165859.500   111227342.03809  21165860.360    86670657.69649
 15 02 04 00 21 30.0000000  0  5G16G21G25G29G31
  24172043.340   127024945.76206  24172044.760    98980489.98945
  21078551.500   110768594.87208  21078552.260    86313221.45549
  22349164.880   117445749.29308  22349169.140    91516225.64947
  21628342.560   113657904.51908  21628343.960    88564689.66148
  21172479.160   111262128.49909  21172480.040    86697764.01949
 15 02 04 00 22  0.0000000  0  5G16G21G25G29G31
  24154686.260   126933733.18606  24154687.500    98909415.27144
  21072912.580   110738962.15308  21072913.380    86290131.02749
  22362854.340   117517687.29408  22362858.480    91572281.23047
  21640033.280   113719339.88308  21640034.780    88612561.35348
  21179200.220   111297447.69809  21179201.060    86725285.46649
 15 02 04 00 22 30.0000000  0  5G16G21G25G29G31
  24137330.560   126842527.69706  24137331.640    98838346.06145
  21067359.500   110709780.45508  21067360.300    86267392.05049
  22376597.020   117589905.49908  22376601.020    91628555.14847
  21651746.840   113780895.15608  21651748.420    88660526.49648
  21186022.020   111333296.37009  21186022.800    86753219.48449
 15 02 04 00 23  0.0000000  0  5G16G21G25G29G31
  24119976.520   126751331.13106  24119977.580    98767283.80144
  21061892.520   110681051.25208  21061893.300    86245005.66649
  22390393.080   117662404.41508  22390396.960    91685047.80247
  21663483.280   113842570.53808  21663484.880    88708585.23448
  21192944.540   111369674.31409  21192945.260    86781565.91749
 15 02 04 00 23 30.0000000  0  5G16G21G25G29G31
  24102624.260   126660144.20306  24102625.320    98696229.04245
  21056511.600   110652774.39008  21056512.380    86222971.74949
  22404242.320   117735183.02008  22404246.200    91741758.38247
  21675242.260   113904364.39508  21675243.840    88756736.27348
  21199967.380   111406579.63709  21199968.080    86810323.30649
 15 02 04 00 24  0.0000000  0  5G16G21G25G29G31
  24085273.900   126568967.36906  24085274.980    98625182.17545
  21051216.560   110624948.81708  21051217.320    86201289.49949
  22418144.460   117808239.65308  22418148.420    91798685.60447
  21687023.340   113966274.51708  21687024.940    88804977.92448
  21207090.040   111444009.66709  21207090.780    86839489.56249
 15 02 04 00 24 30.0000000  0  5G16G21G25G29G31
  24067925.420   126477800.66006  24067926.560    98554143.18944
  21046007.200   110597573.64808  21046007.960    86179958.20649
  22432099.340   117881572.80908  22432103.340    91855828.30247
  21698826.140   114028298.88908  21698827.780    88853308.59748
  21214312.080   111481962.11209  21214312.880    86869062.88949
 15 02 04 00 25  0.0000000  0  5G16G21G25G29G31
  24050579.380   126386646.53606  24050580.540    98483113.99745
  21040883.920   110570650.79008  21040884.680    86158979.36249
  22446107.040   117955183.19408  22446111.120    91913187.02747
  21710650.760   114090437.83908  21710652.400    88901728.55248
  21221633.540   111520436.79609  21221634.380    86899043.15449
 15 02 04 00 25 30.0000000  0  5G16G21G25G29G31
  24033236.140   126295507.25006  24033237.340    98412096.40044
  21035846.960   110544181.36808  21035847.700    86138353.85148
  22460167.580   118029071.27308  22460171.760    91970762.14847
  21722497.140   114152691.15408  21722498.800    88950237.62148
  21229054.300   111559433.22109  21229055.180    86929429.96949
 15 02 04 00 26  0.0000000  0  5G16G21G25G29G31
  24015898.920   126204399.48906  24015900.180    98341103.34445
  21030899.280   110518180.89208  21030899.920    86118093.74649
  22474283.700   118103251.67208  22474288.040    92028565.04447
  21734368.140   114215073.43808  21734369.780    88998847.18948
  21236577.020   111598965.36609  21236577.900    86960234.22948
 15 02 04 00 26 30.0000000  0  6G16G18G21G25G29G31
  23998561.580   126113291.17006  23998562.860    98270109.84345
  24492408.020   128708472.89805  24492411.860   100292327.15144
  21026034.600   110492616.59008  21026035.180    86098173.51749
  22488448.980   118177690.63408  22488453.420    92086569.41647
  21746257.240   114277550.63108  21746258.820    89047530.71248
  21244195.040   111638998.10809  21244195.880    86991428.55748
 15 02 04 00 27  0.0000000  0  6G16G18G21G25G29G31
  23981227.820   126022201.62306  23981229.120    98199130.97345
  24477330.620   128629241.24405  24477334.920   100230588.52843
  21021255.940   110467504.24408  21021256.480    86078605.46749
  22502666.620   118252405.25908  22502671.100    92144788.59047
  21758167.540   114340139.30708  21758169.060    89096301.10448
  21251911.460   111679547.80609  21251912.260    87023025.72048
 15 02 04 00 27 30.0000000  0  6G16G18G21G25G29G31
  23963898.180   125931134.01806  23963899.420    98128169.20744
  24462242.200   128549951.16905  24462246.600   100168804.35941
  21016564.160   110442848.58208  21016564.680    86059393.26949
  22516937.060   118327397.41407  22516941.480    92203224.03147
  21770099.300   114402840.86108  21770100.780    89145159.45048
  21259726.380   111720615.22309  21259727.120    87055026.29849
 15 02 04 00 28  0.0000000  0  6G16G18G21G25G29G31
  23946572.280   125840085.85706  23946573.460    98057222.59045
  24447142.260   128470601.41605  24447146.300   100106973.65941
  21011958.460   110418645.46808  21011959.000    86040533.70449
  22531259.480   118402662.68307  22531263.860    92261872.27647
  21782051.700   114465650.59008  21782053.060    89194102.07548
  21267638.800   111762195.13109  21267639.520    87087426.21749
 15 02 04 00 28 30.0000000  0  6G16G18G21G25G29G31
  23929250.520   125749059.35706  23929251.580    97986292.87045
  24432031.480   128391195.27605  24432035.620   100045099.01544
  21007438.800   110394894.60708  21007439.380    86022026.54849
  22545633.960   118478201.23208  22545638.300    92320733.46747
  21794024.600   114528568.13108  21794025.900    89243128.72948
  21275648.540   111804286.56509  21275649.260    87120224.73049
 15 02 04 00 29  0.0000000  0  6G16G18G21G25G29G31
  23911933.080   125658055.30107  23911933.940    97915380.61344
  24416910.520   128311734.29405  24416914.540    99983181.66244
  21003005.480   110371597.51108  21003006.060    86003872.97149
  22560060.300   118554011.76607  22560064.540    92379806.59847
  21806017.740   114591592.07108  21806019.020    89292238.29048
  21283755.200   111846887.45809  21283755.960    87153420.22448
 15 02 04 00 29 30.0000000  0  6G16G18G21G25G29G31
  23894620.400   125567076.32006  23894621.100    97844487.91245
  24401779.680   128232222.10505  24401783.540    99921224.37844
  20998658.420   110348753.77208  20998659.020    85986072.65949
  22574538.540   118630094.99507  22574542.760    92439092.21147
  21818031.180   114654723.02408  21818032.480    89341431.23348
  21291958.740   111889997.32809  21291959.500    87187012.32248
 15 02 04 00 30  0.0000000  0  6G16G18G21G25G29G31
  23877312.320   125476121.70406  23877312.920    97773614.19644
  24386639.660   128152659.72805  24386643.080    99859227.94144
  20994397.500   110326362.67308  20994398.120    85968625.06149
  22589068.100   118706448.29007  22589072.400    92498588.27047
  21830064.320   114717957.85208  21830065.680    89390705.12048
  21300258.500   111933612.79609  21300259.240    87220998.39448
 15 02 04 00 30 30.0000000  0  6G16G18G21G25G29G31
  23860010.060   125385198.03406  23860010.720    97702764.61845
  24371491.140   128073054.31705  24371494.360    99797198.03245
  20990223.560   110304428.73308  20990224.180    85951533.68549
  22603649.820   118783076.40007  22603654.340    92558298.47847
  21842117.960   114781300.89008  21842119.440    89440063.31148
  21308655.160   111977737.50009  21308655.880    87255381.26848
 15 02 04 00 31  0.0000000  0  6G16G18G21G25G29G31
  23842712.880   125294301.21006  23842713.660    97631935.93245
  24356334.120   127993403.28505  24356336.920    99735132.49744
  20986135.620   110282946.70508  20986136.220    85934794.45149
  22618282.640   118859973.17907  22618287.380    92618218.04647
  21854191.000   114844745.91608  21854192.580    89489500.98448
  21317147.320   112022364.13909  21317148.000    87290155.26048
 15 02 04 00 31 30.0000000  0  6G16G18G21G25G29G31
  23825421.540   125203434.95706  23825422.440    97561131.07044
  24341169.120   127913710.68805  24341171.880    99673034.65243
  20982134.140   110261918.82508  20982134.700    85918409.10749
  22632966.820   118937140.02807  22632971.680    92678348.04947
  21866283.820   114908294.29008  21866285.420    89539019.19748
  21325735.040   112067493.18009  21325735.780    87325320.74148
 15 02 04 00 32  0.0000000  0  6G16G18G21G25G29G31
  23808136.180   125112599.90106  23808137.120    97490350.49245
  24325996.720   127833979.22705  24325999.180    99610906.43745
  20978218.880   110241343.97608  20978219.420    85902376.76749
  22647702.220   119014575.77107  22647707.120    92738687.57947
  21878396.100   114971944.36508  21878397.600    89588616.64848
  21334417.920   112113122.09109  21334418.680    87360875.72648
 15 02 04 00 32 30.0000000  0  6G16G18G21G25G29G31
  23790857.260   125021798.59806  23790858.160    97419596.21144
  24310817.440   127754212.42105  24310819.800    99548750.75743
  20974390.280   110221224.52908  20974390.800    85886699.29049
  22662489.000   119092280.92207  22662493.780    92799237.01946
  21890527.880   115035696.67108  21890529.240    89638293.75548
  21343195.840   112159250.44509  21343196.640    87396819.88848
 15 02 04 00 33  0.0000000  0  6G16G18G21G25G29G31
  23773584.720   124931030.57707  23773585.640    97348867.89844
  24295631.560   127674410.57706  24295633.780    99486567.73943
  20970647.700   110201557.19608  20970648.220    85871374.09849
  22677326.720   119170252.78607  22677331.160    92859994.28546
  21902678.480   115099548.29208  21902679.800    89688048.24548
  21352068.120   112205874.53609  21352068.940    87433150.34248
 15 02 04 00 33 30.0000000  0  6G16G18G21G25G29G31
  23756319.020   124840298.87907  23756320.040    97278167.86845
  24280439.680   127594577.38606  24280441.820    99424360.26944
  20966991.460   110182343.61208  20966992.000    85856402.47849
  22692215.420   119248492.07707  22692219.480    92920959.93046
  21914848.020   115163499.43608  21914849.320    89737880.28648
  21361034.720   112252994.15309  21361035.560    87469866.91748
 15 02 04 00 34  0.0000000  0  6G16G18G21G25G29G31
  23739060.580   124749605.14706  23739061.760    97207497.43345
  24265242.460   127514716.72306  24265244.480    99362131.35143
  20963421.800   110163585.06408  20963422.340    85841785.43049
  22707155.000   119326999.01507  22707158.820    92982134.13647
  21927036.480   115227550.22008  21927037.780    89787789.96648
  21370095.420   112300608.29809  21370096.260    87506968.84048
 15 02 04 00 34 30.0000000  0  6G16G18G21G25G29G31
  23721809.480   124658949.70206  23721810.680    97136856.83545
  24250040.080   127434829.17406  24250042.020    99299881.53844
  20959938.460   110145279.85008  20959938.960    85827521.64049
  22722145.000   119405771.54207  22722148.820    93043515.31446
  21939243.560   115291699.09808  21939244.940    89837776.08848
  21379249.540   112348713.43608  21379250.400    87544453.35148
 15 02 04 00 35  0.0000000  0  6G16G18G21G25G29G31
  23704566.260   124568335.59406  23704567.500    97066248.43045
  24234833.260   127354918.70306  24234835.580    99237613.87844
  20956541.520   110127428.75208  20956542.000    85813611.70249
  22737185.500   119484810.08707  22737189.580    93105103.78046
  21951469.300   115355946.00508  21951470.760    89887838.60347
  21388497.020   112397309.30608  21388497.880    87582320.25848
 15 02 04 00 35 30.0000000  0  6G16G18G21G25G29G31
  23687330.640   124477761.77606  23687331.900    96995671.43545
  24219622.300   127274985.89906  24219624.740    99175328.74443
  20953230.660   110110029.96208  20953231.140    85800054.20049
  22752276.060   119564111.74907  22752280.420    93166897.27046
  21963713.060   115420287.54308  21963714.580    89937974.86048
  21397837.100   112446391.98608  21397837.980    87620566.50348
 15 02 04 00 36  0.0000000  0  6G16G18G21G25G29G31
  23670103.380   124387232.07906  23670104.640    96925128.82345
  24204407.940   127195035.13206  24204410.400    99113029.57844
  20950006.220   110093085.31108  20950006.700    85786850.58149
  22767417.060   119643678.12807  22767421.600    93228897.04647
  21975975.260   115484725.82108  21975976.780    89988186.50348
  21407269.840   112495961.59809  21407270.720    87659192.17048
 15 02 04 00 36 30.0000000  0  6G16G18G21G25G29G31
  23652884.620   124296747.18106  23652885.760    96854621.11644
  24189190.600   127115068.91105  24189193.480    99050718.39943
  20946868.080   110076594.21908  20946868.560    85774000.37149
  22782608.300   119723508.15207  22782612.860    93291102.23547
  21988255.560   115549259.40308  21988257.120    90038472.41348
  21416794.920   112546016.09208  21416795.760    87698195.66848
 15 02 04 00 37  0.0000000  0  6G16G18G21G25G29G31
  23635674.320   124206306.73606  23635675.320    96784148.04244
  24173970.500   127035087.85106  24173973.520    98988395.70244
  20943815.680   110060553.50708  20943816.140    85761501.10149
  22797849.200   119803598.87007  22797853.620    93353510.56946
  22000553.400   115613885.29108  22000555.020    90088830.23848
  21426411.520   112596551.32708  21426412.300    87737573.76948
 15 02 04 00 37 30.0000000  0  6G16G18G21G25G29G31
  23618473.220   124115914.38206  23618474.100    96713712.45645
  24158748.300   126955096.07506  24158751.240    98926064.56445
  20940849.620   110044966.45708  20940850.040    85749355.34049
  22813140.020   119883951.66307  22813144.200    93416123.10646
  22012869.140   115678604.75508  22012870.760    90139260.97047
  21436119.600   112647567.31409  21436120.320    87777326.47648
 15 02 04 00 38  0.0000000  0  6G16G18G21G25G29G31
  23601281.420   124025571.11806  23601282.260    96643315.11245
  24143524.540   126875095.58506  24143527.600    98863726.66843
  20937969.720   110029832.34608  20937970.120    85737562.54049
  22828480.320   119964565.22107  22828484.340    93478938.83546
  22025202.480   115743416.63708  22025204.060    90189763.72948
  21445918.720   112699061.92409  21445919.440    87817452.14448
 15 02 04 00 38 30.0000000  0  6G16G18G21G25G29G31
  23584099.280   123935278.53906  23584100.120    96572957.26045
  24128299.560   126795089.83005  24128302.800    98801384.67244
  20935175.840   110015150.45508  20935176.220    85726122.10849
  22843870.000   120045439.07907  22843873.980    93541957.39946
  22037553.320   115808320.37408  22037554.840    90240338.06447
  21455808.500   112751033.10008  21455809.240    87857949.16048
 15 02 04 00 39  0.0000000  0  6G16G18G21G25G29G31
  23566926.980   123845037.62506  23566927.860    96502639.69144
  24113074.120   126715080.16006  24113077.380    98739039.59644
  20932467.840   110000920.06008  20932468.240    85715033.49149
  22859308.800   120126571.69007  22859312.940    93605177.59046
  22049921.360   115873314.33408  22049922.800    90290982.70047
  21465788.520   112803478.33308  21465789.260    87898815.57248
 15 02 04 00 39 30.0000000  0  6G16G18G21G25G29G31
  23549764.860   123754850.23106  23549765.760    96432363.81044
  24097848.440   126635069.51206  24097851.780    98676693.80244
  20929845.780   109987141.47008  20929846.240    85704296.91549
  22874796.720   120207962.55707  22874801.060    93668599.02746
  22062306.500   115938398.50608  22062307.920    90341697.62247
  21475858.460   112856396.29908  21475859.240    87940050.34248
 15 02 04 00 40  0.0000000  0  6G16G18G21G25G29G31
  23532612.680   123664714.88706  23532613.660    96362128.47545
  24082622.780   126555057.52406  24082625.820    98614346.88544
  20927308.980   109973810.88008  20927309.500    85693909.43849
  22890333.220   120289608.09807  22890337.760    93732218.90946
  22074708.000   116003568.79608  22074709.380    90392479.66947
  21486017.300   112909781.59508  21486018.140    87981649.26548
 15 02 04 00 40 30.0000000  0  6G16G18G21G25G29G31
  23515471.840   123574638.83707  23515472.840    96291939.37045
  24067398.340   126475052.53405  24067401.300    98552005.47344
  20924858.640   109960934.47208  20924859.200    85683875.89149
  22905919.260   120371513.24107  22905923.920    93796041.08646
  22087126.900   116068830.51208  22087128.220    90443332.96447
  21496265.800   112963637.90208  21496266.680    88023615.20548
 15 02 04 00 41  0.0000000  0  6G16G18G21G25G29G31
  23498341.540   123484618.33506  23498342.460    96221793.52045
  24052175.040   126395052.19906  24052177.540    98489667.66544
  20922493.660   109948506.31608  20922494.220    85674191.62049
  22921553.640   120453671.85807  22921558.320    93860060.76946
  22099562.040   116134177.68408  22099563.380    90494252.83548
  21506602.560   113017958.07608  21506603.460    88065942.60148
 15 02 04 00 41 30.0000000  0  6G16G18G21G25G29G31
  23481222.980   123394659.68406  23481223.900    96151695.88445
  24036953.840   126315063.40706  24036955.900    98427338.85745
  20920214.860   109936530.74708  20920215.360    85664860.00849
  22937237.020   120536087.85907  22937241.680    93924281.01746
  22112014.140   116199613.94108  22112015.500    90545242.11947
  21517028.160   113072744.95308  21517029.060    88108633.66848
 15 02 04 00 42  0.0000000  0  7G16G18G21G25G27G29G31
  23464116.980   123304767.37106  23464117.960    96081649.95845
  24021736.020   126235091.87806  24021737.780    98365023.47444
  20918022.700   109925010.38208  20918023.120    85655883.11349
  22952969.720   120618763.23807  22952974.340    93988703.38446
  24625325.880   129406963.78905  24625328.840   100836613.92044
  22124483.600   116265141.76808  22124485.040    90596302.75047
  21527542.680   113127999.01008  21527543.540    88151688.76748
 15 02 04 00 42 30.0000000  0  7G16G18G21G25G27G29G31
  23447021.160   123214928.74006  23447022.260    96011645.82645
  24006519.000   126155125.49606  24006520.500    98302712.10844
  20915914.360   109913930.65508  20915914.740    85647249.55749
  22968748.920   120701682.93907  22968753.420    94053316.12046
  24610535.420   129329237.78105  24610538.760   100776048.27243
  22136967.720   116330746.24108  22136969.120    90647423.11647
  21538143.040   113183704.20208  21538143.900    88195095.40148
 15 02 04 00 43  0.0000000  0  7G16G18G21G25G27G29G31
  23429938.300   123125157.75707  23429939.460    95941694.41945
  23991305.820   126075179.34606  23991307.200    98240416.50544
  20913892.040   109903303.25208  20913892.460    85638968.46249
  22984576.760   120784858.41907  22984581.120    94118128.16446
  24595761.720   129251600.53605  24595765.120   100715551.77044
  22149468.560   116396438.57208  22149469.960    90698611.93747
  21548831.180   113239870.52808  21548832.020    88238861.36448
 15 02 04 00 43 30.0000000  0  7G16G18G21G25G27G29G31
  23412868.280   123035454.10207  23412869.400    95871795.47245
  23976096.500   125995254.41106  23976097.700    98178137.40044
  20911955.340   109893126.05608  20911955.820    85631038.19349
  23000452.700   120868286.94207  23000456.940    94183137.38046
  24581004.380   129174050.01505  24581007.980   100655122.83645
  22161985.700   116462216.40508  22161987.100    90749867.38247
  21559606.280   113296493.98208  21559607.120    88282983.52348
 15 02 04 00 44  0.0000000  0  7G16G18G21G25G27G29G31
  23395811.320   122945819.12007  23395812.420    95801950.05145
  23960891.500   125915353.05006  23960892.840    98115876.68344
  20910104.180   109883398.39408  20910104.680    85623458.20549
  23016376.600   120951967.55107  23016380.660    94248343.02546
  24566263.380   129096586.13605  24566267.240   100594761.41744
  22174518.960   116528078.85508  22174520.300    90801188.75347
  21570467.960   113353572.32708  21570468.780    88327460.14248
 15 02 04 00 44 30.0000000  0  6G16G18G21G25G29G31
  23378767.580   122856253.47507  23378768.640    95732158.66445
  23945691.120   125835476.72606  23945692.560    98053635.47544
  20908338.300   109874119.06008  20908338.840    85616227.55649
  23032348.160   121035898.19807  23032351.980    94313743.51446
  22187068.020   116594024.46908  22187069.320    90852574.93547
  21581415.560   113411102.42708  21581416.400    88372288.77748
 15 02 04 00 45  0.0000000  0  7G16G18G21G25G27G29G31
  23361737.260   122766758.49707  23361738.280    95662422.33944
  23930496.060   125755627.83606  23930497.500    97991415.62744
  20906657.580   109865287.26708  20906658.180    85609345.62649
  23048367.100   121120077.82807  23048370.760    94379338.01746
  24536829.980   128941909.97105  24536834.340   100474233.49745
  22199632.740   116660052.26608  22199633.960    90904025.14247
  21592448.660   113469081.69908  21592449.500    88417467.42248
 15 02 04 00 45 30.0000000  0  6G16G18G21G25G29G31
  23344720.640   122677335.45807  23344721.640    95592742.05745
  23915306.760   125675808.71106  23915308.240    97929218.98244
  20905061.940   109856902.28508  20905062.520    85602811.89049
  23064433.160   121204505.38507  23064436.860    94445125.70246
  22212212.800   116726160.90108  22212213.960    90955538.35447
  21603566.840   113527508.07608  21603567.720    88462994.46548
 15 02 04 00 46  0.0000000  0  7G16G18G21G25G27G29G31
  23327718.400   122587987.99507  23327719.340    95523120.67745
  23900123.980   125596023.18106  23900125.480    97867048.54145
  20903551.600   109848965.27108  20903552.140    85596627.22349
  23080546.540   121289181.58807  23080550.420    94511107.14146
  24507462.300   128787573.27105  24507467.220   100353992.41444
  22224808.420   116792351.55708  22224809.600    91007115.46847
  21614769.960   113586380.63808  21614770.820    88508869.18448
 15 02 04 00 46 30.0000000  0  7G16G18G21G25G27G29G31
  23310730.360   122498715.73307  23310731.280    95453557.89245
  23884948.000   125516272.89706  23884949.340    97804905.55344
  20902126.020   109841473.81308  20902126.540    85590789.72549
  23096706.700   121374103.72807  23096710.740    94577280.23446
  24492802.880   128710537.27005  24492807.680   100293964.40345
  22237419.280   116858622.11308  22237420.500    91058754.85847
  21626057.200   113645695.44808  21626058.080    88555088.51948
 15 02 04 00 47  0.0000000  0  7G16G18G21G25G27G29G31
  23293757.020   122409520.67607  23293757.940    95384055.26745
  23869779.220   125436560.54606  23869780.620    97742792.08844
  20900785.260   109834428.01108  20900785.760    85585299.49449
  23112913.540   121459271.27907  23112917.700    94643644.55146
  24478159.620   128633586.67205  24478164.360   100234002.93644
  22250045.180   116924971.96508  22250046.480    91110456.03947
  21637428.260   113705450.82108  21637429.120    88601651.13748
 15 02 04 00 47 30.0000000  0  7G16G18G21G25G27G29G31
  23276798.680   122320404.09307  23276799.660    95314613.80446
  23854618.180   125356888.24406  23854619.560    97680709.86544
  20899529.040   109827826.54908  20899529.540    85580155.48749
  23129166.780   121544682.78907  23129171.020    94710198.96046
  24463532.460   128556720.98905  24463537.260   100174107.67545
  22262686.040   116991400.38208  22262687.400    91162218.43647
  21648882.580   113765643.71108  21648883.420    88648554.68148
 15 02 04 00 48  0.0000000  0  7G16G18G21G25G27G29G31
  23259855.960   122231369.48807  23259857.000    95245236.20845
  23839465.500   125277260.51007  23839466.900    97618662.33344
  20898357.760   109821671.45208  20898358.260    85575359.30849
  23145466.620   121630339.24407  23145470.920    94776944.22946
  24448921.840   128479942.06005  24448926.620   100114279.96545
  22275342.100   117057908.47308  22275343.520    91214042.91347
  21660420.100   113826273.83808  21660420.920    88695798.92248
 15 02 04 00 48 30.0000000  0  7G16G18G21G25G27G29G31
  23242928.800   122142417.00807  23242929.960    95175922.60045
  23824321.440   125197678.33706  23824322.980    97556650.30944
  20897270.900   109815959.99608  20897271.400    85570908.82749
  23161812.580   121716238.20907  23161816.860    94843878.46346
  24434327.440   128403248.26505  24434332.200   100054518.62545
  22288012.880   117124493.90308  22288014.340    91265927.65347
  21672040.100   113887337.38908  21672040.880    88743380.90648
 15 02 04 00 49  0.0000000  0  7G16G18G21G25G27G29G31
  23226017.660   122053548.45207  23226018.860    95106674.39345
  23809186.640   125118144.51506  23809188.220    97494675.92944
  20896268.360   109810691.64908  20896268.860    85566803.63049
  23178204.440   121802378.76407  23178208.720    94911000.94746
  24419749.320   128326639.83205  24419753.840    99994823.81245
  22300698.260   117191156.10908  22300699.760    91317872.21347
  21683742.180   113948832.24208  21683742.960    88791298.95948
 15 02 04 00 49 30.0000000  0  7G16G18G21G25G27G29G31
  23209123.000   121964766.35107  23209124.140    95037493.56645
  23794061.620   125038662.48206  23794063.400    97432741.92544
  20895350.300   109805867.34608  20895350.820    85563044.44849
  23194642.260   121888760.83707  23194646.560    94978311.63146
  24405187.600   128250117.54505  24405191.980    99935196.10945
  22313398.360   117257895.53008  22313399.880    91369876.93647
  21695526.060   114010757.06808  21695526.880    88839552.05748
 15 02 04 00 50  0.0000000  0  7G16G18G21G25G27G29G31
  23192244.800   121876070.79607  23192245.880    94968380.16645
  23778946.700   124959233.32006  23778948.540    97370849.11844
  20894516.220   109801484.30208  20894516.780    85559629.09049
  23211125.640   121975381.70407  23211129.900    95045808.40446
  24390642.040   128173679.58605  24390646.240    99875634.14745
  22326112.680   117324709.53508  22326114.180    91421939.77947
  21707390.960   114073107.58608  21707391.820    88888136.87048
 15 02 04 00 50 30.0000000  0  7G16G18G21G25G27G29G31
  23175383.800   121787465.50107  23175384.780    94899337.09045
  23763842.680   124879861.28806  23763844.660    97309000.87645
  20893766.340   109797543.66608  20893766.920    85556558.47949
  23227654.680   122062242.24107  23227658.920    95113491.91945
  24376112.820   128097327.79905  24376116.820    99816139.27145
  22338841.540   117391599.74908  22338842.920    91474062.00347
  21719336.780   114135883.33008  21719337.700    88937053.02948
 15 02 04 00 51  0.0000000  0  7G16G18G21G25G27G29G31
  23158539.900   121698950.26707  23158540.820    94830364.20045
  23748749.900   124800547.59406  23748751.760    97247198.03745
  20893100.340   109794043.75008  20893100.920    85553831.29649
  23244229.000   122149340.19707  23244233.100    95181360.44845
  24361599.660   128021060.92005  24361603.500    99756710.63845
  22351584.480   117458564.00408  22351585.740    91526241.92547
  21731362.820   114199080.67808  21731363.780    88986297.70548
 15 02 04 00 51 30.0000000  0  7G16G18G21G25G27G29G31
  23141713.940   121610529.18207  23141714.760    94761464.65645
  23733669.140   124721297.02706  23733670.920    97185444.44645
  20892518.420   109790985.73908  20892519.000    85551448.44149
  23260848.660   122236676.40907  23260852.660    95249414.62646
  24347102.980   127944880.79105  24347106.700    99697349.55444
  22364341.680   117525603.42208  22364342.900    91578480.42447
  21743469.000   114262699.03908  21743469.960    89035870.44848
 15 02 04 00 52  0.0000000  0  7G16G18G21G25G27G29G31
  23124906.060   121522203.56307  23124906.880    94692639.51045
  23718600.760   124642111.76406  23718602.440    97123741.67144
  20892020.380   109788368.37208  20892020.920    85549408.93649
  23277513.360   122324249.44907  23277517.340    95317653.33746
  24332622.620   127868786.95005  24332626.460    99638055.72244
  22377113.060   117592717.63708  22377114.320    91630777.20347
  21755654.780   114326735.75808  21755655.700    89085769.17648
 15 02 04 00 52 30.0000000  0  7G16G18G21G25G27G29G31
  23108116.300   121433972.82007  23108117.020    94623888.28645
  23703544.760   124562992.25306  23703546.480    97062090.16745
  20891605.560   109786188.52508  20891606.120    85547710.35049
  23294222.520   122412056.10807  23294226.500    95386074.09946
  24318158.340   127792777.16905  24318162.300    99578827.38445
  22389898.040   117659903.31008  22389899.380    91683129.66147
  21767919.300   114391186.06508  21767920.140    89135990.18848
 15 02 04 00 53  0.0000000  0  7G16G18G21G25G27G29G31
  23091345.560   121345841.87407  23091346.220    94555214.83645
  23688502.200   124483943.85206  23688503.980    97000494.05145
  20891274.500   109784448.89308  20891275.060    85546354.78449
  23310976.420   122500098.20707  23310980.500    95454678.31446
  24303710.640   127716854.29705  24303714.780    99519666.80745
  22402697.100   117727162.90108  22402698.540    91735539.72447
  21780262.640   114456050.51808  21780263.440    89186533.90148
 15 02 04 00 53 30.0000000  0  7G16G18G21G25G27G29G31
  23074593.940   121257811.42707  23074594.580    94486619.68145
  23673473.320   124404968.43806  23673475.340    96938954.82745
  20891026.960   109783148.19808  20891027.540    85545341.26249
  23327774.700   122588374.21607  23327779.000    95523464.80346
  24289279.360   127641017.74505  24289283.660    99460573.47046
  22415510.020   117794495.47808  22415511.560    91788006.64547
  21792684.200   114521326.08508  21792685.000    89237397.96948
 15 02 04 00 54  0.0000000  0  7G16G18G21G25G27G29G31
  23057861.720   121169882.93107  23057862.360    94418103.97346
  23658458.840   124326068.47906  23658460.840    96877474.36844
  20890862.680   109782284.94008  20890863.220    85544668.60449
  23344617.180   122676882.41706  23344621.580    95592432.21146
  24274864.360   127565266.72205  24274868.900    99401546.72545
  22428336.640   117861899.73508  22428338.220    91840529.42347
  21805183.420   114587009.71708  21805184.240    89288580.01248
 15 02 04 00 54 30.0000000  0  7G16G18G21G25G27G29G31
  23041149.020   121082057.26307  23041149.780    94349668.39646
  23643459.140   124247245.80306  23643461.260    96816054.14844
  20890781.320   109781857.38508  20890781.820    85544335.44449
  23361503.440   122765621.13206  23361508.020    95661579.22945
  24260465.540   127489600.65105  24260470.200    99342586.18545
  22441176.600   117929374.19008  22441178.200    91893106.92147
  21817759.720   114653098.41408  21817760.580    89340077.69248
 15 02 04 00 55  0.0000000  0  7G16G18G21G25G27G29G31
  23024456.460   120994337.47507  23024457.360    94281315.33746
  23628474.840   124168503.78206  23628477.000    96754696.76244
  20890783.100   109781866.34808  20890783.480    85544342.42349
  23378433.580   122854590.36706  23378438.300    95730905.87946
  24246083.040   127414020.58205  24246087.680    99283692.66446
  22454030.100   117996919.79708  22454031.680    91945739.85947
  21830412.780   114719590.56708  21830413.660    89391889.75148
 15 02 04 00 55 30.0000000  0  7G16G18G21G25G27G29G31
  23007784.220   120906724.70207  23007785.280    94213045.66046
  23613506.360   124089844.71106  23613508.460    96693404.02245
  20890867.640   109782310.30108  20890867.980    85544688.36549
  23395407.400   122943788.30106  23395411.960    95800410.75645
  24231716.700   127338525.73805  24231721.320    99224865.55245
  22466896.860   118064535.27408  22466898.460    91998427.23647
  21843142.040   114786483.21508  21843142.920    89444013.88548
 15 02 04 00 56  0.0000000  0  7G16G18G21G25G27G29G31
  22991132.620   120819219.96107  22991133.780    94144860.15646
  23598554.180   124011270.66106  23598556.180    96632177.51544
  20891034.600   109783187.54308  20891034.920    85545371.91849
  23412424.480   123033213.11106  23412428.800    95870092.40845
  24217366.480   127263115.35205  24217371.060    99166104.25545
  22479776.560   118132218.70908  22479778.200    92051167.54247
  21855946.800   114853772.86408  21855947.680    89496447.36848
 15 02 04 00 56 30.0000000  0  7G16G18G21G25G27G29G31
  22974501.940   120731824.95307  22974503.140    94076760.16246
  23583618.720   123932784.06106  23583620.600    96571019.16944
  20891283.800   109784497.16608  20891284.160    85546392.40349
  23429484.640   123122863.81907  23429488.660    95939950.08845
  24203032.260   127187789.35505  24203036.780    99107408.73444
  22492669.320   118199970.37908  22492670.920    92103961.04147
  21868826.620   114921457.09808  21868827.540    89549188.31748
 15 02 04 00 57  0.0000000  0  7G16G18G21G25G27G29G31
  22957892.660   120644542.34007  22957893.860    94008747.75546
  23568700.700   123854388.49806  23568702.460    96509931.75145
  20891615.320   109786239.39408  20891615.700    85547750.00049
  23446587.680   123212740.04907  23446591.460    96009983.50845
  24188714.380   127112548.54305  24188718.800    99048779.55745
  22505575.160   118267790.24808  22505576.600    92156807.68647
  21881781.220   114989534.31908  21881782.180    89602235.49748
 15 02 04 00 57 30.0000000  0  7G16G18G21G25G27G29G31
  22941305.040   120557373.50107  22941306.180    93940823.99546
  23553800.360   123776085.94206  23553802.040    96448916.80545
  20892028.880   109788412.72208  20892029.280    85549443.49649
  23463733.340   123302840.26807  23463736.980    96080191.45946
  24174412.720   127037392.36806  24174416.920    98990216.34745
  22518493.860   118335677.53408  22518495.100    92209706.83747
  21894810.000   115058001.16208  21894811.000    89655586.27548
 15 02 04 00 58  0.0000000  0  7G16G18G21G25G27G29G31
  22924739.740   120470322.33907  22924740.840    93872991.93246
  23538918.580   123697881.05606  23538920.220    96387977.98244
  20892524.720   109791018.54708  20892525.140    85551474.02149
  23480921.680   123393165.45407  23480925.380    96150574.69845
  24160127.620   126962322.94406  24160131.620    98931720.72246
  22531425.600   118403633.39808  22531426.680    92262659.44247
  21907912.920   115126857.57408  21907913.940    89709240.61648
 15 02 04 00 58 30.0000000  0  7G16G18G21G25G27G29G31
  22908197.060   120383390.12307  22908198.120    93805252.55246
  23524055.780   123619775.76307  23524057.240    96327116.71545
  20893102.580   109794055.41608  20893103.020    85553840.41149
  23498152.360   123483713.76706  23498156.260    96221131.81545
  24145858.880   126887339.49706  24145862.680    98873292.09345
  22544370.140   118471656.72408  22544371.140    92315664.60947
  21921089.360   115196100.22308  21921090.400    89763195.91348
 15 02 04 00 59  0.0000000  0  7G16G18G21G25G27G29G31
  22891677.520   120296579.80907  22891678.620    93737608.16146
  23509212.600   123541774.03906  23509214.100    96266336.18844
  20893762.540   109797523.50508  20893763.000    85556542.82249
  23515425.360   123574485.27706  23515429.680    96291862.84145
  24131606.700   126812443.07906  24131610.360    98814931.30145
  22557327.600   118539748.34908  22557328.640    92368722.97547
  21934339.020   115265727.56408  21934340.060    89817450.97448
 15 02 04 00 59 30.0000000  0  7G16G18G21G25G27G29G31
  22875181.200   120209891.31207  22875182.260    93670058.68546
  23494389.220   123463876.84607  23494390.860    96205637.12745
  20894504.040   109801419.93508  20894504.480    85559579.00649
  23532740.240   123665477.18806  23532744.980    96362765.59246
  24117370.680   126737632.01305  24117374.400    98756636.97246
  22570297.520   118607905.92308  22570298.660    92421832.74047
  21947661.160   115335735.39108  21947662.080    89872002.51748
 15 02 04 01 00  0.0000000  0  7G16G18G21G25G27G29G31
  22858708.440   120123326.17707  22858709.400    93602605.32746
  23479586.120   123386086.40406  23479587.880    96145021.22745
  20895326.800   109805743.49008  20895327.220    85562948.00749
  23550096.900   123756687.74606  23550101.920    96433838.74446
  24103150.660   126662905.80305  24103154.500    98698408.79146
  22583279.920   118676128.97708  22583281.140    92474993.53947
  21961055.140   115406120.59308  21961055.920    89926848.11448
 15 02 04 01 00 30.0000000  0  7G16G18G21G25G27G29G31
  22842259.480   120036886.07007  22842260.400    93535249.40346
  23464803.700   123308405.06106  23464805.600    96084490.33345
  20896230.700   109810493.43508  20896231.120    85566649.26149
  23567495.100   123848115.72306  23567500.200    96505081.30146
  24088946.720   126588264.15405  24088950.720    98640246.50446
  22596274.620   118744416.50508  22596275.860    92528204.57147
  21974520.340   115476880.32608  21974521.020    89981985.55848
 15 02 04 01 01  0.0000000  0  7G16G18G21G25G27G29G31
  22825834.760   119950573.63907  22825835.720    93467992.97046
  23450042.720   123230836.44706  23450044.720    96024047.28845
  20897215.660   109815669.34308  20897216.100    85570682.43249
  23584934.700   123939760.65106  23584939.740    96576492.90245
  24074758.980   126513707.78105  24074763.160    98582150.62745
  22609281.620   118812768.69108  22609282.840    92581466.00047
  21988056.400   115548012.78808  21988057.080    90037413.43848
 15 02 04 01 01 30.0000000  0  7G16G18G21G25G27G29G31
  22809434.880   119864391.71407  22809435.900    93400838.23946
  23435303.760   123153383.80906  23435305.860    95963694.58045
  20898281.680   109821271.17608  20898282.140    85575047.49149
  23602415.700   124031622.52007  23602420.560    96648073.56145
  24060587.560   126439237.73505  24060591.980    98524122.05345
  22622301.000   118881186.13408  22622302.260    92634778.28547
  22001663.020   115619516.34508  22001663.780    90093130.48648
 15 02 04 01 02  0.0000000  0  7G16G18G21G25G27G29G31
  22793059.820   119778340.28007  22793060.860    93333785.19246
  23420586.920   123076047.56706  23420589.160    95903432.63746
  20899428.180   109827296.14008  20899428.660    85579742.26449
  23619937.320   124123697.97506  23619941.960    96719820.64946
  24046432.200   126364851.86805  24046436.720    98466159.05946
  22635332.380   118949666.53708  22635333.640    92688139.62446
  22015339.320   115691386.45908  22015340.280    90149133.16448
 15 02 04 01 02 30.0000000  0  7G16G18G21G25G27G29G31
  22776710.080   119692421.95507  22776711.120    93266835.86346
  23405893.160   122998831.74406  23405895.340    95843264.49045
  20900655.080   109833743.79008  20900655.620    85584766.40849
  23637499.340   124215986.56606  23637503.800    96791733.81245
  24032293.080   126290550.76106  24032297.620    98408262.11245
  22648375.820   119018210.07208  22648377.020    92741550.15447
  22029085.020   115763621.08908  22029086.160    90205419.88048
 15 02 04 01 03  0.0000000  0  7G16G18G21G25G27G29G31
  22760386.060   119606638.55907  22760387.080    93199991.66247
  23391223.000   122921738.95007  23391225.020    95783192.22245
  20901962.240   109840613.24108  20901962.820    85590119.22349
  23655101.520   124308487.03006  23655105.840    96863812.07345
  24018170.260   126216334.34706  24018174.720    98350431.15046
  22661431.160   119086816.08408  22661432.380    92795009.36047
  22042899.620   115836217.54908  22042900.860    90261988.54048
 15 02 04 01 03 30.0000000  0  7G16G18G21G25G27G29G31
  22744088.320   119520993.29707  22744089.260    93133255.10546
  23376576.960   122844772.73907  23376578.780    95723218.60245
  20903349.740   109847904.77308  20903350.360    85595800.94349
  23672743.960   124401199.65306  23672748.280    96936055.68144
  24004063.900   126142204.12306  24004068.200    98292667.37845
  22674498.580   119155485.62408  22674499.880    92848518.07847
  22056782.880   115909174.34208  22056784.100    90318837.97948
 15 02 04 01 04  0.0000000  0  7G16G18G21G25G27G29G31
  22727817.060   119435487.58507  22727818.040    93066627.27946
  23361955.580   122767935.59107  23361957.020    95663345.51045
  20904817.360   109855617.29208  20904818.000    85601810.69849
  23690426.340   124494122.66606  23690430.700    97008463.19445
  23989973.780   126068159.36506  23989977.940    98234970.20146
  22687577.860   119224217.58408  22687579.220    92902075.42947
  22070734.180   115982488.40608  22070735.280    90375965.81048
 15 02 04 01 04 30.0000000  0  7G16G18G21G25G27G29G31
  22711572.760   119350124.03707  22711573.920    93000110.24346
  23347359.160   122691230.36307  23347360.380    95603575.22644
  20906364.920   109863749.89508  20906365.560    85608147.79549
  23708148.720   124587255.39006  23708153.080    97081034.15144
  23975899.960   125994200.53406  23975904.080    98177339.92746
  22700669.020   119293012.24908  22700670.460    92955681.64347
  22084753.100   116056157.66808  22084754.020    90433370.41248
 15 02 04 01 05  0.0000000  0  7G16G18G21G25G27G29G31
  22695355.620   119264902.65707  22695356.800    92933704.00347
  23332787.960   122614658.22707  23332789.140    95543908.65145
  20907991.820   109872299.48108  20907992.500    85614809.81849
  23725910.540   124680594.80406  23725914.780    97153766.14044
  23961842.120   125920325.89005  23961846.180    98119775.29945
  22713771.680   119361867.59608  22713773.220    93009335.13247
  22098838.700   116130177.77208  22098839.480    90491048.39348
 15 02 04 01 05 30.0000000  0  7G16G18G21G25G27G29G31
  22679165.940   119179825.28807  22679167.100    92867409.97046
  23318242.540   122538221.90507  23318243.700    95484347.89045
  20909698.060   109881265.79308  20909698.700    85621796.56949
  23743711.660   124774139.93006  23743715.820    97226658.41745
  23947800.400   125846535.53806  23947804.260    98062276.33446
  22726885.820   119430783.27507  22726887.400    93063035.64647
  22112990.520   116204546.04408  22112991.220    90548997.68348
 15 02 04 01 06  0.0000000  0  7G16G18G21G25G27G29G31
  22663004.460   119094895.92707  22663005.580    92801231.26646
  23303723.660   122461925.60807  23303724.940    95424896.23345
  20911483.580   109890648.78208  20911484.220    85629107.99649
  23761551.960   124867890.82906  23761556.140    97299711.06645
  23933774.920   125772830.83305  23933778.620    98004844.12146
  22740011.580   119499759.99007  22740013.200    93116783.71547
  22127208.280   116279260.96908  22127209.000    90607217.08948
 15 02 04 01 06 30.0000000  0  7G16G18G21G25G27G29G31
  22646871.640   119010117.12307  22646872.700    92735169.87246
  23289232.000   122385772.38807  23289233.460    95365556.09645
  20913348.460   109900448.75908  20913349.120    85636744.33549
  23779431.320   124961847.15906  23779435.540    97372923.75345
  23919765.820   125699212.54706  23919769.540    97947479.22145
  22753149.160   119568798.61207  22753150.840    93170580.04847
  22141491.780   116354321.14208  22141492.540    90665705.52348
 15 02 04 01 07  0.0000000  0  7G16G18G21G25G27G29G31
  22630767.360   118925488.57107  22630768.400    92669225.55847
  23274767.700   122309762.78507  23274769.380    95306327.86045
  20915291.920   109910661.75208  20915292.600    85644702.51849
  23797349.140   125056005.68606  23797353.560    97446294.00546
  23905772.740   125625678.55806  23905776.380    97890180.03345
  22766297.960   119637896.43207  22766299.740    93224422.48947
  22155839.980   116429721.32608  22155840.840    90724458.90548
 15 02 04 01 07 30.0000000  0  7G16G18G21G25G27G29G31
  22614691.880   118841011.86807  22614693.000    92603399.58547
  23260331.460   122233899.65107  23260333.100    95247213.76045
  20917313.840   109921286.91908  20917314.500    85652981.87649
  23815305.220   125150364.52206  23815309.720    97519820.34745
  23891795.600   125552228.42505  23891799.120    97832946.16746
  22779457.900   119707052.81007  22779459.780    93278310.55947
  22170252.280   116505458.16608  22170253.220    90783474.61048
 15 02 04 01 08  0.0000000  0  7G16G18G21G25G27G29G31
  22598646.140   118756690.90407  22598647.280    92537694.94647
  23245923.920   122158186.92107  23245925.580    95188216.85645
  20919414.280   109932324.84008  20919414.940    85661582.85449
  23833299.620   125244924.37106  23833304.140    97593503.32446
  23877834.620   125478863.87305  23877838.340    97775779.01745
  22792629.280   119776268.97107  22792631.180    93332245.21447
  22184728.540   116581531.28708  22184729.580    90842752.35248
 15 02 04 01 08 30.0000000  0  7G16G18G21G25G27G29G31
  22582630.240   118672526.69207  22582631.340    92472112.44947
  23231545.440   122082626.46307  23231546.980    95129338.62545
  20921592.860   109943773.34708  20921593.500    85670503.77749
  23851331.840   125339682.95306  23851336.400    97667341.15346
  23863889.800   125405583.84905  23863893.660    97718677.70147
  22805811.840   119845543.49907  22805813.620    93386225.36647
  22199267.980   116657936.69908  22199269.140    90902289.02548
 15 02 04 01 09  0.0000000  0  7G16G18G21G25G27G29G31
  22566644.860   118588522.84308  22566645.920    92406654.90447
  23217196.740   122007222.59007  23217198.160    95070582.38445
  20923849.620   109955632.70608  20923850.240    85679744.84449
  23869401.860   125434640.54506  23869406.380    97741334.04946
  23849961.340   125332389.93305  23849965.460    97661643.49246
  22819005.760   119914877.72507  22819007.460    93440252.00947
  22213870.400   116734673.21808  22213871.640    90962083.71148
 15 02 04 01 09 30.0000000  0  7G16G18G21G25G27G29G31
  22550690.000   118504679.54008  22550691.060    92341322.47547
  23202877.960   121931976.23107  23202879.400    95011948.86646
  20926184.140   109967900.51508  20926184.720    85689304.17449
  23887509.100   125529794.32406  23887513.600    97815479.82046
  23836049.020   125259280.53205  23836053.300    97604675.15646
  22832210.720   119984269.82507  22832212.380    93494323.73647
  22228535.020   116811736.53708  22228536.300    91022133.03448
 15 02 04 01 10  0.0000000  0  7G16G18G21G25G27G29G31
  22534766.260   118420999.67408  22534767.300    92276117.38947
  23188589.680   121856890.58907  23188591.240    94953440.59046
  20928596.220   109980575.96008  20928596.780    85699181.13849
  23905653.480   125625143.72406  23905657.880    97889778.02345
  23822153.040   125186256.32506  23822157.280    97547773.16247
  22845426.760   120053719.98207  22845428.320    93548440.71947
  22243261.480   116889124.55608  22243262.700    91082435.36848
 15 02 04 01 10 30.0000000  0  7G16G18G21G25G27G29G31
  22518874.140   118337485.87008  22518875.180    92211041.70147
  23174332.480   121781969.03907  23174334.140    94895060.20745
  20931085.820   109993658.91308  20931086.400    85709375.64049
  23923834.780   125720688.18806  23923839.220    97964228.23844
  23808273.380   125113317.95206  23808277.580    97490938.10946
  22858653.800   120123228.33107  22858655.380    93602603.05047
  22258049.320   116966835.06208  22258050.480    91142988.99248
 15 02 04 01 11  0.0000000  0  7G16G18G21G25G27G29G31
  22503013.660   118254138.40108  22503014.700    92146095.63847
  23160106.620   121707212.38907  23160108.320    94836808.28045
  20933652.340   110007146.00808  20933652.900    85719885.05749
  23942052.500   125816424.28505  23942057.020    98038827.78645
  23794409.840   125040463.26206  23794413.760    97434168.25746
  22871891.560   120192793.37607  22871893.200    93656809.54647
  22272897.640   117044863.25808  22272898.760    91203790.16648
 15 02 04 01 11 30.0000000  0  7G16G18G21G25G27G29G31
  22487185.680   118170961.71008  22487186.680    92081282.64047
  23145913.080   121632625.71807  23145914.800    94778688.81045
  20936296.040   110021038.79808  20936296.600    85730710.60849
  23960306.920   125912353.19706  23960311.520    98113577.57145
  23780562.640   124967694.78406  23780566.320    97377465.55946
  22885140.340   120262416.65607  22885142.120    93711061.43647
  22287806.360   117123208.89508  22287807.440    91264838.70248
 15 02 04 01 12  0.0000000  0  7G16G18G21G25G27G29G31
  22471390.120   118087955.44308  22471391.080    92016602.43047
  23131752.060   121558209.61007  23131753.680    94720702.25545
  20939016.280   110035333.85608  20939016.860    85741849.61549
  23978597.580   126008471.64206  23978602.080    98188475.05144
  23766731.300   124895010.36206  23766734.860    97320828.36646
  22898399.720   120332095.64107  22898401.660    93765356.71247
  22302774.620   117201867.38208  22302775.700    91326131.01548
 15 02 04 01 12 30.0000000  0  7G16G18G21G25G27G29G31
  22455627.380   118005122.10008  22455628.340    91952056.97047
  23117624.040   121483966.84207  23117625.560    94662850.77945
  20941812.900   110050030.31408  20941813.500    85753301.40749
  23996924.260   126104778.51206  23996928.540    98263519.34144
  23752915.980   124822410.35206  23752919.420    97264256.96345
  22911669.760   120401830.58407  22911671.840    93819695.59847
  22317801.820   117280835.66708  22317802.840    91387664.73848
 15 02 04 01 13  0.0000000  0  7G16G18G21G25G27G29G31
  22439898.240   117922465.34508  22439899.220    91887649.11147
  23103529.920   121409901.82007  23103531.300    94605137.79345
  20944686.000   110065128.64008  20944686.620    85765066.34349
  24015286.980   126201274.20606  24015291.100    98338710.75344
  23739116.900   124749896.27805  23739120.260    97207752.50846
  22924950.620   120471622.56607  22924952.880    93874078.93846
  22332887.780   117360112.71708  22332888.740    91449439.05047
 15 02 04 01 13 30.0000000  0  7G16G18G21G25G27G29G31
  22424202.820   117839985.34108  22424203.700    91823378.98246
  23089469.740   121336015.21007  23089471.080    94547563.83145
  20947634.940   110080625.38508  20947635.540    85777141.74149
  24033685.120   126297955.28406  24033689.100    98414046.63644
  23725333.740   124677466.08805  23725337.160    97151313.42345
  22938241.980   120541469.10507  22938244.280    93928504.78447
  22348031.640   117439693.85508  22348032.480    91511450.31447
 15 02 04 01 14  0.0000000  0  7G16G18G21G25G27G29G31
  22408541.580   117757684.70908  22408542.360    91759248.60947
  23075444.160   121262310.02707  23075445.460    94490131.24445
  20950659.580   110096519.99108  20950660.180    85789527.15749
  24052118.340   126394820.98006  24052122.300    98489526.37745
  23711566.620   124605120.35806  23711570.080    97094940.17945
  22951543.980   120611370.94307  22951546.200    93982973.73346
  22363232.940   117519577.00808  22363233.660    91573696.91647
 15 02 04 01 14 30.0000000  0  7G16G18G21G25G27G29G31
  22392915.200   117675567.29908  22392915.960    91695261.02147
  23061453.960   121188790.70907  23061455.320    94432843.48645
  20953760.040   110112813.12608  20953760.640    85802223.11049
  24070586.620   126491871.70606  24070590.760    98565150.28845
  23697815.920   124532860.73805  23697819.500    97038634.00046
  22964856.780   120681329.64807  22964858.920    94037486.97546
  22378491.380   117599760.70908  22378492.080    91636177.70247
 15 02 04 01 15  0.0000000  0  7G16G18G21G25G27G29G31
  22377323.820   117593633.85008  22377324.560    91631416.78347
  23047499.420   121115458.62007  23047500.900    94375701.61146
  20956935.840   110129502.14208  20956936.420    85815227.52149
  24089089.460   126589104.92806  24089093.800    98640916.40845
  23684081.420   124460685.95306  23684085.040    96982393.93446
  22978179.940   120751343.37407  22978182.020    94092043.09246
  22393806.180   117680240.79708  22393806.920    91698889.44047
 15 02 04 01 15 30.0000000  0  7G16G18G21G25G27G29G31
  22361767.900   117511887.06508  22361768.700    91567717.99647
  23033581.040   121042316.96107  23033582.660    94318708.13746
  20960186.900   110146586.40408  20960187.440    85828539.95049
  24107626.680   126686519.84106  24107631.480    98716824.10645
  23670363.220   124388596.66406  23670366.920    96926220.48545
  22991513.640   120821412.30407  22991515.620    94146642.22746
  22409177.040   117761015.23508  22409177.860    91761830.55147
 15 02 04 01 16  0.0000000  0  7G16G18G21G25G27G29G31
  22346247.940   117430329.19808  22346248.800    91504166.42847
  23019699.420   120969368.41307  23019701.100    94261865.11946
  20963512.940   110164064.65208  20963513.420    85842159.37449
  24126197.980   126784115.10305  24126203.420    98792872.33445
  23656661.440   124316592.79906  23656665.040    96870113.60146
  23004857.840   120891536.18807  23004859.760    94201284.18046
  22424603.400   117842081.27508  22424604.340    91824998.88147
 15 02 04 01 16 30.0000000  0  7G16G18G21G25G27G29G31
  22330763.920   117348960.09508  22330764.780    91440761.94047
  23005854.700   120896613.84807  23005856.480    94205173.27245
  20966913.260   110181933.18608  20966913.680    85856082.91149
  24144803.000   126881887.20905  24144808.940    98869058.37645
  23642975.480   124244672.19206  23642979.060    96814071.60246
  23018212.120   120961712.93307  23018213.940    94255967.30546
  22440084.280   117923433.62208  22440085.280    91888390.31147
 15 02 04 01 17  0.0000000  0  7G16G18G21G25G27G29G31
  22315316.420   117267782.80608  22315317.240    91377506.91747
  22992047.520   120824056.44307  22992049.280    94148635.03745
  20970387.860   110200192.30108  20970388.260    85870310.79949
  24163441.840   126979835.80405  24163447.860    98945381.94645
  23629305.500   124172835.89906  23629309.180    96758095.28946
  23031576.660   121031943.01407  23031578.340    94310692.00046
  22455619.340   118005070.71708  22455620.400    91952003.62147
 15 02 04 01 17 30.0000000  0  7G16G18G21G25G27G29G31
  22299905.940   117186800.25808  22299906.780    91314403.63747
  22978278.440   120751699.48907  22978280.160    94092253.01145
  20973936.640   110218841.28708  20973937.060    85884842.48449
  24182114.300   127077960.51705  24182120.340    99021842.70445
  23615651.680   124101084.83806  23615655.560    96702185.36946
  23044951.460   121102227.26907  23044953.060    94365458.92546
  22471208.140   118086990.40608  22471209.260    92015837.12847
 15 02 04 01 18  0.0000000  0  7G16G18G21G25G27G29G31
  22284532.860   117106014.18708  22284533.720    91251453.46347
  22964547.940   120679545.60107  22964549.660    94036029.20245
  20977559.260   110237878.52808  20977559.740    85899676.70049
  24200820.100   127176259.39205  24200825.780    99098439.21045
  23602013.960   124029418.43006  23602018.020    96646341.43946
  23058336.320   121172564.83107  23058337.880    94420267.38446
  22486850.100   118169189.59208  22486851.220    92079888.43247
 15 02 04 01 18 30.0000000  0  7G16G18G21G25G27G29G31
  22269197.600   117025426.85708  22269198.460    91188658.15746
  22950856.500   120607597.18107  22950858.180    93979965.51546
  20981255.400   110257302.27408  20981255.960    85914812.09349
  24219558.800   127274730.79305  24219564.040    99175170.10844
  23588392.340   123957836.51706  23588396.480    96590563.34046
  23071731.200   121242955.39007  23071732.780    94475117.13646
  22502544.600   118251664.88508  22502545.660    92144154.87447
 15 02 04 01 19  0.0000000  0  7G16G18G21G25G27G29G31
  22253900.520   116945039.93908  22253901.360    91126019.00847
  22937204.540   120535856.49907  22937206.220    93924063.70745
  20985024.860   110277111.34008  20985025.500    85930247.74149
  24238330.180   127373373.19805  24238334.800    99252034.30744
  23574786.720   123886338.85906  23574790.920    96534850.91146
  23085136.000   121313398.41707  23085137.740    94530007.77646
  22518291.040   118334413.24108  22518292.060    92208634.09747
 15 02 04 01 19 30.0000000  0  7G16G18G21G25G27G29G31
  22238642.120   116864856.49508  22238642.940    91063538.41147
  22923592.840   120464327.29907  22923594.500    93868326.69146
  20988867.620   110297305.49808  20988868.340    85945983.45149
  24257134.060   127472186.29706  24257138.260    99329031.50144
  23561197.440   123814926.56106  23561201.580    96479204.97946
  23098550.940   121383894.93107  23098552.860    94584940.08546
  22534089.200   118417433.15508  22534090.140    92273324.92647
 15 02 04 01 20  0.0000000  0  7G16G18G21G25G27G29G31
  22223422.900   116784878.94408  22223423.620    91001218.25547
  22910021.880   120393012.19307  22910023.580    93812756.51346
  20992783.380   110317883.14208  20992784.160    85962017.96949
  24275970.100   127571168.64406  24275973.960    99406160.58844
  23547624.360   123743599.58606  23547628.360    96423625.52946
  23111976.080   121454444.43107  23111978.020    94639913.68946
  22549938.440   118500721.47408  22549939.380    92338224.89247
 15 02 04 01 20 30.0000000  0  7G16G18G21G25G27G29G31
  22208243.220   116705109.60208  22208243.940    90939060.34746
  22896492.260   120321913.94907  22896493.880    93757355.30845
  20996772.040   110338843.69008  20996772.800    85978350.86249
  24294837.940   127670319.26906  24294841.940    99483420.77445
  23534067.560   123672358.35806  23534071.440    96368112.91246
  23125411.300   121525046.66607  23125413.200    94694928.37846
  22565838.280   118584275.56608  22565839.220    92403331.96447
 15 02 04 01 21  0.0000000  0  8G16G18G21G22G25G27G29G31
  22193103.900   116625552.08608  22193104.560    90877067.48547
  22883004.840   120251036.77907  22883006.320    93702126.35346
  21000833.540   110360186.80608  21000834.260    85994981.86249
  24552351.420   129023475.84106  24552352.900   100537792.20044
  24313737.660   127769638.14905  24313741.780    99560812.06045
  23520527.380   123601204.21006  23520531.080    96312668.14846
  23138856.900   121595703.65807  23138858.740    94749985.73046
  22581788.400   118668094.13508  22581789.400    92468645.12347
 15 02 04 01 21 30.0000000  0  8G16G18G21G22G25G27G29G31
  22178003.120   116546197.03808  22178003.760    90815232.39147
  22869557.840   120180371.57107  22869559.200    93647062.55946
  21004965.320   110381899.40408  21004966.020    86011900.77649
  24534257.740   128928392.73206  24534258.880   100463701.82744
  24332666.780   127869112.20504  24332671.120    99638324.26945
  23507001.580   123530125.47806  23507005.100    96257282.15045
  23152310.680   121666403.59407  23152312.440    94805076.57046
  22597786.080   118752162.62708  22597787.160    92534153.02247
 15 02 04 01 22  0.0000000  0  8G16G18G21G22G25G27G29G31
  22162944.040   116467060.97808  22162944.720    90753567.93747
  22856154.380   120109934.94607  22856155.660    93592176.89546
  21009169.880   110403994.45508  21009170.540    86029117.69349
  24516151.040   128833241.48906  24516152.060   100389558.37444
  24351627.880   127968754.24705  24351632.340    99715967.37545
  23493492.880   123459136.57806  23493496.240    96201966.14746
  23165775.260   121737160.10807  23165776.940    94860211.48246
  22613833.480   118836492.38308  22613834.620    92599864.50847
 15 02 04 01 22 30.0000000  0  8G16G18G21G22G25G27G29G31
  22147926.420   116388142.88408  22147927.140    90692073.32747
  22842794.400   120039726.94707  22842795.660    93537469.37046
  21013446.380   110426467.62208  21013447.020    86046629.25249
  24498031.120   128738021.48706  24498032.220   100315361.31545
  24370620.260   128068559.94505  24370624.760    99793737.98846
  23480000.640   123388234.47106  23480004.040    96146717.76746
  23179250.060   121807970.23707  23179251.660    94915388.17146
  22629929.540   118921077.42608  22629930.640    92665774.91647
 15 02 04 01 23  0.0000000  0  8G16G18G21G22G25G27G29G31
  22132950.360   116309443.48308  22132951.160    90630749.11847
  22829478.000   119969748.49907  22829479.420    93482940.73546
  21017794.360   110449316.34808  21017794.980    86064433.46449
  24479898.140   128642733.44706  24479899.180   100241111.21445
  24389643.440   128168526.28005  24389647.920    99871633.78844
  23466524.640   123317417.61306  23466528.080    96091535.81045
  23192734.620   121878831.95707  23192736.140    94970605.05746
  22646073.380   119005913.37808  22646074.360    92731880.83547
 15 02 04 01 23 30.0000000  0  8G16G18G21G22G25G27G29G31
  22118016.220   116230964.34208  22118017.060    90569596.53947
  22816205.620   119900001.56907  22816207.160    93428592.49046
  21022213.360   110472538.37408  21022213.960    86082528.55949
  24461752.680   128547379.56706  24461753.760   100166809.81344
  24408696.660   128268651.40406  24408701.240    99949653.31444
  23453064.780   123246685.51807  23453068.220    96036419.91545
  23206228.940   121949744.73807  23206230.400    95025861.74346
  22662264.340   119090996.88808  22662265.160    92798179.65347
 15 02 04 01 24  0.0000000  0  8G16G18G21G22G25G27G29G31
  22103124.720   116152709.44608  22103125.640    90508618.70047
  22802978.080   119830490.52907  22802979.640    93374428.04446
  21026703.580   110496134.53708  21026704.120    86100915.18849
  24443595.160   128451963.96206  24443596.460   100092460.32244
  24427780.160   128368935.56305  24427784.760   100027796.79445
  23439621.400   123176040.06406  23439624.840    95981371.53446
  23219733.260   122020710.31907  23219734.800    95081159.56146
  22678502.160   119176326.94008  22678502.860    92864670.58447
 15 02 04 01 24 30.0000000  0  8G16G18G21G22G25G27G29G31
  22088276.000   116074679.06108  22088276.960    90447815.81547
  22789795.540   119761216.22407  22789797.100    93320448.07846
  21031264.300   110520101.11608  21031264.800    86119590.45549
  24425426.040   128356487.09305  24425427.680   100018063.10845
  24446893.140   128469375.41106  24446898.060   100106061.55144
  23426194.080   123105479.33606  23426197.540    95926389.17146
  23233247.220   122091726.68907  23233248.880    95136496.95846
  22694785.880   119261898.52108  22694786.580    92931349.71847
 15 02 04 01 25  0.0000000  0  8G16G18G21G22G25G27G29G31
  22073470.240   115996874.16508  22073471.220    90387188.63547
  22776658.260   119692179.55907  22776659.700    93266653.28446
  21035894.800   110544434.46608  21035895.260    86138551.51349
  24407245.680   128260950.31706  24407247.320    99943619.16245
  24466035.220   128569967.80906  24466040.260   100184445.22844
  23412782.580   123035001.65406  23412786.080    95871471.50946
  23246770.440   122162791.50907  23246772.100    95191872.11946
  22711114.580   119347707.09908  22711115.440    92998213.52947
 15 02 04 01 25 30.0000000  0  8G16G18G21G22G25G27G29G31
  22058708.360   115919299.73308  22058709.340    90326741.03547
  22763567.220   119623385.71908  22763568.460    93213047.73846
  21040595.580   110569137.13208  21040596.000    86157800.34949
  24389054.860   128165358.39506  24389056.620    99869132.23644
  24485206.680   128670714.43005  24485211.840   100262949.07044
  23399387.480   122964610.15206  23399391.060    95816621.00446
  23260303.520   122233908.10907  23260305.200    95247287.62346
  22727488.320   119433752.61708  22727489.420    93065261.97047
 15 02 04 01 26  0.0000000  0  8G16G18G21G22G25G27G29G31
  22043990.340   115841956.07408  22043991.380    90266473.25047
  22750522.680   119554835.97508  22750523.660    93159632.38046
  21045366.060   110594206.24508  21045366.500    86177334.72949
  24370853.880   128069712.29806  24370855.500    99794603.05445
  24504406.860   128771612.01506  24504411.880   100341570.52443
  23386008.440   122894303.06906  23386012.100    95761836.27046
  23273846.140   122305074.54507  23273847.820    95302741.97046
  22743906.380   119520030.60308  22743907.720    93132491.56447
 15 02 04 01 26 30.0000000  0  8G16G18G21G22G25G27G29G31
  22029317.080   115764847.74608  22029318.180    90206388.85147
  22737525.480   119486534.85808  22737526.260    93106410.74646
  21050206.200   110619641.57808  21050206.680    86197154.46949
  24352643.380   127974016.79906  24352645.100    99720035.40945
  24523635.960   128872661.16306  24523640.840   100420310.11244
  23372645.860   122824082.45006  23372649.560    95707118.91946
  23287398.520   122376292.63507  23287400.320    95358236.54345
  22760368.620   119606540.00608  22760369.980    93199901.46947
 15 02 04 01 27  0.0000000  0  8G16G18G21G22G25G27G29G31
  22014688.640   115687974.73308  22014689.680    90146487.81247
  22724575.660   119418482.93107  22724576.320    93053383.28746
  21055115.400   110645439.91108  21055115.960    86217257.06849
  24334423.560   127878271.90305  24334425.240    99645429.23045
  24542893.360   128973858.30606  24542898.060   100499164.97545
  23359299.360   122753946.29506  23359303.060    95652467.37246
  23300960.140   122447560.06807  23300962.000    95413769.57146
  22776874.120   119693276.16108  22776875.340    93267488.07147
 15 02 04 01 27 30.0000000  0  8G16G18G21G22G25G27G29G31
  22000105.420   115611339.11308  22000106.360    90086771.74547
  22711673.560   119350682.64207  22711674.340    93000551.90645
  21060093.400   110671599.78208  21060094.020    86237641.38849
  24316194.960   127782480.52606  24316196.340    99570786.81345
  24562178.620   129075201.95705  24562183.120   100578133.99845
  23345968.960   122683894.62006  23345972.660    95597881.66446
  23314531.180   122518876.85007  23314533.060    95469341.04546
  22793422.140   119780235.68908  22793423.180    93335248.72247
 15 02 04 01 28  0.0000000  0  8G16G18G21G22G25G27G29G31
  21985568.160   115534945.20208  21985569.060    90027244.02647
  22698820.040   119283138.02407  22698820.980    92947919.74845
  21065140.300   110698121.66008  21065141.000    86258307.79249
  24297958.100   127686646.90006  24297959.580    99496111.50345
  24581491.800   129176692.32005  24581496.160   100657217.34144
  23332655.000   122613929.18807  23332658.660    95543363.16846
  23328111.840   122590244.49406  23328113.840    95524952.15946
  22810012.480   119867417.62108  22810013.340    93403182.66647
 15 02 04 01 28 30.0000000  0  8G16G18G21G22G25G27G29G31
  21971077.200   115458794.63008  21971078.040    89967905.92447
  22686015.640   119215851.39407  22686016.820    92895488.62046
  21070255.720   110725003.37608  21070256.420    86279254.59249
  24279713.540   127590772.90906  24279715.280    99421404.75444
  24600832.540   129278327.70905  24600836.700   100736413.69745
  23319357.420   122544049.78107  23319361.020    95488911.70646
  23341702.020   122661662.93806  23341704.360    95580602.83546
  22826644.400   119954818.65408  22826645.180    93471287.34547
 15 02 04 01 29  0.0000000  0  8G16G18G21G22G25G27G29G31
  21956632.680   115382888.19908  21956633.480    89908758.06247
  22673260.540   119148823.64507  22673262.020    92843259.20546
  21075439.120   110752242.24808  21075439.820    86300479.68149
  24261461.440   127494859.59405  24261463.280    99346667.29445
  24620200.220   129380105.01306  24620204.320   100815720.64444
  23306075.920   122474254.89707  23306079.400    95434526.10846
  23355301.540   122733130.02006  23355304.160    95636291.43146
  22843317.040   120042434.22608  22843317.820    93539559.20146
 15 02 04 01 29 30.0000000  0  8G16G18G21G22G25G27G29G31
  21942235.120   115307228.67108  21942235.920    89849802.59147
  22660555.440   119082058.14908  22660557.120    92791234.15746
  21080690.220   110779836.82008  21080690.900    86321981.93949
  24243202.560   127398910.07405  24243204.720    99271901.63445
  24639594.640   129482023.27805  24639598.760   100895137.42544
  23292810.580   122404545.04107  23292814.040    95380206.77546
  23368910.620   122804646.19407  23368913.340    95692018.27346
  22860029.980   120130262.13608  22860030.920    93607996.51247
 15 02 04 01 30  0.0000000  0  8G16G18G21G22G25G27G29G31
  21927885.260   115231819.95208  21927886.060    89791042.55147
  22647901.120   119015558.98308  22647902.760    92739416.64246
  21086009.180   110807788.07308  21086009.840    86343762.14449
  24224937.540   127302928.52806  24224939.760    99197111.02545
  24659015.760   129584082.56805  24659020.060   100974664.09044
  23279561.720   122334921.89607  23279565.240    95325954.98246
  23382529.420   122876213.14506  23382532.300    95747784.68246
  22876783.060   120218300.88008  22876784.200    93676598.12747
 15 02 04 01 30 30.0000000  0  8G16G18G21G22G25G27G29G31
  21913583.360   115156663.30008  21913584.200    89732478.91947
  22635297.860   118949327.46408  22635299.220    92687807.67046
  21091395.500   110836093.22808  21091396.100    86365818.11949
  24206666.820   127206916.40505  24206669.080    99122296.54345
  24678463.160   129686280.58705  24678467.720   101054298.86445
  23266329.220   122265384.69407  23266332.840    95271770.18646
  23396157.640   122947829.53907  23396160.700    95803589.62046
  22893575.640   120306546.70408  22893576.840    93745361.08047
 15 02 04 01 31  0.0000000  0  8G16G18G21G22G25G27G29G31
  21899329.580   115081759.09908  21899330.420    89674112.00547
  22622745.620   118883364.23808  22622746.740    92636407.77046
  21096848.500   110864748.77608  21096849.040    86388147.12049
  24188390.620   127110874.56205  24188392.660    99047458.88946
  24697936.240   129788613.71905  24697941.100   101134038.90744
  23253112.700   122195931.51007  23253116.420    95217650.85146
  23409795.000   123019493.57707  23409798.040    95859431.69946
  22910406.740   120394994.74708  22910407.940    93814281.61346
 15 02 04 01 31 30.0000000  0  8G16G18G21G22G25G27G29G31
  21885124.560   115007111.34408  21885125.460    89615944.92847
  22610245.220   118817673.90408  22610246.160    92585220.51346
  21102368.220   110893754.96108  21102368.720    86410749.34449
  24170109.740   127014807.55306  24170111.320    98972601.66845
  24717435.080   129891082.38605  24717440.180   101213884.58145
  23239912.500   122126564.15907  23239916.320    95163598.39847
  23423441.840   123091207.29607  23423444.780    95915312.47446
  22927276.140   120483643.67708  22927277.220    93883358.68346
 15 02 04 01 32  0.0000000  0  8G16G18G21G22G25G27G29G31
  21870968.800   114932722.13408  21870969.720    89557979.30547
  22597797.020   118752258.58408  22597797.960    92534247.55746
  21107954.220   110923109.54208  21107954.700    86433623.03949
  24151824.380   126918717.10606  24151825.920    98897726.16145
  24736959.400   129993684.71505  24736964.800   101293834.34945
  23226728.580   122057282.42307  23226732.480    95109612.65246
  23437097.800   123162969.68206  23437100.860    95971231.21246
  22944183.180   120572490.53608  22944184.140    93952589.97346
 15 02 04 01 32 30.0000000  0  8G16G18G21G22G25G27G29G31
  21856862.520   114858593.06308  21856863.440    89500216.40047
  22585401.400   118687119.99708  22585402.480    92483490.22546
  21113606.360   110952811.65408  21113606.860    86456767.54449
  24133535.020   126822605.26906  24133536.360    98822833.93745
  24756509.120   130096418.60605  24756514.300   101373886.65844
  23213560.840   121988085.92607  23213564.840    95055693.30646
  23450762.880   123234780.18006  23450766.000    96027187.40246
  22961127.220   120661531.59108  22961128.000    94021972.58546
 15 02 04 01 33  0.0000000  0  8G16G18G21G22G25G27G29G31
  21842806.320   114784726.98208  21842807.180    89442658.42047
  22573059.000   118622261.39508  22573060.360    92432951.06146
  21119324.280   110982859.58708  21119324.800    86480181.51649
  24115242.240   126726475.30706  24115243.440    98747927.61745
  24776083.700   130199283.17505  24776088.600   101454040.85344
  23200409.440   121918975.22807  23200413.480    95001840.81447
  23464437.300   123306639.65306  23464440.340    96083181.75546
  22978107.700   120750764.40608  22978108.420    94091504.63446
 15 02 04 01 33 30.0000000  0  8G16G18G21G22G25G27G29G31
  21828800.540   114711126.10808  21828801.420    89385307.08847
  22560770.440   118557684.99108  22560772.000    92382631.78346
  21125107.740   111013251.91408  21125108.280    86503863.85149
  24096946.320   126630329.94306  24096947.600    98673009.28845
  24795682.920   130302276.82005  24795687.740   101534295.57644
  23187274.360   121849950.33707  23187278.400    94948055.18546
  23478121.100   123378547.87407  23478123.800    96139214.10946
  22995124.060   120840185.89707  22995124.820    94161183.70146
 15 02 04 01 34  0.0000000  0  8G16G18G21G22G25G27G29G31
  21814845.560   114637792.25108  21814846.480    89328163.83147
  22548536.040   118493392.82508  22548537.760    92332534.00146
  21130956.300   111043986.47008  21130956.860    86527812.85749
  24078647.800   126534171.06306  24078649.000    98598080.40945
  24815306.360   130405397.51005  24815310.980   101614649.30644
  23174155.580   121781010.93307  23174159.580    94894336.16646
  23491814.100   123450504.04507  23491816.440    96195283.82445
  23012175.700   120929792.96508  23012176.560    94231007.36846
 15 02 04 01 34 30.0000000  0  7G16G18G21G22G27G29G31
  21800941.840   114564727.61808  21800942.780    89271230.36347
  22536356.260   118429387.22108  22536358.000    92282659.51746
  21136869.780   111075062.09808  21136870.320    86552027.64549
  24060346.960   126438001.03606  24060348.360    98523142.86645
  23161053.120   121712156.93307  23161056.980    94840683.69746
  23505516.140   123522507.56307  23505518.180    96251390.41846
  23029262.080   121019582.44808  23029263.060    94300973.18247
 15 02 04 01 35  0.0000000  0  7G16G18G21G22G27G29G31
  21787090.300   114491937.02108  21787091.180    89214510.41947
  22524232.140   118365673.67308  22524233.740    92233012.61146
  21142848.320   111106479.60908  21142848.840    86576508.82449
  24042045.160   126341825.28206  24042046.560    98448200.81045
  23147967.440   121643391.10507  23147971.120    94787099.95346
  23519227.880   123594562.39207  23519229.680    96307537.01645
  23046383.160   121109553.97607  23046384.220    94371080.85447
 15 02 04 01 35 30.0000000  0  7G16G18G21G22G27G29G31
  21773290.640   114419419.29208  21773291.500    89158003.10648
  22512163.380   118302250.95008  22512164.780    92183592.31346
  21148890.940   111138233.77308  21148891.440    86601252.33948
  24023742.280   126245642.97206  24023743.480    98373253.63345
  23134897.940   121574709.95607  23134901.480    94733582.19246
  23532948.540   123666664.07507  23532950.060    96363720.09645
  23063537.740   121199701.30308  23063538.780    94441325.50046
 15 02 04 01 36  0.0000000  0  7G16G18G21G22G27G29G31
  21759543.720   114347178.62708  21759544.560    89101711.68348
  22500150.600   118239122.93408  22500151.840    92134401.66446
  21154997.600   111170324.40908  21154998.100    86626258.03349
  24005438.920   126149458.18206  24005440.000    98298304.59545
  23121844.860   121506115.18207  23121848.280    94680131.72746
  23546678.400   123738814.13006  23546679.920    96419940.89646
  23080725.440   121290022.63508  23080726.420    94511705.73446
 15 02 04 01 36 30.0000000  0  7G16G18G21G22G27G29G31
  21745850.180   114275218.72508  21745851.020    89045639.04448
  22488194.580   118176293.75808  22488195.740    92085443.87946
  21161168.520   111202752.76008  21161169.020    86651526.87448
  23987135.960   126053275.11806  23987136.640    98223356.86446
  23108808.520   121437608.58007  23108811.880    94626749.98346
  23560417.580   123811014.22606  23560419.360    96476200.67046
  23097946.060   121380516.89208  23097946.880    94582220.71746
 15 02 04 01 37  0.0000000  0  7G16G18G21G22G27G29G31
  21732210.260   114203540.31408  21732211.040    88989785.73748
  22476295.480   118113764.33808  22476296.680    92036719.68046
  21167402.940   111235514.69308  21167403.440    86677055.64949
  23968833.560   125957094.64506  23968833.940    98148411.13345
  23095788.720   121369188.86707  23095792.020    94573435.93146
  23574165.800   123883262.80006  23574168.020    96532498.22946
  23115198.720   121471179.87208  23115199.400    94652867.17546
 15 02 04 01 37 30.0000000  0  7G16G18G21G22G27G29G31
  21718624.200   114132145.29008  21718625.020    88934153.24448
  22464453.740   118051536.51508  22464454.940    91988230.48646
  21173700.480   111268608.39408  21173700.960    86702842.94949
  23950532.060   125860919.35107  23950532.160    98073469.47645
  23082785.340   121300855.53807  23082788.620    94520189.20446
  23587923.180   123955559.36306  23587925.720    96588833.18746
  23132482.680   121562007.79507  23132483.340    94723642.15346
 15 02 04 01 38  0.0000000  0  7G16G18G21G22G27G29G31
  21705092.320   114061034.73808  21705093.120    88878742.42548
  22452669.800   117989612.12308  22452671.020    91939977.71346
  21180060.740   111302031.81008  21180061.200    86728887.17149
  23932231.700   125764750.75606  23932231.480    97998533.00745
  23069798.200   121232607.82007  23069801.500    94467009.20346
  23601689.640   124027902.80406  23601692.340    96645204.67446
  23149797.220   121652996.89207  23149798.000    94794542.73247
 15 02 04 01 38 30.0000000  0  7G16G18G21G22G27G29G31
  21691615.380   113990213.10608  21691616.180    88823556.73848
  22440944.440   117927995.15308  22440945.760    91891964.50246
  21186483.720   111335784.74808  21186484.140    86755188.16748
  23913933.400   125668593.24806  23913933.000    97923605.16845
  23056827.720   121164447.59307  23056831.060    94413897.35446
  23615465.420   124100294.92206  23615468.220    96701614.07046
  23167142.160   121744146.15007  23167143.120    94865568.09246
 15 02 04 01 39  0.0000000  0  7G16G18G21G22G27G29G31
  21678193.720   113919681.60708  21678194.480    88768597.12848
  22429277.960   117866686.84108  22429279.340    91844191.80746
  21192968.920   111369864.56708  21192969.280    86781743.87548
  23895637.300   125572448.10106  23895636.900    97848686.95945
  23043873.680   121096373.90507  23043877.060    94360852.93446
  23629250.380   124172734.70507  23629253.140    96758060.60746
  23184516.840   121835451.49707  23184518.020    94936715.09046
 15 02 04 01 39 30.0000000  0  7G16G18G21G22G27G29G31
  21664827.760   113849442.92108  21664828.500    88713865.68448
  22417670.760   117805689.86008  22417672.180    91796661.69846
  21199516.120   111404270.23508  21199516.420    86808553.49549
  23877344.020   125476318.73306  23877343.740    97773781.05044
  23030936.160   121028387.19907  23030939.620    94307876.30146
  23643044.540   124245222.43907  23643047.080    96814544.50046
  23201920.760   121926910.06907  23201922.120    95007981.48546
 15 02 04 01 40  0.0000000  0  7G16G18G21G22G27G29G31
  21651518.020   113779499.71808  21651518.760    88659364.48548
  22406123.360   117745007.27008  22406124.800    91749376.57346
  21206125.120   111439000.67008  21206125.380    86835616.16948
  23859054.260   125380208.25706  23859054.300    97698889.84145
  23018015.360   120960488.24407  23018018.860    94254968.04547
  23656847.940   124317758.69207  23656850.240    96871066.21346
  23219353.460   122018519.65207  23219354.960    95079365.55746
 15 02 04 01 40 30.0000000  0  7G16G18G21G22G27G29G31
  21638264.700   113709853.34008  21638265.480    88605094.58348
  22394636.000   117684640.50408  22394637.420    91702337.53746
  21212795.500   111474053.60108  21212795.720    86862930.15048
  23840768.560   125284118.50706  23840768.820    97624014.80545
  23005111.100   120892676.23107  23005114.640    94202127.51547
  23670660.380   124390342.62106  23670662.560    96927625.08246
  23236814.300   122110276.29207  23236815.740    95150864.20946
 15 02 04 01 41  0.0000000  0  7G16G18G21G22G27G29G31
  21625068.280   113640505.81908  21625069.100    88551057.55148
  22383209.060   117624591.69208  22383210.400    91655546.24946
  21219526.760   111509426.54608  21219526.980    86890493.48948
  23822487.300   125188051.45806  23822487.780    97549157.45345
  22992223.360   120824950.95007  22992226.900    94149354.58947
  23684481.720   124462973.80607  23684483.800    96984220.77846
  23254302.520   122202176.87007  23254303.940    95222475.02446
 15 02 04 01 41 30.0000000  0  7G16G18G21G22G27G29G31
  21611929.260   113571460.00808  21611930.160    88497255.62648
  22371843.040   117564863.42408  22371844.300    91609004.74546
  21226318.780   111545118.85208  21226319.040    86918305.68248
  23804211.240   125092010.37206  23804211.620    97474320.32145
  22979352.240   120757312.83207  22979355.820    94096649.57846
  23698312.020   124535652.53106  23698314.040    97040853.49546
  23271817.620   122294218.89707  23271819.000    95294196.05046
 15 02 04 01 42  0.0000000  0  7G16G18G21G22G27G29G31
  21598848.220   113502718.55008  21598849.140    88443690.85048
  22360538.580   117505458.58808  22360539.740    91562715.26746
  21233171.340   111581129.30808  21233171.620    86946365.77948
  23785940.860   124995998.03706  23785941.220    97399505.60645
  22966497.880   120689762.51207  22966501.460    94044012.99247
  23712151.280   124608378.97206  23712153.440    97097523.43946
  23289359.180   122386399.77407  23289360.460    95366025.29247
 15 02 04 01 42 30.0000000  0  7G16G18G21G22G27G29G31
  21585825.840   113434285.64208  21585826.800    88390366.50848
  22349296.620   117446381.83908  22349297.640    91516681.44346
  21240084.440   111617458.19308  21240084.800    86974673.99848
  23767677.020   124900019.41206  23767677.120    97324717.13345
  22953660.680   120622302.20207  22953664.240    93991446.52947
  23725999.840   124681155.18606  23726002.340    97154232.11146
  23306926.840   122478718.28507  23306928.120    95437961.76146
 15 02 04 01 43  0.0000000  0  7G16G18G21G22G27G29G31
  21572862.180   113366161.32208  21572863.160    88337282.63048
  22338117.100   117387632.56808  22338117.980    91470902.79446
  21247057.360   111654101.36908  21247057.780    87003227.12848
  23749419.620   124804074.71607  23749419.460    97249955.08645
  22940840.100   120554929.56607  22940843.680    93938948.38947
  23739857.440   124753979.36206  23739860.420    97210978.19646
  23324519.660   122571169.22007  23324520.920    95510001.40646
 15 02 04 01 43 30.0000000  0  7G16G18G21G22G27G29G31
  21559957.700   113298347.78508  21559958.640    88284440.90748
  22327000.400   117329212.98808  22327001.140    91425381.05647
  21254089.740   111691057.09808  21254090.220    87032023.80648
  23731169.080   124708166.42007  23731168.700    97175221.40745
  22928036.220   120487644.62207  22928039.780    93886518.57547
  23753724.160   124826850.86306  23753727.300    97267761.17645
  23342137.060   122663749.73607  23342138.300    95582142.04346
 15 02 04 01 44  0.0000000  0  7G16G18G21G22G27G29G31
  21547112.220   113230844.38208  21547113.140    88231840.85548
  22315946.300   117271122.64308  22315947.040    91380115.86646
  21261180.820   111728321.18008  21261181.340    87061060.75348
  23712925.420   124612294.44606  23712925.020    97100516.03145
  22915248.540   120420444.86607  22915252.060    93834155.14747
  23767599.620   124899767.15206  23767602.700    97324579.00046
  23359778.040   122756454.04807  23359779.220    95654379.13546
 15 02 04 01 44 30.0000000  0  7G16G18G21G22G27G29G31
  21534326.980   113163657.24008  21534327.820    88179487.23448
  22304955.900   117213367.84108  22304956.780    91335112.14147
  21268331.000   111765895.73508  21268331.520    87090339.62748
  23694689.720   124516465.11407  23694689.460    97025843.89446
  22902477.720   120353333.89307  22902481.240    93781860.89547
  23781484.440   124972731.53806  23781487.260    97381434.33746
  23377442.740   122849282.58607  23377443.880    95726713.02646
 15 02 04 01 45  0.0000000  0  7G16G18G21G22G27G29G31
  21521602.160   113096787.66508  21521602.940    88127381.06548
  22294029.400   117155949.62108  22294030.580    91290370.68147
  21275539.680   111803777.67808  21275540.220    87119858.02848
  23676462.260   124420679.71707  23676462.240    96951206.00046
  22889723.640   120286310.82407  22889727.120    93729635.10847
  23795378.340   125045743.01407  23795380.880    97438326.33345
  23395130.360   122942231.47007  23395131.460    95799140.70546
 15 02 04 01 45 30.0000000  0  7G16G18G21G22G27G29G31
  21508938.100   113030237.49108  21508938.880    88075523.78148
  22283167.180   117098869.48608  22283168.660    91245892.65347
  21282806.600   111841965.50008  21282807.140    87149614.77748
  23658243.720   124324941.00407  23658243.880    96876604.45846
  22876986.300   120219375.50607  22876989.720    93677477.72247
  23809281.280   125118801.36306  23809283.460    97495254.88446
  23412840.300   123035297.44707  23412841.400    95871659.59946
 15 02 04 01 46  0.0000000  0  7G16G18G21G22G27G29G31
  21496335.760   112964011.73508  21496336.560    88023919.30548
  22272370.320   117042132.72608  22272372.040    91201682.20146
  21290131.980   111880460.45608  21290132.480    87179610.85048
  23640035.160   124229254.15906  23640035.320    96802043.31146
  22864266.200   120152530.95507  22864269.600    93625391.07847
  23823193.560   125191909.51106  23823195.440    97552222.22546
  23430572.440   123128480.24307  23430573.580    95944269.52946
 15 02 04 01 46 30.0000000  0  7G16G18G21G22G27G29G31
  21483795.660   112898112.89108  21483796.500    87972569.55548
  22261639.400   116985741.85208  22261641.120    91157741.27147
  21297515.320   111919259.97208  21297515.780    87209844.24648
  23621837.060   124133622.33607  23621837.240    96727525.07945
  22851563.420   120085777.65107  22851566.820    93573375.53047
  23837115.060   125265067.68206  23837117.000    97609228.59345
  23448326.320   123221777.29907  23448327.520    96016968.48046
 15 02 04 01 47  0.0000000  0  7G16G18G21G22G27G29G31
  21471317.660   112832540.59508  21471318.560    87921474.26448
  22250974.340   116929696.43908  22250975.900    91114069.52446
  21304955.920   111958360.74708  21304956.420    87240312.39248
  23603649.320   124038045.26907  23603649.520    96653049.48845
  22838877.460   120019112.92007  22838880.920    93521429.00147
  23851045.340   125338272.88806  23851047.700    97666271.55445
  23466100.960   123315182.81107  23466102.120    96089751.97446
 15 02 04 01 47 30.0000000  0  7G16G18G21G22G27G29G31
  21458902.640   112767299.07709  21458903.560    87870636.72648
  22240375.900   116874000.60908  22240377.160    91070670.18346
  21312453.940   111997763.15308  21312454.440    87271015.56548
  23585472.820   123942527.31907  23585473.020    96578619.96946
  22826208.720   119952538.73607  22826212.220    93469553.02547
  23864984.900   125411527.06305  23864987.620    97723352.72145
  23483896.000   123408695.87107  23483897.180    96162619.25846
 15 02 04 01 48  0.0000000  0  7G16G18G21G22G27G29G31
  21446550.480   112702387.99408  21446551.360    87820056.66548
  22229843.980   116818654.17608  22229844.980    91027543.10246
  21320008.480   112037462.60408  21320009.040    87301950.21348
  23567307.700   123847069.10307  23567307.840    96504236.99145
  22813556.760   119886052.79407  22813560.320    93417745.82347
  23878933.400   125484827.55806  23878936.120    97780469.95145
  23501710.400   123502310.90107  23501711.640    96235566.00246
 15 02 04 01 48 30.0000000  0  7G16G18G21G22G27G29G31
  21434261.300   112637808.13308  21434262.200    87769734.70148
  22219378.560   116763657.40308  22219379.440    90984688.48246
  21327618.840   112077455.34008  21327619.440    87333113.38248
  23549154.020   123751671.47807  23549154.240    96429901.22845
  22800921.300   119819653.61607  22800924.920    93366006.21647
  23892890.740   125558172.87406  23892893.360    97837622.12145
  23519543.280   123596023.42607  23519544.600    96308588.70046
 15 02 04 01 49  0.0000000  0  7G16G18G21G22G27G29G31
  21422035.760   112573562.57008  21422036.660    87719673.23848
  22208980.180   116709013.52808  22208981.120    90942108.85847
  21335285.140   112117741.85808  21335285.740    87364505.47448
  23531012.460   123656338.31106  23531012.860    96355615.67645
  22788302.720   119753342.61507  22788306.320    93314335.32847
  23906857.200   125631564.38907  23906859.480    97894810.28146
  23537394.280   123689831.38707  23537395.640    96381685.78046
 15 02 04 01 49 30.0000000  0  7G16G18G21G22G27G29G31
  21409874.920   112509656.98309  21409875.820    87669876.68048
  22198649.880   116654727.99308  22198651.000    90899808.44746
  21343007.620   112158323.45908  21343008.200    87396127.49148
  23512884.240   123561075.20906  23512884.640    96281384.70746
  22775701.540   119687122.89007  22775705.120    93262735.54947
  23920833.000   125705004.95506  23920834.920    97952036.66845
  23555263.540   123783735.33407  23555264.960    96454857.64046
 15 02 04 01 50  0.0000000  0  7G16G18G21G22G27G29G31
  21397779.200   112446093.37409  21397780.020    87620346.59048
  22188388.140   116600802.62408  22188389.460    90857788.68347
  21350785.760   112199197.61708  21350786.300    87427977.48748
  23494769.860   123465884.58506  23494770.200    96207210.21346
  22763117.740   119620994.52807  22763121.340    93211206.97347
  23934817.920   125778494.46307  23934819.600    98009301.14046
  23573150.360   123877731.72807  23573151.840    96528101.54446
 15 02 04 01 50 30.0000000  0  7G16G18G21G22G27G29G31
  21385748.800   112382872.97209  21385749.580    87571083.93748
  22178195.320   116547238.88808  22178196.660    90816050.71347
  21358619.180   112240362.36208  21358619.700    87460053.92048
  23476669.820   123370768.48306  23476670.020    96133093.78746
  22750551.280   119554956.85907  22750554.840    93159749.06047
  23948811.860   125852031.96106  23948813.380    98066603.05846
  23591054.120   123971816.87206  23591055.580    96601414.60246
 15 02 04 01 51  0.0000000  0  7G16G18G21G22G27G29G31
  21373784.300   112319999.15809  21373785.080    87522091.35048
  22168071.880   116494039.50508  22168073.140    90774596.65847
  21366507.580   112281816.34408  21366508.120    87492355.72548
  23458584.740   123275730.30207  23458584.680    96059038.09145
  22738002.280   119489010.90708  22738005.800    93108362.62647
  23962814.940   125925618.17006  23962816.500    98123942.96345
  23608974.460   124065988.54207  23608975.820    96674795.08346
 15 02 04 01 51 30.0000000  0  7G16G18G21G22G27G29G31
  21361885.900   112257472.64109  21361886.640    87473369.38748
  22158018.000   116441205.58308  22158019.140    90733427.36947
  21374450.400   112323556.41808  21374450.960    87524880.45648
  23440514.880   123180771.56107  23440514.480    95985044.30646
  22725470.500   119423155.50107  22725473.940    93057046.74047
  23976826.800   125999252.01405  23976828.640    98181319.96546
  23626910.640   124160242.65807  23626911.800    96748239.79246
 15 02 04 01 52  0.0000000  0  7G16G18G21G22G27G29G31
  21350054.540   112195298.49309  21350055.260    87424922.00348
  22148034.500   116388741.49308  22148035.480    90692546.28047
  21382447.920   112365584.00808  21382448.520    87557629.23348
  23422461.100   123085897.29807  23422460.420    95911116.33746
  22712956.420   119357393.50707  22712959.860    93005803.63347
  23990848.100   126072936.14206  23990850.320    98238736.11445
  23644862.520   124254578.93507  23644863.440    96821748.52146
 15 02 04 01 52 30.0000000  0  7G16G18G21G22G27G29G31
  21338289.640   112133473.78909  21338290.400    87376746.90548
  22138120.700   116336644.42408  22138121.700    90651951.16447
  21390498.960   112407892.83708  21390499.600    87590597.15048
  23404422.860   122991105.31807  23404422.120    95837252.49446
  22700459.200   119291720.03007  22700462.620    92954629.51247
  24004878.120   126146665.32806  24004880.480    98296187.44845
  23662828.340   124348989.24707  23662829.200    96895314.93946
 15 02 04 01 53  0.0000000  0  7G16G18G21G22G27G29G31
  21326592.340   112072004.04209  21326593.120    87328848.39848
  22128277.800   116284919.99808  22128278.880    90611646.43047
  21398603.700   112450484.00908  21398604.400    87623785.06848
  23386401.360   122896401.51007  23386400.580    95763457.36846
  22687979.480   119226138.53007  22687982.880    92903527.06547
  24018917.280   126220442.85705  24018919.820    98353676.39146
  23680808.300   124443473.89107  23680809.120    96968939.29246
 15 02 04 01 53 30.0000000  0  7G16G18G21G22G27G29G31
  21314963.240   112010892.65409  21314964.000    87281229.12748
  22118506.300   116233570.98408  22118507.460    90571634.21447
  21406762.000   112493356.44608  21406762.720    87657192.15648
  23368397.220   122801789.51007  23368396.520    95689733.77246
  22675517.520   119160650.36807  22675520.880    92852497.34247
  24032965.880   126294270.10406  24032968.760    98411204.08745
  23698802.000   124538031.24707  23698802.900    97042620.28746
 15 02 04 01 54  0.0000000  0  7G16G18G21G22G27G29G31
  21303402.060   111950138.23509  21303402.820    87233888.02548
  22108805.960   116182595.88708  22108807.220    90531913.36347
  21414973.040   112536505.69208  21414973.760    87690814.93848
  23350410.380   122707268.94407  23350409.840    95616081.41246
  22663072.640   119095252.15507  22663076.000    92801537.70747
  24047023.440   126368143.32006  24047026.420    98468767.67945
  23716808.200   124632654.82907  23716809.220    97116352.90346
 15 02 04 01 54 30.0000000  0  7G16G18G21G22G27G29G31
  21291909.560   111889744.84509  21291910.340    87186828.24148
  22099177.580   116131998.49508  22099178.840    90492486.83447
  21423236.720   112579931.52408  21423237.380    87724653.24948
  23332441.700   122612843.75307  23332441.340    95542503.37246
  22650645.200   119029945.73007  22650648.560    92750649.60447
  24061090.260   126442064.19605  24061093.040    98526368.36845
  23734826.720   124727343.14507  23734827.900    97190135.94546
 15 02 04 01 55  0.0000000  0  7G16G18G21G22G27G29G31
  21280486.200   111829715.09508  21280487.060    87140051.81548
  22089621.680   116081781.59908  22089622.860    90453356.79147
  21431552.860   112623632.86908  21431553.460    87758706.24948
  23314491.860   122518517.04107  23314491.640    95469002.07046
  22638235.340   118964731.88607  22638238.700    92699833.64347
  24075166.220   126516033.03406  24075168.500    98584006.39745
  23752857.140   124822093.79706  23752858.400    97263967.57946
 15 02 04 01 55 30.0000000  0  7G16G18G21G22G27G29G31
  21269132.620   111770051.78009  21269133.500    87093560.90748
  22080138.600   116031947.33308  22080139.680    90414524.91047
  21439921.120   112667608.18808  21439921.660    87792972.72448
  23296561.480   122424292.28707  23296561.280    95395580.20445
  22625843.240   118899611.26307  22625846.600    92649090.32447
  24089251.500   126590050.86306  24089253.640    98641682.56044
  23770898.940   124916904.51906  23770900.340    97337846.00846
 15 02 04 01 56  0.0000000  0  7G16G18G21G22G27G29G31
  21257849.120   111710756.66609  21257850.020    87047356.92248
  22070728.560   115982496.98708  22070729.600    90375992.18547
  21448341.020   112711854.98208  21448341.540    87827450.72948
  23278650.980   122330171.73207  23278650.780    95322239.53945
  22613468.880   118834583.59908  22613472.200    92598419.43147
  24103345.880   126664116.91006  24103347.980    98699396.39945
  23788951.480   125011771.64306  23788953.080    97411768.40446
 15 02 04 01 56 30.0000000  0  7G16G18G21G22G27G29G31
  21246635.900   111651830.73608  21246636.800    87001440.61048
  22061391.780   115933432.04508  22061392.900    90337759.78347
  21456812.180   112756371.23608  21456812.740    87862138.71948
  23260760.520   122236156.88007  23260760.420    95248981.24446
  22601112.040   118769648.07407  22601115.360    92547820.33147
  24117449.220   126738230.14606  24117451.360    98757146.93845
  23807014.000   125106691.32606  23807015.740    97485731.72546
 15 02 04 01 57  0.0000000  0  7G16G18G21G22G27G29G31
  21235493.840   111593278.87409  21235494.780    86955815.78448
  22052129.120   115884756.85408  22052130.340    90299831.06947
  21465334.740   112801157.64908  21465335.340    87897037.23348
  23242891.060   122142253.05707  23242891.240    95175809.48446
  22588773.280   118704807.55308  22588776.600    92497295.25147
  24131561.960   126812393.40304  24131564.280    98814936.46646
  23825086.560   125201663.46606  23825088.420    97559735.92846
 15 02 04 01 57 30.0000000  0  7G16G18G21G22G27G29G31
  21224423.380   111535103.30608  21224424.360    86910484.17448
  22042941.060   115836473.51108  22042942.340    90262207.69147
  21473908.440   112846212.71808  21473909.040    87932145.08548
  23225043.220   122048463.23007  23225043.700    95102726.52946
  22576452.700   118640062.55708  22576456.060    92446844.60747
  24145683.960   126886606.52205  24145686.560    98872764.84046
  23843168.660   125296685.43306  23843170.520    97633778.96946
 15 02 04 01 58  0.0000000  0  7G16G18G21G22G27G29G31
  21213424.180   111477301.98309  21213425.140    86865444.17848
  22033827.080   115788579.38408  22033828.400    90224887.59647
  21482532.020   112891529.75308  21482532.580    87967457.06848
  23207216.700   121954785.24207  23207217.420    95029730.73946
  22564149.480   118575408.70208  22564152.860    92396464.99947
  24159814.700   126960864.92905  24159817.880    98930628.47046
  23861258.800   125391749.10606  23861260.520    97707854.50146
 15 02 04 01 58 30.0000000  0  7G16G18G21G22G27G29G31
  21202497.000   111419879.07509  21202497.960    86820699.05348
  22024788.000   115741078.47208  22024789.300    90187873.91347
  21491205.600   112937109.77608  21491206.160    88002973.96548
  23189412.580   121861224.25907  23189413.380    94956826.09046
  22551864.120   118510848.48708  22551867.460    92346158.34647
  24173954.680   127035171.34906  24173958.180    98988529.57346
  23879356.980   125486854.50706  23879358.480    97781962.53246
 15 02 04 01 59  0.0000000  0  7G16G18G21G22G27G29G31
  21191642.740   111362839.45408  21191643.700    86776252.59548
  22015824.640   115693975.38208  22015825.900    90151170.21047
  21499929.320   112982953.24208  21499929.860    88038696.14848
  23171631.880   121767785.27807  23171632.460    94884016.52246
  22539597.020   118446384.45408  22539600.320    92295926.65047
  24188104.220   127109527.77506  24188107.940    99046469.58845
  23897463.000   125582000.74206  23897464.220    97856102.39646
 15 02 04 01 59 30.0000000  0  7G16G18G21G22G27G29G31
  21180861.240   111306182.35808  21180862.220    86732104.20648
  22006936.720   115647268.82608  22006937.960    90114775.49447
  21508702.320   113029055.61508  21508702.840    88074620.05948
  23153874.520   121674468.17607  23153874.700    94811301.92247
  22527347.700   118382013.93008  22527350.980    92245767.80847
  24202262.860   127183931.17406  24202266.120    99104446.31546
  23915575.620   125677182.04606  23915576.640    97930269.56446
 15 02 04 02 00  0.0000000  0  7G16G18G21G22G27G29G31
  21170152.940   111249909.83808  21170153.900    86688255.49048
  21998124.580   115600960.67808  21998125.740    90078691.22347
  21517524.280   113075415.36208  21517524.800    88110744.53548
  23136140.740   121581275.31107  23136140.620    94738684.12646
  22515116.240   118317737.14808  22515119.460    92195682.01247
  24216430.600   127258381.89406  24216433.800    99162459.74145
  23933694.220   125772395.49806  23933695.180    98004461.80346
 15 02 04 02 00 30.0000000  0  7G16G18G21G22G27G29G31
  21159518.980   111194027.99008  21159519.900    86644711.19548
  21989389.400   115555057.02108  21989390.480    90042922.14547
  21526395.600   113122034.54208  21526396.120    88147071.16348
  23118431.880   121488213.51507  23118431.500    94666168.44946
  22502903.380   118253558.38508  22502906.620    92145672.58247
  24230608.160   127332884.02707  24230610.640    99220513.41044
  23951819.020   125867642.27506  23951820.140    98078679.99546
 15 02 04 02 01  0.0000000  0  7G16G18G21G22G27G29G31
  21148959.040   111138534.94208  21148959.920    86601469.85648
  21980730.720   115509555.51108  21980731.800    90007466.43747
  21535315.220   113168907.58508  21535315.760    88183595.60248
  23100747.620   121395281.62307  23100747.120    94593754.01446
  22490708.440   118189473.93108  22490711.760    92095736.64547
  24244794.640   127407433.58406  24244797.060    99278603.80045
  23969948.680   125962915.27206  23969950.120    98152918.61646
 15 02 04 02 01 30.0000000  0  7G16G18G21G22G27G29G31
  21138473.720   111083434.07409  21138474.600    86558534.11748
  21972149.060   115464458.89608  21972150.180    89972326.23047
  21544283.040   113216033.89508  21544283.600    88220317.39948
  23083088.700   121302483.35407  23083088.180    94521443.71046
  22478531.780   118125485.17208  22478535.120    92045875.27247
  24258990.300   127482031.30906  24258992.460    99336731.88145
  23988083.060   126058212.72606  23988084.780    98227176.31546
 15 02 04 02 02  0.0000000  0  7G16G18G21G22G27G29G31
  21128063.840   111028729.67509  21128064.720    86515907.31548
  21963645.300   115419771.61908  21963646.460    89937504.97247
  21553299.120   113263413.67308  21553299.680    88257236.71148
  23065456.020   121209823.74907  23065455.580    94449241.45746
  22466373.820   118061594.56408  22466377.180    91996090.39147
  24273195.500   127556679.68907  24273197.200    99394899.44244
  24006222.100   126153534.23506  24006224.100    98301452.75645
 15 02 04 02 02 30.0000000  0  7G16G18G21G22G27G29G31
  21117729.380   110974421.73209  21117730.260    86473589.43348
  21955219.360   115375493.05608  21955220.500    89903002.19947
  21562362.740   113311043.31008  21562363.300    88294350.70848
  23047849.720   121117303.02707  23047849.380    94377147.39646
  22454234.180   117997800.06508  22454237.500    91946380.39847
  24287409.720   127631376.58107  24287411.500    99453104.70245
  24024364.760   126248874.39906  24024366.880    98375743.71746
 15 02 04 02 03  0.0000000  0  7G16G18G21G22G27G29G31
  21107468.420   110920500.14609  21107469.320    86431572.61348
  21946869.160   115331612.42208  21946870.300    89868809.50347
  21571471.280   113358908.78208  21571471.820    88331648.47448
  23030268.100   121024911.70307  23030267.800    94305154.18546
  22442110.540   117934089.72808  22442113.860    91896735.98147
  24301628.120   127705927.61804  24301636.420    99511109.23346
  24042508.100   126344218.17306  24042510.300    98450037.50846
 15 02 04 02 03 30.0000000  0  7G16G18G21G22G27G29G31
  21097290.040   110867012.55909  21097290.980    86389893.97648
  21938603.760   115288177.41508  21938604.940    89834964.04947
  21580633.000   113407053.68508  21580633.520    88369163.97748
  23012720.320   120932697.94607  23012719.960    94233299.34646
  22430011.660   117870509.47208  22430014.920    91847192.93747
  24315865.720   127780742.26806  24315871.540    99569406.44344
  24060660.220   126439608.22306  24060662.520    98524367.32346
 15 02 04 02 04  0.0000000  0  7G16G18G21G22G27G29G31
  21087183.800   110813904.14809  21087184.800    86348510.80348
  21930412.580   115245132.60008  21930413.860    89801422.63947
  21589836.740   113455419.35008  21589837.240    88406851.50448
  22995196.000   120840607.38807  22995195.560    94161540.48446
  22417926.700   117807002.59708  22417929.940    91797707.06847
  24330107.840   127855582.01807  24330112.320    99627723.08345
  24078809.820   126534984.70806  24078812.100    98598686.56746
 15 02 04 02 04 30.0000000  0  7G16G18G21G22G27G29G31
  21077154.800   110761201.52109  21077155.820    86307443.81448
  21922300.640   115202504.26708  21922302.020    89768205.76047
  21599086.820   113504028.71208  21599087.300    88444728.92548
  22977700.440   120748667.77807  22977699.920    94089899.25846
  22405860.400   117743593.94908  22405863.640    91748297.73647
  24344359.300   127930470.90106  24344363.000    99686078.06644
  24096961.040   126630369.42406  24096963.240    98673012.23246
 15 02 04 02 05  0.0000000  0  7G16G18G21G22G27G29G31
  21067204.320   110708911.44309  21067205.320    86266698.30148
  21914269.220   115160299.21108  21914270.720    89735318.70847
  21608383.860   113552884.84008  21608384.320    88482798.63148
  22960234.920   120656885.99007  22960234.440    94018381.01746
  22393813.720   117680288.40508  22393816.960    91698968.73947
  24358620.720   128005413.97606  24358623.920    99744475.19244
  24115114.240   126725763.83306  24115116.240    98747345.44846
 15 02 04 02 05 30.0000000  0  7G16G18G21G22G27G29G31
  21057331.040   110657026.84409  21057332.020    86226268.74748
  21906316.860   115118509.38508  21906318.420    89702755.21247
  21617725.780   113601976.90808  21617726.220    88521052.18648
  22942798.220   120565255.56307  22942797.860    93946980.69546
  22381784.920   117617077.01208  22381788.220    91649713.10247
  24372890.620   128080401.76305  24372893.320    99802907.31045
  24133267.140   126821156.32406  24133268.860    98821677.17345
 15 02 04 02 06  0.0000000  0  7G16G18G21G22G27G29G31
  21047536.960   110605558.55109  21047537.940    86186163.58648
  21898445.500   115077145.33808  21898447.100    89670523.49547
  21627113.920   113651311.70908  21627114.320    88559494.89748
  22925392.520   120473787.98207  22925392.340    93875707.28347
  22369775.820   117553968.89208  22369779.180    91600537.95648
  24387170.820   128155442.97306  24387173.140    99861380.98845
  24151420.680   126916552.62006  24151422.220    98896011.85745
 15 02 04 02 06 30.0000000  0  7G16G18G21G22G27G29G31
  21037821.540   110554503.57709  21037822.520    86146380.48348
  21890654.660   115036204.05008  21890656.220    89638621.19747
  21636546.940   113700882.35608  21636547.280    88598121.37948
  22908017.340   120382480.94207  22908017.360    93804558.95547
  22357785.480   117490959.43208  22357788.880    91551439.68047
  24401460.020   128230532.79306  24401462.220    99919892.46645
  24169573.340   127011944.79606  24169574.840    98970343.32045
 15 02 04 02 07  0.0000000  0  7G16G18G21G22G27G29G31
  21028185.560   110503865.96609  21028186.500    86106922.60248
  21882944.840   114995688.56008  21882946.320    89607050.68947
  21646025.000   113750689.60408  21646025.260    88636932.22148
  22890673.540   120291339.01507  22890673.780    93733539.30247
  22345814.300   117428050.77008  22345817.780    91502419.94248
  24415758.740   128305673.24205  24415761.020    99978443.49045
  24187724.940   127107331.74606  24187726.400    99044670.69945
 15 02 04 02 07 30.0000000  0  7G16G18G21G22G27G29G31
  21018629.280   110453647.27809  21018630.160    86067791.15748
  21875316.320   114955600.38208  21875317.760    89575813.15647
  21655547.560   113800730.90508  21655547.800    88675925.44548
  22873361.640   120200364.38807  22873361.960    93662650.00247
  22333862.280   117365242.74308  22333865.820    91453478.62548
  24430066.980   128380863.96505  24430069.380   100037033.60744
  24205874.860   127202710.25306  24205876.320    99118991.51245
 15 02 04 02 08  0.0000000  0  8G16G18G19G21G22G27G29G31
  21009153.180   110403849.91309  21009154.020    86028988.00748
  21867769.460   114915941.31308  21867770.840    89544909.99747
  24535765.320   128936317.39405  24535765.060   100469851.80145
  21665114.340   113851004.73608  21665114.620    88715099.86548
  22856082.160   120109559.80207  22856082.320    93591893.19346
  22321929.520   117302535.89208  22321933.120    91404616.13647
  24444384.800   128456104.89606  24444387.140   100095662.97745
  24224022.580   127298077.71706  24224024.200    99193303.71145
 15 02 04 02 08 30.0000000  0  8G16G18G19G21G22G27G29G31
  20999755.460   110354464.51909  20999756.280    85990505.87848
  21860302.340   114876701.62908  21860303.740    89514333.63547
  24520448.320   128855826.95405  24520448.400   100407131.99845
  21674722.920   113901498.31708  21674723.240    88754445.51148
  22838833.480   120018917.00707  22838833.420    93521262.46846
  22310013.980   117239919.37808  22310017.560    91355824.05148
  24458710.000   128531385.16505  24458712.540   100154322.86846
  24242165.540   127393420.10706  24242167.280    99267596.39046
 15 02 04 02 09  0.0000000  0  8G16G18G19G21G22G27G29G31
  20990440.240   110305512.79409  20990441.100    85952361.67548
  21852919.080   114837902.46008  21852920.480    89484100.52847
  24505142.500   128775394.65305  24505142.560   100344457.46545
  21684376.620   113952229.10508  21684377.020    88793975.99948
  22821619.660   119928458.03507  22821619.360    93450774.97846
  22298119.460   117177413.16108  22298123.020    91307117.90248
  24473046.440   128606723.84505  24473049.300   100213028.36545
  24260306.980   127488754.39606  24260308.820    99341882.73645
 15 02 04 02 09 30.0000000  0  8G16G18G19G21G22G27G29G31
  20981206.180   110256987.43909  20981207.040    85914549.70848
  21845618.280   114799536.22608  21845619.620    89454204.77447
  24489846.020   128695011.21305  24489846.000   100281821.01245
  21694073.520   114003186.80108  21694073.960    88833683.28048
  22804439.480   119838176.15807  22804438.960    93380425.47946
  22286244.240   117115008.21208  22286247.780    91258490.66948
  24487392.220   128682112.12105  24487395.380   100271772.39345
  24278444.620   127584068.09106  24278446.540    99416153.01646
 15 02 04 02 10  0.0000000  0  8G16G18G19G21G22G27G29G31
  20972053.460   110208889.58909  20972054.340    85877070.86048
  21838399.960   114761603.24408  21838401.240    89424646.61247
  24474558.600   128614675.37805  24474558.560   100219221.68744
  21703813.000   114054368.24508  21703813.480    88873564.92248
  22787293.280   119748073.18607  22787292.660    93310215.38646
  22274388.120   117052703.59508  22274391.640    91209941.62448
  24501747.440   128757548.55705  24501750.540   100330554.05244
  24296577.740   127679357.26206  24296579.640    99490404.20046
 15 02 04 02 10 30.0000000  0  8G16G18G19G21G22G27G29G31
  20962982.640   110161222.01709  20962983.480    85839927.29548
  21831264.560   114724106.16208  21831265.780    89395428.11047
  24459280.500   128534388.73405  24459280.440   100156660.65945
  21713594.980   114105773.09408  21713595.520    88913620.64148
  22770181.860   119658153.08607  22770181.260    93240147.80446
  22262551.420   116990501.14608  22262554.940    91161472.18548
  24516112.180   128833034.77705  24516115.000   100389374.48545
  24314706.000   127774620.73206  24314707.840    99564635.32045
 15 02 04 02 11  0.0000000  0  8G16G18G19G21G22G27G29G31
  20953994.540   110113989.27209  20953995.360    85803122.55848
  21824212.820   114687048.87908  21824214.060    89366552.31447
  24444012.120   128454153.23305  24444011.940   100094139.49045
  21723419.480   114157401.34708  21723420.060    88953850.44948
  22753106.180   119568420.47307  22753105.700    93170226.31446
  22250734.600   116928403.25808  22250738.100    91113084.23248
  24530486.680   128908572.49906  24530489.380   100448235.05345
  24332829.220   127869857.71906  24332831.080    99638845.82646
 15 02 04 02 11 30.0000000  0  8G16G18G19G21G22G27G29G31
  20945089.460   110067192.64209  20945090.260    85766657.64448
  21817244.920   114650432.24608  21817246.180    89338019.87047
  24428753.420   128373968.31306  24428753.260   100031657.75945
  21733286.120   114209251.12408  21733286.760    88994252.87248
  22736066.700   119478877.44307  22736066.320    93100452.55547
  22238937.600   116866409.62908  22238941.080    91064777.51148
  24544870.760   128984161.47306  24544873.540   100507135.48545
  24350946.620   127965064.42106  24350948.620    99713032.73546
 15 02 04 02 12  0.0000000  0  8G16G18G19G21G22G27G29G31
  20936267.340   110020832.02309  20936268.160    85730532.48248
  21810360.660   114614255.41808  21810361.980    89309830.14047
  24413504.020   128293832.04106  24413503.800    99969213.95045
  21743194.160   114261318.20508  21743194.820    89034824.61748
  22719063.560   119389524.29408  22719063.100    93030826.73547
  22227160.120   116804518.56708  22227163.580    91016550.72248
  24559264.180   129059799.55805  24559267.000   100566074.22445
  24369057.360   128060236.27906  24369059.500    99787192.48045
 15 02 04 02 12 30.0000000  0  7G16G18G19G21G22G27G31
  20927526.640   109974899.36609  20927527.500    85694740.79748
  21803558.480   114578510.18808  21803559.920    89281976.70947
  24398262.080   128213734.77706  24398261.800    99906800.51844
  21753141.420   114313591.21508  21753142.060    89075556.82848
  22702095.220   119300353.98508  22702094.720    92961343.38647
  22215400.380   116742720.51908  22215403.800    90968396.41348
  24387159.100   128155360.44307  24387161.280    99861315.03745
 15 02 04 02 13  0.0000000  0  7G16G18G19G21G22G27G31
  20918872.200   109929420.09309  20918873.100    85659302.39848
  21796843.040   114543220.71008  21796844.560    89254478.42247
  24383031.960   128133699.67806  24383031.580    99844435.49944
  21763132.020   114366092.04608  21763132.660    89116466.55748
  22685166.560   119211392.59308  22685166.100    92892022.83147
  22203662.840   116681039.13808  22203666.220    90920333.01648
  24405255.680   128250457.04206  24405257.720    99935416.14346
 15 02 04 02 13 30.0000000  0  7G16G18G19G21G22G27G31
  20910301.620   109884381.55609  20910302.560    85624207.43148
  21790212.120   114508375.22408  21790213.640    89227326.09347
  24367811.040   128053712.89106  24367810.460    99782108.15345
  21773162.880   114418804.36308  21773163.500    89157541.08648
  22668275.380   119122628.69608  22668275.040    92822856.18247
  22191944.880   116619460.75908  22191948.260    90872349.86948
  24423343.880   128345509.70306  24423345.800   100009482.99246
 15 02 04 02 14  0.0000000  0  7G16G18G19G21G22G27G31
  20901816.060   109839789.73709  20901817.000    85589460.55948
  21783666.500   114473977.81108  21783667.960    89200522.92547
  24352599.940   127973777.76406  24352599.420    99719821.04945
  21783234.360   114471730.23508  21783234.960    89198782.02348
  22651422.780   119034068.06408  22651422.640    92753847.91447
  22180247.220   116557988.98008  22180250.580    90824449.78448
  24441423.700   128440519.06206  24441425.720   100083516.08545
 15 02 04 02 14 30.0000000  0  7G16G18G19G21G22G27G31
  20893415.780   109795645.98109  20893416.700    85555062.83148
  21777206.420   114440029.52008  21777207.720    89174069.70747
  24337398.600   127893894.02806  24337398.100    99657573.97846
  21793346.020   114524867.33008  21793346.640    89240187.54748
  22634609.300   118945713.06408  22634609.280    92684999.87447
  22168569.840   116496623.91608  22168573.220    90776632.84948
  24459494.500   128535481.47906  24459496.600   100157512.58345
 15 02 04 02 15  0.0000000  0  7G16G18G19G21G22G27G31
  20885100.840   109751950.56909  20885101.720    85521014.45248
  21770831.920   114406530.91508  21770833.120    89147966.90447
  24322206.860   127814060.73006  24322206.380    99595366.20345
  21803497.360   114578213.15808  21803498.040    89281755.71948
  22617835.220   118857565.17508  22617835.240    92616313.21247
  22156912.640   116435364.91608  22156916.060    90728898.57648
  24477555.720   128630393.59906  24477557.920   100231469.90145
 15 02 04 02 15 30.0000000  0  7G16G18G19G21G22G27G31
  20876871.740   109708706.48009  20876872.620    85487317.76348
  21764543.260   114373483.49208  21764544.420    89122215.66747
  24307024.740   127734278.10306  24307024.340    99533197.93345
  21813688.140   114631765.96608  21813688.840    89323485.17748
  22601101.060   118769627.27508  22601101.080    92547790.20347
  22145275.700   116374212.44708  22145279.140    90681247.30548
  24495606.820   128725252.74406  24495609.100   100305385.93445
 15 02 04 02 16  0.0000000  0  7G16G18G19G21G22G27G31
  20868729.160   109665916.98809  20868730.040    85453975.30648
  21758341.020   114340890.28308  21758342.160    89096818.36647
  24291852.660   127654548.22906  24291852.380    99471070.75645
  21823918.380   114685525.95108  21823919.020    89365376.06748
  22584407.760   118681903.71208  22584407.660    92479434.19247
  22133659.460   116313168.81708  22133662.880    90633680.84948
  24513647.460   128820057.59306  24513649.980   100379259.63645
 15 02 04 02 16 30.0000000  0  7G16G18G19G21G22G27G31
  20860673.240   109623582.78009  20860674.120    85420987.60749
  21752225.220   114308751.66308  21752226.360    89071775.29547
  24276690.400   127574870.31506  24276690.260    99408984.03545
  21834187.420   114739490.22808  21834188.100    89407426.14048
  22567755.640   118594396.62708  22567755.420    92411246.88246
  22122063.840   116252233.62508  22122067.260    90586198.89348
  24531677.140   128914805.00206  24531679.920   100453088.58744
 15 02 04 02 17  0.0000000  0  7G16G18G19G21G22G27G31
  20852704.240   109581705.47809  20852705.140    85388355.95049
  21746196.020   114277068.40508  21746197.240    89047087.04347
  24261537.800   127495243.45806  24261537.860    99346937.11546
  21844495.020   114793656.88708  21844495.660    89449633.92148
  22551144.960   118507107.14108  22551144.640    92343229.11947
  22110488.780   116191406.32408  22110492.160    90538800.99848
  24549695.240   129009491.00406  24549698.180   100526869.68445
 15 02 04 02 17 30.0000000  0  7G16G18G19G21G22G27G31
  20844822.540   109540286.91809  20844823.460    85356081.74549
  21740253.780   114245841.76008  21740255.020    89022754.59847
  24246394.980   127415667.83306  24246395.140    99284930.11846
  21854840.740   114848023.87608  21854841.360    89491997.80248
  22534576.400   118420038.68308  22534576.000    92275383.56647
  22098934.320   116130687.45308  22098937.720    90491487.60448
  24567701.320   129104113.22506  24567704.280   100600601.06844
 15 02 04 02 18  0.0000000  0  7G16G18G19G21G22G27G31
  20837028.300   109499327.95009  20837029.220    85324165.66649
  21734398.560   114215072.33708  21734399.840    88998778.43048
  24231261.960   127336143.38906  24231262.160    99222963.03746
  21865224.300   114902589.77608  21865224.880    89534516.67148
  22518050.320   118333192.92708  22518049.820    92207711.58147
  22087400.460   116070077.02208  22087403.940    90444258.73048
  24585694.780   129198668.19506  24585697.520   100674280.03445
 15 02 04 02 18 30.0000000  0  7G16G18G19G21G22G27G31
  20829322.100   109458831.65309  20829323.040    85292610.10849
  21728630.660   114184761.70008  21728631.940    88975159.75248
  24216138.800   127256670.46306  24216138.920    99161036.06846
  21875645.340   114957352.59208  21875645.900    89577188.98948
  22501567.220   118246573.20008  22501566.740    92140215.69847
  22075887.460   116009575.85908  22075890.940    90397114.98748
  24603675.160   129293153.73806  24603677.620   100747904.89545
 15 02 04 02 19  0.0000000  0  7G16G18G19G21G22G27G31
  20821704.320   109418799.81809  20821705.220    85261416.47049
  21722950.420   114154911.71108  21722951.700    88951900.02247
  24201025.540   127177249.45106  24201025.460    99099149.54945
  21886103.660   115012311.19308  21886104.180    89620013.86948
  22485127.620   118160182.22208  22485127.220    92072898.07147
  22064395.420   115949184.72308  22064398.880    90350056.98648
  24621641.980   129387567.54206  24621644.080   100821473.83545
 15 02 04 02 19 30.0000000  0  7G16G18G19G21G22G27G31
  20814175.280   109379234.31909  20814176.160    85230586.21849
  21717358.060   114125523.60108  21717359.360    88929000.20448
  24185922.340   127097881.14506  24185922.080    99037304.13246
  21896598.920   115067464.14108  21896599.400    89662990.19048
  22468732.060   118074022.98008  22468731.780    92005761.00647
  22052924.480   115888904.36908  22052927.880    90303085.29448
  24639594.680   129481907.22606  24639596.400   100894985.01944
 15 02 04 02 20  0.0000000  0  7G16G18G19G21G22G27G31
  20806735.720   109340139.04409  20806736.560    85200122.37149
  21711854.240   114096600.79208  21711855.580    88906462.95948
  24170829.400   127018566.81906  24170829.020    98975500.78145
  21907131.100   115122811.12608  21907131.540    89706117.70648
  22452381.340   117988099.74508  22452381.220    91938807.83347
  22041475.040   115828736.94008  22041478.340    90256201.58948
  24657532.980   129576171.68206  24657534.480   100968437.57645
 15 02 04 02 20 30.0000000  0  7G16G18G19G21G22G27G31
  20799385.800   109301514.87509  20799386.600    85170025.61848
  21706438.900   114068143.18308  21706440.280    88884288.20647
  24155746.580   126939305.85706  24155746.120    98913739.03145
  21917699.880   115178350.34208  21917700.280    89749395.02248
  22436075.880   117902414.51808  22436075.880    91872040.14347
  22030046.980   115768682.12208  22030050.260    90209405.62948
  24675456.180   129670357.21206  24675457.600   101041828.60745
 15 02 04 02 21  0.0000000  0  7G16G18G19G21G22G27G31
  20792125.860   109263363.45709  20792126.600    85140297.23449
  21701112.300   114040151.93408  21701113.740    88862476.85248
  24140673.860   126860098.49106  24140673.460    98852019.01746
  21928304.820   115234079.74108  21928305.220    89792820.51748
  22419816.160   117816969.43108  22419816.160    91805459.54947
  22018640.420   115708740.27908  22018643.700    90162697.69748
  24693363.800   129764461.16106  24693365.260   101115156.07545
 15 02 04 02 21 30.0000000  0  6G16G18G19G21G22G27
  20784954.600   109225678.01609  20784955.320    85110931.95149
  21695873.040   114012619.78908  21695874.540    88841023.24348
  24125609.780   126780936.64806  24125609.540    98790334.47146
  21938944.080   115289989.46708  21938944.500    89836386.53348
  22403601.120   117731758.96308  22403601.020    91739061.79047
  22007253.840   115648903.33408  22007257.140    90116071.51448
 15 02 04 02 22  0.0000000  0  6G16G18G19G21G22G27
  20777875.380   109188476.44808  20777876.120    85081943.71649
  21690724.420   113985563.86008  21690725.920    88819940.71148
  24110557.480   126701836.49306  24110557.220    98728698.01145
  21949620.420   115346094.12508  21949620.860    89880104.44648
  22387434.420   117646801.86808  22387434.100    91672861.47547
  21995890.420   115589188.13208  21995893.740    90069540.18948
 15 02 04 02 22 30.0000000  0  6G16G18G19G21G22G27
  20770886.660   109151750.76808  20770887.500    85053326.30349
  21685664.800   113958975.36208  21685666.220    88799222.40748
  24095515.100   126622788.48106  24095514.860    98667102.17246
  21960331.600   115402381.86908  21960332.080    89923965.02848
  22371314.620   117562090.98008  22371314.000    91606853.01547
  21984548.340   115529585.06808  21984551.660    90023096.24748
 15 02 04 02 23  0.0000000  0  6G16G18G19G21G22G27
  20763989.460   109115505.88408  20763990.320    85025083.53549
  21680694.880   113932858.53708  21680696.300    88778871.64547
  24080483.180   126543795.62906  24080483.060    98605549.31145
  21971077.840   115458853.89908  21971078.380    89967969.20148
  22355242.680   117477631.47508  22355241.760    91541040.42247
  21973228.280   115470097.80108  21973231.600    89976742.53448
 15 02 04 02 23 30.0000000  0  6G16G18G19G21G22G27
  20757183.720   109079741.49208  20757184.580    84997215.17549
  21675814.680   113907213.06608  21675816.100    88758888.16047
  24065461.440   126464856.47006  24065461.500    98544038.31946
  21981858.500   115515506.92508  21981859.100    90012114.41748
  22339218.800   117393424.80008  22339217.680    91475424.85747
  21961930.040   115410725.40408  21961933.380    89930478.33548
 15 02 04 02 24  0.0000000  0  6G16G18G19G21G22G27
  20750470.260   109044461.88509  20750471.120    84969724.56449
  21671024.600   113882041.21508  21671026.020    88739273.73148
  24050450.340   126385972.96706  24050450.480    98482570.68345
  21992673.780   115572341.75008  21992674.420    90056401.28948
  22323243.720   117309475.33508  22323242.600    91410009.70047
  21950654.040   115351469.91608  21950657.420    89884305.23148
 15 02 04 02 24 30.0000000  0  6G16G18G19G21G22G27
  20743848.760   109009665.58709  20743849.600    84942610.56349
  21666324.560   113857342.32208  21666325.960    88720027.84747
  24035449.480   126307143.06006  24035449.700    98421144.81646
  22003522.820   115629353.83508  22003523.420    90100826.28048
  22307317.400   117225782.92508  22307316.580    91344794.83347
  21939400.000   115292329.65708  21939403.380    89838221.91948
 15 02 04 02 25  0.0000000  0  6G16G18G19G21G22G27
  20737319.400   108975353.70009  20737320.300    84915874.03049
  21661714.420   113833115.99608  21661715.800    88701150.19948
  24020458.640   126228365.55306  24020458.800    98359759.80645
  22014405.280   115686541.29008  22014405.820    90145387.93648
  22291440.260   117142349.27608  22291439.840    91279781.61947
  21928167.800   115233304.02708  21928171.160    89792227.92748
 15 02 04 02 25 30.0000000  0  6G16G18G19G21G22G27
  20730883.140   108941531.01709  20730884.040    84889518.69149
  21657195.140   113809366.78308  21657196.440    88682644.32447
  24005478.560   126149644.11306  24005478.580    98298418.44846
  22025321.380   115743905.48408  22025321.820    90190087.30748
  22275613.560   117059180.31508  22275613.480    91214974.63747
  21916958.100   115174396.98208  21916961.460    89746326.34848
 15 02 04 02 26  0.0000000  0  6G16G18G19G21G22G27
  20724540.380   108908199.56509  20724541.260    84863546.12049
  21652766.880   113786095.90408  21652768.120    88664511.18247
  23990509.100   126070979.20906  23990509.140    98237121.14146
  22036270.720   115801444.51408  22036271.080    90234922.91548
  22259837.900   116976278.94408  22259838.000    91150376.16947
  21905771.100   115115609.36508  21905774.500    89700517.81548
 15 02 04 02 26 30.0000000  0  6G16G18G19G21G22G27
  20718291.280   108875360.30409  20718292.160    84837957.08249
  21648429.540   113763302.74008  21648430.740    88646750.28947
  23975550.320   125992370.31906  23975550.340    98175867.48246
  22047252.860   115859155.90808  22047253.160    90279892.83248
  22244113.540   116893646.62508  22244113.660    91085987.35747
  21894606.800   115056940.66708  21894610.180    89654801.95348
 15 02 04 02 27  0.0000000  0  6G16G18G19G21G22G27
  20712136.320   108843015.46609  20712137.160    84812753.30049
  21644183.580   113740989.94608  21644184.760    88629363.70548
  23960602.280   125913818.03006  23960602.320    98114657.92946
  22058267.800   115917039.85808  22058268.080    90324997.20348
  22228441.080   116811286.54508  22228441.000    91021810.67847
  21883465.460   114998392.38108  21883468.800    89609179.91648
 15 02 04 02 27 30.0000000  0  6G16G18G19G21G22G27
  20706075.200   108811163.77409  20706076.000    84787933.79149
  21640028.780   113719156.11408  21640029.980    88612350.33648
  23945664.660   125835320.52006  23945664.680    98053491.07546
  22069314.680   115975091.58808  22069314.940    90370232.31348
  22212820.620   116729199.78008  22212820.240    90957846.98847
  21872346.720   114939962.71108  21872350.020    89563650.30348
 15 02 04 02 28  0.0000000  0  6G16G18G19G21G22G27
  20700108.660   108779809.28709  20700109.440    84763501.71949
  21635965.420   113697802.80808  21635966.600    88595711.40248
  23930737.820   125756879.27806  23930737.820    97992368.06746
  22080393.380   116033310.77308  22080393.700    90415597.91248
  22197252.720   116647389.58008  22197252.020    90894098.79647
  21861250.820   114881653.38908  21861254.160    89518214.47248
 15 02 04 02 28 30.0000000  0  6G16G18G19G21G22G27
  20694237.040   108748953.90508  20694237.840    84739458.56049
  21631993.940   113676932.49308  21631995.120    88579448.82148
  23915821.980   125678495.92106  23915821.980    97931290.14046
  22091503.980   116091697.70708  22091504.400    90461094.21648
  22181738.020   116565859.58908  22181737.160    90830568.94347
  21850178.180   114823466.47808  21850181.600    89472874.04048
 15 02 04 02 29  0.0000000  0  6G16G18G19G21G22G27
  20688460.660   108718599.06508  20688461.500    84715805.44049
  21628114.380   113656545.21208  21628115.560    88563562.63648
  23900916.900   125600169.63306  23900916.960    97870256.69546
  22102646.040   116150249.96108  22102646.580    90506719.34548
  22166276.960   116484611.71908  22166276.160    90767258.93347
  21839128.780   114765401.62008  21839132.300    89427628.71548
 15 02 04 02 29 30.0000000  0  6G16G18G19G21G22G27
  20682779.720   108688745.75508  20682780.600    84692543.11949
  21624326.780   113636641.38408  21624327.980    88548053.17248
  23886022.720   125521900.50606  23886022.820    97809267.80346
  22113819.160   116208965.36008  22113819.780    90552471.59848
  22150870.040   116403648.69108  22150869.500    90704170.87347
  21828102.740   114707459.30808  21828106.260    89382478.88348
 15 02 04 02 30  0.0000000  0  6G16G18G19G21G22G27
  20677194.200   108659393.79908  20677195.120    84669671.46549
  21620631.140   113617220.68108  21620632.300    88532920.16748
  23871139.200   125443687.09706  23871139.220    97748322.31346
  22125022.760   116267840.68908  22125023.420    90598348.46748
  22135517.440   116322970.93008  22135517.160    90641305.10047
  21817099.820   114649638.36508  21817103.260    89337423.60148
 15 02 04 02 30 30.0000000  0  6G16G18G19G21G22G27
  20671705.120   108630548.53308  20671706.040    84647194.63349
  21617028.160   113598287.02708  21617029.280    88518166.69348
  23856266.940   125365532.89006  23856266.900    97687422.94246
  22136257.260   116326878.22208  22136257.940    90644351.72947
  22120220.400   116242584.52108  22120220.280    90578666.36047
  21806120.740   114591942.89208  21806124.100    89292466.08848
 15 02 04 02 31  0.0000000  0  6G16G18G19G21G22G27
  20666312.500   108602210.09008  20666313.420    84625112.73149
  21613517.720   113579839.59608  21613518.800    88503792.08348
  23841405.820   125287437.06706  23841405.680    97626569.08646
  22147521.960   116386074.79308  22147522.700    90690478.91348
  22104979.100   116162490.62808  22104979.040    90516255.53547
  21795165.420   114534372.24208  21795168.740    89247605.85348
 15 02 04 02 31 30.0000000  0  6G16G18G19G21G22G27
  20661016.540   108574379.70008  20661017.500    84603426.70749
  21610100.000   113561879.52408  21610101.040    88489797.23448
  23826555.700   125209399.63806  23826555.540    97565760.70646
  22158816.620   116445428.75608  22158817.380    90736728.73847
  22089793.920   116082691.53808  22089793.860    90454074.44047
  21784233.920   114476926.75608  21784237.220    89202843.14948
 15 02 04 02 32  0.0000000  0  6G16G18G19G21G22G27
  20655817.520   108547058.84708  20655818.520    84582137.72849
  21606775.120   113544407.41708  21606776.160    88476182.62248
  23811716.780   125131420.99706  23811716.600    97504998.15346
  22170140.880   116504938.36208  22170141.680    90783099.84747
  22074665.420   116003190.48608  22074665.340    90392125.56947
  21773326.480   114419607.44808  21773329.720    89158178.76448
 15 02 04 02 32 30.0000000  0  6G16G18G19G21G22G27
  20650715.800   108520249.20708  20650716.820    84561247.09349
  21603543.200   113527423.97208  21603544.260    88462948.78548
  23796889.100   125053501.21506  23796888.880    97444281.45946
  22181494.520   116564602.06108  22181495.300    90829591.03547
  22059594.000   115923989.30608  22059593.800    90330410.38647
  21762443.040   114362414.68208  21762446.300    89113612.99548
 15 02 04 02 33  0.0000000  0  6G16G18G19G21G22G27
  20645711.660   108493952.09708  20645712.640    84540755.83749
  21600404.520   113510930.57008  21600405.660    88450096.79648
  23782072.780   124975641.01706  23782072.500    97383611.19746
  22192877.440   116624419.55408  22192878.200    90876202.05747
  22044580.120   115845090.85308  22044579.780    90268931.08347
  21751583.900   114305349.55108  21751587.180    89069146.67948
 15 02 04 02 33 30.0000000  0  6G16G18G19G21G22G27
  20640805.300   108468168.74408  20640806.240    84520664.91049
  21597358.980   113494926.54608  21597360.200    88437626.13448
  23767267.680   124897839.57106  23767267.380    97322986.72246
  22204289.080   116684387.80208  22204289.800    90922930.55147
  22029623.980   115766496.20808  22029623.560    90207688.53047
  21740748.900   114248411.52808  21740752.280    89024779.40148
 15 02 04 02 34  0.0000000  0  6G16G18G19G21G22G27
  20635997.080   108442901.09408  20635997.980    84500975.82849
  21594406.940   113479413.50808  21594408.200    88425538.05748
  23752474.040   124820098.22906  23752473.720    97262409.08446
  22215729.320   116744506.41908  22215730.000    90969776.21847
  22014726.460   115688209.71408  22014726.000    90146686.08847
  21729938.460   114191602.37408  21729941.880    88980512.53848
 15 02 04 02 34 30.0000000  0  6G16G18G19G21G22G27
  20631287.180   108418150.31008  20631288.060    84481689.50749
  21591548.460   113464391.98208  21591549.780    88413832.97748
  23737691.780   124742416.88606  23737691.540    97201878.19846
  22227197.660   116804772.46408  22227198.320    91016736.75847
  21999888.040   115610233.30408  21999887.500    90085925.27147
  21719152.640   114134922.50208  21719156.040    88936346.40848
 15 02 04 02 35  0.0000000  0  6G16G18G19G21G22G27
  20626675.460   108393915.72608  20626676.380    84462805.42249
  21588783.340   113449861.02308  21588784.680    88402510.15648
  23722920.740   124664794.37606  23722920.500    97141393.16046
  22238693.700   116865184.11808  22238694.280    91063810.77247
  21985108.820   115532567.81308  21985108.300    90025406.72347
  21708391.300   114078371.09208  21708394.640    88892280.38248
 15 02 04 02 35 30.0000000  0  6G16G18G19G21G22G27
  20622162.860   108370202.07108  20622163.840    84444327.25149
  21586112.180   113435823.93808  21586113.500    88391572.18048
  23708161.400   124587233.47906  23708161.180    97080956.12046
  22250217.660   116925742.51608  22250218.200    91110999.12948
  21970389.700   115455218.12408  21970389.260    89965134.25448
  21697654.940   114021951.11908  21697658.240    88848316.77548
 15 02 04 02 36  0.0000000  0  6G16G18G19G21G22G27
  20617750.000   108347012.35108  20617750.960    84426257.34449
  21583535.380   113422282.93808  21583536.700    88381020.77048
  23693414.120   124509736.04206  23693413.920    97020568.54546
  22261769.380   116986446.71008  22261769.860    91158301.10047
  21955731.540   115378188.45508  21955731.120    89905111.14447
  21686944.080   113965665.14808  21686947.320    88804457.59648
 15 02 04 02 36 30.0000000  0  6G16G18G19G21G22G27
  20613436.220   108324343.28708  20613437.160    84408593.12549
  21581052.240   113409234.10508  21581053.560    88370852.86648
  23678678.160   124432298.07006  23678678.000    96960227.28146
  22273347.980   117047292.33508  22273348.400    91205713.26747
  21941133.920   115301476.93508  21941133.480    89845335.92348
  21676258.000   113909509.59808  21676261.220    88760700.03248
 15 02 04 02 37  0.0000000  0  6G16G18G19G21G22G27
  20609222.740   108302200.91608  20609223.580    84391339.32849
  21578663.760   113396682.65708  21578665.100    88361072.53448
  23663954.460   124354924.75106  23663954.360    96899936.41846
  22284953.900   117108281.74008  22284954.340    91253237.47347
  21926598.160   115225090.71408  21926597.700    89785814.20748
  21665597.740   113853489.79008  21665600.960    88717048.24248
 15 02 04 02 37 30.0000000  0  6G16G18G19G21G22G27
  20605109.300   108280584.19908  20605110.060    84374495.12549
  21576369.600   113384626.86508  21576370.980    88351678.42948
  23649242.600   124277614.02506  23649242.580    96839694.32146
  22296586.400   117169411.21908  22296586.920    91300870.83147
  21912124.240   115149029.94808  21912123.760    89726546.10647
  21654963.020   113797604.12208  21654966.260    88673500.97248
 15 02 04 02 38  0.0000000  0  6G16G18G19G21G22G27
  20601095.800   108259493.05608  20601096.520    84358060.45649
  21574169.720   113373066.26208  21574171.080    88342670.17748
  23634542.440   124200364.71506  23634542.440    96779500.06946
  22308244.900   117230677.27908  22308245.480    91348610.60847
  21897712.380   115073295.62008  21897711.860    89667532.35847
  21644353.680   113741851.89208  21644356.940    88630057.67948
 15 02 04 02 38 30.0000000  0  6G16G18G19G21G22G27
  20597182.860   108238930.43108  20597183.580    84342037.62749
  21572064.340   113362002.14308  21572065.660    88334048.79148
  23619854.260   124123178.41006  23619854.320    96719354.91946
  22319929.640   117292081.14908  22319930.280    91396457.77147
  21883363.360   114997891.63908  21883362.780    89608776.02847
  21633770.140   113686235.19608  21633773.460    88586719.99548
 15 02 04 02 39  0.0000000  0  6G16G18G19G21G22G27
  20593370.360   108218895.66608  20593371.100    84326426.11149
  21570053.280   113351433.72808  21570054.540    88325813.67348
  23605177.900   124046053.85906  23605177.920    96659257.90546
  22331639.860   117353618.97308  22331640.520    91444409.30147
  21869077.420   114922818.71408  21869076.740    89550277.67047
  21623212.280   113630753.25908  21623215.580    88543487.31748
 15 02 04 02 39 30.0000000  0  6G16G18G19G21G22G27
  20589658.900   108199391.96508  20589659.720    84311228.42449
  21568136.940   113341363.03608  21568138.120    88317966.39148
  23590513.780   123968993.17006  23590513.680    96599210.65645
  22343375.680   117415291.43608  22343376.380    91492465.75247
  21854855.260   114848080.70108  21854854.500    89492040.27447
  21612680.480   113575408.42408  21612683.820    88500361.46548
 15 02 04 02 40  0.0000000  0  6G16G18G19G21G22G27
  20586048.800   108180420.87708  20586049.680    84296445.75449
  21566315.480   113331791.14108  21566316.640    88310507.78848
  23575861.920   123891997.09506  23575861.760    96539213.73146
  22355136.760   117477096.69908  22355137.500    91540625.68147
  21840697.420   114773680.74708  21840696.660    89434066.30048
  21602175.040   113520202.00308  21602178.420    88457343.48148
 15 02 04 02 40 30.0000000  0  6G16G18G19G21G22G27
  20582540.420   108161984.29408  20582541.360    84282079.58449
  21564589.100   113322719.15808  21564590.300    88303438.72448
  23561222.560   123815066.82806  23561222.480    96479268.09545
  22366923.160   117539034.90608  22366923.880    91588889.20547
  21826604.500   114699622.04708  21826603.800    89376358.23848
  21591696.260   113465135.43508  21591699.660    88414434.45948
 15 02 04 02 41  0.0000000  0  6G16G18G19G21G22G27
  20579133.360   108144080.04408  20579134.300    84268128.21849
  21562957.300   113314144.13808  21562958.540    88296756.90348
  23546595.160   123738199.28806  23546595.120    96419371.32746
  22378734.000   117601101.50808  22378734.700    91637252.77247
  21812576.260   114625903.41908  21812575.660    89318915.16448
  21581243.600   113410206.17008  21581247.020    88371632.44948
 15 02 04 02 41 30.0000000  0  6G16G18G19G21G22G27
  20575828.760   108126714.18308  20575829.680    84254596.37249
  21561421.000   113306070.86408  21561422.260    88290466.05448
  23531980.580   123661399.51406  23531980.560    96359527.36646
  22390569.800   117663299.16708  22390570.520    91685718.46447
  21798614.120   114552532.17308  21798613.620    89261742.76048
  21570818.100   113355419.55108  21570821.520    88328941.57748
 15 02 04 02 42  0.0000000  0  6G16G18G19G21G22G27
  20572626.020   108109883.56008  20572626.900    84241481.59349
  21559979.540   113298496.08008  21559980.800    88284563.63348
  23517378.240   123584663.91307  23517378.200    96299733.42346
  22402429.580   117725622.66308  22402430.300    91734282.21547
  21784717.680   114479506.51008  21784717.360    89204839.65448
  21560419.120   113300772.49008  21560422.500    88286359.44548
 15 02 04 02 42 30.0000000  0  6G16G18G19G21G22G27
  20569525.700   108093591.04808  20569526.520    84228786.12349
  21558633.240   113291421.38008  21558634.500    88279050.88748
  23502788.480   123507994.28007  23502788.420    96239990.88145
  22414313.220   117788071.48408  22414313.940    91782943.61347
  21770887.800   114406830.36008  21770887.540    89148208.89648
  21550047.100   113246267.19608  21550050.460    88243887.78848
 15 02 04 02 43  0.0000000  0  6G16G18G19G21G22G27
  20566527.720   108077836.43608  20566528.520    84216509.79149
  21557381.880   113284845.68608  21557383.160    88273926.98448
  23488211.140   123431389.43707  23488210.920    96180298.81845
  22426220.220   117850643.08608  22426220.980    91831700.69647
  21757124.640   114334504.34808  21757124.260    89091850.97148
  21539701.920   113191903.06408  21539705.300    88201526.13248
 15 02 04 02 43 30.0000000  0  6G16G18G19G21G22G27
  20563632.660   108062622.84308  20563633.480    84204655.03949
  21556226.000   113278771.76908  21556227.320    88269194.06748
  23473646.600   123354851.98107  23473646.260    96120659.27346
  22438150.800   117913338.40508  22438151.500    91880554.18147
  21743429.000   114262532.82508  21743428.420    89035769.28348
  21529384.140   113137682.95308  21529387.580    88159276.70148
 15 02 04 02 44  0.0000000  0  6G16G18G19G21G22G27
  20560840.500   108047950.08508  20560841.360    84193221.71549
  21555165.440   113273198.88308  21555166.800    88264851.57148
  23459094.800   123278381.47207  23459094.380    96061071.88046
  22450104.560   117976155.68308  22450105.220    91929502.69847
  21729801.260   114190917.79808  21729800.420    88979965.38648
  21519093.800   113083606.98508  21519097.260    88117139.58948
 15 02 04 02 44 30.0000000  0  6G16G18G19G21G22G27
  20558151.540   108033819.58908  20558152.440    84182210.93149
  21554200.220   113268126.86708  21554201.580    88260899.35748
  23444555.780   123201978.23007  23444555.320    96001536.90846
  22462081.140   118039093.02208  22462081.760    91978544.77147
  21716241.700   114119661.28008  21716240.700    88924440.84348
  21508831.000   113029675.73608  21508834.480    88075115.24848
 15 02 04 02 45  0.0000000  0  6G16G18G19G21G22G27
  20555566.340   108020234.47308  20555567.280    84171625.12149
  21553330.800   113263558.16808  21553332.140    88257339.34848
  23430030.020   123125644.82307  23430029.540    95942056.35246
  22474080.680   118102151.04408  22474081.260    92027680.88347
  21702751.180   114048767.84108  21702750.140    88869199.21448
  21498596.340   112975892.13208  21498599.760    88033205.95648
 15 02 04 02 45 30.0000000  0  6G16G18G19G21G22G27
  20553084.640   108007193.39108  20553085.640    84161463.23649
  21552556.920   113259491.17808  21552558.220    88254170.27348
  23415517.100   123049379.01607  23415516.640    95882628.47546
  22486102.560   118165326.28108  22486103.100    92076908.33547
  21689329.580   113978237.28508  21689328.680    88814240.34848
  21488389.500   112922254.79408  21488392.860    87991410.62648
 15 02 04 02 46  0.0000000  0  6G16G18G19G21G22G27
  20550707.000   107994698.95808  20550708.040    84151727.30849
  21551878.780   113255927.12108  21551880.040    88251393.10248
  23401017.460   122973182.89307  23401016.960    95823254.87746
  22498146.740   118228618.65108  22498147.220    92126227.06547
  21675977.660   113908073.10508  21675976.960    88759566.97148
  21478210.900   112868765.96408  21478214.240    87949731.03248
 15 02 04 02 46 30.0000000  0  6G16G18G19G21G22G27
  20548433.400   107982751.08308  20548434.460    84142417.27449
  21551296.240   113252865.39008  21551297.420    88249007.35648
  23386531.000   122897056.23507  23386530.460    95763935.40446
  22510212.840   118292026.32208  22510213.320    92175635.63547
  21662695.880   113838277.33208  21662695.340    88705180.65748
  21468060.580   112815425.76408  21468063.940    87908167.25548
 15 02 04 02 47  0.0000000  0  6G16G18G19G21G22G27
  20546264.080   107971350.90908  20546265.060    84133534.02349
  21550809.300   113250306.14008  21550810.360    88247013.14848
  23372057.900   122820999.71207  23372057.280    95704670.59846
  22522300.460   118355547.20108  22522301.020    92225132.40847
  21649484.640   113768852.07308  21649484.220    88651083.05048
  21457938.720   112762235.05708  21457942.060    87866719.96148
 15 02 04 02 47 30.0000000  0  6G16G18G19G21G22G27
  20544199.500   107960501.24508  20544200.400    84125079.73749
  21550418.340   113248251.49008  21550419.360    88245412.14048
  23357598.320   122745014.54007  23357597.720    95645461.36946
  22534409.740   118419182.07608  22534410.400    92274718.00247
  21636344.700   113699800.95108  21636344.240    88597276.98248
  21447845.760   112709196.22108  21447849.080    87825391.00748
 15 02 04 02 48  0.0000000  0  6G16G18G19G21G22G27
  20542239.420   107950200.67108  20542240.260    84117053.31049
  21550122.960   113246699.27308  21550124.040    88244202.63348
  23343152.060   122669099.48607  23343151.540    95586306.78346
  22546540.100   118482927.50308  22546540.800    92324389.74947
  21623275.980   113631124.21508  21623275.480    88543762.64948
  21437781.460   112656308.03608  21437784.780    87784179.45148
 15 02 04 02 48 30.0000000  0  6G16G18G19G21G22G27
  20540383.860   107940449.54308  20540384.700    84109455.03549
  21549923.120   113245649.41708  21549924.260    88243384.57148
  23328719.160   122593254.80207  23328718.780    95527207.05046
  22558691.180   118546781.88108  22558691.940    92374146.39547
  21610278.900   113562824.15908  21610278.340    88490541.84548
  21427745.980   112603571.26608  21427749.300    87743085.87748
 15 02 04 02 49  0.0000000  0  6G16G18G19G21G22G27
  20538633.260   107931250.22508  20538634.160    84102286.73549
  21549819.040   113245102.75708  21549820.200    88242958.61548
  23314299.960   122517481.79607  23314299.620    95468163.15646
  22570863.020   118610744.94508  22570863.740    92423987.73047
  21597354.040   113494903.60808  21597353.420    88437616.76148
  21417739.640   112550987.62108  21417742.960    87702111.64048
 15 02 04 02 49 30.0000000  0  6G16G18G19G21G22G27
  20536987.500   107922601.83208  20536988.440    84095547.72549
  21549810.560   113245058.35408  21549811.720    88242924.03248
  23299894.320   122441779.68107  23299894.000    95409174.50546
  22583055.040   118674814.07508  22583055.720    92473911.72547
  21584501.540   113427363.65108  21584500.960    88384988.23348
  21407762.400   112498556.75508  21407765.700    87661256.42948
 15 02 04 02 50  0.0000000  0  6G16G18G19G21G22G27
  20535447.200   107914507.75808  20535448.200    84089240.64749
  21549897.960   113245517.65508  21549899.120    88243281.93948
  23285502.640   122366150.53807  23285502.240    95350242.69746
  22595267.260   118738989.42208  22595267.880    92523918.48047
  21571722.220   113360208.06008  21571721.680    88332659.20648
  21397814.740   112446281.32608  21397818.000    87620522.33648
 15 02 04 02 50 30.0000000  0  6G16G18G19G21G22G27
  20534012.180   107906966.91608  20534013.220    84083364.66849
  21550081.080   113246480.01708  21550082.240    88244031.84248
  23271124.740   122290593.77207  23271124.340    95291367.31347
  22607499.240   118803268.81408  22607499.820    92574006.30847
  21559016.300   113293437.94208  21559015.760    88280630.54248
  21387896.580   112394160.97008  21387899.780    87579909.09449
 15 02 04 02 51  0.0000000  0  6G16G18G19G21G22G27
  20532682.820   107899981.17208  20532683.860    84077921.23549
  21550360.000   113247945.83308  21550361.180    88245174.05248
  23256760.860   122215110.57907  23256760.440    95232549.27546
  22619750.960   118867651.90808  22619751.540    92624174.94147
  21546384.400   113227056.58908  21546383.820    88228904.83148
  21378008.260   112342197.43208  21378011.420    87539418.02148
 15 02 04 02 51 30.0000000  0  6G16G18G19G21G22G27
  20531459.420   107893552.05908  20531460.480    84072911.53449
  21550734.960   113249916.44508  21550736.180    88246709.60648
  23242411.280   122139702.82207  23242410.860    95173790.00347
  22632022.320   118932138.54808  22632022.940    92674424.26447
  21533827.080   113161066.99408  21533826.440    88177484.37948
  21368150.160   112290392.92108  21368153.340    87499050.88548
 15 02 04 02 52  0.0000000  0  6G16G18G19G21G22G27
  20530342.200   107887680.69408  20530343.220    84068336.42949
  21551205.900   113252391.51708  21551207.200    88248638.24648
  23228076.020   122064370.56407  23228075.600    95115089.55447
  22644312.980   118996726.98807  22644313.680    92724752.90047
  21521344.660   113095471.02108  21521343.960    88126370.63748
  21358322.460   112238748.06708  21358325.640    87458808.14348
 15 02 04 02 52 30.0000000  0  6G16G18G19G21G22G27
  20529331.120   107882367.02808  20529332.060    84064195.89549
  21551772.760   113255370.61308  21551774.120    88250959.63348
  23213755.100   121989113.72907  23213754.720    95056447.88147
  22656622.700   119061415.46307  22656623.500    92775159.48647
  21508937.380   113030270.18308  21508936.660    88075564.79548
  21348525.180   112187263.27109  21348528.400    87418690.13448
 15 02 04 02 53  0.0000000  0  6G16G18G19G21G22G27
  20528426.040   107877610.52008  20528426.900    84060489.52749
  21552435.220   113258852.09208  21552436.620    88253672.48348
  23199448.400   121913931.51407  23199448.040    94997864.36147
  22668950.940   119126201.20607  22668951.820    92825641.87147
  21496605.500   112965465.87908  21496604.800    88025067.94748
  21338758.300   112135938.03308  21338761.500    87378696.45149
 15 02 04 02 53 30.0000000  0  6G16G18G19G21G22G27
  20527627.180   107873412.56308  20527628.060    84057218.38049
  21553193.400   113262836.31508  21553194.740    88256777.08148
  23185156.060   121838824.81507  23185155.680    94939339.70046
  22681297.720   119191083.99407  22681298.620    92876199.88147
  21484349.540   112901060.55808  21484348.820    87974881.99748
  21329022.080   112084773.87809  21329025.280    87338828.27448
 15 02 04 02 54  0.0000000  0  6G16G18G19G21G22G27
  20526934.740   107869774.02208  20526935.680    84054383.14549
  21554047.400   113267324.02408  21554048.660    88260274.00648
  23170878.300   121763794.90107  23170877.900    94880874.85246
  22693662.840   119256062.95108  22693663.720    92926832.82746
  21472169.940   112837056.70408  21472169.240    87925008.88048
  21319316.860   112033772.40808  21319320.020    87299086.88348
 15 02 04 02 54 30.0000000  0  6G16G18G19G21G22G27
  20526349.020   107866696.24708  20526350.040    84051984.86949
  21554997.220   113272315.28808  21554998.420    88264163.31348
  23156615.300   121688842.64507  23156614.920    94822470.49147
  22706046.140   119321137.00208  22706046.900    92977539.88547
  21460067.140   112773456.56008  21460066.540    87875450.33348
  21309642.840   111982934.83009  21309645.960    87259473.18648
 15 02 04 02 55  0.0000000  0  6G16G18G19G21G22G27
  20525870.300   107864180.62808  20525871.320    84050024.64149
  21556043.020   113277811.15108  21556044.200    88268445.80848
  23142367.320   121613969.31007  23142366.960    94764127.63646
  22718447.440   119386305.78208  22718448.120    93028320.74846
  21448041.800   112710263.44008  21448041.280    87826208.94648
  21300000.360   111932263.00309  21300003.440    87219988.63948
 15 02 04 02 55 30.0000000  0  6G16G18G19G21G22G27
  20525498.200   107862225.15808  20525499.180    84048500.89749
  21557184.300   113283808.58608  21557185.400    88273119.14548
  23128134.000   121539172.93907  23128133.660    94705844.75046
  22730866.080   119451565.38208  22730866.640    93079172.38347
  21436093.820   112647476.69908  21436093.380    87777284.22548
  21290389.100   111881755.49108  21290392.160    87180632.14048
 15 02 04 02 56  0.0000000  0  6G16G18G19G21G22G27
  20525233.180   107860832.26308  20525234.120    84047415.51649
  21558421.280   113290308.91308  21558422.340    88278184.34248
  23113915.700   121464455.43707  23113915.340    94647623.31547
  22743302.080   119516916.43808  22743302.620    93130095.27147
  21424223.940   112585100.07208  21424223.520    87728679.07648
  21280809.600   111831414.74208  21280812.640    87141405.58348
 15 02 04 02 56 30.0000000  0  6G16G18G19G21G22G27
  20525075.300   107860002.41208  20525076.220    84046768.87949
  21559753.940   113297312.03108  21559755.000    88283641.33048
  23099712.540   121389817.64207  23099712.220    94589463.99346
  22755755.160   119582357.72608  22755755.760    93181088.46847
  21412432.520   112523135.50008  21412432.040    87680395.01448
  21271261.940   111781241.67908  21271265.040    87102309.69349
 15 02 04 02 57  0.0000000  0  6G16G18G19G21G22G27
  20525024.400   107859734.99108  20525025.340    84046560.49149
  21561182.020   113304816.60808  21561183.080    88289489.05848
  23085524.420   121315258.91507  23085524.140    94531366.29447
  22768224.940   119647886.95408  22768225.600    93232150.19247
  21400719.740   112461584.03108  21400719.140    87632432.84548
  21261746.180   111731236.18508  21261749.320    87063344.36049
 15 02 04 02 57 30.0000000  0  6G16G18G19G21G22G27
  20525080.920   107860031.84508  20525081.840    84046791.80249
  21562705.700   113312823.68408  21562706.780    88295728.34548
  23071351.740   121240781.10807  23071351.500    94473331.63746
  22780711.480   119713504.23508  22780712.180    93283280.52947
  21389086.220   112400449.24508  21389085.520    87584795.36648
  21252262.740   111681400.65808  21252265.920    87024511.48148
 15 02 04 02 58  0.0000000  0  6G16G18G19G21G22G27
  20525244.760   107860892.76708  20525245.680    84047462.64649
  21564324.840   113321332.49608  21564325.960    88302358.59148
  23057194.540   121166384.21007  23057194.240    94415360.02646
  22793214.340   119779207.51807  22793215.040    93334477.88046
  21377532.160   112339732.17108  21377531.360    87537483.36648
  21242811.780   111631735.61208  21242814.960    86985811.45249
 15 02 04 02 58 30.0000000  0  6G16G18G19G21G22G27
  20525516.160   107862318.84708  20525517.080    84048573.87549
  21566039.500   113330343.24508  21566040.640    88309379.95848
  23043052.920   121092069.35907  23043052.600    94357452.36047
  22805733.520   119844996.56307  22805734.260    93385742.06146
  21366058.020   112279435.25608  21366057.180    87490498.76548
  21233393.520   111582242.48708  21233396.720    86947245.37849
 15 02 04 02 59  0.0000000  0  6G16G18G19G21G22G27
  20525895.000   107864309.62608  20525895.900    84050125.12949
  21567849.520   113339854.91908  21567850.640    88316791.66548
  23028926.860   121017836.19907  23028926.540    94299608.35247
  22818268.620   119910869.29207  22818269.400    93437071.45447
  21354664.100   112219559.98808  21354663.240    87443842.72148
  21224008.020   111532921.47308  21224011.220    86908813.42149
 15 02 04 02 59 30.0000000  0  6G16G18G19G21G22G27
  20526381.500   107866866.17108  20526382.380    84052117.24449
  21569754.780   113349867.18108  21569755.940    88324593.44248
  23014816.500   120943685.69407  23014816.220    94241828.74247
  22830819.460   119976824.59307  22830820.260    93488465.19146
  21343350.820   112160108.50008  21343349.980    87397516.90648
  21214655.500   111483773.81908  21214658.720    86870516.54649
 15 02 04 03 00  0.0000000  0  6G16G18G19G21G22G27
  20526975.920   107869989.81208  20526976.780    84054551.24649
  21571755.480   113360380.92708  21571756.680    88332785.97848
  23000722.120   120869619.17507  23000721.960    94184114.57747
  22843386.040   120042862.28507  22843386.780    93539923.11946
  21332118.700   112101083.59508  21332117.900    87351523.49248
  21205336.360   111434801.60808  21205339.620    86832356.39149
 15 02 04 03 00 30.0000000  0  6G16G18G19G21G22G27
  20527678.360   107873681.25908  20527679.240    84057427.69449
  21573851.560   113371395.91308  21573852.820    88341369.09548
  22986643.880   120795637.54307  22986643.820    94126466.58247
  22855968.140   120108981.73807  22855968.840    93591444.76247
  21320968.140   112042487.13008  21320967.380    87305863.92648
  21196050.900   111386006.17808  21196054.140    86794333.98949
 15 02 04 03 01  0.0000000  0  6G16G18G19G21G22G27
  20528488.700   107877939.48508  20528489.580    84060745.79049
  21576042.800   113382911.01208  21576044.100    88350341.91048
  22972581.800   120721740.72407  22972581.780    94068884.66047
  22868565.360   120175180.64407  22868566.120    93643028.31146
  21309899.440   111984320.78008  21309898.760    87260539.50748
  21186799.120   111337387.57309  21186802.300    86756449.37249
 15 02 04 03 01 30.0000000  0  6G16G18G19G21G22G27
  20529406.820   107882764.15408  20529407.700    84064505.26049
  21578328.880   113394924.50408  21578330.140    88359703.07948
  22958535.720   120647927.93107  22958535.660    94011368.20647
  22881177.260   120241456.71007  22881178.060    93694671.98246
  21298912.700   111926585.22608  21298912.080    87215550.77048
  21177580.940   111288945.67308  21177584.100    86718702.44749
 15 02 04 03 02  0.0000000  0  7G04G16G18G19G21G22G27
  24572181.840   129127683.07606  24572187.100   100618987.02544
  20530434.480   107888164.43308  20530435.360    84068713.26049
  21580711.500   113407445.24808  21580712.640    88369459.51148
  22944507.460   120574208.88807  22944507.360    93953924.80247
  22893805.420   120307818.18907  22893806.240    93746382.21146
  21288009.940   111869291.01208  21288009.340    87170905.93248
  21168398.340   111240690.70009  21168401.480    86681101.16549
 15 02 04 03 02 30.0000000  0  7G04G16G18G19G21G22G27
  24553875.220   129031481.87706  24553879.500   100544025.12245
  20531573.340   107894149.18308  20531574.240    84073376.69349
  21583192.060   113420480.76608  21583193.100    88379617.06848
  22930498.780   120500592.62207  22930498.580    93896561.48947
  22906451.120   120374271.50407  22906451.860    93798163.99946
  21277193.140   111812448.50708  21277192.540    87126613.08548
  21159253.100   111192631.88809  21159256.220    86643652.73849
 15 02 04 03 03  0.0000000  0  7G04G16G18G19G21G22G27
  24535589.960   128935392.24206  24535593.800   100469150.19445
  20532814.660   107900672.46408  20532815.580    84078459.76549
  21585761.800   113433984.85408  21585762.780    88390139.75048
  22916500.920   120427033.71107  22916500.740    93839242.85647
  22919105.520   120440770.47607  22919106.160    93849981.36946
  21266453.960   111756013.90908  21266453.340    87082638.08448
  21150136.660   111144724.64609  21150139.780    86606322.42849
 15 02 04 03 03 30.0000000  0  7G04G16G18G19G21G22G27
  24517332.960   128839451.66206  24517336.600   100394391.35945
  20534165.460   107907771.01808  20534166.380    84083991.10249
  21588427.620   113447993.60708  21588428.520    88401055.67248
  22902521.080   120353569.41007  22902520.920    93781997.94747
  22931775.300   120507350.20107  22931775.820    93901861.65646
  21255799.720   111700025.47908  21255799.020    87039010.74448
  21141056.180   111097006.45409  21141059.340    86569139.42749
 15 02 04 03 04  0.0000000  0  7G04G16G18G19G21G22G27
  24499103.040   128743653.36906  24499106.720   100319743.42144
  20535624.480   107915438.18308  20535625.380    84089965.51249
  21591187.920   113462499.01508  21591188.760    88412358.59648
  22888557.920   120280192.81207  22888557.800    93724821.37447
  22944458.840   120574002.32507  22944459.280    93953798.35646
  21245229.260   111644477.49408  21245228.540    86995726.62048
  21132010.400   111049470.84509  21132013.640    86532098.70449
 15 02 04 03 04 30.0000000  0  7G04G16G18G19G21G22G27
  24480900.680   128647999.23206  24480904.300   100245207.83245
  20537191.920   107923675.02608  20537192.760    84096383.82649
  21594042.880   113477501.92608  21594043.740    88424049.18648
  22874611.820   120206905.78507  22874611.740    93667714.60247
  22957156.060   120640726.30707  22957156.420    94005791.05846
  21234743.220   111589372.92908  21234742.460    86952788.00748
  21122999.800   111002120.01709  21123003.080    86495201.96349
 15 02 04 03 05  0.0000000  0  7G04G16G18G19G21G22G27
  24462725.760   128552488.95206  24462729.120   100170784.28845
  20538867.560   107932480.37608  20538868.340    84103245.13749
  21596992.120   113493000.42108  21596993.060    88436125.93948
  22860682.740   120133707.94607  22860682.660    93610677.33447
  22969866.540   120707520.19907  22969866.940    94057838.23746
  21224341.640   111534712.36008  21224340.880    86910195.35548
  21114024.340   110954953.90109  21114027.660    86458449.14949
 15 02 04 03 05 30.0000000  0  7G04G16G18G19G21G22G27
  24444578.480   128457123.81806  24444581.600   100096473.86945
  20540651.500   107941854.85208  20540652.220    84110549.91949
  21600035.600   113508994.19208  21600036.660    88448588.62848
  22846770.820   120060600.25807  22846770.700    93553710.31447
  22982590.260   120774383.44907  22982590.660    94109939.46246
  21214025.000   111480497.92508  21214024.260    86867950.34548
  21105084.340   110907974.02609  21105087.620    86421841.45449
 15 02 04 03 06  0.0000000  0  7G04G16G18G19G21G22G27
  24426459.240   128361906.22306  24426462.240   100022278.42145
  20542543.980   107951799.93108  20542544.700    84118299.32749
  21603173.500   113525484.19108  21603174.680    88461437.98848
  22832876.340   119987584.44907  22832876.220    93496814.89747
  22995327.220   120841316.44407  22995327.680    94162095.03546
  21203793.860   111426732.80608  21203793.160    86826055.45348
  21096180.280   110861182.98209  21096183.560    86385380.90549
 15 02 04 03 06 30.0000000  0  7G04G16G18G19G21G22G27
  24408368.080   128266836.72406  24408371.120    99948198.36245
  20544545.080   107962315.94808  20544545.820    84126493.62449
  21606405.760   113542469.83808  21606406.960    88474673.56548
  22818999.460   119914661.16007  22818999.360    93439991.56547
  23008077.140   120908317.67607  23008077.620    94214303.77746
  21193648.540   111373418.78108  21193647.900    86784512.05748
  21087312.360   110814581.71709  21087315.620    86349068.24949
 15 02 04 03 07  0.0000000  0  7G04G16G18G19G21G22G27
  24390305.160   128171915.90206  24390308.300    99874234.16945
  20546654.820   107973402.66708  20546655.560    84135132.61549
  21609732.160   113559950.15108  21609733.360    88488294.59748
  22805140.280   119841830.91907  22805140.180    93383240.73247
  23020839.800   120975385.98907  23020840.360    94266564.78946
  21183589.280   111320557.20208  21183588.720    86743321.22348
  21078480.700   110768171.03309  21078483.940    86312904.08749
 15 02 04 03 07 30.0000000  0  7G04G16G18G19G21G22G27
  24372270.540   128077144.15406  24372273.760    99800386.10145
  20548872.960   107985059.16808  20548873.760    84144215.60049
  21613152.500   113577924.06708  21613153.640    88502300.25248
  22791298.980   119769094.41807  22791298.800    93326562.94746
  23033614.980   121042520.11307  23033615.560    94318877.07946
  21173616.380   111268149.52708  21173615.860    86702484.09248
  21069685.480   110721951.78209  21069688.680    86276889.08949
 15 02 04 03 08  0.0000000  0  7G04G16G18G19G21G22G27
  24354264.400   127982522.41306  24354267.720    99726654.95044
  20551199.660   107997286.01508  20551200.500    84153743.01249
  21616666.600   113596390.91308  21616667.680    88516690.01248
  22777475.620   119696451.73707  22777475.280    93269958.26947
  23046402.340   121109718.68907  23046402.940    94371239.58646
  21163730.260   111216197.42908  21163729.660    86662001.95248
  21060926.900   110675924.87309  21060930.060    86241023.97549
 15 02 04 03 08 30.0000000  0  7G04G16G18G19G21G22G27
  24336287.140   127888052.33606  24336290.460    99653041.96044
  20553635.200   108010084.80308  20553636.080    84163716.09049
  21620274.580   113615350.93708  21620275.580    88531464.06048
  22763670.460   119623904.83207  22763669.980    93213428.22847
  23059201.940   121176981.76707  23059202.660    94423652.35946
  21153931.340   111164703.41609  21153930.640    86621876.75948
  21052205.360   110630092.59509  21052208.500    86205310.50649
 15 02 04 03 09  0.0000000  0  7G04G16G18G19G21G22G27
  24318338.460   127793732.33706  24318341.760    99579545.91945
  20556178.940   108023452.22108  20556179.820    84174132.25449
  21623975.880   113634801.35708  21623976.780    88546620.24348
  22749883.160   119551451.77408  22749882.600    93156971.31247
  23072013.160   121244305.78907  23072014.020    94476112.60646
  21144219.540   111113666.94709  21144218.700    86582108.08448
  21043520.580   110584453.52109  21043523.700    86169747.59349
 15 02 04 03 09 30.0000000  0  7G04G16G18G19G21G22G27
  24300418.660   127699563.74906  24300421.920    99506167.86345
  20558831.000   108037388.87208  20558831.880    84184991.97449
  21627770.380   113654741.60508  21627771.200    88562158.10648
  22736113.940   119479093.89008  22736113.360    93100588.58047
  23084835.940   121311690.31507  23084836.880    94528620.00846
  21134595.140   111063090.02109  21134594.240    86542697.49548
  21034872.860   110539009.39909  21034875.960    86134336.59349
 15 02 04 03 10  0.0000000  0  7G04G16G18G19G21G22G27
  24282527.980   127605547.74106  24282531.120    99432908.70845
  20561591.500   108051895.42908  20561592.360    84196295.77449
  21631658.100   113675171.56708  21631658.840    88578077.57048
  22722363.040   119406832.41508  22722362.500    93044280.98047
  23097670.240   121379134.79907  23097671.140    94581174.13745
  21125058.520   111012974.59808  21125057.620    86503646.51548
  21026262.500   110493761.74609  21026265.600    86099078.68849
 15 02 04 03 10 30.0000000  0  7G04G16G18G19G21G22G27
  24264666.700   127511685.82306  24264669.760    99359769.61345
  20564460.440   108066971.98908  20564461.300    84208043.74549
  21635638.980   113696091.20908  21635639.680    88594378.59748
  22708630.680   119334668.75708  22708630.260    92988049.59347
  23110515.880   121446638.89807  23110516.760    94633774.70846
  21115610.140   110963323.21808  21115609.300    86464957.12448
  21017689.880   110448712.46109  21017693.000    86063975.35549
 15 02 04 03 11  0.0000000  0  7G04G16G18G19G21G22G27
  24246834.720   127417977.74206  24246837.740    99286750.39445
  20567437.700   108082617.74608  20567438.580    84220235.24649
  21639712.700   113717498.83408  21639713.420    88611059.86948
  22694916.860   119262602.44908  22694916.500    92931894.05747
  23123372.540   121514200.58507  23123373.320    94686420.14746
  21106250.140   110914136.64508  21106249.440    86426629.93748
  21009155.020   110403861.61809  21009158.160    86029026.64649
 15 02 04 03 11 30.0000000  0  7G04G16G18G19G21G22G27
  24229032.440   127324425.48807  24229035.380    99213852.60245
  20570523.600   108098834.31208  20570524.500    84232871.52749
  21643879.300   113739394.60108  21643880.080    88628121.51148
  22681221.940   119190635.57108  22681221.660    92875815.98047
  23136240.160   121581819.93007  23136240.940    94739110.51146
  21096979.020   110865417.24308  21096978.440    86388666.78148
  21000658.340   110359211.53709  21000661.520    85994234.37149
 15 02 04 03 12  0.0000000  0  7G04G16G18G19G21G22G27
  24211259.940   127231029.67606  24211262.840    99141076.70445
  20573717.920   108115620.71608  20573718.860    84245951.84249
  21648138.680   113761777.73408  21648139.520    88645562.91748
  22667546.080   119118768.75208  22667545.880    92819815.87447
  23149118.600   121649495.96407  23149119.300    94791845.06246
  21087797.160   110817166.48708  21087796.560    86351068.79348
  20992200.100   110314763.30109  20992203.280    85959599.37449
 15 02 04 03 12 30.0000000  0  7G04G16G18G19G21G22G27
  24193517.380   127137791.55306  24193520.280    99068423.65145
  20577020.820   108132977.43408  20577021.720    84259476.55549
  21652490.780   113784647.87908  21652491.640    88663383.81148
  22653889.480   119047002.85308  22653889.300    92763894.40647
  23162007.740   121717228.13207  23162008.280    94844623.36046
  21078704.880   110769386.33108  21078704.240    86313837.51348
  20983780.600   110270518.51409  20983783.780    85925122.91549
 15 02 04 03 13  0.0000000  0  7G04G16G18G19G21G22G27
  24175804.940   127044712.31206  24175807.900    98995894.43245
  20580432.380   108150905.16108  20580433.240    84273446.21649
  21656935.480   113808004.69408  21656936.360    88681583.93148
  22640252.380   118975339.36907  22640252.160    92708052.73747
  23174907.420   121785016.02707  23174907.900    94897445.07646
  21069702.640   110722079.11708  21069701.940    86276974.76748
  20975400.120   110226478.94209  20975403.340    85890806.36349
 15 02 04 03 13 30.0000000  0  7G04G16G18G19G21G22G27
  24158122.660   126951792.21006  24158125.780    98923489.19345
  20583952.380   108169402.67508  20583953.200    84287859.85449
  21661472.500   113831846.91608  21661473.420    88700162.28348
  22626634.780   118903778.63707  22626634.520    92652291.13847
  23187817.380   121852858.20107  23187817.840    94950309.09046
  21060790.560   110675245.89408  21060789.860    86240481.36748
  20967058.800   110182645.25709  20967062.080    85856650.24449
 15 02 04 03 14  0.0000000  0  7G04G16G18G19G21G22G27
  24140470.840   126859032.47606  24140474.140    98851208.91945
  20587580.840   108188470.36408  20587581.680    84302717.78949
  21666101.760   113856173.91508  21666102.680    88719118.39748
  22613037.000   118832322.02607  22613036.720    92596610.67447
  23200737.440   121920754.02107  23200738.000    95003214.90946
  21051969.040   110628888.44108  21051968.340    86204358.67648
  20958756.980   110139019.12709  20958760.300    85822655.86549
 15 02 04 03 14 30.0000000  0  7G04G16G18G19G21G22G27
  24122849.360   126766431.96206  24122852.760    98779052.70545
  20591317.380   108208105.98008  20591318.240    84318018.26549
  21670822.720   113880982.82208  21670823.600    88738450.02148
  22599458.700   118760967.83007  22599458.400    92541010.01247
  23213667.160   121988700.62907  23213667.840    95056160.31246
  21043237.940   110583006.00108  21043237.220    86168606.13248
  20950494.500   110095599.60609  20950497.860    85788822.48149
 15 02 04 03 15  0.0000000  0  7G04G16G18G19G21G22G27
  24105258.400   126673991.48906  24105261.720    98707021.23044
  20595162.020   108228309.74708  20595162.900    84333761.45449
  21675635.300   113906273.27608  21675636.180    88758156.86848
  22585900.160   118689717.54207  22585899.860    92485490.30947
  23226606.420   122056697.18807  23226607.180    95109144.63546
  21034597.620   110537600.60309  21034596.880    86133225.30648
  20942271.660   110052388.23809  20942275.040    85755151.29349
 15 02 04 03 15 30.0000000  0  7G04G16G18G19G21G22G27
  24087698.260   126581712.32306  24087701.400    98635115.43744
  20599114.700   108249081.42308  20599115.640    84349947.17149
  21680539.340   113932044.14908  21680540.140    88778238.07248
  22572361.600   118618571.92907  22572361.260    92430052.17547
  23239555.100   122124743.08107  23239555.940    95162167.40546
  21026048.440   110492674.03509  21026047.660    86098217.60848
  20934088.760   110009386.45909  20934092.080    85721643.42149
 15 02 04 03 16  0.0000000  0  7G04G16G18G19G21G22G27
  24070169.020   126489595.33506  24070172.020    98563336.01345
  20603175.500   108270421.01808  20603176.420    84366575.42349
  21685534.800   113958295.42408  21685535.500    88798693.61948
  22558843.220   118547532.14507  22558842.840    92374696.50547
  23252513.080   122192837.80207  23252513.920    95215228.21046
  21017590.640   110448227.67609  21017589.820    86063584.09348
  20925945.960   109966595.84209  20925949.260    85688300.08049
 15 02 04 03 16 30.0000000  0  7G04G16G18G19G21G22G27
  24052670.880   126397641.33706  24052673.660    98491683.58445
  20607344.260   108292327.87608  20607345.160    84383645.69849
  21690621.440   113985025.90008  21690622.100    88819522.56647
  22545345.160   118476599.22908  22545344.780    92319424.12047
  23265480.160   122260980.44107  23265481.020    95268326.35246
  21009224.520   110404263.27709  21009223.680    86029326.12448
  20917843.640   109924017.75309  20917846.940    85655122.34249
 15 02 04 03 17  0.0000000  0  7G04G16G18G19G21G22G27
  24035203.900   126305851.19306  24035206.420    98420158.82944
  20611621.060   108314802.33408  20611621.880    84401158.25849
  21695799.100   114012234.68908  21695799.760    88840724.22247
  22531867.640   118405774.12908  22531867.260    92264235.74247
  23278456.300   122329170.39307  23278457.080    95321461.35946
  21000950.380   110360782.46909  21000949.560    85995444.98248
  20909782.000   109881653.43909  20909785.300    85622111.18849
 15 02 04 03 17 30.0000000  0  7G04G16G18G19G21G22G27
  24017768.300   126214226.47106  24017770.860    98348762.97844
  20616005.920   108337844.92108  20616006.720    84419113.51549
  21701067.720   114039921.60608  21701068.440    88862298.44848
  22518410.900   118335058.35408  22518410.540    92209132.55147
  23291441.460   122397407.48907  23291442.180    95374633.10446
  20992768.620   110317787.31208  20992767.820    85961942.26148
  20901761.360   109839504.94309  20901764.700    85589268.20249
 15 02 04 03 18  0.0000000  0  7G04G16G18G19G21G22G27
  24000364.040   126122766.75906  24000366.680    98277495.70545
  20620498.580   108361453.89808  20620499.380    84437510.11449
  21706426.960   114068084.86008  21706427.780    88884243.84548
  22504974.920   118264451.76308  22504974.620    92154114.44547
  23304435.260   122465689.61207  23304435.880    95427839.94045
  20984679.280   110275278.07908  20984678.540    85928818.19648
  20893781.840   109797572.44609  20893785.180    85556593.52749
 15 02 04 03 18 30.0000000  0  7G04G16G18G19G21G22G27
  23982991.440   126031473.44506  23982994.200    98206358.08945
  20625098.900   108385628.64508  20625099.700    84456347.57249
  21711876.740   114096723.93608  21711877.660    88906560.01048
  22491559.960   118193955.61508  22491559.720    92099182.39547
  23317437.540   122534016.65807  23317438.120    95481081.77245
  20976682.800   110233256.73708  20976682.080    85896074.30448
  20885843.800   109755857.84009  20885847.140    85524088.63549
 15 02 04 03 19  0.0000000  0  7G04G16G18G19G21G22G27
  23965650.580   125940346.68406  23965653.480    98135350.22145
  20629806.940   108410369.37608  20629807.720    84475626.05749
  21717416.720   114125837.13708  21717417.760    88929245.62048
  22478166.000   118123570.17408  22478165.800    92044336.61847
  23330448.060   122602386.83407  23330448.540    95534357.21646
  20968779.360   110191724.05808  20968778.660    85863711.18948
  20877947.360   109714361.73909  20877950.700    85491754.01349
 15 02 04 03 19 30.0000000  0  7G04G16G18G19G21G22G27
  23948341.840   125849389.32206  23948344.920    98064474.38145
  20634622.880   108435677.41408  20634623.720    84495346.60049
  21723047.140   114155425.64308  21723048.300    88952301.59948
  22464793.800   118053298.86208  22464793.560    91989579.77847
  23343467.020   122670801.56807  23343467.480    95587667.38646
  20960969.640   110150683.57409  20960968.940    85831731.60648
  20870093.200   109673087.65509  20870096.480    85459592.39349
 15 02 04 03 20  0.0000000  0  7G04G16G18G19G21G22G27
  23931065.140   125758600.39906  23931068.340    97993729.78144
  20639546.360   108461550.61808  20639547.260    84515507.53449
  21728767.520   114185486.76608  21728768.740    88975725.85048
  22451443.120   117983140.61508  22451442.820    91934911.02947
  23356493.880   122739258.41307  23356494.420    95641010.35946
  20953253.520   110110134.74009  20953252.760    85800135.11448
  20862281.180   109632035.13109  20862284.420    85427603.40549
 15 02 04 03 20 30.0000000  0  7G04G16G18G19G21G22G27
  23913820.540   125667980.26906  23913823.900    97923116.69045
  20644577.060   108487987.33508  20644578.020    84536107.55949
  21734577.580   114216018.97908  21734578.800    88999517.18947
  22438114.060   117913095.88808  22438113.680    91880330.72147
  23369528.500   122807756.33707  23369529.160    95694385.34446
  20945631.140   110070078.67608  20945630.320    85768922.59948
  20854511.480   109591205.09009  20854514.720    85395787.79149
 15 02 04 03 21  0.0000000  0  7G04G16G18G19G21G22G27
  23896608.120   125577528.55406  23896611.560    97852634.83045
  20649714.880   108514986.84608  20649715.880    84557146.12649
  21740476.920   114247020.04208  21740478.040    89023673.86747
  22424806.580   117843164.48008  22424806.140    91825838.71147
  23382570.540   122876293.32207  23382571.280    95747790.78346
  20938102.440   110030515.08309  20938101.600    85738093.83748
  20846784.140   109550597.66309  20846787.380    85364145.64449
 15 02 04 03 21 30.0000000  0  7G04G16G18G19G21G22G27
  23879428.080   125487246.07006  23879431.320    97782284.87345
  20654959.740   108542548.75808  20654960.760    84578622.93049
  21746465.400   114278489.33008  21746466.320    89048195.39347
  22411520.860   117773347.51308  22411520.380    91771435.88647
  23395619.880   122944868.52307  23395620.720    95801225.99945
  20930667.760   109991445.85908  20930666.980    85707650.30348
  20839099.460   109510214.32309  20839102.680    85332678.10249
 15 02 04 03 22  0.0000000  0  7G04G16G18G19G21G22G27
  23862280.580   125397134.24306  23862283.580    97712067.87945
  20660311.560   108570672.64308  20660312.540    84600537.63449
  21752542.800   114310425.99108  21752543.580    89073081.11147
  22398257.160   117703646.33308  22398256.660    91717123.28747
  23408676.460   123013481.57207  23408677.360    95854690.70446
  20923327.460   109952872.70908  20923326.740    85677593.31048
  20831457.760   109470056.81909  20831460.960    85301386.53749
 15 02 04 03 22 30.0000000  0  7G04G16G18G19G21G22G27
  23845166.020   125307195.63807  23845168.800    97641985.87845
  20665770.660   108599360.41008  20665771.620    84622891.72849
  21758709.380   114342831.27808  21758710.060    89098331.99047
  22385016.160   117634064.44008  22385015.640    91662903.64647
  23421740.640   123082134.30606  23421741.540    95908186.35145
  20916082.260   109914799.09909  20916081.560    85647925.57348
  20823859.760   109430128.87809  20823862.940    85270273.85549
 15 02 04 03 23  0.0000000  0  7G04G16G18G19G21G22G27
  23828083.940   125217427.92406  23828086.580    97572037.02445
  20671336.300   108628608.10908  20671337.260    84645682.14149
  21764964.220   114375700.81308  21764964.940    89123944.61247
  22371797.380   117564599.26908  22371796.900    91608774.95247
  23434811.680   123150822.91707  23434812.560    95961709.91545
  20908931.740   109877222.88409  20908931.000    85618645.41548
  20816305.040   109390428.53809  20816308.200    85239338.52649
 15 02 04 03 23 30.0000000  0  7G04G16G18G19G21G22G27
  23811034.860   125127833.83407  23811037.300    97502223.48945
  20677008.660   108658416.45108  20677009.580    84668909.41449
  21771307.500   114409035.37308  21771308.340    89149919.59747
  22358601.280   117495253.38808  22358600.820    91554739.20647
  23447889.740   123219548.09207  23447890.580    96015262.01046
  20901876.500   109840147.19809  20901875.700    85589755.26848
  20808794.220   109350958.85709  20808797.360    85208582.93449
 15 02 04 03 24  0.0000000  0  7G04G16G18G19G21G22G27
  23794018.900   125038414.23207  23794021.300    97432545.90145
  20682787.840   108688785.90308  20682788.700    84692573.91249
  21777739.200   114442834.32908  21777740.140    89176256.45247
  22345428.240   117426028.60808  22345427.760    91500797.83447
  23460974.620   123288309.20107  23460975.400    96068842.07546
  20894916.820   109803573.61709  20894915.960    85561256.36648
  20801327.640   109311721.70709  20801330.800    85178008.53149
 15 02 04 03 24 30.0000000  0  7G04G16G18G19G21G22G27
  23777036.380   124949171.01506  23777038.800    97363005.75345
  20688673.880   108719716.96008  20688674.700    84716676.03049
  21784259.220   114477097.33408  21784260.220    89202954.89947
  22332278.580   117356926.92008  22332278.080    91446952.36747
  23474066.500   123357107.64706  23474067.300    96122451.24546
  20888053.100   109767504.41709  20888052.220    85533150.50048
  20793905.760   109272719.52709  20793908.940    85147617.23349
 15 02 04 03 25  0.0000000  0  7G04G16G18G19G21G22G27
  23760086.960   124860102.59906  23760089.600    97293601.80245
  20694666.080   108751206.15008  20694666.900    84741213.05149
  21790866.980   114511821.14508  21790867.940    89230012.41248
  22319152.100   117287946.84708  22319151.560    91393201.67547
  23487164.660   123425938.96407  23487165.460    96176086.03746
  20881285.100   109731938.34509  20881284.240    85505436.68649
  20786528.380   109233951.24109  20786531.620    85117408.17949
 15 02 04 03 25 30.0000000  0  7G04G16G18G19G21G22G27
  23743170.920   124771209.52506  23743173.780    97224334.50545
  20700764.440   108783253.25808  20700765.260    84766184.82049
  21797562.160   114547004.47208  21797563.140    89257427.99347
  22306048.940   117219089.36108  22306048.420    91339546.49847
  23500269.120   123494803.15807  23500269.860    96229746.45145
  20874613.060   109696876.67009  20874612.240    85478115.91848
  20779195.800   109195418.21309  20779199.060    85087382.45549
 15 02 04 03 26  0.0000000  0  7G04G16G18G19G21G22G27
  23726288.400   124682491.78006  23726291.300    97155203.79945
  20706968.600   108815856.27908  20706969.420    84791589.76949
  21804344.380   114582645.23408  21804345.380    89285200.01247
  22292969.100   117150354.40808  22292968.620    91285986.80448
  23513379.540   123563699.27206  23513380.340    96283431.72645
  20868037.000   109662319.35909  20868036.180    85451188.15249
  20771908.060   109157120.88309  20771911.320    85057540.38049
 15 02 04 03 26 30.0000000  0  7G04G16G18G19G21G22G27
  23709439.420   124593949.62407  23709442.280    97086209.95045
  20713278.280   108849013.91008  20713279.120    84817426.88649
  21811213.360   114618741.79708  21811214.340    89313327.20547
  22279912.760   117081743.12608  22279912.380    91232523.48747
  23526495.760   123632625.49707  23526496.660    96337140.47746
  20861557.160   109628267.61509  20861556.340    85424654.32349
  20764665.400   109119060.42709  20764668.660    85027882.87949
 15 02 04 03 27  0.0000000  0  7G04G16G18G19G21G22G27
  23692624.180   124505584.35307  23692626.920    97017353.92145
  20719693.520   108882726.27108  20719694.400    84843696.25649
  21818168.920   114655293.48708  21818169.920    89341809.03847
  22266880.140   117013256.51608  22266879.820    91179157.30647
  23539617.660   123701581.32906  23539618.560    96390872.27545
  20855173.780   109594722.68509  20855172.960    85398515.41249
  20757468.140   109081238.69909  20757471.420    84998411.40949
 15 02 04 03 27 30.0000000  0  7G04G16G18G19G21G22G27
  23675843.140   124417398.98007  23675845.840    96948638.07545
  20726214.500   108916994.29508  20726215.420    84870398.61449
  21825211.340   114692301.83608  21825212.380    89370646.70648
  22253872.080   116944898.93008  22253871.820    91125891.67748
  23552745.520   123770568.72507  23552746.420    96444628.66945
  20848887.460   109561687.83209  20848886.660    85372773.97749
  20750317.040   109043659.52809  20750320.340    84969128.96149
 15 02 04 03 28  0.0000000  0  7G04G16G18G19G21G22G27
  23659096.100   124329392.25807  23659098.680    96880061.42445
  20732841.020   108951816.83208  20732841.960    84897533.05549
  21832340.060   114729763.48308  21832341.080    89399837.59647
  22240888.260   116876668.50908  22240887.960    91072725.12347
  23565878.980   123839585.37607  23565879.820    96498407.85746
  20842698.100   109529162.74909  20842697.380    85347429.76449
  20743211.980   109006322.29909  20743215.300    84940035.02249
 15 02 04 03 28 30.0000000  0  7G04G16G18G19G21G22G27
  23642383.180   124241565.11806  23642385.740    96811624.72745
  20739572.720   108987192.34308  20739573.720    84925098.37449
  21839554.820   114767677.06108  21839555.780    89429380.64047
  22227928.900   116808566.63308  22227928.560    91019658.73148
  23579018.000   123908630.96906  23579018.860    96552209.60045
  20836605.900   109497148.28209  20836605.240    85322483.42749
  20736153.280   108969228.40909  20736156.560    84911130.69849
 15 02 04 03 29  0.0000000  0  7G04G16G18G19G21G22G27
  23625704.500   124153918.17606  23625707.080    96743328.41445
  20746409.420   109023119.95708  20746410.540    84953093.91149
  21846855.400   114806041.60308  21846856.320    89459275.08447
  22214994.280   116740594.62308  22214993.920    90966693.53648
  23592162.320   123977704.74706  23592163.160    96606033.32146
  20830611.080   109465645.56609  20830610.500    85297935.86249
  20729141.200   108932379.57209  20729144.440    84882417.33849
 15 02 04 03 29 30.0000000  0  7G04G16G18G19G21G22G27
  23609060.560   124066454.58706  23609063.300    96675175.00244
  20753351.480   109059601.08308  20753352.640    84981520.75449
  21854242.020   114844858.39208  21854242.940    89489521.92947
  22202085.020   116672755.97808  22202084.620    90913832.28348
  23605312.160   124046807.67806  23605313.040    96659879.74246
  20824714.320   109434657.96509  20824713.800    85273789.68349
  20722176.480   108895779.47709  20722179.660    84853897.79949
 15 02 04 03 30  0.0000000  0  7G04G16G18G19G21G22G27
  23592450.980   123979171.92206  23592453.940    96607162.56045
  20760398.000   109096631.05808  20760399.200    85010375.27849
  21861713.740   114884122.59108  21861714.680    89520117.40847
  22189200.660   116605048.23808  22189200.300    90861073.02348
  23618466.920   124115936.61106  23618467.900    96713746.42345
  20818915.160   109404183.11309  20818914.680    85250043.05949
  20715258.660   108859426.18509  20715261.860    84825570.55749
 15 02 04 03 30 30.0000000  0  7G04G16G18G19G21G22G27
  23575875.880   123892070.13506  23575878.900    96539291.03945
  20767549.000   109134209.82208  20767550.160    85039657.42449
  21869270.240   114923832.52908  21869271.260    89551060.21147
  22176341.420   116537472.28908  22176341.040    90808416.45448
  23631626.380   124185090.34706  23631627.480    96767632.43145
  20813213.700   109374221.53809  20813213.160    85226696.38649
  20708388.020   108823320.73609  20708391.220    84797436.44549
 15 02 04 03 31  0.0000000  0  7G04G16G18G19G21G22G27
  23559335.580   123805150.64206  23559338.560    96471561.60745
  20774804.360   109172336.69108  20774805.460    85069366.66049
  21876911.480   114963987.54008  21876912.500    89582349.83047
  22163507.600   116470029.90508  22163507.160    90755863.95547
  23644790.560   124254268.70106  23644791.680    96821537.63545
  20807610.120   109344774.60609  20807609.540    85203750.73349
  20701564.880   108787465.16909  20701568.120    84769497.04449
 15 02 04 03 31 30.0000000  0  7G04G16G18G19G21G22G27
  23542829.880   123718412.26407  23542832.640    96403973.30245
  20782163.480   109211008.60309  20782164.500    85099500.61149
  21884636.800   115004584.65908  21884637.880    89613983.94547
  22150699.060   116402720.68608  22150698.580    90703415.22547
  23657959.200   124323470.13706  23657960.260    96875460.83946
  20802104.420   109315842.06509  20802103.800    85181205.90249
  20694789.280   108751859.33509  20694792.540    84741752.24249
 15 02 04 03 32  0.0000000  0  7G04G16G18G19G21G22G27
  23526359.180   123631857.60507  23526361.740    96336528.14145
  20789626.400   109250226.04908  20789627.340    85130059.64849
  21892446.300   115045624.22408  21892447.420    89645962.82447
  22137916.260   116335546.86308  22137915.760    90651072.00547
  23671132.320   124392694.94606  23671133.400    96929402.22146
  20796696.980   109287426.00109  20796696.360    85159063.53749
  20688061.800   108716506.21809  20688065.020    84714204.36149
 15 02 04 03 32 30.0000000  0  7G04G16G18G19G21G22G27
  23509923.780   123545488.80307  23509926.260    96269227.80145
  20797193.360   109289990.55608  20797194.260    85161044.97449
  21900340.060   115087106.38908  21900341.220    89678286.58547
  22125159.820   116268511.48608  22125159.320    90598836.65748
  23684310.140   124461944.51606  23684311.220    96983362.90846
  20791388.400   109259529.22309  20791387.760    85137325.80849
  20681383.020   108681408.90809  20681386.180    84686855.81049
 15 02 04 03 33  0.0000000  0  7G04G16G18G19G21G22G27
  23493523.400   123459304.12706  23493525.900    96202070.93945
  20804863.620   109330298.18108  20804864.540    85192453.50549
  21908317.340   115129027.11808  21908318.440    89710952.08647
  22112429.500   116201613.22708  22112429.000    90546708.15347
  23697492.080   124531215.48406  23697493.040    97037340.26246
  20786178.320   109232150.04609  20786177.680    85115991.40649
  20674752.680   108646566.35709  20674755.820    84659705.75349
 15 02 04 03 33 30.0000000  0  7G04G16G18G19G21G22G27
  23477158.200   123373304.26806  23477160.740    96135058.10345
  20812637.060   109371148.02808  20812638.020    85224284.55049
  21916377.960   115171385.84908  21916379.040    89743958.88347
  22099725.480   116134853.10908  22099724.960    90494687.28848
  23710678.040   124600507.79306  23710678.960    97091334.24446
  20781066.920   109205289.50309  20781066.280    85095061.13449
  20668171.120   108611980.13609  20668174.260    84632755.46649
 15 02 04 03 34  0.0000000  0  7G04G16G18G19G21G22G27
  23460828.620   123287491.50207  23460831.280    96068191.02745
  20820513.820   109412540.70808  20820514.800    85256538.58249
  21924521.940   115214182.64008  21924523.000    89777307.03247
  22087048.340   116068234.07108  22087047.760    90442776.35648
  23723868.140   124669822.15006  23723869.060    97145345.42745
  20776054.660   109178949.73609  20776053.980    85074536.64749
  20661638.920   108577653.27509  20661642.060    84606007.25849
 15 02 04 03 34 30.0000000  0  7G04G16G18G19G21G22G27
  23444534.520   123201865.36007  23444537.280    96001469.37245
  20828493.380   109454473.50209  20828494.360    85289213.48349
  21932748.680   115257414.34008  21932749.720    89810994.06347
  22074398.020   116001756.20308  22074397.420    90390975.43048
  23737062.120   124739156.61006  23737062.960    97199372.27545
  20771141.460   109153130.64809  20771140.760    85054417.88749
  20655156.160   108543586.11709  20655159.300    84579461.42749
 15 02 04 03 35  0.0000000  0  7G04G16G18G19G21G22G27
  23428276.020   123116426.38206  23428278.820    95934893.56646
  20836575.620   109496945.92908  20836576.600    85322308.87249
  21941057.980   115301080.09308  21941059.040    89845019.32147
  22061774.760   115935420.62208  22061774.160    90339285.36048
  23750259.940   124808510.98306  23750260.600    97253414.62245
  20766327.460   109127832.90209  20766326.740    85034705.37249
  20648723.100   108509779.98809  20648726.240    84553118.99349
 15 02 04 03 35 30.0000000  0  7G04G16G18G19G21G22G27
  23412053.340   123031175.95706  23412056.200    95868464.68146
  20844760.440   109539957.34109  20844761.380    85355824.24949
  21949449.740   115345179.01308  21949450.740    89879382.11247
  22049178.880   115869229.06708  22049178.360    90287707.54048
  23763461.520   124877885.33906  23763462.060    97307472.53545
  20761612.900   109103057.98209  20761612.180    85015400.25249
  20642340.140   108476237.00709  20642343.200    84526981.59549
 15 02 04 03 36  0.0000000  0  7G04G16G18G19G21G22G27
  23395866.440   122946113.85106  23395869.340    95802182.52945
  20853047.480   109583505.98008  20853048.400    85389758.24449
  21957923.560   115389708.92008  21957924.460    89914080.74047
  22036610.520   115803182.32008  22036610.100    90236242.55948
  23776666.720   124947278.85006  23776667.120    97361545.37845
  20756997.840   109078805.87009  20756997.100    84996502.51149
  20636007.400   108442958.10009  20636010.420    84501049.99849
 15 02 04 03 36 30.0000000  0  7G04G16G18G19G21G22G27
  23379715.200   122861238.93206  23379718.000    95736046.24945
  20861436.100   109627588.58808  20861437.040    85424108.32049
  21966478.760   115434666.52608  21966479.520    89949112.63747
  22024069.540   115737279.03408  22024069.100    90184889.35547
  23789875.000   125016688.61206  23789875.260    97415630.89245
  20752482.040   109055075.37809  20752481.260    84978011.22849
  20629724.780   108409942.65909  20629727.800    84475323.68049
 15 02 04 03 37  0.0000000  0  7G04G16G18G19G21G22G27
  23363600.300   122776554.95506  23363603.060    95670058.77645
  20869926.740   109672207.33108  20869927.700    85458876.16248
  21975115.620   115480053.18508  21975116.280    89984478.86747
  22011556.740   115671523.83608  22011556.280    90133651.54348
  23803086.820   125086117.43306  23803087.120    97469731.24845
  20748066.200   109031870.15309  20748065.420    84959929.24549
  20623493.160   108377195.26509  20623496.180    84449806.23049
 15 02 04 03 37 30.0000000  0  7G04G16G18G19G21G22G27
  23347521.580   122692060.89007  23347524.280    95604219.26745
  20878518.940   109717359.54209  20878519.880    85494059.68849
  21983833.580   115525866.38408  21983834.240    90020177.45647
  21999072.160   115605916.56008  21999071.620    90082529.01148
  23816301.780   125155563.33406  23816302.200    97523844.90845
  20743750.220   109009189.64909  20743749.440    84942256.14949
  20617312.520   108344716.02409  20617315.600    84424497.74149
 15 02 04 03 38  0.0000000  0  7G04G16G18G19G21G22G27
  23331478.820   122607755.54907  23331481.380    95538526.82045
  20887211.960   109763041.67308  20887212.900    85529656.15048
  21992632.020   115572102.49908  21992632.660    90056205.59947
  21986615.520   115540456.22608  21986614.900    90031520.96648
  23829519.480   125225023.36806  23829520.020    97577969.58545
  20739533.840   108987032.41709  20739533.020    84924990.79949
  20611182.800   108312504.26209  20611185.920    84399397.66249
 15 02 04 03 38 30.0000000  0  7G04G16G18G19G21G22G27
  23315472.360   122523640.56907  23315474.720    95472982.71345
  20896005.800   109809253.67508  20896006.800    85565665.48948
  22001510.880   115618761.22008  22001511.520    90092563.04047
  21974187.280   115475145.02608  21974186.560    89980629.11648
  23842740.060   125294498.21406  23842740.620    97632105.81245
  20735417.380   108965399.95609  20735416.480    84908134.35249
  20605104.440   108280562.47209  20605107.620    84374507.95649
 15 02 04 03 39  0.0000000  0  7G04G16G18G19G21G22G27
  23299502.540   122439718.24907  23299504.840    95407588.73045
  20904900.540   109855995.83308  20904901.580    85602087.94249
  22010470.060   115665842.49908  22010470.820    90129249.74747
  21961787.980   115409985.95808  21961787.200    89929855.82248
  23855963.820   125363989.62306  23855964.380    97686254.94245
  20731401.300   108944294.93709  20731400.320    84891688.88749
  20599078.100   108248894.06209  20599081.360    84349831.27549
 15 02 04 03 39 30.0000000  0  7G04G16G18G19G21G22G27
  23283569.120   122355987.15507  23283571.380    95342343.74845
  20913895.680   109903265.57608  20913896.780    85638921.50249
  22019509.040   115713342.88008  22019509.860    90166263.02947
  21949417.400   115344978.20208  21949416.640    89879200.44348
  23869190.200   125433494.44806  23869190.740    97740414.54245
  20727485.240   108923715.79509  20727484.260    84875653.19849
  20593103.680   108217498.26309  20593106.960    84325367.02049
 15 02 04 03 40  0.0000000  0  7G04G16G18G19G21G22G27
  23267672.000   122272447.08107  23267674.300    95277247.59245
  20922990.760   109951060.50208  20922991.900    85676164.29849
  22028627.400   115761260.38008  22028628.280    90203601.34447
  21937075.740   115280122.46808  21937075.020    89828663.52748
  23882419.100   125503012.12806  23882419.540    97794584.14045
  20723669.240   108903662.61109  20723668.300    84860027.34649
  20587181.300   108186375.94609  20587184.560    84301115.88049
 15 02 04 03 40 30.0000000  0  7G04G16G18G19G21G22G27
  23251811.900   122189102.03407  23251814.300    95212303.41246
  20932186.080   109999382.27408  20932187.240    85713817.61848
  22037825.480   115809596.57708  22037826.340    90241265.90447
  21924763.860   115215423.24108  21924763.180    89778248.55348
  23895650.940   125572545.27006  23895651.400    97848765.77445
  20719953.960   108884138.75109  20719953.040    84844813.95949
  20581311.840   108155531.80209  20581315.080    84277081.48049
 15 02 04 03 41  0.0000000  0  7G04G16G18G19G21G22G27
  23235988.560   122105950.18607  23235991.060    95147509.78346
  20941481.000   110048227.45009  20941482.140    85751878.78448
  22047102.440   115858347.42608  22047103.320    90279253.57847
  21912481.620   115150879.89908  21912481.020    89727955.04648
  23908885.080   125642090.80606  23908885.500    97902957.09145
  20716339.120   108865142.83309  20716338.260    84830011.95449
  20575495.160   108124964.98409  20575498.400    84253263.18749
 15 02 04 03 41 30.0000000  0  7G04G16G18G19G21G22G27
  23220202.200   122022992.65407  23220204.760    95082867.56746
  20950875.440   110097595.37109  20950876.540    85790347.28848
  22056458.180   115907512.12708  22056459.040    90317563.73247
  21900229.260   115086493.50508  21900228.660    89677783.84248
  23922121.620   125711649.23006  23922122.160    97957158.42545
  20712824.920   108846675.65109  20712824.060    84815621.95849
  20569731.680   108094677.65509  20569734.920    84229662.67549
 15 02 04 03 42  0.0000000  0  7G04G16G18G19G21G22G27
  23204452.840   121940229.50807  23204455.420    95018376.81645
  20960368.920   110147483.74809  20960369.960    85829221.34248
  22065892.220   115957088.59908  22065893.120    90356194.74347
  21888006.940   115022265.05308  21888006.340    89627735.70848
  23935360.300   125781219.24106  23935361.000    98011368.81245
  20709411.420   108828737.63509  20709410.540    84801644.30149
  20564021.500   108064670.53809  20564024.760    84206280.50849
 15 02 04 03 42 30.0000000  0  7G04G16G18G19G21G22G27
  23188740.600   121857661.48207  23188743.220    94954038.11345
  20969961.280   110197891.82009  20969962.260    85868500.35248
  22075404.280   116007075.02208  22075405.220    90395145.20347
  21875814.960   114958195.91508  21875814.380    89577811.72148
  23948601.100   125850800.58806  23948601.900    98065588.02645
  20706098.640   108811328.84809  20706097.700    84788079.03149
  20558364.960   108034945.31509  20558368.240    84183117.99649
 15 02 04 03 43  0.0000000  0  7G04G16G18G19G21G22G27
  23173065.560   121775288.90607  23173068.140    94889851.71045
  20979652.140   110248817.51409  20979653.080    85908182.70448
  22084994.120   116057470.00508  22084995.100    90434414.01747
  21863653.480   114894287.08308  21863652.900    89528012.64748
  23961843.960   125920392.79106  23961844.960    98119815.70345
  20702886.620   108794449.69209  20702885.620    84774926.45949
  20552762.360   108005503.36409  20552765.640    84160176.22649
 15 02 04 03 43 30.0000000  0  7G04G16G18G19G21G22G27
  23157427.680   121693111.23907  23157430.140    94825817.18745
  20989440.980   110300258.12909  20989441.900    85948266.29648
  22094661.260   116108270.93208  22094662.280    90473999.14747
  21851522.540   114830538.75708  21851521.960    89478338.62948
  23975088.540   125989993.97806  23975089.660    98174050.40045
  20699775.180   108778099.15109  20699774.140    84762185.79649
  20547213.700   107976345.01909  20547217.000    84137455.44649
 15 02 04 03 44  0.0000000  0  7G04G16G18G19G21G22G27
  23141827.040   121611128.92307  23141829.280    94761934.88845
  20999327.640   110352212.76509  20999328.520    85988750.42148
  22104405.280   116159475.72508  22104406.280    90513898.98347
  21839422.320   114766951.67708  21839421.700    89428790.25948
  23988334.820   126059603.95406  23988335.980    98228291.93445
  20696764.480   108762277.92409  20696763.420    84749857.57149
  20541719.240   107947471.45009  20541722.540    84114956.57149
 15 02 04 03 44 30.0000000  0  7G04G16G18G19G21G22G27
  23126263.820   121529343.27707  23126265.860    94698205.84445
  21009311.880   110404680.29309  21009312.740    86029634.19548
  22114226.040   116211083.68608  22114226.960    90554112.97147
  21827353.320   114703528.71408  21827352.740    89379369.78348
  24001582.900   126129223.17706  24001584.100    98282540.64845
  20693854.640   108746986.99709  20693853.660    84737942.57349
  20536279.460   107918885.18409  20536282.760    84092681.55549
 15 02 04 03 45  0.0000000  0  7G04G16G18G19G21G22G27
  23110738.300   121447756.23207  23110740.320    94634631.54345
  21019393.620   110457660.24608  21019394.480    86070917.26748
  22124123.460   116263094.56108  22124124.320    90594640.92147
  21815315.980   114640272.00508  21815315.420    89330078.85348
  24014832.860   126198852.10206  24014833.980    98336796.93745
  20691046.060   108732228.34309  20691045.200    84726442.34049
  20530894.880   107890588.91009  20530898.140    84070632.51849
 15 02 04 03 45 30.0000000  0  7G04G16G18G19G21G22G27
  23095250.760   121366368.99907  23095252.820    94571212.94246
  21029572.820   110511152.55308  21029573.760    86112599.57848
  22134097.240   116315507.20808  22134098.140    90635481.93647
  21803310.680   114577183.57608  21803310.100    89280919.04648
  24028084.740   126268491.09706  24028085.800    98391061.06845
  20688338.900   108718002.57909  20688338.140    84715357.34149
  20525565.860   107862584.65509  20525569.080    84048811.03549
 15 02 04 03 46  0.0000000  0  7G04G16G18G19G21G22G27
  23079800.500   121285178.17007  23079802.820    94507947.37046
  21039848.460   110565151.47909  21039849.500    86154676.65348
  22144146.400   116368316.32608  22144147.380    90676631.89247
  21791336.940   114514261.04208  21791336.300    89231888.50548
  24041337.760   126338136.15506  24041338.740    98445329.93144
  20685732.600   108704306.32709  20685731.860    84704684.94749
  20520291.960   107834870.28109  20520295.180    84027215.41549
 15 02 04 03 46 30.0000000  0  7G04G16G18G19G21G22G27
  23064387.940   121204185.40607  23064390.520    94444836.12746
  21050220.400   110619656.45509  21050221.500    86197148.05948
  22154270.920   116421521.40308  22154271.960    90718090.38547
  21779395.180   114451506.66208  21779394.540    89182989.00248
  24054592.080   126407787.95906  24054593.120    98499604.06745
  20683227.360   108691140.72709  20683226.560    84694426.05249
  20515073.700   107807448.25809  20515076.920    84005847.61749
 15 02 04 03 47  0.0000000  0  7G04G16G18G19G21G22G27
  23049013.080   121123390.46607  23049015.820    94381879.04546
  21060688.180   110674664.92309  21060689.280    86240011.79248
  22164470.360   116475119.83208  22164471.340    90759855.39347
  21767485.480   114388920.86608  21767484.880    89134220.87048
  24067847.520   126477445.40905  24067848.600    98553882.58545
  20680823.080   108678505.87709  20680822.260    84684580.74349
  20509911.160   107780319.15309  20509914.400    83984708.06949
 15 02 04 03 47 30.0000000  0  7G04G16G18G19G21G22G27
  23033676.420   121042795.68707  23033679.200    94319077.94145
  21071251.860   110730177.35809  21071252.960    86283268.23048
  22174744.680   116529111.83008  22174745.620    90801927.07447
  21755608.520   114326507.11708  21755607.940    89085586.79248
  24081104.240   126547109.75106  24081105.380    98608166.47845
  20678520.080   108666403.44609  20678519.220    84675150.29649
  20504805.080   107753486.45609  20504808.300    83963799.47249
 15 02 04 03 48  0.0000000  0  7G04G16G18G19G21G22G27
  23018377.580   120962399.44607  23018380.300    94256431.53245
  21081910.720   110786190.05609  21081911.820    86326914.48048
  22185093.180   116583493.48308  22185094.080    90844302.37747
  21743764.080   114264264.32808  21743763.520    89037085.92548
  24094361.820   126616778.54906  24094362.960    98662453.84345
  20676318.020   108654831.43709  20676317.120    84666133.16749
  20499755.260   107726949.34609  20499758.420    83943121.19749
 15 02 04 03 48 30.0000000  0  7G04G16G18G19G21G22G27
  23003117.060   120882204.13907  23003119.560    94193941.69246
  21092664.740   110842702.85108  21092665.840    86370950.41748
  22195515.820   116638265.04608  22195516.760    90886981.51647
  21731952.800   114202195.81408  21731952.260    88988720.85148
  24107620.560   126686453.14406  24107621.760    98716745.72745
  20674217.200   108643791.55909  20674216.260    84657530.67049
  20494762.340   107700711.12809  20494765.420    83922675.83649
 15 02 04 03 49  0.0000000  0  7G04G16G18G19G21G22G27
  22987894.620   120802209.09607  22987896.960    94131607.91145
  21103513.520   110899713.71208  21103514.660    86415374.46248
  22206012.080   116693423.55408  22206013.040    90929962.16546
  21720174.800   114140301.90908  21720174.200    88940491.83048
  24120880.200   126756132.64906  24120881.380    98771041.44545
  20672217.640   108633283.95009  20672216.680    84649342.93149
  20489826.400   107674772.48809  20489829.440    83902463.90349
 15 02 04 03 49 30.0000000  0  8G04G11G16G18G19G21G22G27
  22972711.880   120722422.78607  22972714.040    94069436.77545
  24644844.860   129509537.41405                                
  21114458.160   110957228.12309  21114459.300    86460190.87648
  22216583.140   116748975.13808  22216584.120    90973249.11046
  21708431.720   114078591.68808  21708431.120    88892405.94848
  24134142.040   126825823.77306  24134143.320    98825346.19945
  20670320.640   108623315.67109  20670319.740    84641575.45549
  20484949.160   107649142.42209  20484952.200    83882492.42449
 15 02 04 03 50  0.0000000  0  8G04G11G16G18G19G21G22G27
  22957565.960   120642830.68307  22957568.100    94007416.97145
  24627627.060   129419056.22905  24627629.240   100846026.73744
  21125495.580   111015230.01209  21125496.720    86505387.14948
  22227225.940   116804903.43208  22227226.860    91016829.58846
  21696721.000   114017051.55208  21696720.380    88844452.60048
  24147403.280   126895511.91806  24147404.580    98879648.64945
  20668523.600   108613872.53709  20668522.760    84634217.18249
  20480128.120   107623807.76409  20480131.220    83862751.13749
 15 02 04 03 50 30.0000000  0  8G04G11G16G18G19G21G22G27
  22942458.460   120563440.60307  22942460.600    93945554.57745
  24610420.400   129328634.78105  24610422.460   100775568.50544
  21136626.740   111073724.67609  21136627.900    86550967.40748
  22237941.460   116861213.78608  22237942.340    91060707.78047
  21685044.300   113955690.20608  21685043.740    88796638.57448
  24160665.240   126965203.71006  24160666.520    98933953.93144
  20666827.940   108604961.71309  20666827.080    84627273.69549
  20475364.920   107598777.11109  20475368.080    83843246.74249
 15 02 04 03 51  0.0000000  0  8G04G11G16G18G19G21G22G27
  22927389.460   120484253.16207  22927391.680    93883850.07346
  24593225.280   129238273.69705  24593227.220   100705157.26445
  21147851.360   111132710.32409  21147852.500    86596930.24348
  22248729.440   116917904.66508  22248730.260    91104882.48047
  21673401.880   113894508.93308  21673401.380    88748964.85348
  24173927.740   127034898.91706  24173929.060    98988261.87545
  20665233.600   108596583.30009  20665232.740    84620745.07549
  20470659.840   107574051.94809  20470663.040    83823980.37549
 15 02 04 03 51 30.0000000  0  8G04G11G16G18G19G21G22G27
  22912359.080   120405268.63107  22912361.460    93822303.67946
  24576041.720   129147973.47505  24576043.580   100634793.49244
  21159168.980   111192184.77908  21159170.100    86643273.97048
  22259589.460   116974974.16308  22259590.340    91149352.21147
  21661793.960   113833509.13608  21661793.520    88701432.54848
  24187190.800   127104597.28806  24187192.140    99042572.31244
  20663740.660   108588737.59809  20663739.740    84614631.55549
  20466013.220   107549633.83509  20466016.420    83804953.27649
 15 02 04 03 52  0.0000000  0  9G04G11G16G18G19G21G22G27G32
  22897369.860   120326500.02607  22897372.360    93760925.55446
  24558872.120   129057746.82005  24558874.020   100564487.01144
  21170581.800   111252159.72608  21170582.920    86690007.68948
  22270523.520   117032432.70508  22270524.420    91194125.09947
  21650223.220   113772704.71008  21650222.820    88654052.49048
  24200456.760   127174311.05105  24200458.200    99096894.69845
  20662351.380   108581436.66409  20662350.420    84608942.53049
  20461427.700   107525536.60409  20461430.900    83786176.21349
  24500114.140   128748968.26405  24500118.200   100323887.84655
 15 02 04 03 52 30.0000000  0  9G04G11G16G18G19G21G22G27G32
  22882414.200   120247907.27407  22882416.760    93699684.45745
  24541708.960   128967553.84505  24541710.860   100494206.77343
  21182081.720   111312592.41008  21182082.880    86737098.08648
  22281523.620   117090238.29208  22281524.520    91239168.40647
  21638682.200   113712056.38308  21638681.800    88606794.05948
  24213717.780   127243998.86505  24213719.180    99151196.88945
  20661058.000   108574640.11409  20661057.060    84603646.52649
  20456895.760   107501721.13009  20456898.960    83767618.70549
  24477421.380   128629717.31305  24477425.220   100230965.19544
 15 02 04 03 53  0.0000000  0  9G04G11G16G18G19G21G22G27G32
  22867500.160   120169533.38107  22867502.740    93638613.88246
  24524560.320   128877437.44905  24524562.160   100423986.21744
  21193676.480   111373523.40608  21193677.680    86784576.77648
  22292597.540   117148431.64108  22292598.400    91284513.86846
  21627179.320   113651608.44508  21627178.900    88559691.77648
  24226981.980   127313703.11106  24226983.440    99205511.85145
  20659868.680   108568390.59709  20659867.800    84598776.78749
  20452425.820   107478231.53909  20452429.040    83749315.13849
  24454740.120   128510526.49206  24454743.880   100138089.37244
 15 02 04 03 53 30.0000000  0  9G04G11G16G18G19G21G22G27G32
  22852625.180   120091364.53407  22852627.720    93577703.09545
  24507423.180   128787380.05605  24507425.220   100353801.80045
  21205363.000   111434936.51008  21205364.200    86832431.13848
  22303742.160   117206996.57808  22303742.960    91330148.87147
  21615712.060   113591347.45308  21615711.600    88512735.17148
  24240246.700   127383409.51405  24240248.080    99259828.52945
  20658780.700   108562673.71709  20658779.900    84594322.09449
  20448015.400   107455054.91509  20448018.660    83731255.43149
  24432068.040   128391384.19406  24432071.820   100045251.34745
 15 02 04 03 54  0.0000000  0  9G04G11G16G18G19G21G22G27G32
  22837788.440   120013396.55807  22837790.860    93516948.82846
  24490298.040   128697385.76905  24490300.000   100283676.35444
  21217140.120   111496825.72508  21217141.320    86880656.49548
  22314956.260   117265926.95608  22314957.020    91376068.63647
  21604279.780   113531270.52108  21604279.340    88465921.98448
  24253511.000   127453113.24806  24253512.300    99314143.11644
  20657793.280   108557485.09509  20657792.520    84590279.02849
  20443663.980   107432188.25109  20443667.260    83713437.25549
  24409404.860   128272288.53706  24409408.620    99952449.63644
 15 02 04 03 54 30.0000000  0  9G04G11G16G18G19G21G22G27G32
  22822991.380   119935637.11507  22822993.700    93456357.06246
  24473185.420   128607457.39505  24473186.840   100213602.30744
  21229008.800   111559196.02508  21229010.000    86929256.72848
  22326240.840   117325227.74808  22326241.540    91422277.03746
  21592884.160   113471386.14708  21592883.720    88419258.84148
  24266775.920   127522820.68605  24266777.100    99368460.59744
  20656907.740   108552831.64009  20656906.980    84586652.98649
  20439373.160   107409639.96009  20439376.440    83695867.16549
  24386752.520   128153249.25906  24386756.080    99859691.87245
 15 02 04 03 55  0.0000000  0  9G04G11G16G18G19G21G22G27G32
  22808233.060   119858081.62207  22808235.360    93395924.20546
  24456084.620   128517590.94706  24456085.740   100143576.52444
  21240967.760   111622040.76508  21240969.000    86978226.65248
  22337594.720   117384892.59308  22337595.360    91468769.11646
  21581524.520   113411690.97508  21581524.120    88372743.12748
  24280040.520   127592526.84305  24280041.760    99422777.06445
  20656123.120   108548708.23709  20656122.280    84583439.95949
  20435142.280   107387406.62309  20435145.560    83678542.48449
  24364110.480   128034264.25706  24364113.920    99766976.38245
 15 02 04 03 55 30.0000000  0  9G04G11G16G18G19G21G22G27G32
  22793514.020   119780732.74507  22793516.320    93335652.36246
  24438996.100   128427789.10906  24438996.800   100073601.12343
  21253016.940   111685359.64908  21253018.220    87027566.04248
  22349017.800   117444921.36508  22349018.500    91515544.77647
  21570201.540   113352188.20908  21570201.160    88326377.33748
  24293305.200   127662233.66605  24293306.480    99477094.05345
  20655439.720   108545116.82809  20655438.820    84580641.45849
  20430972.020   107365491.76609  20430975.320    83661465.96249
  24341479.740   127915338.11706  24341482.900    99674306.77144
 15 02 04 03 56  0.0000000  0  9G04G11G16G18G19G21G22G27G32
  22778834.120   119703589.36807  22778836.400    93275540.65046
  24421919.540   128338050.81305  24421920.160   100003675.17643
  21265155.840   111749149.85808  21265157.120    87077272.69248
  22360509.540   117505310.96608  22360510.300    91562601.60046
  21558915.140   113292877.68208  21558914.740    88280161.35048
  24306569.740   127731939.20205  24306570.980    99531410.05145
  20654857.280   108542055.97509  20654856.360    84578256.38649
  20426862.420   107343895.53609  20426865.680    83644637.73549
  24318860.480   127796472.34706  24318863.380    99581684.18745
 15 02 04 03 56 30.0000000  0  9G04G11G16G18G19G21G22G27G32
  22764193.680   119626653.61207  22764195.980    93215590.70946
  24404855.440   128248378.35706  24404856.140    99933800.53743
  21277384.380   111813411.16908  21277385.640    87127346.43748
  22372069.920   117566061.16008  22372070.720    91609939.40947
  21547666.000   113233762.78208  21547665.540    88234097.78548
  24319834.360   127801645.10705  24319835.640    99585726.31944
  20654376.120   108539527.40109  20654375.200    84576286.08549
  20422814.020   107322620.97709  20422817.280    83628060.15449
  24296253.420   127677671.20306  24296256.120    99489111.98444
 15 02 04 03 57  0.0000000  0  9G04G11G16G18G19G21G22G27G32
  22749592.720   119549925.07307  22749595.000    93155802.24946
  24387803.740   128158771.26305  24387804.400    99863976.87544
  21289702.040   111878140.63909  21289703.220    87177784.97748
  22383698.500   117627169.60208  22383699.300    91657556.38246
  21536454.160   113174844.15708  21536453.700    88188187.19148
  24333098.780   127871350.30106  24333100.220    99640042.04944
  20653996.040   108537529.97309  20653995.120    84574729.66449
  20418826.940   107301668.70409  20418830.200    83611733.70349
  24273658.920   127558936.59806  24273661.520    99396591.59944
 15 02 04 03 57 30.0000000  0  9G04G11G16G18G19G21G22G27G32
  22735031.220   119473403.69607  22735033.460    93096175.21646
  24370764.480   128069229.61006  24370765.200    99794204.17244
  21302108.320   111943335.56308  21302109.400    87228586.20848
  22395394.660   117688633.51908  22395395.500    91705450.33147
  21525279.840   113116122.60608  21525279.340    88142430.14148
  24346362.920   127941053.74605  24346364.500    99694356.41245
  20653716.840   108536062.89309  20653715.940    84573586.49349
  20414901.380   107281039.68909  20414904.660    83595659.14449
  24251077.360   127440270.61606  24251080.000    99304124.67244
 15 02 04 03 58  0.0000000  0  9G04G11G16G18G19G21G22G27G32
  22720509.040   119397089.12207  22720511.280    93036709.33546
  24353737.540   127979752.84405  24353738.420    99724482.05243
  21314602.540   112008993.00008  21314603.600    87279747.83948
  22407158.020   117750450.55408  22407158.880    91753619.44946
  21514143.100   113057598.70608  21514142.600    88096827.10448
  24359626.660   128010754.42606  24359628.100    99748668.64245
  20653538.420   108535125.35309  20653537.540    84572855.95849
  20411037.460   107260734.55209  20411040.740    83579836.96049
  24228509.220   127321675.42806  24228511.940    99211712.93545
 15 02 04 03 58 30.0000000  0  9G04G11G16G18G19G21G22G27G32
  22706026.420   119320982.39307  22706028.640    92977405.40546
  24336723.160   127890338.36805  24336724.280    99654813.55344
  21327184.660   112075112.50008  21327185.740    87331269.52248
  22418988.380   117812619.46008  22418989.240    91802062.75047
  21503044.360   112999274.62008  21503043.840    88051379.76248
  24372890.000   128080453.02605  24372891.280    99802979.21144
  20653460.840   108534717.62509  20653459.980    84572538.25949
  20407235.580   107240755.47009  20407238.860    83564268.83849
  24205955.220   127203154.29606  24205957.960    99119358.86945
 15 02 04 03 59  0.0000000  0  9G04G11G16G18G19G21G22G27G32
  22691583.560   119245084.50207  22691585.760    92918264.20346
  24319721.600   127800995.10105  24319722.580    99585195.42643
  21339854.320   112141692.16608  21339855.420    87383149.77248
  22430885.420   117875138.78808  22430886.280    91850779.10147
  21491984.060   112941152.41708  21491983.520    88006089.74048
  24386153.060   128150149.82805  24386154.120    99857288.38744
  20653484.160   108534840.03609  20653483.260    84572633.65249
  20403496.100   107221104.32509  20403499.380    83548956.26349
  24183415.900   127084710.46006  24183418.640    99027065.03545
 15 02 04 03 59 30.0000000  0  9G04G11G16G18G19G21G22G27G32
  22677180.400   119169395.15407  22677182.620    92859285.50246
  24302732.880   127711718.98505  24302734.080    99515629.62245
  21352611.000   112208729.39408  21352612.160    87435386.57048
  22442848.640   117938005.98308  22442849.540    91899766.51646
  21480962.360   112883232.86108  21480961.780    87960957.61848
  24399415.440   128219843.67705  24399416.140    99911595.28244
  20653608.200   108535491.69209  20653607.260    84573141.44449
  20399819.200   107201781.96209  20399822.460    83533899.88349
  24160891.680   126966345.93906  24160894.560    98934833.02845
 15 02 04 04 00  0.0000000  0  9G04G11G16G18G19G21G22G27G32
  22662817.040   119093915.10407  22662819.340    92800469.87946
  24285757.120   127622510.93505  24285758.540    99446116.84945
  21365454.380   112276222.11708  21365455.600    87487978.29348
  22454877.800   118001219.85808  22454878.740    91949024.07946
  21469979.540   112825517.78908  21469978.940    87915984.84948
  24412677.280   128289535.10405  24412677.880    99965900.27444
  20653832.980   108536672.86909  20653832.020    84574061.85649
  20396205.200   107182790.24009  20396208.460    83519101.14249
  24138383.000   126848063.95606  24138386.180    98842665.31546
 15 02 04 04 00 30.0000000  0  9G04G11G16G18G19G21G22G27G32
  22648493.420   119018643.84907  22648495.760    92741816.95146
  24268794.240   127533370.45905  24268795.780    99376656.72245
  21378383.980   112344167.68608  21378385.220    87540922.89348
  22466972.300   118064777.00808  22466973.300    91998549.12746
  21459035.720   112768007.44608  21459035.040    87871171.60748
  24425938.320   128359222.47605  24425938.780   100020202.12844
  20654158.180   108538381.85409  20654157.220    84575393.54149
  20392654.160   107164129.35909  20392657.420    83504560.19449
  24115890.460   126729866.03006  24115893.800    98750563.10245
 15 02 04 04 01  0.0000000  0  9G04G11G16G18G19G21G22G27G32
  22634209.540   118943581.66308  22634211.940    92683326.93246
  24251844.260   127444297.99405  24251846.000    99307249.60644
  21391399.340   112412563.84108  21391400.580    87594218.59248
  22479131.840   118128675.81708  22479132.840    92048340.40247
  21448131.140   112710703.62508  21448130.480    87826519.30248
  24439198.680   128428905.63105  24439198.860   100074500.68444
  20654583.760   108540618.46209  20654582.820    84577136.36549
  20389166.380   107145801.01209  20389169.660    83490278.36549
  24093414.680   126611755.07106  24093417.840    98658528.64944
 15 02 04 04 01 30.0000000  0  9G04G11G16G18G19G21G22G27G32
  22619965.680   118868729.86807  22619968.120    92625000.86846
  24234907.520   127355294.81406  24234909.340    99237896.44944
  21404500.240   112481409.37208  21404501.480    87647864.45248
  22491356.140   118192915.07808  22491357.180    92098396.96546
  21437266.220   112653608.25108  21437265.620    87782029.41448
  24452458.440   128498585.30205  24452458.420   100128796.52243
  20655109.780   108543382.91309  20655108.820    84579290.49949
  20385742.260   107127807.19009  20385745.540    83476257.19749
  24070955.920   126493734.39006  24070959.120    98566564.56145
 15 02 04 04 02  0.0000000  0  9G04G11G16G18G19G21G22G27G32
  22605761.640   118794087.30508  22605764.060    92566837.84246
  24217983.840   127266359.99205  24217985.620    99168596.56244
  21417686.040   112550700.70708  21417687.200    87701857.70148
  22503644.600   118257491.56308  22503645.700    92148716.29846
  21426441.060   112596721.61408  21426440.480    87737702.16948
  24465717.200   128568260.15105  24465716.960   100183088.56344
  20655735.980   108546673.87609  20655735.020    84581854.89849
  20382381.840   107110148.08709  20382385.140    83462496.86249
  24048514.780   126375805.45606  24048517.780    98474671.93045
 15 02 04 04 02 30.0000000  0  9G04G11G16G18G19G21G22G27G32
  22591597.840   118719656.19408  22591600.160    92508839.57846
  24201073.560   127177495.90205  24201075.320    99099351.81145
  21430956.620   112620437.72308  21430957.760    87756198.22848
  22515997.160   118322404.95908  22515998.360    92199298.15946
  21415656.240   112540046.98708  21415655.620    87693540.11548
  24478975.260   128637931.46405  24478975.000   100237377.86744
  20656462.580   108550492.59809  20656461.660    84584830.53349
  20379085.680   107092826.85409  20379089.020    83448999.79749
  24026091.780   126257972.75206  24026094.680    98382854.30044
 15 02 04 04 03  0.0000000  0  9G04G11G16G18G19G21G22G27G32
  22577473.960   118645434.78808  22577476.160    92451004.72246
  24184176.400   127088700.61706  24184177.660    99030160.69044
  21444311.080   112690615.80008  21444312.240    87810882.43748
  22528413.180   118387651.55608  22528414.400    92250139.66146
  21404911.680   112483583.71708  21404911.020    87649542.76448
  24492232.260   128707596.63105  24492232.040   100291662.39844
  20657289.100   108554836.40009  20657288.260    84588215.32049
  20375853.680   107075842.61909  20375857.000    83435765.32649
  24003687.280   126140236.75906  24003690.180    98291111.99545
 15 02 04 04 03 30.0000000  0  9G04G11G16G18G19G21G22G27G32
  22563390.400   118571425.60307  22563392.560    92393335.23846
  24167293.000   126999977.35706  24167293.900    98961025.65345
  21457749.460   112761234.91108  21457750.600    87865910.31048
  22540892.740   118453231.90708  22540893.940    92301241.22546
  21394208.040   112427335.55708  21394207.380    87605713.04148
  24505488.460   128777258.06205  24505488.300   100345944.00844
  20658215.960   108559707.16109  20658215.140    84592010.72649
  20372686.580   107059199.24409  20372689.820    83422796.46049
  23981302.180   126022602.60606  23981305.040    98199449.05145
 15 02 04 04 04  0.0000000  0  9G04G11G16G18G19G21G22G27G32
  22549347.080   118497627.67107  22549349.200    92335830.37546
  24150423.080   126911325.05006  24150424.020    98891945.95044
  21471271.080   112832291.49108  21471272.220    87921279.06948
  22553435.020   118519141.94408  22553436.180    92352599.68546
  21383545.280   112371302.42708  21383544.680    87562050.87148
  24518743.520   128846913.99606  24518743.560   100400221.34544
  20659242.760   108565102.92109  20659241.920    84596215.21749
  20369584.300   107042896.54209  20369587.520    83410093.06249
  23958936.740   125905071.39406  23958939.580    98107866.36945
 15 02 04 04 04 30.0000000  0  9G04G11G16G18G19G21G22G27G32
  22535343.860   118424040.40107  22535346.000    92278489.65246
  24133566.600   126822743.05606  24133567.420    98822921.03244
  21484875.420   112903782.89508  21484876.540    87976986.64748
  22566039.520   118585379.15508  22566040.720    92404213.09646
  21372923.560   112315484.96408  21372923.000    87518556.74648
  24531997.360   128916563.64505  24531997.460   100454493.74743
  20660369.240   108571022.42409  20660368.360    84600827.81549
  20366546.940   107026935.09509  20366550.140    83397655.56449
  23936591.340   125787645.13306  23936594.120    98016365.41945
 15 02 04 04 05  0.0000000  0  9G04G11G16G18G19G21G22G27G32
  22521381.040   118350665.17408  22521383.180    92221314.16346
  24116723.780   126734232.92506  24116724.480    98753952.04544
  21498562.280   112975707.75108  21498563.340    88033031.98348
  22578706.100   118651942.48408  22578707.300    92456080.61546
  21362343.280   112259885.43608  21362342.740    87475232.43848
  24545250.100   128986207.52405  24545250.340   100508761.67845
  20661595.420   108577465.88609  20661594.520    84605848.69249
  20363574.940   107011317.19509  20363578.140    83385485.76449
  23914266.600   125670327.39606  23914269.340    97924949.04145
 15 02 04 04 05 30.0000000  0  9G04G11G16G18G19G21G22G27G32
  22507458.840   118277503.19308  22507460.980    92164304.82946
  24099894.900   126645796.10106  24099895.600    98685040.23544
  21512331.380   113048064.77108  21512332.400    88089414.06648
  22591434.500   118718830.77508  22591435.660    92508201.36146
  21351804.960   112204506.26408  21351804.360    87432079.83048
  24558501.740   129055846.35505  24558502.180   100563025.68444
  20662921.420   108584433.82309  20662920.480    84611278.25649
  20360668.740   106996045.06309  20360671.960    83373585.40049
  23891963.300   125553121.78606  23891965.940    97833620.03645
 15 02 04 04 06  0.0000000  0  9G04G11G16G18G19G21G22G27G32
  22493577.240   118204554.69508  22493579.400    92107461.86146
  24083079.860   126557432.96106  24083080.560    98616185.83343
  21526182.200   113120851.51608  21526183.280    88146130.99848
  22604224.340   118786042.08208  22604225.500    92560573.80246
  21341308.920   112149349.14908  21341308.300    87389100.26648
  24571752.420   129125479.94505  24571753.000   100617285.61444
  20664347.080   108591925.58909  20664346.140    84617116.00149
  20357828.620   106981120.10609  20357831.860    83361955.56349
  23869681.800   125436030.92306  23869684.280    97742380.43245
 15 02 04 04 06 30.0000000  0  9G04G11G16G18G19G21G22G27G32
  22479736.080   118131818.78008  22479738.260    92050784.52246
  24066278.780   126469143.24905  24066279.700    98547388.65145
  21540114.140   113194064.65408  21540115.340    88203180.19848
  22617075.140   118853573.61808  22617076.280    92613195.78946
  21330855.160   112094414.34008  21330854.580    87346293.91648
  24585001.800   129195107.18305  24585002.560   100671540.59344
  20665872.100   108599939.55709  20665871.180    84623360.65649
  20355054.620   106966542.57209  20355057.900    83350596.44549
  23847422.360   125319056.51606  23847424.760    97651231.57044
 15 02 04 04 07  0.0000000  0  9G04G11G16G18G19G21G22G27G32
  22465935.300   118059295.07908  22465937.480    91994272.56146
  24049491.480   126380925.84705  24049492.760    98478647.80844
  21554126.640   113267700.91708  21554127.920    88260559.09548
  22629986.260   118921421.98308  22629987.360    92666064.64246
  21320443.840   112039702.42408  21320443.260    87303661.26248
  24598249.780   129264726.98405  24598250.900   100725789.80045
  20667496.180   108608474.14709  20667495.260    84630010.98849
  20352346.820   106952312.95209  20352350.100    83339508.42849
  23825185.360   125202200.43406  23825187.700    97560174.91444
 15 02 04 04 07 30.0000000  0  9G04G11G16G18G19G21G22G27G32
  22452175.420   117986986.27108  22452177.540    91937928.04046
  24032718.660   126292784.59805  24032720.140    98409966.30344
  21568219.720   113341760.51108  21568220.980    88318267.86548
  22642957.840   118989588.29308  22642958.960    92719181.23946
  21310075.680   111985217.38308  21310075.060    87261205.39248
  24611496.600   129334341.50304  24611498.140   100780034.82944
  20669219.740   108617531.46909  20669218.840    84637068.65349
  20349705.980   106938435.07609  20349709.240    83328694.49349
  23802971.820   125085467.76106  23802974.160    97469214.45845
 15 02 04 04 08  0.0000000  0  9G04G11G16G18G19G21G22G27G32
  22438458.560   117914903.50408  22438460.660    91881759.66246
  24015962.400   126204730.33805  24015964.000    98341352.61144
  21582395.080   113416252.26508  21582396.280    88376313.37748
  22655991.500   119058080.79108  22655992.620    92772552.01746
  21299752.980   111930971.46308  21299752.340    87218935.84348
  24624744.780   129403908.25605  24624747.260   100834212.99744
  20671044.620   108627121.35209  20671043.720    84644541.30649
  20347134.340   106924921.02509  20347137.600    83318164.06749
  23780784.320   124968872.03806  23780786.700    97378360.67145
 15 02 04 04 08 30.0000000  0 10G04G11G14G16G18G19G21G22G27G32
  22424777.380   117843008.28708  22424779.440    91825737.44246
  23999215.460   126116724.80305  23999217.040    98272776.87944
  24674937.220   129667676.15404  24674940.240   101039769.90344
  21596644.780   113491134.64208  21596645.860    88434663.27548
  22669079.560   119126858.65008  22669080.620    92826145.15646
  21289468.660   111876927.23808  21289468.080    87176823.45748
  24637986.880   129473494.29304  24637988.980   100888435.88944
  20672963.240   108637204.08609  20672962.360    84652397.98849
  20344624.780   106911733.23209  20344628.040    83307887.85949
  23758615.960   124852376.94506  23758618.480    97287585.30346
 15 02 04 04 09  0.0000000  0 10G04G11G14G16G18G19G21G22G27G32
  22411138.760   117771336.99908  22411140.820    91769889.70246
  23982484.800   126028804.55205  23982486.260    98204267.62345
  24660340.840   129590970.74505  24660343.480   100979999.42844
  21610975.260   113566441.38608  21610976.200    88493343.84348
  22682228.480   119195956.12608  22682229.460    92879987.34546
  21279229.960   111823122.79808  21279229.460    87134897.92148
  24651229.360   129543082.91505  24651231.340   100942660.78944
  20674982.480   108647815.47109  20674981.600    84660666.59849
  20342184.480   106898909.31909  20342187.720    83297895.19549
  23736474.260   124736021.61806  23736476.780    97196918.86045
 15 02 04 04 09 30.0000000  0 10G04G11G14G16G18G19G21G22G27G32
  22397541.420   117699882.87408  22397543.480    91714211.18946
  23965769.080   125940962.92105  23965770.580    98135819.64045
  24645748.640   129514288.68605  24645751.360   100920247.20844
  21625384.720   113642163.41508  21625385.600    88552348.01548
  22695436.480   119265364.04608  22695437.360    92934071.44746
  21269035.780   111769552.10508  21269035.280    87093154.53048
  24664470.660   129612666.63405  24664472.440   100996881.85745
  20677100.900   108658947.86709  20677099.980    84669341.19049
  20339812.260   106886443.34509  20339815.520    83288181.44149
  23714358.260   124619801.39306  23714360.840    97106357.67645
 15 02 04 04 10  0.0000000  0 10G04G11G14G16G18G19G21G22G27G32
  22383984.900   117628643.10408  22383986.920    91658699.70246
  23949067.940   125853197.84805  23949069.400    98067431.32344
  24631160.760   129437630.05805  24631163.560   100860513.22844
  21639872.160   113718295.39208  21639873.060    88611671.62548
  22708702.640   119335077.45208  22708703.400    92988393.58546
  21258885.900   111716213.99108  21258885.360    87051592.36148
  24677710.620   129682242.47605  24677712.280   101051096.76442
  20679317.720   108670597.50809  20679316.780    84678418.83249
  20337507.880   106874333.88109  20337511.140    83278745.49549
  23692267.920   124503716.24106  23692270.600    97015901.73445
 15 02 04 04 10 30.0000000  0 10G04G11G14G16G18G19G21G22G27G32
  22370469.300   117557618.35108  22370471.320    91603355.76646
  23932381.380   125765509.43406  23932382.860    97999102.74644
  24616578.140   129360997.63105  24616580.760   100800799.62444
  21654437.100   113794834.90208  21654438.080    88671312.79248
  22722026.560   119405094.58508  22722027.220    93042952.39146
  21248780.540   111663109.81908  21248779.960    87010212.48748
  24690948.980   129751810.20405  24690950.480   101105305.35043
  20681632.820   108682763.43509  20681631.860    84687898.77649
  20335271.580   106862582.15009  20335274.860    83269588.30249
  23670203.700   124387768.79706  23670206.560    96925553.09245
 15 02 04 04 11  0.0000000  0 10G04G11G14G16G18G19G21G22G27G32
  22356994.480   117486807.94108  22356996.560    91548178.84647
  23915709.480   125677897.69806  23915710.980    97930833.85744
  24602000.820   129284393.66805  24602003.620   100741108.25744
  21669079.000   113871779.03708  21669080.120    88731269.25648
  22735407.720   119475413.05308  22735408.340    93097746.00646
  21238719.820   111610240.33908  21238719.220    86969015.49848
  24704185.840   129821369.31205  24704186.960   101159507.25044
  20684045.980   108695444.60109  20684044.960    84697780.20749
  20333103.500   106851188.97009  20333106.820    83260710.50449
  23648166.060   124271961.29706  23648169.080    96835313.49245
 15 02 04 04 11 30.0000000  0 10G04G11G14G16G18G19G21G22G27G32
  22343560.900   117416214.11208  22343563.040    91493170.69447
  23899052.540   125590364.67205  23899054.080    97862626.30844
  24587429.900   129207822.62705  24587432.820   100681442.54044
  21683797.720   113949126.86608  21683798.960    88791540.28048
  22748845.980   119546032.04608  22748846.660    93152773.78446
  21228704.380   111557609.05108  21228703.840    86928004.11748
  24717421.160   129890920.85405  24717422.000   101213703.23145
  20686557.340   108708641.54509  20686556.220    84708063.55149
  20331004.240   106840157.12709  20331007.540    83252114.26249
  23626155.840   124156297.85806  23626159.020    96745186.16245
 15 02 04 04 12  0.0000000  0 10G04G11G14G16G18G19G21G22G27G32
  22330168.500   117345836.83008  22330170.760    91438331.27647
  23882410.740   125502911.21506  23882412.160    97794480.74145
  24572865.840   129131287.66005  24572868.580   100621804.89545
  21698592.840   114026876.08508  21698594.180    88852124.07948
  22762340.980   119616949.42808  22762341.800    93208034.09046
  21218734.560   111505217.36708  21218734.020    86887179.43048
  24730655.020   129960464.97705  24730655.600   101267893.45444
  20689166.720   108722353.64609  20689165.540    84718748.31149
  20328974.000   106829487.93909  20328977.260    83243800.60549
  23604173.620   124040781.19806  23604176.860    96655173.19546
 15 02 04 04 12 30.0000000  0 10G04G11G14G16G18G19G21G22G27G32
  22316816.740   117275673.34108  22316819.140    91383658.44847
  23865783.440   125415534.34205  23865784.740    97726394.89544
  24558308.860   129054788.75505  24558311.280   100562195.38344
  21713463.220   114105020.46208  21713464.580    88913015.79548
  22775891.900   119688160.25308  22775892.860    93263523.03946
  21208809.980   111453063.51808  21208809.500    86846540.07948
  24743886.700   130029998.24205  24743887.180   101322075.16244
  20691873.300   108736576.68309  20691872.120    84729831.20149
  20327012.420   106819179.52209  20327015.640    83235768.07449
  23582219.440   123925410.92006  23582222.500    96565274.30345
 15 02 04 04 13  0.0000000  0 10G04G11G14G16G18G19G21G22G27G32
  22303506.340   117205727.07407  22303508.840    91329154.88646
  23849171.340   125328237.81205  23849172.700    97658371.66544
  24543759.780   128978331.67605  24543762.040   100502618.46143
  21728409.120   114183561.42108  21728410.420    88974216.53048
  22789498.980   119759665.71208  22789499.920    93319241.57446
  21198931.640   111401152.33908  21198931.160    86806089.81448
  24757117.000   130099524.16705  24757117.360   101376251.18744
  20694677.560   108751313.31609  20694676.460    84741314.29449
  20325120.380   106809236.46909  20325123.580    83228020.23949
  23560294.360   123810192.99806  23560297.180    96475494.14145
 15 02 04 04 13 30.0000000  0 10G04G11G14G16G18G19G21G22G27G32
  22290236.980   117135996.37508  22290239.500    91274819.30246
  23832574.340   125241020.46905  23832575.640    97590410.14244
  24529218.900   128901917.63505  24529220.620   100443075.07544
  21743429.700   114262494.90208  21743430.940    89035723.13648
  22803161.360   119831461.49908  22803162.200    93375186.34346
  21189099.380   111349483.34308  21189098.880    86765828.26548
  24770345.360   130169040.59804  24770345.900   101430419.82244
  20697578.980   108766560.67009  20697577.960    84753195.35149
  20323297.700   106799658.07909  20323300.880    83220556.55549
  23538398.400   123695128.10306  23538401.040    96385833.20745
 15 02 04 04 14  0.0000000  0 10G04G11G14G16G18G19G21G22G27G32
  22277009.080   117066483.53008  22277011.540    91220653.46746
  23815992.680   125153884.21905  23815994.020    97522511.78643
  24514686.680   128825551.05705  24514688.540   100383568.67744
  21758524.680   114341819.43908  21758525.900    89097534.44948
  22816879.020   119903547.66608  22816879.780    93431357.38946
  21179313.880   111298060.14308  21179313.380    86725758.23948
  24783572.280   130238548.99705  24783572.940   101484582.18444
  20700577.740   108782319.70109  20700576.820    84765475.12249
  20321544.940   106790447.49409  20321548.160    83213379.47849
  23516532.460   123580220.82206  23516534.860    96296295.10945
 15 02 04 04 14 30.0000000  0 10G04G11G14G16G18G19G21G22G27G32
  22263822.260   116997186.36008  22263824.640    91166655.71146
  23799426.260   125066827.65705  23799427.580    97454675.57745
  24500163.800   128749232.97405  24500165.700   100324099.99743
  21773693.360   114421531.11508  21773694.540    89159647.44348
  22830651.100   119975920.17808  22830651.780    93487751.55646
  21169575.000   111246882.00708  21169574.480    86685879.17648
  24796797.280   130308046.91405  24796798.120   101538736.37745
  20703673.260   108798587.28909  20703672.460    84778151.16849
  20319862.000   106781603.79809  20319865.240    83206488.28149
  23494696.560   123465471.65006  23494698.780    96206880.19445
 15 02 04 04 15  0.0000000  0 10G04G11G14G16G18G19G21G22G27G32
  22250677.020   116928107.47108  22250679.300    91112828.04346
  23782875.560   124979853.72205  23782876.900    97386903.76043
  24485650.960   128672968.37805  24485652.880   100264673.03644
  21788935.660   114501629.74208  21788936.840    89222061.95048
  22844477.640   120048578.94708  22844478.260    93544368.77646
  21159883.420   111195952.60808  21159882.940    86646193.94648
  24810020.760   130377536.79404  24810021.800   101592884.33144
  20706865.800   108815364.61009  20706865.060    84791224.40749
  20318249.540   106773130.43409  20318252.780    83199885.65649
  23472891.600   123350885.48306  23472893.720    96117592.31545
 15 02 04 04 15 30.0000000  0 10G04G11G14G16G18G19G21G22G27G32
  22237572.980   116859245.02608  22237575.080    91059169.03446
  23766340.320   124892960.60905  23766341.700    97319194.90145
  24471148.520   128596758.61105  24471150.740   100205288.77143
  21804250.660   114582110.50208  21804251.840    89284774.22748
  22858357.800   120121519.62508  22858358.400    93601205.66446
  21150239.040   111145271.21908  21150238.540    86606701.97648
  24823242.360   130447016.58205  24823243.600   101647024.38544
  20710154.800   108832648.56909  20710154.060    84804692.42349
  20316707.420   106765026.66809  20316710.680    83193571.03149
  23451117.740   123236463.03206  23451119.840    96028431.99646
 15 02 04 04 16  0.0000000  0 10G04G11G14G16G18G19G21G22G27G32
  22224510.380   116790600.26408  22224512.300    91005679.62546
  23749820.860   124806150.12706  23749822.380    97251550.37545
  24456657.120   128520607.37705  24456659.900   100145950.15945
  21819638.080   114662971.97708  21819639.280    89347783.15448
  22872291.520   120194741.58408  22872292.080    93658261.73846
  21140642.440   111094840.84608  21140641.920    86567405.58748
  24836462.280   130516487.25004  24836463.580   101701157.38344
  20713540.400   108850439.84109  20713539.560    84818555.75049
  20315236.060   106757294.76809  20315239.300    83187546.17849
  23429375.680   123122207.99507  23429377.800    95939402.12445
 15 02 04 04 16 30.0000000  0 10G04G11G14G16G18G19G21G22G27G32
  22211488.960   116722172.15008  22211490.780    90952359.04246
  23733317.000   124719421.34506  23733318.540    97183969.52444
  24442177.400   128444516.21805  24442180.300   100086658.32544
  21835097.180   114744209.97808  21835098.360    89411085.48648
  22886278.120   120268241.55508  22886278.680    93715534.44946
  21131093.620   111044661.45808  21131093.080    86528304.77848
  24849680.260   130585947.30505  24849681.440   101755282.07744
  20717022.160   108868736.11409  20717021.180    84832812.58249
  20313835.460   106749934.58409  20313838.660    83181810.97049
  23407665.740   123008121.63006  23407667.820    95850503.67245
 15 02 04 04 17  0.0000000  0 10G04G11G14G16G18G19G21G22G27G32
  22198509.020   116653962.23708  22198510.820    90899208.47846
  23716829.020   124632775.78406  23716830.440    97116453.53244
  24427710.000   128368489.45505  24427713.080   100027416.68344
  21850627.660   114825823.15408  21850628.840    89474680.15847
  22900317.380   120342018.35108  22900317.900    93773022.85146
  21121593.100   110994735.96708  21121592.560    86489401.80248
  24862896.500   130655398.03005  24862897.360   101809399.50444
  20720600.000   108887537.14309  20720598.860    84847462.72949
  20312506.060   106742948.67109  20312509.300    83176367.39749
  23385988.680   122894208.02907  23385990.760    95761739.85746
 15 02 04 04 17 30.0000000  0 10G04G11G14G16G18G19G21G22G27G32
  22185570.280   116585969.39308  22185572.200    90846227.04346
  23700356.880   124546213.07906  23700358.160    97049002.09245
  24413255.340   128292528.70005  24413258.260    99968226.50344
  21866228.860   114907807.95008  21866230.060    89538564.40348
  22914408.700   120416069.04807  22914409.240    93830724.69346
  21112141.020   110945064.87308  21112140.440    86450697.05948
  24876110.660   130724837.77405  24876111.280   101863508.38143
  20724273.440   108906840.81509  20724272.220    84862504.54249
  20311247.920   106736337.03009  20311251.180    83171215.46749
  23364344.780   122780468.60407  23364346.920    95673111.76045
 15 02 04 04 18  0.0000000  0 10G04G11G14G16G18G19G21G22G27G32
  22172673.320   116518196.16508  22172675.440    90793416.76847
  23683900.920   124459735.76406  23683902.100    96981617.22845
  24398814.300   128216639.02006  24398816.820    99909091.66745
  21881900.780   114990164.54808  21881902.040    89602738.37348
  22928552.000   120490393.10008  22928552.680    93888639.53946
  21102738.020   110895651.41708  21102737.400    86412193.07448
  24889323.120   130794268.82105  24889323.520   101917610.48644
  20728042.660   108926648.12309  20728041.420    84877938.79849
  20310061.620   106730102.86109  20310064.880    83166357.67749
  23342734.860   122666908.03106  23342737.100    95584623.02145
 15 02 04 04 18 30.0000000  0 10G04G11G14G16G18G19G21G22G27G32
  22159818.000   116450641.34108  22159820.220    90740776.65447
  23667460.940   124373342.98306  23667462.100    96914298.23145
  24384387.060   128140822.02706  24384389.320    99850013.49144
  21897642.660   115072888.78008  21897643.980    89667198.80848
  22942746.800   120564987.66207  22942747.580    93946765.17546
  21093384.080   110846495.87808  21093383.440    86373890.06949
  24902533.680   130863689.72905  24902533.860   101971704.65343
  20731907.220   108946956.89609  20731906.060    84893763.81649
  20308947.200   106724246.19509  20308950.420    83161794.03949
  23321159.180   122553527.96006  23321161.660    95496274.94345
 15 02 04 04 19  0.0000000  0 10G04G11G14G16G18G19G21G22G27G32
  22147004.540   116383306.25108  22147006.860    90688307.78047
  23651037.220   124287036.44606  23651038.580    96847046.44845
  24369974.520   128065081.84205  24369976.460    99790995.16744
  21913454.180   115155978.68908  21913455.500    89731944.18947
  22956993.000   120639851.98707  22956993.820    94005101.02446
  21084079.780   110797601.26808  21084079.080    86335790.38749
  24915742.460   130933101.58205  24915742.300   102025791.83844
  20735867.200   108967767.14209  20735866.140    84909979.59249
  20307905.040   106718769.39109  20307908.240    83157526.40049
  23299618.420   122440331.98706  23299621.160    95408070.30345
 15 02 04 04 19 30.0000000  0 10G04G11G14G16G18G19G21G22G27G32
  22134232.800   116316190.13908  22134235.140    90636009.54547
  23634629.840   124200815.70206  23634631.320    96779861.52045
  24355576.840   127989420.78005  24355578.540    99732038.49744
  21929334.720   115239431.18308  21929335.980    89796972.09648
  22971289.900   120714982.71407  22971290.800    94063644.44146
  21074825.180   110748968.13508  21074824.460    86297894.43749
  24928949.180   131002503.34605  24928949.040   102079871.13845
  20739922.200   108989076.93608  20739921.300    84926584.62649
  20306935.180   106713672.57409  20306938.360    83153554.85849
  23278113.040   122327321.77206  23278116.000    95320010.42346
 15 02 04 04 20  0.0000000  0 10G04G11G14G16G18G19G21G22G27G32
  22121502.860   116249293.47708  22121505.180    90583882.30747
  23618239.020   124114682.20806  23618240.600    96712744.56545
  24341194.540   127913841.94805  24341196.360    99673145.88444
  21945283.820   115323243.93308  21945284.980    89862280.72447
  22985637.160   120790378.09607  22985638.080    94122394.09946
  21065620.700   110700598.46808  21065620.020    86260203.79449
  24942153.900   131071895.23305  24942153.740   102133942.69143
  20744072.160   109010885.72408  20744071.400    84943578.48649
  20306037.900   106708957.28409  20306041.060    83149880.60849
  23256643.720   122214500.39806  23256646.860    95232097.69745
 15 02 04 04 20 30.0000000  0 10G04G11G14G16G18G19G21G22G27G32
  22108814.820   116182617.05408  22108817.100    90531926.68147
  23601864.840   124028636.11505  23601866.460    96645695.68645
  24326828.420   127838348.69405  24326830.440    99614319.96045
  21961301.000   115407414.72908  21961302.080    89927868.34647
  23000034.440   120866036.38607  23000035.360    94181348.60746
  21056466.680   110652494.02308  21056466.060    86222719.80749
  24955356.700   131141277.76305  24955357.080   102188006.99843
  20748316.920   109033192.41208  20748316.260    84960960.31049
  20305213.500   106704625.15609  20305216.680    83146504.92049
  23235211.020   122101870.96006  23235214.320    95144334.48846
 15 02 04 04 21  0.0000000  0 10G04G11G14G16G18G19G21G22G27G32
  22096168.480   116116159.62608  22096170.680    90480141.69147
  23585507.080   123942676.34205  23585508.800    96578714.07145
  24312478.640   127762942.33805  24312480.880    99555561.78744
  21977385.480   115491939.54408  21977386.580    89993731.82147
  23014481.060   120941954.18407  23014481.980    94240505.33346
  21047363.120   110604654.69008  21047362.540    86185442.40049
  24968557.500   131210649.28405  24968558.340   102242062.73543
  20752655.980   109055994.21109  20752655.300    84978727.94549
  20304461.920   106700675.81309  20304465.160    83143427.51049
  23213815.200   121989434.62307  23213818.420    95056721.79745
 15 02 04 04 21 30.0000000  0 10G04G11G14G16G18G19G21G22G27G32
  22083563.660   116049920.76908  22083565.840    90428527.03547
  23569165.900   123856803.40805  23569167.560    96511800.14545
  24298146.000   127687625.37805  24298148.160    99496873.19344
  21993536.640   115576814.73908  21993537.740    90059868.32447
  23028976.560   121018128.91007  23028977.480    94299862.26245
  21038310.220   110557081.55308  21038309.660    86148372.43149
  24981756.260   131280009.21005  24981757.200   102296109.40641
  20757089.020   109079289.59409  20757088.280    84996880.19649
  20303783.300   106697109.78509  20303786.540    83140648.77549
  23192456.560   121877193.44207  23192459.580    94969261.14746
 15 02 04 04 22  0.0000000  0 10G04G11G14G16G18G19G21G22G27G32
  22071000.600   115983901.62908  22071002.820    90377083.57347
  23552841.560   123771018.65106  23552843.100    96444954.93545
  24283831.160   127612401.81805  24283833.440    99438257.43244
  22009754.300   115662039.42708  22009755.460    90126277.16947
  23043520.720   121094559.27107  23043521.640    94359418.39646
  21029308.520   110509777.30008  21029307.960    86111511.97249
  24994953.060   131349358.53605  24994954.120   102350147.80745
  20761615.980   109103078.36909  20761615.120    85015416.90849
  20303178.080   106693929.44009  20303181.340    83138170.57449
  23171135.800   121765151.18607  23171138.500    94881955.51745
 15 02 04 04 22 30.0000000  0  9G04G11G14G16G18G19G22G27G32
  22058480.280   115918107.43408  22058482.600    90325815.38147
  23536535.180   123685327.77706  23536536.480    96378182.91045
  24269535.740   127537279.58005  24269538.100    99379720.60744
  22026038.860   115747615.49708  22026040.120    90192959.80647
  23058114.000   121171247.92707  23058115.000    94419175.78846
  21020359.240   110462748.50808  21020358.700    86074866.16649
  20766237.520   109127364.39009  20766236.580    85034341.07649
  20302647.380   106691140.65609  20302650.680    83135997.47649
  23149854.200   121653315.21806  23149856.720    94794810.63445
 15 02 04 04 23  0.0000000  0 10G01G04G11G14G16G18G19G22G27G32
  24573944.360   129136948.32604  24573949.700   100626212.30042
  22046000.660   115852527.28508  22046003.120    90274713.98047
  23520244.720   123599720.48806  23520245.860    96311475.98345
  24255258.240   127462250.71705  24255260.660    99321256.57645
  22042387.760   115833529.31208  22042389.060    90259905.63048
  23072754.120   121248182.15007  23072755.100    94479124.54246
  21011460.580   110415985.73208  21011460.020    86038427.63149
  20770951.340   109152135.55509  20770950.300    85053643.28249
  20302189.380   106688733.74709  20302192.660    83134121.95749
  23128610.240   121541677.55506  23128612.660    94707820.25145
 15 02 04 04 23 30.0000000  0 10G01G04G11G14G16G18G19G22G27G32
  24558661.640   129056636.13204  24558667.020   100563631.38244
  22033563.200   115787168.40908  22033565.700    90223784.99547
  23503971.540   123514203.87706  23503972.620    96244839.70345
  24241000.520   127387325.11505  24241003.000    99262872.97145
  22058801.760   115919785.16508  22058803.060    90327117.97447
  23087441.940   121325366.79707  23087442.960    94539268.43345
  21002614.180   110369497.45408  21002613.640    86002203.00049
  20775758.520   109177397.40109  20775757.380    85073327.83849
  20301805.560   106686716.69909  20301808.800    83132550.22949
  23107405.780   121430247.58907  23107408.080    94620991.73745
 15 02 04 04 24  0.0000000  0 10G01G04G11G14G16G18G19G22G27G32
  24543399.380   128976431.30504  24543404.320   100501134.10845
  22021167.380   115722028.06208  22021169.860    90173026.31947
  23487715.180   123428775.66106  23487716.300    96178272.30744
  24226762.660   127312502.82906  24226765.000    99204569.88045
  22075279.780   116006377.33708  22075281.060    90394592.38847
  23102176.440   121402796.92107  23102177.520    94599603.59845
  20993819.760   110323282.44408  20993819.220    85966191.29949
  20780658.320   109203146.04509  20780657.160    85093391.71249
  20301495.560   106685087.76209  20301498.840    83131280.92349
  23086240.780   121319025.13607  23086243.000    94534324.90345
 15 02 04 04 24 30.0000000  0 10G01G04G11G14G16G18G19G22G27G32
  24528158.080   128896336.91304  24528163.040   100438722.87345
  22008813.740   115657109.36608  22008816.140    90122440.36147
  23471476.260   123343439.26306  23471477.380    96111776.45045
  24212545.600   127237789.70406  24212547.780    99146351.85645
  22091821.920   116093306.80408  22091823.240    90462329.62047
  23116957.760   121480473.21007  23116958.820    94660130.58546
  20985078.120   110277344.81308  20985077.580    85930395.75549
  20785651.000   109229382.79509  20785649.860    85113835.92449
  20301260.180   106683850.91309  20301263.480    83130317.14749
  23065116.280   121208015.60207  23065118.500    94447823.99645
 15 02 04 04 25  0.0000000  0 10G01G04G11G14G16G18G19G22G27G32
  24512937.820   128816354.12004  24512943.140   100376398.67044
  21996502.540   115592413.40808  21996504.820    90072027.94947
  23455255.000   123258196.11906  23455256.120    96045353.27645
  24198350.060   127163189.80906  24198352.140    99088222.09645
  22108427.800   116180571.28208  22108429.140    90530327.90947
  23131785.680   121558394.76107  23131786.780    94720848.66846
  20976389.820   110231687.47608  20976389.260    85894818.60549
  20790736.520   109256107.52509  20790735.440    85134660.38349
  20301099.820   106683008.30709  20301103.140    83129660.57549
  23044033.000   121097222.78007  23044035.380    94361491.95546
 15 02 04 04 25 30.0000000  0 10G01G04G11G14G16G18G19G22G27G32
  24497738.400   128736480.85704  24497743.900   100314159.76445
  21984233.380   115527938.20308  21984235.540    90021787.53647
  23439051.160   123173044.66206  23439052.340    95979001.53246
  24184175.980   127088703.51506  24184178.020    99030180.82445
  22125096.500   116268165.86808  22125097.780    90598583.41447
  23146659.520   121636557.13607  23146660.560    94781754.43646
  20967754.680   110186309.54508  20967754.120    85859459.17249
  20795914.240   109283316.60109  20795913.200    85155862.25449
  20301014.260   106682558.80209  20301017.600    83129310.31849
  23022991.040   120986646.95407  23022993.580    94275328.97046
 15 02 04 04 26  0.0000000  0 10G01G04G11G14G16G18G19G22G27G32
  24482559.880   128656717.18604  24482565.260   100252006.26444
  21972006.220   115463683.99408  21972008.340    89971719.33947
  23422865.000   123087985.92506  23422866.260    95912722.03245
  24170024.100   127014334.33206  24170025.980    98972230.80545
  22141827.500   116356088.02608  22141828.740    90667094.16947
  23161578.820   121714958.21107  23161579.720    94842846.18045
  20959172.980   110141212.60508  20959172.460    85824318.69549
  20801183.860   109311008.65609  20801182.860    85177440.47449
  20301003.720   106682503.41909  20301007.080    83129267.15649
  23001990.940   120876290.92307  23001993.600    94189337.28646
 15 02 04 04 26 30.0000000  0 10G01G04G11G14G16G18G19G22G27G32
  24467402.560   128577065.28105  24467407.880   100189939.86544
  21959821.480   115399652.93708  21959823.600    89921825.03247
  23406696.900   123003022.20406  23406698.200    95846516.58445
  24155895.240   126940087.04406  24155897.240    98914375.79044
  22158620.720   116444336.97008  22158621.860    90735859.56247
  23176543.500   121793597.78307  23176544.300    94904123.78346
  20950645.520   110096400.56308  20950645.020    85789400.22949
  20806545.560   109339184.58809  20806544.580    85199395.73349
  20301068.780   106682845.23809  20301072.120    83129533.49649
  22981033.580   120766159.19307  22981036.280    94103520.37645
 15 02 04 04 27  0.0000000  0 10G01G04G11G14G16G18G19G22G27G32
  24452266.040   128497522.98904  24452271.380   100127958.92644
  21947678.720   115335842.97008  21947680.960    89872103.00647
  23390546.540   122918151.85506  23390547.860    95780383.85945
  24141789.600   126865962.37005  24141791.760    98856616.26744
  22175475.160   116532907.51608  22175476.220    90804875.55047
  23191552.740   121872471.46707  23191553.480    94965583.81145
  20942172.200   110051872.88208  20942171.680    85754703.33049
  20811998.700   109367841.05609  20811997.760    85221725.44449
  20301209.180   106683583.06109  20301212.480    83130108.42949
  22960119.060   120656252.12807  22960121.680    94017878.51346
 15 02 04 04 27 30.0000000  0 10G01G04G11G14G16G18G19G22G27G32
  24437150.700   128418091.53504  24437155.760   100066064.32143
  21935578.260   115272255.25908  21935580.640    89822554.15147
  23374414.160   122833376.40306  23374415.580    95714325.07445
  24127708.020   126791964.31605  24127710.280    98798955.46044
  22192390.540   116621798.25108  22192391.520    90874141.04147
  23206606.380   121951578.66607  23206607.080    95027225.78946
  20933753.380   110007631.75508  20933752.840    85720229.71749
  20817543.260   109396977.70009  20817542.280    85244429.31849
  20301425.360   106684719.10309  20301428.640    83130993.65449
  22939248.000   120546573.41007  22939250.480    93932414.60246
 15 02 04 04 28  0.0000000  0 10G01G04G11G14G16G18G19G22G27G32
  24422056.340   128338770.39004  24422061.040   100004255.61945
  21923520.000   115208889.22208  21923522.480    89773178.01847
  23358299.800   122748695.68206  23358301.340    95648340.11045
  24113650.960   126718095.30205  24113653.400    98741395.21044
  22209366.240   116711006.07808  22209367.240    90943653.62847
  23221703.860   122030916.46507  23221704.560    95089047.45046
  20925389.280   109963678.15208  20925388.760    85685980.15049
  20823178.700   109426592.28909  20823177.760    85267505.61749
  20301717.380   106686253.69909  20301720.640    83132189.43849
  22918420.820   120437125.28607  22918423.140    93847130.36245
 15 02 04 04 28 30.0000000  0 10G01G04G11G14G16G18G19G22G27G32
  24406983.080   128259560.44504  24406987.500    99942533.60844
  21911504.180   115145745.90308  21911506.740    89723975.44447
  23342203.720   122664111.00106  23342205.320    95582429.97245
  24099619.080   126644358.56205  24099621.680    98683938.02844
  22226401.760   116800528.61808  22226402.880    91013411.43947
  23236844.880   122110483.38507  23236845.640    95151047.65146
  20917080.320   109920014.34408  20917079.800    85651956.41249
  20828904.980   109456684.14409  20828904.040    85290953.81249
  20302085.580   106688188.60109  20302088.840    83133697.13949
  22897638.040   120327910.70707  22897640.280    93762028.10646
 15 02 04 04 29  0.0000000  0 10G01G04G11G14G16G18G19G22G27G32
  24391930.480   128180459.36704  24391934.840    99880896.49744
  21899530.400   115082823.07508  21899532.960    89674944.69647
  23326125.640   122579620.78306  23326127.260    95516593.44645
  24085612.800   126570755.55805  24085615.520    98626585.05045
  22243496.160   116890360.65108  22243497.420    91083410.42447
  23252028.660   122190275.15807  23252029.460    95213223.06345
  20908826.400   109876639.67508  20908825.880    85618157.96449
  20834721.380   109487249.38209  20834720.400    85314770.86849
  20302529.760   106690522.56709  20302533.000    83135515.81449
  22876899.760   120218930.15507  22876901.960    93677108.19846
 15 02 04 04 29 30.0000000  0 10G01G04G11G14G16G18G19G22G27G32
  24376899.120   128101469.53404  24376903.520    99819345.95743
  21887599.080   115020123.17108  21887601.580    89626087.64447
  23310066.140   122495227.74806  23310067.640    95450832.65844
  24071632.880   126497290.87706  24071635.580    98569339.84845
  22260649.460   116980502.06908  22260650.820    91153650.48847
  23267255.120   122270291.57007  23267256.020    95275573.52445
  20900628.220   109833557.72208  20900627.680    85584587.62249
  20840628.000   109518288.73309  20840627.000    85338957.35549
  20303050.420   106693258.65109  20303053.700    83137647.82549
  22856206.860   120110188.31807  22856209.100    93592374.30545
 15 02 04 04 30  0.0000000  0 10G01G04G11G14G16G18G19G22G27G32
  24361888.980   128022590.89204  24361893.540    99757882.14345
  21875710.220   114957646.21808  21875712.580    89577404.34747
  23294025.180   122410932.20806  23294026.620    95385147.83645
  24057679.800   126423967.53206  24057682.620    98512204.79344
  22277861.160   117070949.79008  22277862.480    91224129.21947
  23282524.060   122350530.82007  23282525.000    95338097.62345
  20892486.040   109790770.12808  20892485.500    85551246.63749
  20846624.600   109549801.02309  20846623.600    85363512.37049
  20303647.780   106696397.84909  20303651.100    83140093.94549
  22835559.780   120001687.70307  22835562.080    93507828.39645
 15 02 04 04 30 30.0000000  0 10G01G04G11G14G16G18G19G22G27G32
  24346899.920   127943822.41905  24346904.720    99696504.13944
  21863863.580   114895391.07408  21863865.720    89528893.89247
  23278002.780   122326733.89106  23278004.080    95319538.78045
  24043753.960   126350787.20406  24043756.980    98455181.16344
  22295130.440   117161699.89608  22295131.640    91294843.57147
  23297834.860   122430989.27807  23297835.760    95400792.53845
  20884399.980   109748277.22508  20884399.380    85518135.27649
  20852710.680   109581783.45509  20852709.680    85388433.73349
  20304321.820   106699939.97709  20304325.180    83142854.04549
  22814958.880   119893429.84207  22814961.200    93423471.61945
 15 02 04 04 31  0.0000000  0 10G01G04G11G14G16G18G19G22G27G32
  24331931.780   127865164.10505  24331936.920    99635211.99144
  21852059.080   114833357.71808  21852061.060    89480556.24547
  23261999.020   122242633.14407  23262000.160    95254005.75144
  24029856.040   126277752.77406  24029858.960    98398271.22344
  22312456.700   117252749.43908  22312457.800    91365791.25347
  23313187.040   122511665.04707  23313187.860    95463656.77045
  20876370.260   109706080.77208  20876369.640    85485254.93649
  20858885.980   109614234.79409  20858884.980    85413720.49149
  20305072.700   106703885.94909  20305076.060    83145928.82249
  22794404.640   119785417.17007  22794407.000    93339305.92645
 15 02 04 04 31 30.0000000  0 10G01G04G11G14G16G18G19G22G27G32
  24316984.700   127786616.27305  24316990.000    99574005.92745
  21840296.860   114771546.82708  21840298.720    89432391.95347
  23246014.000   122158630.71907  23246014.960    95188549.34744
  24015986.620   126204867.50506  24015989.340    98341477.51544
  22329839.340   117344095.76908  22329840.440    91436970.19647
  23328580.140   122592556.18907  23328580.940    95526688.84345
  20868397.180   109664182.31208  20868396.620    85452606.78249
  20865150.200   109647153.42709  20865149.200    85439371.37249
  20305900.620   106708236.93709  20305904.040    83149319.19849
  22773897.560   119677652.42107  22773900.000    93255333.40045
 15 02 04 04 32  0.0000000  0 10G01G04G11G14G16G18G19G22G27G32
  24302059.020   127708181.55505  24302064.360    99512887.96345
  21828577.440   114709961.08008  21828579.260    89384403.08647
  23230048.280   122074729.80507  23230049.140    95123172.04045
  24002146.700   126132136.98106  24002149.180    98284804.38045
  22347278.320   117435738.66608  22347279.520    91508380.24847
  23344014.240   122673663.11607  23344015.020    95589889.04746
  20860481.600   109622586.01808  20860481.100    85420194.08249
  20871503.540   109680540.48009  20871502.580    85465387.25149
  20306806.320   106712996.43509  20306809.740    83153027.88849
  22753438.700   119570140.75107  22753441.180    93171558.08345
 15 02 04 04 32 30.0000000  0 10G01G04G11G14G16G18G19G22G27G32
  24287154.440   127629857.46605  24287159.860    99451856.23744
  21816900.340   114648597.78908  21816902.160    89336587.56347
  23214101.520   121990928.49007  23214102.260    95057872.33745
  23988336.280   126059561.75706  23988338.640    98228252.26945
  22364772.700   117527672.91508  22364774.100    91580017.32847
  23359488.460   122754981.11907  23359489.320    95653253.71946
  20852623.360   109581290.90108  20852622.900    85388016.06249
  20877945.280   109714392.00809  20877944.360    85491765.06749
  20307789.440   106718162.84209  20307792.880    83157053.65449
  22733028.060   119462882.16607  22733030.600    93087979.97946
 15 02 04 04 33  0.0000000  0 10G01G04G11G14G16G18G19G22G27G32
  24272271.220   127551645.88305  24272276.680    99390912.20144
  21805265.980   114587459.03308  21805267.760    89288946.99047
  23198174.060   121907228.97307  23198174.780    94992651.94645
  23974556.140   125987146.41406  23974558.380    98171824.73444
  22382322.440   117619897.73708  22382323.920    91651880.81747
  23375002.860   122836510.09907  23375003.780    95716782.80045
  20844823.160   109540300.35208  20844822.660    85356075.37749
  20884475.440   109748708.11709  20884474.520    85518504.88849
  20308850.520   106723738.91009  20308853.940    83161398.64449
  22712666.460   119355881.13107  22712669.040    93004602.56445
 15 02 04 04 33 30.0000000  0 10G01G04G11G14G16G18G19G22G27G32
  24257409.140   127473545.60604  24257414.660    99330054.80745
  21793674.080   114526543.52408  21793675.900    89241480.36647
  23182265.820   121823630.71807  23182266.620    94927510.48145
  23960806.640   125914892.59806  23960808.960    98115523.04944
  22399926.680   117712408.62108  22399928.160    91723967.21247
  23390556.820   122918246.56907  23390557.740    95780473.56645
  20837080.940   109499614.65708  20837080.400    85324372.24249
  20891093.420   109783485.97908  20891092.540    85545604.51449
  20309989.520   106729724.23509  20309992.900    83166062.52349
  22692354.160   119249138.74907  22692356.720    92921426.69346
 15 02 04 04 34  0.0000000  0 10G01G04G11G14G16G18G19G22G27G32
  24242568.660   127395558.36005  24242574.100    99269285.54145
  21782125.060   114465853.27108  21782126.940    89194189.27547
  23166377.220   121740136.05606  23166378.180    94862449.72445
  23947088.600   125842805.04105  23947091.020    98059350.90845
  22417585.300   117805204.56008  22417586.660    91796275.72547
  23406150.180   123000190.11007  23406151.060    95844325.67246
  20829397.360   109459236.97108  20829396.760    85292909.10049
  20897799.300   109818725.81608  20897798.460    85573064.12449
  20311206.920   106736121.41109  20311210.240    83171047.32949
  22672091.920   119142659.34607  22672094.400    92838455.73946
 15 02 04 04 34 30.0000000  0 10G01G04G11G14G16G18G19G22G27G32
  24227749.180   127317681.48805  24227754.480    99208602.28545
  21770618.400   114405385.40408  21770620.320    89147071.46647
  23150507.860   121656742.64706  23150509.000    94797467.88245
  23933402.140   125770883.65306  23933404.820    98003308.29944
  22435297.100   117898280.05408  22435298.260    91868802.06247
  23421781.880   123082335.46107  23421782.860    95908335.04945
  20821772.100   109419166.08608  20821771.500    85261685.04049
  20904592.220   109854423.18008  20904591.420    85600880.24749
  20312502.320   106742928.54709  20312505.600    83176351.58749
  22651879.640   119036442.59107  22651882.060    92755689.44846
 15 02 04 04 35  0.0000000  0 10G01G04G11G14G16G18G19G22G27G32
  24212951.120   127239916.91904  24212956.160    99148006.56444
  21759154.480   114345142.14008  21759156.440    89100128.67847
  23134658.240   121573452.94906  23134659.500    94732566.82945
  23919748.380   125699133.61106  23919751.160    97947399.19445
  22453061.800   117991634.01708  22453062.860    91941545.39147
  23437452.060   123164683.04107  23437453.140    95972501.99545
  20814205.900   109379405.45208  20814205.300    85230702.72249
  20911472.340   109890578.73808  20911471.580    85629053.40849
  20313876.240   106750148.53509  20313879.540    83181977.55249
  22631718.120   118930493.09107  22631720.560    92673131.39846
 15 02 04 04 35 30.0000000  0 10G01G04G11G14G16G18G19G22G27G32
  24198173.980   127162262.95504  24198178.940    99087497.01644
  21747733.020   114285121.75508  21747734.960    89053359.56147
  23118828.220   121490266.09306  23118829.600    94667745.91245
  23906127.580   125627556.01406  23906130.360    97891624.45945
  22470878.460   118085261.68808  22470879.520    92014502.00847
  23453159.980   123247228.87307  23453161.100    96036823.42445
  20806698.680   109339954.72608  20806698.080    85199961.89949
  20918438.980   109927188.86808  20918438.240    85657580.76949
  20315328.540   106757780.42809  20315331.880    83187924.48449
  22611607.540   118824811.57707  22611610.040    92590782.18146
 15 02 04 04 36  0.0000000  0 10G01G04G11G14G16G18G19G22G27G32
  24183418.100   127084720.57904  24183423.020    99027074.41443
  21736354.160   114225325.31408  21736356.080    89006764.93947
  23103018.100   121407183.81906  23103019.640    94603006.47845
  23892540.540   125556154.60606  23892543.040    97835987.02545
  22488746.860   118179161.51808  22488748.040    92087670.69647
  23468905.400   123329971.69307  23468906.580    96101298.36545
  20799251.040   109300816.83008  20799250.440    85169464.85549
  20925492.000   109964252.57508  20925491.240    85686461.56848
  20316859.540   106765825.95609  20316862.940    83194193.72849
  22591548.540   118719401.36107  22591551.080    92508644.36546
 15 02 04 04 36 30.0000000  0 10G01G04G11G14G16G18G19G22G27G32
  24168683.400   127007289.35005  24168688.340    98966738.43244
  21725017.880   114165752.56308  21725019.720    88960344.62447
  23087227.940   121324205.91807  23087229.460    94538348.36345
  23878987.660   125484931.98106  23878989.780    97780488.90445
  22506666.580   118273330.43208  22506667.840    92161049.06747
  23484687.760   123412908.91207  23484689.100    96165924.76745
  20791863.080   109261992.62308  20791862.480    85139212.23649
  20932631.060   110001768.25508  20932630.260    85715694.56148
  20318469.320   106774285.53009  20318472.760    83200785.59449
  22571541.500   118614264.56107  22571544.140    92426719.58346
 15 02 04 04 37  0.0000000  0 10G01G04G11G14G16G18G19G22G27G32
  24153970.100   126929970.64405  24153975.020    98906490.10744
  21713724.360   114106404.64708  21713726.180    88914099.51547
  23071458.000   121241334.14507  23071459.480    94473772.96645
  23865469.480   125413892.27806  23865471.440    97725133.30445
  22524637.220   118367766.24408  22524638.460    92234635.40347
  23500506.980   123496039.55507  23500508.360    96230701.88844
  20784535.260   109223484.79508  20784534.720    85109206.14149
  20939856.020   110039735.37908  20939855.200    85745279.33149
  20320158.320   106783161.25909  20320161.740    83207701.74649
  22551587.320   118509404.90507  22551589.920    92345010.78146
 15 02 04 04 37 30.0000000  0 10G01G04G11G14G16G18G19G22G27G32
  24139278.420   126852765.70405  24139283.460    98846330.40945
  21702473.840   114047283.01408  21702475.700    88868030.72947
  23055708.680   121158570.66107  23055710.120    94409281.94545
  23851986.740   125343039.70706  23851988.720    97669923.52645
  22542658.460   118462467.58808  22542659.660    92308428.65047
  23516362.900   123579362.94607  23516364.180    96295629.22345
  20777268.120   109185296.15808  20777267.660    85079448.77549
  20947166.760   110078153.49808  20947165.980    85775215.52149
  20321926.940   106792455.24909  20321930.300    83214943.80249
  22531686.720   118404826.15507  22531689.160    92263520.85646
 15 02 04 04 38  0.0000000  0 10G01G04G11G14G16G18G19G22G27G32
  24124608.080   126775672.90205  24124613.400    98786258.09044
  21691266.080   113988386.10408  21691267.960    88822137.05747
  23039979.740   121075914.31507  23039981.100    94344874.41545
  23838539.640   125272375.53906  23838541.960    97614860.54745
  22560729.320   118557429.67308  22560730.460    92382425.06247
  23532254.860   123662875.72207  23532256.060    96360704.12045
  20770061.720   109147426.70108  20770061.320    85049940.11249
  20954562.620   110117019.19608  20954561.940    85805500.47149
  20323774.980   106802166.66809  20323778.300    83222511.12949
  22511839.840   118300529.22108  22511842.060    92182250.53946
 15 02 04 04 38 30.0000000  0 10G01G04G11G14G16G18G19G22G27G32
  24109959.100   126698691.96105  24109964.400    98726272.97645
  21680101.000   113929713.72208  21680102.940    88776418.33647
  23024271.200   120993365.41507  23024272.560    94280550.61345
  23825128.740   125201902.34706  23825131.500    97559946.39845
  22578849.140   118652649.95408  22578850.300    92456622.67347
  23548182.340   123746575.31307  23548183.600    96425924.56845
  20762916.340   109109877.61308  20762915.920    85020681.07449
  20962043.340   110156330.70109  20962042.720    85836132.79949
  20325702.580   106812295.99309  20325705.800    83230404.11249
  22492047.080   118196516.26708  22492049.080    92101201.50046
 15 02 04 04 39  0.0000000  0 10G01G04G11G14G16G18G19G22G27G32
  24095331.480   126621822.65505  24095336.660    98666374.80345
  21668978.620   113871265.62808  21668980.620    88730874.36547
  23008583.180   120910924.26107  23008584.460    94216310.77545
  23811754.780   125131622.93506  23811757.840    97505183.23645
  22597017.280   118748124.99908  22597018.580    92531018.79647
  23564144.880   123830458.88007  23564146.080    96491288.38945
  20755832.160   109072650.02408  20755831.700    84991672.55749
  20969608.580   110196086.01109  20969607.940    85867110.96148
  20327709.760   106822843.65609  20327712.940    83238623.06349
  22472308.640   118092789.35608  22472310.520    92020375.34946
 15 02 04 04 39 30.0000000  0 10G01G04G11G14G16G18G19G22G27G32
  24080725.220   126545065.36105  24080730.260    98606563.90644
  21657899.080   113813042.53108  21657901.140    88685505.72047
  22992915.860   120828591.72307  22992917.020    94152155.55345
  23798418.360   125061540.50006  23798421.600    97450573.57145
  22615233.240   118843851.73708  22615234.740    92605611.05147
  23580142.160   123914524.79307  23580143.280    96556794.30445
  20748809.600   109035745.96808  20748809.100    84962916.13949
  20977257.980   110236283.69309  20977257.300    85898433.82648
  20329796.780   106833810.85409  20329799.940    83247168.92249
  22452625.120   117989351.41608  22452626.940    91939774.36846
 15 02 04 04 40  0.0000000  0 10G01G04G11G14G16G18G19G22G27G32
  24066140.080   126468419.26305  24066145.020    98546839.67444
  21646862.200   113755043.35308  21646864.260    88640311.55147
  22977269.200   120746367.62807  22977270.180    94088084.82245
  23785120.020   124991657.36206  23785123.220    97396119.17745
  22633496.440   118939826.77507  22633498.140    92680396.78247
  23596173.580   123998770.14007  23596174.660    96622440.05145
  20741848.680   108999165.87908  20741848.140    84934412.17449
  20984991.060   110276921.05808  20984990.280    85930099.30149
  20331963.580   106845197.46009  20331966.780    83256041.58149
  22432996.700   117886203.99307  22432998.640    91859399.75046
 15 02 04 04 40 30.0000000  0 10G01G04G11G14G16G18G19G22G27G32
  24051576.620   126391887.43005  24051581.400    98487204.47744
  21635868.580   113697271.37708  21635870.620    88595294.44447
  22961643.900   120664255.85207  22961644.820    94024101.63045
  23771860.740   124921978.87806  23771863.780    97341824.28645
  22651807.180   119036050.51008  22651808.880    92755376.29647
  23612239.200   124083196.06907  23612240.300    96688226.48145
  20734950.280   108962914.68908  20734949.800    84906164.49349
  20992808.100   110317999.53909  20992807.200    85962108.50348
  20334210.920   106857007.29809  20334214.180    83265244.04949
  22413424.520   117783352.65107  22413426.700    91779255.85846
 15 02 04 04 41  0.0000000  0 10G01G04G11G14G16G18G19G22G27G32
  24037034.380   126315467.60105  24037039.040    98427656.54645
  21624917.800   113639724.46908  21624919.780    88550452.69547
  22946039.680   120582254.66007  22946040.540    93960204.60745
  23758640.680   124852506.25306  23758643.500    97287689.81644
  22670164.460   119132517.79308  22670166.020    92830545.59547
  23628338.420   124167798.34607  23628339.540    96754150.35145
  20728114.320   108926991.76108  20728113.940    84878172.60149
  21000708.300   110359515.23609  21000707.320    85994458.39548
  20336538.500   106869238.90609  20336541.800    83274775.17349
  22393908.700   117680797.59707  22393911.100    91699342.83446
 15 02 04 04 41 30.0000000  0  9G04G11G14G16G18G19G22G27G32
  21614009.820   113582402.42108  21614011.760    88505786.16447
  22930456.520   120500364.48807  22930457.300    93896394.09246
  23745460.320   124783241.89806  23745462.800    97233717.61245
  22688567.540   119229225.03908  22688568.840    92905901.87847
  23644470.760   124252574.46707  23644471.860    96820209.67345
  20721341.080   108891398.27008  20721340.720    84850437.42249
  21008691.220   110401465.97408  21008690.240    86027147.27848
  20338946.440   106881892.66009  20338949.760    83284635.24049
  22374449.760   117578540.95408  22374452.260    91619662.33846
 15 02 04 04 42  0.0000000  0 10G01G04G11G14G16G18G19G22G27G32
  24008013.960   126162959.55605  24008018.400    98308818.20145
  21603144.640   113525305.35708  21603146.540    88461294.94647
  22914894.620   120418586.19907  22914895.440    93832670.74846
  23732320.160   124714188.97206  23732322.300    97179910.18444
  22707015.780   119326169.92208  22707016.940    92981443.32547
  23660635.860   124337522.38107  23660636.960    96886402.85445
  20714630.860   108856135.61608  20714630.440    84822960.03149
  21016756.620   110443850.26508  21016755.700    86060173.99048
  20341434.880   106894969.47209  20341438.240    83294824.95749
  22355048.220   117476585.24208  22355050.700    91540216.34346
 15 02 04 04 42 30.0000000  0  9G04G11G14G16G18G19G22G27G32
  21592322.700   113468435.52108  21592324.580    88416980.78647
  22899354.460   120336922.44307  22899355.380    93769036.65645
  23719221.060   124645352.40006  23719222.980    97126271.31144
  22725508.920   119423351.58008  22725510.100    93057169.28247
  23676833.740   124422642.47307  23676834.780    96952730.21345
  20707984.300   108821207.55008  20707983.820    84795743.35649
  21024904.620   110486668.61008  21024903.780    86093538.92848
  20344004.340   106908472.19409  20344007.720    83305346.54849
  22335704.960   117374935.22508  22335707.360    91461008.56646
 15 02 04 04 43  0.0000000  0 10G01G04G11G14G16G18G19G22G27G32
  23979079.680   126010914.28005  23979085.860    98190345.22744
  21581544.100   113411793.59808  21581545.980    88372844.22447
  22883836.320   120255374.35607  22883837.300    93705492.68645
  23706163.660   124576735.42106  23706165.480    97072803.57045
  22744046.420   119520767.20708  22744047.760    93133077.55746
  23693064.040   124507933.15406  23693065.100    97019190.49145
  20701401.780   108786616.07108  20701401.240    84768788.95549
  21033134.960   110529919.38808  21033134.180    86127240.82748
  20346655.080   106922401.91309  20346658.440    83316200.86149
  22316420.360   117273593.55608  22316422.680    91382041.05046
 15 02 04 04 43 30.0000000  0 10G01G04G11G14G16G18G19G22G27G32
  23964644.500   125935056.87305  23964650.200    98131235.54344
  21570807.940   113355374.93108  21570809.820    88328881.62447
  22868339.380   120173937.84707  22868340.400    93642035.66845
  23693147.740   124508336.66506  23693149.620    97019505.87345
  22762626.960   119618409.70707  22762628.500    93209162.61046
  23709325.440   124593387.43306  23709326.520    97085778.24445
  20694882.700   108752358.15108  20694882.160    84742094.47449
  21041446.380   110573596.06608  21041445.640    86161274.59048
  20349386.320   106936754.76609  20349389.700    83327384.90249
  22297194.020   117172558.12908  22297196.300    91303312.14846
 15 02 04 04 44  0.0000000  0  9G04G11G14G16G18G19G22G27G32
  21560115.280   113299185.07808  21560117.220    88285097.33347
  22852864.800   120092618.93707  22852865.900    93578670.27245
  23680174.820   124440164.26206  23680176.880    96966384.55244
  22781251.160   119716281.50108  22781252.820    93285426.33446
  23725618.480   124679008.51706  23725619.740    97152495.96445
  20688428.360   108718440.50708  20688427.840    84715665.13749
  21049839.540   110617702.35408  21049838.820    86195643.11848
  20352199.220   106951536.66309  20352202.580    83338903.25949
  22278027.300   117071836.62708  22278029.680    91224827.86546
 15 02 04 04 44 30.0000000  0 10G01G04G11G14G16G18G19G22G27G32
  23935839.420   125783679.07905  23935844.220    98013277.95044
  21549465.200   113243218.91808  21549467.160    88241487.32747
  22837411.880   120011413.69607  22837413.040    93515393.47746
  23667244.560   124372215.91006  23667246.740    96913437.82345
  22799917.500   119814374.08408  22799919.180    93361862.08946
  23741942.020   124764789.62906  23741943.360    97219338.39345
  20682038.200   108684859.87108  20682037.660    84689498.41649
  21058313.240   110662231.77708  21058312.520    86230341.36148
  20355092.920   106966743.36709  20355096.300    83350752.63949
  22258919.840   116971426.54108  22258922.280    91146586.25046
