     2.11           OBSERVATION DATA    M                   RINEX VERSION / TYPE
SPIDER V4,0,0,3554                      2015 03 27 00:25    PGM / RUN BY / DATE 
ADJF                                                        MARKER NAME         
ADJF                                                        MARKER NUMBER       
                                                            OBSERVER / AGENCY   
496631              LEICA GRX1200+GNSS  8.20/4.007          REC # / TYPE / VERS 
103293              LEIAT504                                ANT # / TYPE        
  5273001.7861   285409.4873  3566762.6176                  APPROX POSITION XYZ 
        0.0480        0.0000        0.0000                  ANTENNA: DELTA H/E/N
     1     1                                                WAVELENGTH FACT L1/2
     4    C1    L1    P2    L2                              # / TYPES OF OBSERV 
    30.000                                                  INTERVAL            
  2015    03    26    00    00    0.0000000     GPS         TIME OF FIRST OBS   
  2015    03    26    23    59   30.0000000     GPS         TIME OF LAST OBS    
    16                                                      LEAP SECONDS        
    39                                                      # OF SATELLITES     
   G 1   835   835   835   835                              PRN / # OF OBS      
   G 2   935   935   935   935                              PRN / # OF OBS      
   G 3   855   855   855   855                              PRN / # OF OBS      
   G 4   861   861   861   861                              PRN / # OF OBS      
   G 5   664   664   664   664                              PRN / # OF OBS      
   G 6   765   765   763   763                              PRN / # OF OBS      
   G 7   659   659   659   659                              PRN / # OF OBS      
   G 9   798   798   797   797                              PRN / # OF OBS      
   G10   781   781   781   781                              PRN / # OF OBS      
   G11   796   796   796   796                              PRN / # OF OBS      
   G12   829   829   829   829                              PRN / # OF OBS      
   G13   822   822   822   822                              PRN / # OF OBS      
   G14   937   936   936   936                              PRN / # OF OBS      
   G15   729   729   728   728                              PRN / # OF OBS      
   G16   684   684   684   684                              PRN / # OF OBS      
   G17   936   936   936   936                              PRN / # OF OBS      
   G18   897   885   885   878                              PRN / # OF OBS      
   G19   785   785   785   785                              PRN / # OF OBS      
   G20   745   745   745   745                              PRN / # OF OBS      
   G21   723   723   723   723                              PRN / # OF OBS      
   G22   719   696   684   680                              PRN / # OF OBS      
   G23   740   740   740   740                              PRN / # OF OBS      
   G24   840   840   840   840                              PRN / # OF OBS      
   G25   863   860   858   858                              PRN / # OF OBS      
   G27   830   830   830   830                              PRN / # OF OBS      
   G28   897   897   897   897                              PRN / # OF OBS      
   G29   758   758   758   758                              PRN / # OF OBS      
   G30   707   707   707   707                              PRN / # OF OBS      
   G31   803   790   786   781                              PRN / # OF OBS      
   G32   753   753   753   753                              PRN / # OF OBS      
   R 1    30    30    30    30                              PRN / # OF OBS      
   R 2    13    13    10    10                              PRN / # OF OBS      
   R 8    30    30    30    30                              PRN / # OF OBS      
   R13    29    29    29    29                              PRN / # OF OBS      
   R14    30    30    30    30                              PRN / # OF OBS      
   R15    30    30    30    30                              PRN / # OF OBS      
   R17    30    30    30    30                              PRN / # OF OBS      
   R23    30    30    30    30                              PRN / # OF OBS      
   R24    30    30    30    30                              PRN / # OF OBS      
BIT 2 OF LLI FLAGS DATA COLLECTED UNDER A/S CONDITION       COMMENT             
SNR is mapped to RINEX snr flag value [2-9]                 COMMENT             
Lx:     = 25dBHz -> 1; 26-27dBHz -> 2; 28-31dBHz -> 3       COMMENT             
       32-35dBHz -> 4; 36-38dBHz -> 5; 39-41dBHz -> 6       COMMENT             
       42-44dBHz -> 7; 45-48dBHz -> 8; >=49dBHz -> 9        COMMENT             
                                                            END OF HEADER       
 15 03 26 00 00  0.0000000  0 15G04G16G18G19G21G22G27R01R08R13R14R15
                                R17R23R24
  23456233.840   123263428.39507  23456235.240    96049453.73545
  20532725.060   107900252.80209  20532723.020    84078119.21649
  22003937.120   115631778.89409  22003935.160    90102807.77547
  22225834.320   116797576.47308  22225831.220    91011103.88848
  24037713.060   126319043.14507  24037711.300    98430420.75546
  20956578.320   110127628.03809  20956574.940    85813745.98249
  20822857.620   109424928.24009  20822858.040    85266198.04549
  20952129.920   112001214.43908  20952137.680    87112128.45507
  21216380.900   113612847.97407  21216384.340    88365605.93608
  22810326.040   121805826.24404  22810335.100    94737879.89307
  21002266.540   111953906.16906  21002274.940    87075297.30307
  22623585.180   120893577.77505  22623592.020    94028372.12206
  23274719.920   124547728.26605  23274724.300    96870478.27206
  21274523.560   113804378.57407  21274530.280    88514556.51906
  20457529.420   109395729.05508  20457532.460    85085643.59307
 15 03 26 00 00 30.0000000  0 15G04G16G18G19G21G22G27R01R08R13R14R15
                                R17R23R24
  23439783.900   123176985.60007  23439785.460    95982095.78945
  20537117.800   107923336.68509  20537115.760    84096106.65349
  22010787.620   115667778.47809  22010785.700    90130859.42247
  22213935.120   116735045.50508  22213931.900    90962378.48348
  24051615.360   126392100.50307  24051613.600    98487348.52945
  20950841.340   110097480.17609  20950837.980    85790254.18649
  20816560.860   109391838.59509  20816561.280    85240413.91949
  20935800.060   111913922.40608  20935807.860    87044234.74307
  21221170.480   113638496.08306  21221174.020    88385554.49308
  22833177.260   121927849.67204  22833186.320    94832786.66607
  21010635.660   111998517.98206  21010643.780    87109995.36507
  22613392.140   120839110.00305  22613399.080    93986008.32207
  23261731.580   124478224.43605  23261736.000    96816419.81206
  21282769.120   113848486.35607  21282775.800    88548862.55706
  20453652.560   109374998.04707  20453655.640    85069519.48507
 15 03 26 00 01  0.0000000  0 15G04G16G18G19G21G22G27R01R08R13R14R15
                                R17R23R24
  23423373.280   123090748.35307  23423374.840    95914897.98745
  20541616.260   107946976.34709  20541614.240    84114527.15449
  22017724.780   115704233.49209  22017722.880    90159265.93447
  22202057.320   116672627.31608  22202054.060    90913740.96048
  24065516.880   126465153.55207  24065515.320    98544272.94045
  20945201.200   110067841.18709  20945197.800    85767158.91149
  20810302.820   109358952.69409  20810303.260    85214788.54949
  20919570.980   111827169.20208  20919578.840    86976760.10107
  21226105.560   113664923.01706  21226109.140    88406108.79308
  22856052.140   122049999.33404  22856061.460    94927791.62607
  21019141.480   112043858.36206  21019149.320    87145260.08507
  22603330.160   120785341.97405  22603337.100    93944188.74407
  23248743.060   124408720.40205  23248747.540    96762361.19206
  21291036.680   113892712.15207  21291043.360    88583260.38206
  20449800.740   109354400.99007  20449803.860    85053499.55807
 15 03 26 00 01 30.0000000  0 15G04G16G18G19G21G22G27R01R08R13R14R15
                                R17R23R24
  23407001.740   123004715.29507  23407003.320    95847859.30446
  20546219.960   107971169.20309  20546217.980    84133378.72149
  22024748.120   115741141.06409  22024746.180    90188025.09447
  22190200.680   116610320.38408  22190197.500    90865190.13248
  24079417.100   126538199.39907  24079415.460    98601191.75945
  20939657.640   110038709.64309  20939654.220    85744459.04849
  20804083.340   109326269.34009  20804083.760    85189321.00749
  20903443.080   111740956.81708  20903450.980    86909706.09507
  21231185.360   113692125.27307  21231188.860    88427266.11408
  22878949.560   122172268.22604  22878958.740    95022889.30007
  21027782.900   112089922.00206  21027790.700    87181087.34507
  22593398.920   120732272.91905  22593405.880    93902912.82306
  23235754.040   124339213.65005  23235758.440    96708300.45206
  21299325.920   113937053.86107  21299332.580    88617748.35806
  20445973.620   109333935.71808  20445976.780    85037582.13907
 15 03 26 00 02  0.0000000  0 15G04G16G18G19G21G22G27R01R08R13R14R15
                                R17R23R24
  23390670.160   122918891.45108  23390671.800    95780983.67246
  20550929.680   107995919.26109  20550927.780    84152664.47849
  22031858.120   115778504.31109  22031856.200    90217139.33547
  22178366.220   116548130.21608  22178363.120    90816730.30448
  24093316.560   126611241.30807  24093314.820    98658107.50845
  20934211.660   110010090.97509  20934208.180    85722158.83249
  20797903.520   109293794.24809  20797903.940    85164015.75749
  20887417.980   111655293.84508  20887425.880    86843079.42207
  21236410.720   113720106.69406  21236414.080    88449029.46708
  22901869.380   122294656.58304  22901878.540    95118079.89407
  21036560.420   112136710.92806  21036568.260    87217478.72007
  22583599.960   120679909.42205  22583606.920    93862185.67306
  23222764.980   124269708.00305  23222769.700    96654240.60606
  21307637.700   113981516.52507  21307644.380    88652330.42006
  20442172.060   109313607.07408  20442175.180    85021770.98907
 15 03 26 00 02 30.0000000  0 15G04G16G18G19G21G22G27R01R08R13R14R15
                                R17R23R24
  23374378.340   122833276.32607  23374379.920    95714270.65346
  20555745.240   108021225.31309  20555743.360    84172383.46149
  22039054.340   115816320.80809  22039052.420    90246606.73947
  22166553.880   116486056.08108  22166550.740    90768360.86548
  24107214.940   126684277.56207  24107213.060    98715018.84445
  20928863.240   109981985.16109  20928859.740    85700258.23049
  20791763.360   109261527.29209  20791763.760    85138872.67849
  20871496.280   111570183.41808  20871504.120    86776882.48107
  21241781.080   113748864.75806  21241784.420    88471396.86008
  22924810.220   122417158.42304  22924819.680    95213358.71407
  21045473.040   112184220.69006  21045481.080    87254430.72807
  22573933.080   120628252.26105  22573939.780    93822007.87906
  23209776.020   124200202.35104  23209780.880    96600180.70606
  21315971.900   114026099.18307  21315978.660    88687005.80006
  20438395.920   109293414.09207  20438398.920    85006065.33707
 15 03 26 00 03  0.0000000  0 15G04G16G18G19G21G22G27R01R08R13R14R15
                                R17R23R24
  23358126.820   122747873.58907  23358128.220    95647723.14646
  20560667.080   108047089.80909  20560665.220    84192537.60649
  22046337.160   115854592.38809  22046335.260    90276428.76747
  22154764.380   116424101.71708  22154761.140    90720084.76148
  24121112.680   126757310.34507  24121110.740    98771927.47944
  20923613.140   109954396.01509  20923609.620    85678760.23149
  20785663.560   109229472.62709  20785663.960    85113895.02749
  20855679.260   111485632.62708  20855687.020    86711120.83407
  21247296.800   113778401.67306  21247300.300    88494370.03008
  22947772.140   122539772.43004  22947781.620    95308724.78606
  21054520.820   112232451.07506  21054529.120    87291943.22307
  22564399.440   120577306.93805  22564406.080    93782383.73107
  23196787.460   124130699.08505  23196792.160    96546122.68806
  21324329.360   114070805.90507  21324336.120    88721777.67806
  20434645.820   109273360.27908  20434648.700    84990467.93907
 15 03 26 00 03 30.0000000  0 15G04G16G18G19G21G22G27R01R08R13R14R15
                                R17R23R24
  23341915.160   122662681.20307  23341916.460    95581339.57546
  20565694.580   108073509.61809  20565692.740    84213124.45849
  22053705.840   115893315.24909  22053703.940    90306602.43247
  22142997.340   116362265.47608  22142993.980    90671900.69648
  24135009.100   126830336.43507  24135007.200    98828830.87345
  20918461.060   109927321.82009  20918457.520    85657663.48749
  20779603.920   109197628.88009  20779604.300    85089081.72049
  20839967.180   111401642.83308  20839974.900    86645795.50707
  21252957.260   113808713.77606  21252960.880    88517946.12308
  22970753.780   122662491.52504  22970763.260    95404172.57407
  21063702.780   112281396.74206  21063711.320    87330012.05007
  22554999.000   120527073.43906  22555005.620    93743313.23706
  23183798.900   124061195.49305  23183803.780    96492064.41506
  21332709.520   114115634.21407  21332716.360    88756644.12706
  20430921.240   109253443.18508  20430924.080    84974976.87307
 15 03 26 00 04  0.0000000  0 15G04G16G18G19G21G22G27R01R08R13R14R15
                                R17R23R24
  23325744.020   122577701.70407  23325745.120    95515121.84745
  20570828.080   108100486.23809  20570826.240    84234145.18449
  22061160.440   115932489.68309  22061158.520    90337127.97347
  22131253.220   116300549.91308  22131249.880    90623810.67448
  24148904.420   126903356.69007  24148902.500    98885729.75045
  20913407.480   109900765.24909  20913403.940    85636970.08149
  20773584.940   109165998.87709  20773585.280    85064434.96449
  20824361.180   111318220.25008  20824368.840    86580911.34207
  21258762.720   113839801.56007  21258766.240    88542125.51708
  22993754.720   122785313.10104  22993764.180    95499700.05807
  21073018.760   112331056.37906  21073027.460    87368636.18107
  22545732.220   120477554.48005  22545738.880    93704798.48506
  23170810.700   123991692.74905  23170815.420    96438006.77706
  21341112.860   114160586.43007  21341119.660    88791606.94106
  20427222.620   109233664.80408  20427225.440    84959593.69407
 15 03 26 00 04 30.0000000  0 15G04G16G18G19G21G22G27R01R08R13R14R15
                                R17R23R24
  23309612.460   122492929.20408  23309613.240    95449065.42245
  20576066.220   108128012.70509  20576064.380    84255594.36349
  22068699.440   115972107.57209  22068697.520    90367999.06547
  22119530.860   116238948.94008  22119527.620    90575809.93848
  24162797.360   126976364.28606  24162795.460    98942618.77044
  20908451.400   109874720.90709  20908447.900    85616675.81349
  20767605.640   109134577.35409  20767605.940    85039950.66349
  20808860.780   111235362.09208  20808868.420    86516466.18107
  21264711.580   113871657.37406  21264715.100    88566902.27608
  23016772.840   122908226.08904  23016782.260    95595298.60606
  21082466.820   112381420.33206  21082475.660    87407808.11807
  22536598.420   120428746.44405  22536605.160    93666836.68406
  23157821.360   123922183.93405  23157826.040    96383944.43206
  21349538.320   114205656.68507  21349544.920    88826661.57206
  20423548.720   109214019.02408  20423551.580    84944313.64807
 15 03 26 00 05  0.0000000  0 15G04G16G18G19G21G22G27R01R08R13R14R15
                                R17R23R24
  23293521.540   122408370.10208  23293522.080    95383175.27545
  20581410.040   108156094.34009  20581408.160    84277476.14449
  22076323.820   116012174.20109  22076321.960    90399219.82347
  22107831.740   116177469.63108  22107828.520    90527904.00348
  24176688.680   127049363.79906  24176686.860    98999501.47045
  20903594.060   109849195.44109  20903590.580    85596785.86749
  20761667.320   109103371.30109  20761667.620    85015634.26449
  20793467.840   111153078.13408  20793475.440    86452467.61807
  21270804.760   113904285.76806  21270808.160    88592279.93008
  23039808.040   123031231.74704  23039817.780    95690969.25607
  21092047.540   112432490.79306  21092056.320    87447529.57307
  22527598.980   120380656.71305  22527605.760    93629433.56606
  23144831.960   123852674.69405  23144836.560    96329881.76306
  21357987.000   114250851.07507  21357993.580    88861812.75106
  20419900.780   109194512.08408  20419903.700    84929141.59107
 15 03 26 00 05 30.0000000  0 15G04G16G18G19G21G22G27R01R08R13R14R15
                                R17R23R24
  23277471.340   122324025.49808  23277471.840    95317452.28945
  20586859.440   108184730.96009  20586857.560    84299790.38149
  22084033.440   116052688.77409  22084031.620    90430789.63547
  22096155.960   116116112.85408  22096152.680    90480093.55048
  24190578.500   127122355.03807  24190576.800    99056377.73845
  20898835.700   109824190.09909  20898832.260    85577301.21349
  20755770.340   109072382.27209  20755770.600    84991486.97549
  20778183.220   111071373.08008  20778190.740    86388919.31807
  21277042.100   113937686.25106  21277045.420    88618258.10408
  23062859.940   123154325.93004  23062870.060    95786708.72307
  21101760.520   112484265.84506  21101769.200    87487799.03307
  22518734.300   120333286.96805  22518741.040    93592590.42606
  23131842.360   123783165.09205  23131847.100    96275818.79506
  21366459.060   114296170.74207  21366465.680    88897061.35906
  20416278.920   109175144.83408  20416281.940    84914078.18607
 15 03 26 00 06  0.0000000  0 15G04G16G18G19G21G22G27R01R08R13R14R15
                                R17R23R24
  23261461.840   122239895.39707  23261462.380    95251896.46246
  20592414.220   108213921.27909  20592412.340    84322536.07149
  22091827.860   116093648.62309  22091825.960    90462706.41347
  22084503.460   116054878.71308  22084500.180    90432378.66248
  24204466.540   127195336.82106  24204464.940    99113246.62745
  20894176.320   109799704.92109  20894172.900    85558221.88249
  20749914.740   109041610.74509  20749914.980    84967509.16849
  20763007.460   110990250.26708  20763014.960    86325823.86507
  21283423.140   113971856.43006  21283426.380    88644834.92508
  23085927.500   123277503.80904  23085937.500    95882513.29206
  21111604.920   112536741.22906  21111613.440    87528613.21007
  22510004.700   120286638.42305  22510011.420    93556308.24607
  23118852.420   123713654.03805  23118857.320    96221754.70906
  21374954.460   114341615.27507  21374961.140    88932407.08006
  20412683.060   109155916.55608  20412686.180    84899122.87107
 15 03 26 00 06 30.0000000  0 15G04G16G18G19G21G22G27R01R08R13R14R15
                                R17R23R24
  23245492.480   122155976.79207  23245493.360    95186505.46045
  20598073.580   108243661.32109  20598071.700    84345710.11449
  22099706.120   116135049.11909  22099704.220    90494966.54847
  22072873.720   115993764.36108  22072870.420    90384757.11848
  24218351.920   127268304.73806  24218350.160    99170104.70845
  20889615.520   109775737.63909  20889612.060    85539546.10549
  20744100.080   109011054.42209  20744100.340    84943699.04649
  20747940.760   110909710.40408  20747948.360    86263181.82607
  21289946.960   114006791.61606  21289950.360    88672006.73808
  23109009.380   123400757.20004  23109019.200    95978376.55607
  21121579.420   112589910.26906  21121587.800    87569966.88707
  22501409.820   120240709.79605  22501416.460    93520585.98006
  23105861.660   123644137.94305  23105866.520    96167686.70506
  21383472.680   114387181.94907  21383479.360    88967847.81006
  20409112.640   109136824.26808  20409115.880    84884273.32407
 15 03 26 00 07  0.0000000  0 15G04G16G18G19G21G22G27R01R08R13R14R15
                                R17R23R24
  23229564.660   122072276.67608  23229565.700    95121284.67646
  20603838.660   108273956.89309  20603836.780    84369317.04349
  22107669.240   116176895.39009  22107667.300    90527574.04647
  22061268.240   115932777.26008  22061264.960    90337234.72348
  24232235.720   127341264.49706  24232234.080    99226956.44345
  20885154.520   109752294.92109  20885151.020    85521279.07849
  20738327.820   108980720.85409  20738328.060    84920062.50849
  20732984.980   110829763.84108  20732992.740    86201001.23407
  21296614.560   114042496.71806  21296618.060    88699777.38808
  23132105.820   123524088.52204  23132115.600    96074300.39906
  21131684.460   112643775.82906  21131692.880    87611862.29807
  22492951.220   120195509.46005  22492957.820    93485430.17806
  23092871.200   123574622.81305  23092875.600    96113619.41606
  21392015.000   114432877.51307  21392021.760    89003388.78106
  20405568.940   109117874.80608  20405572.300    84869534.86407
 15 03 26 00 07 30.0000000  0 15G04G16G18G19G21G22G27R01R08R13R14R15
                                R17R23R24
  23213677.420   121988789.00508  23213678.420    95056229.42645
  20609708.040   108304800.79509  20609706.200    84393351.23049
  22115715.600   116219179.17309  22115713.640    90560522.44947
  22049685.840   115871911.42408  22049682.600    90289806.81248
  24246116.540   127414208.64106  24246114.800    99283795.99345
  20880792.220   109729370.97709  20880788.720    85503416.28549
  20732596.880   108950604.40909  20732597.100    84896595.13949
  20718139.540   110750407.06808  20718147.380    86139279.34807
  21303424.460   114078963.66206  21303427.980    88728140.56208
  23155214.480   123647486.24904  23155224.560    96170275.89806
  21141918.220   112698327.66706  21141926.700    87654291.47207
  22484627.840   120151031.57705  22484634.280    93450836.26206
  23079879.360   123505101.30305  23079883.780    96059547.16906
  21400580.240   114478695.83607  21400587.180    89039025.22506
  20402050.820   109099061.69508  20402054.200    84854902.44507
 15 03 26 00 08  0.0000000  0 15G04G16G18G19G21G22G27R01R08R13R14R15
                                R17R23R24
  23197831.260   121905517.10108  23197832.200    94991342.32246
  20615682.220   108336195.22309  20615680.380    84417814.41449
  22123845.560   116261902.31709  22123843.540    90593813.22447
  22038127.180   115811170.67108  22038124.020    90242476.39148
  24259994.800   127487139.35806  24259993.080    99340625.10945
  20876529.340   109706969.65909  20876525.880    85485960.75449
  20726908.020   108920709.30009  20726908.260    84873300.25849
  20703405.880   110671647.62008  20703413.820    86078022.06407
  21310376.900   114116193.89806  21310380.560    88757097.43308
  23178335.320   123770948.73604  23178345.700    96266301.75706
  21152280.720   112753565.78606  21152289.380    87697254.42807
  22476440.600   120107281.33106  22476447.020    93416808.30606
  23066886.860   123435576.23305  23066891.280    96005472.17806
  21409169.060   114524640.40207  21409176.020    89074759.87406
  20398558.860   109080388.42608  20398562.220    84840378.80607
 15 03 26 00 08 30.0000000  0 16G04G16G18G19G21G22G27R01R02R08R13R14
                                R15R17R23R24
  23182026.420   121822462.24008  23182027.300    94926624.30846
  20621761.100   108368139.92409  20621759.280    84442706.36949
  22132058.940   116305063.88609  22132056.840    90627445.62247
  22026592.620   115750556.27008  22026589.420    90195244.40348
  24273870.460   127560056.72706  24273868.920    99397443.78944
  20872366.120   109685091.86909  20872362.640    85468913.14449
  20721261.540   108891037.15509  20721261.860    84850179.10249
  20688784.780   110593489.73908  20688792.760    86017232.65107
  23567606.720   125761262.88305                                
  21317471.740   114154186.41706  21317475.420    88786647.17608
  23201467.780   123894472.48004  23201478.420    96362375.20606
  21162771.500   112809487.37106  21162780.240    87740748.95907
  22468390.020   120064261.02105  22468396.320    93383348.06507
  23053893.960   123366048.06905  23053898.380    95951394.76406
  21417781.700   114570712.46207  21417788.600    89110593.66906
  20395093.140   109061855.60208  20395096.460    84825964.38707
 15 03 26 00 09  0.0000000  0 16G04G16G18G19G21G22G27R01R02R08R13R14
                                R15R17R23R24
  23166262.800   121739624.23107  23166263.760    94862075.31946
  20627944.480   108400633.75009  20627942.640    84468026.22749
  22140355.340   116348661.71509  22140353.180    90661417.96547
  22015082.140   115690068.23608  22015078.820    90148110.89548
  24287743.320   127632959.16406  24287741.780    99454250.86445
  20868302.520   109663737.75709  20868299.020    85452273.61049
  20715657.600   108861588.54009  20715658.000    84827232.14249
  20674276.760   110515936.49908  20674284.780    85956913.52207
  23542944.840   125629661.84504  23542955.760    97711977.61803
  21324708.620   114192939.11006  21324712.260    88816788.17808
  23224610.540   124018051.83203  23224621.120    96458491.93906
  21173389.700   112866088.06706  21173398.400    87784771.70607
  22460476.080   120021970.92706  22460482.260    93350455.78007
  23040900.320   123296515.67905  23040904.660    95897314.04606
  21426418.060   114616911.28507  21426424.920    89146526.07006
  20391653.700   109043463.04508  20391656.860    84811659.07507
 15 03 26 00 09 30.0000000  0 16G04G16G18G19G21G22G27R01R02R08R13R14
                                R15R17R23R24
  23150540.800   121657005.29407  23150541.960    94797697.02246
  20634232.420   108433677.23509  20634230.580    84493774.38049
  22148734.720   116392695.57309  22148732.560    90695730.07047
  22003596.160   115629708.94108  22003592.840    90101077.69648
  24301613.480   127705847.56306  24301612.000    99511046.99045
  20864339.040   109642909.59209  20864335.500    85436043.90049
  20710096.760   108832366.13909  20710097.140    84804461.44449
  20659882.920   110438993.51708  20659890.920    85897069.03307
  23518277.800   125498035.00704  23518290.900    97609634.19201
  21332087.480   114232451.68406  21332090.980    88847520.19108
  23247763.300   124141684.62604  23247773.980    96554650.13106
  21184134.940   112923366.17106  21184143.640    87829321.32107
  22452699.420   119980414.94206  22452705.580    93318134.46406
  23027906.020   123226980.23105  23027910.240    95843230.95906
  21435078.640   114663239.37207  21435085.560    89182559.00206
  20388240.920   109025213.06408  20388244.000    84797464.64707
 15 03 26 00 10  0.0000000  0 16G04G16G18G19G21G22G27R01R02R08R13R14
                                R15R17R23R24
  23134860.220   121574603.90208  23134861.520    94733488.24446
  20640624.520   108467267.87809  20640622.660    84519948.89449
  22157196.480   116437162.57409  22157194.380    90730379.68747
  21992134.500   115569477.59808  21992131.260    90054144.20348
  24315480.560   127778719.43906  24315478.940    99567830.22745
  20860475.380   109622606.22109  20860471.860    85420223.12249
  20704578.780   108803369.15809  20704579.180    84781866.39849
  20645603.560   110362662.36508  20645611.540    85837700.40707
  23493607.560   125366387.73405                                
  21339607.400   114272720.71206  21339610.800    88878840.55008
  23270924.760   124265364.22504  23270935.740    96650844.77206
  21195006.140   112981315.77606  21195014.840    87874393.21207
  22445059.920   119939592.38406  22445066.280    93286383.59706
  23014910.600   123157439.44005  23014914.580    95789143.69606
  21443763.200   114709695.33407  21443770.200    89218691.38506
  20384854.420   109007103.64008  20384857.420    84783379.54407
 15 03 26 00 10 30.0000000  0 16G04G16G18G19G21G22G27R01R02R08R13R14
                                R15R17R23R24
  23119221.280   121492421.05108  23119222.520    94669449.75746
  20647120.640   108501405.25109  20647118.800    84546549.43649
  22165740.400   116482061.28709  22165738.420    90765365.71247
  21980697.400   115509375.19508  21980694.140    90007311.18848
  24329344.420   127851574.55406  24329342.860    99624600.41045
  20856711.840   109602828.82709  20856708.240    85404812.20549
  20699104.020   108774599.28409  20699104.440    84759448.32649
  20631439.480   110286947.45708  20631447.520    85778811.09407
  23468935.000   125234726.97407                                
  21347268.300   114313744.89606  21347271.560    88910748.26307
  23294094.360   124389086.63903  23294105.540    96747072.64406
  21206002.880   113039934.49506  21206011.560    87919985.53007
  22437558.040   119899504.92206  22437564.580    93255204.46607
  23001914.020   123087893.73405  23001918.340    95735052.66806
  21452471.740   114756279.88607  21452478.820    89254923.80206
  20381494.400   108989135.83908  20381497.340    84769404.60207
 15 03 26 00 11  0.0000000  0 16G04G16G18G19G21G22G27R01R02R08R13R14
                                R15R17R23R24
  23103623.900   121410456.74208  23103624.980    94605581.55246
  20653720.540   108536088.02309  20653718.720    84573574.95249
  22174366.200   116527390.15909  22174364.260    90800686.91047
  21969284.840   115449401.79308  21969281.540    89960578.68748
  24343204.840   127924411.53706  24343203.440    99681356.44845
  20853048.320   109583576.98009  20853044.680    85389810.79349
  20693672.620   108746057.13509  20693673.020    84737207.69249
  20617391.260   110211852.04708  20617399.320    85720403.60307
  23444260.860   125103067.68707  23444273.800    97302439.63305
  21355069.780   114355522.12806  21355073.060    88943241.66708
  23317271.020   124512847.00703  23317282.380    96843329.96606
  21217124.360   113099217.85806  21217133.000    87966094.77307
  22430193.820   119860153.19106  22430200.520    93224597.56007
  22988916.500   123018342.02105  22988921.140    95680956.91706
  21461204.320   114802993.37807  21461211.420    89291256.48506
  20378160.760   108971309.53808  20378163.760    84755539.69807
 15 03 26 00 11 30.0000000  0 16G04G16G18G19G21G22G27R01R02R08R13R14
                                R15R17R23R24
  23088068.520   121328713.50408  23088069.560    94541885.60245
  20660424.520   108571317.60709  20660422.700    84601026.56149
  22183073.800   116573148.96909  22183071.900    90836343.12847
  21957897.380   115389560.32308  21957894.040    89913948.98548
  24357062.200   127997231.78606  24357060.600    99738099.47645
  20849485.340   109564853.41809  20849481.640    85375221.03949
  20688285.120   108717745.81809  20688285.540    84715146.93449
  20603460.020   110137381.97008  20603468.120    85662482.49007
  23419585.360   124971383.66906  23419597.820    97200019.96904
  21363011.940   114398052.38306  21363015.280    88976320.75908
  23340454.520   124636643.23504  23340466.120    96939615.25306
  21228370.180   113159163.87406  21228378.820    88012719.42307
  22422968.060   119821541.12905  22422974.680    93194565.96006
  22975918.340   122948786.04105  22975922.700    95626857.87106
  21469961.460   114849837.87807  21469968.360    89327691.07306
  20374854.060   108953627.16008  20374857.020    84741786.74107
 15 03 26 00 12  0.0000000  0 16G04G16G18G19G21G22G27R01R02R08R13R14
                                R15R17R23R24
  23072554.980   121247190.10708  23072556.080    94478360.96246
  20667232.100   108607091.58709  20667230.260    84628902.37549
  22191862.700   116619334.90609  22191860.820    90872332.17847
  21946534.960   115329850.16108  21946531.500    89867421.60148
  24370915.900   128070033.23706  24370914.320    99794827.82645
  20846022.760   109546657.31609  20846019.000    85361042.29349
  20682941.500   108689665.07109  20682941.940    84693265.84249
  20589646.140   110063539.24408  20589654.260    85605049.31907
  23394908.060   124839704.95506  23394921.960    97097603.93805
  21371094.140   114441332.67606  21371097.720    89009983.22207
  23363643.900   124760469.04704  23363655.500    97035923.52206
  21239739.340   113219767.93706  21239748.060    88059855.88507
  22415880.700   119783668.48706  22415887.280    93165109.46106
  22962919.120   122879224.27005  22962923.360    95572754.33606
  21478742.940   114896812.88807  21478749.760    89364227.16906
  20371574.080   108936087.80608  20371577.080    84728145.03007
 15 03 26 00 12 30.0000000  0 16G04G16G18G19G21G22G27R01R02R08R13R14
                                R15R17R23R24
  23057083.360   121165886.66808  23057084.560    94415007.71546
  20674142.920   108643408.09909  20674141.080    84657200.93449
  22200732.500   116665946.09509  22200730.640    90908652.57747
  21935197.540   115270271.71208  21935194.140    89820996.85348
  24384765.720   128142814.12506  24384764.160    99851540.18844
  20842660.440   109528988.20009  20842656.680    85347274.17349
  20677641.840   108661815.31609  20677642.300    84671564.73549
  20575950.220   109990326.77208  20575958.280    85548106.32907
  23370230.780   124708026.18308  23370244.980    96995187.85007
  21379315.940   114485360.20006  21379319.720    89044226.85208
  23386837.800   124884319.51804  23386849.420    97132250.97706
  21251231.000   113281025.57506  21251239.920    88107500.66707
  22408931.700   119746535.08506  22408938.220    93136227.91707
  22949918.620   122809655.58105  22949922.780    95518645.40106
  21487548.700   114943918.01007  21487555.680    89400864.44706
  20368320.740   108918691.00308  20368323.800    84714614.17407
 15 03 26 00 13  0.0000000  0 15G04G16G18G19G21G22G27R01R02R08R14R15
                                R17R23R24
  23041654.180   121084806.13508  23041655.360    94351828.15446
  20681157.300   108680268.87509  20681155.480    84685923.60649
  22209683.320   116712983.27409  22209681.480    90945304.93047
  21923885.760   115210828.09809  21923882.420    89774677.17548
  24398612.020   128215576.65406  24398610.200    99908238.20145
  20839399.020   109511849.28009  20839395.260    85333919.20349
  20672386.840   108634200.31809  20672387.320    84650046.56749
  20562373.480   109917751.07008  20562381.360    85491658.61007
  23345554.920   124576353.79005  23345568.800    96892776.77906
  21387677.500   114530135.64406  21387681.280    89079052.20408
  21262845.060   113342935.53206  21262854.120    88155652.81107
  22402121.940   119710145.63106  22402128.420    93107925.00507
  22936917.180   122740082.18205  22936921.280    95464532.82806
  21496379.420   114991156.24407  21496386.500    89437605.26806
  20365094.620   108901439.74308  20365097.760    84701196.53007
 15 03 26 00 13 30.0000000  0 16G04G16G18G19G21G22G27R01R02R08R13R14
                                R15R17R23R24
  23026266.840   121003945.09608  23026268.020    94288819.65146
  20688274.400   108717669.29109  20688272.600    84715066.77349
  22218714.220   116760441.24509  22218712.380    90982285.17347
  21912599.100   115151516.37908  21912595.740    89728460.27348
  24412453.860   128288315.91506  24412452.080    99964918.10744
  20836237.780   109495237.07309  20836234.040    85320974.65949
  20667176.060   108606817.41309  20667176.520    84628709.24949
  20548915.740   109845811.59208  20548923.420    85435705.74207
  23320880.180   124444687.70107  23320893.300    96790365.54707
  21396177.700   114575653.33406  21396181.420    89114454.86008
  23433238.000   125132176.95103  23433249.500    97325074.79906
  21274580.200   113405490.32606  21274589.120    88204306.50807
  22395451.020   119674497.66706  22395457.400    93080198.80607
  22923914.080   122670500.06905  22923918.160    95410413.46106
  21505234.460   115038524.65407  21505241.520    89474447.34006
  20361895.080   108884330.59208  20361898.320    84687889.41907
 15 03 26 00 14  0.0000000  0 16G04G16G18G19G21G22G27R01R02R08R13R14
                                R15R17R23R24
  23010922.000   120923307.17908  23010923.020    94225984.99046
  20695494.580   108755611.46209  20695492.780    84744632.07449
  22227825.360   116808320.90309  22227823.480    91019593.99047
  21901338.280   115092340.55708  21901334.880    89682349.25548
  24426291.920   128361035.34206  24426290.220   100021582.52745
  20833177.540   109479155.51609  20833173.800    85308443.59649
  20662010.300   108579671.05109  20662010.740    84607556.23749
  20535578.380   109774515.40408  20535585.800    85380253.19507
  23296207.720   124313033.92407  23296221.320    96687958.28006
  21404816.780   114621914.46506  21404820.260    89150435.73407
  23456440.800   125256078.74403  23456452.440    97421442.13806
  21286436.260   113468689.23206  21286445.000    88253461.16506
  22388919.560   119639595.31106  22388925.980    93053052.53007
  22910909.960   122600912.44405  22910913.880    95356289.79306
  21514114.520   115086026.64507  21514121.480    89511393.29806
  20358722.920   108867367.71008  20358726.200    84674696.05807
 15 03 26 00 14 30.0000000  0 16G04G16G18G19G21G22G27R01R02R08R13R14
                                R15R17R23R24
  22995619.760   120842893.39608  22995620.520    94163324.96946
  20702817.780   108794095.08009  20702816.000    84774619.29949
  22237016.760   116856622.09409  22237014.840    91057231.28747
  21890103.660   115033302.33008  21890100.260    89636345.46548
  24440126.200   128433734.43806  24440124.560   100078231.15545
  20830218.320   109463605.00709  20830214.600    85296326.34949
  20656889.820   108552762.74909  20656890.300    84586588.74249
  20522362.060   109703866.35908  20522369.320    85325303.99907
  23271539.180   124181398.39606  23271552.420    96585575.16005
  21413594.300   114668917.40306  21413597.560    89186993.58607
  23479645.820   125379990.50503  23479657.600    97517817.43506
  21298412.660   113532529.43706  21298421.300    88303114.61906
  22382527.820   119605439.72406  22382534.520    93026487.08507
  22897904.720   122531319.00605  22897908.680    95302161.62706
  21523019.840   115133663.55607  21523026.620    89548444.21406
  20355578.240   108850551.37508  20355581.460    84661616.69007
 15 03 26 00 15  0.0000000  0  7G04G16G18G19G21G22G27
  22980359.880   120762702.59608  22980360.540    94100838.71146
  20710243.500   108833117.45209  20710241.720    84805026.32849
  22246287.680   116905341.18809  22246285.800    91095194.22047
  21878895.000   114974400.41609  21878891.620    89590447.88848
  24453956.100   128506410.41006  24453954.060   100134861.76345
  20827360.060   109448584.96209  20827356.340    85284622.44249
  20651814.560   108526092.11209  20651815.060    84565806.43749
 15 03 26 00 15 30.0000000  0  8G04G11G16G18G19G21G22G27
  22965142.980   120682738.06108  22965143.660    94038528.76846
  24676146.580   129674036.15206  24676147.320   101044700.35045
  20717772.080   108872680.42009  20717770.300    84835854.59249
  22255638.380   116954479.51208  22255636.560    91133483.81947
  21867713.020   114915638.82008  21867709.660    89544659.65148
  24467781.980   128579065.84206  24467780.080   100191476.33144
  20824603.320   109434098.43509  20824599.620    85273334.26249
  20646785.360   108499663.29309  20646785.800    84545212.55749
 15 03 26 00 16  0.0000000  0  9G04G11G16G18G19G21G22G27G32
  22949969.460   120603001.20108  22949970.200    93976396.22746
  24659386.860   129585962.01506  24659387.540   100976071.14544
  20725403.620   108912784.25209  20725401.800    84867104.31749
  22265068.740   117004036.41408  22265066.900    91172099.58947
  21856558.040   114857019.26708  21856554.660    89498982.09448
  24481604.020   128651701.54406  24481602.140   100248075.50144
  20821948.360   109420146.77809  20821944.700    85262462.87049
  20641802.620   108473478.58209  20641803.020    84524808.88949
  24504349.900   128771225.37306  24504358.880   100341238.85945
 15 03 26 00 16 30.0000000  0  9G04G11G16G18G19G21G22G27G32
  22934835.220   120523470.03608  22934835.920    93914423.94646
  24642638.200   129497945.04306  24642638.580   100907486.43745
  20733133.500   108953404.88309  20733131.620    84898756.73649
  22274574.160   117053987.62808  22274572.360    91211022.60947
  21845426.020   114798520.18108  21845422.580    89453398.39348
  24495417.880   128724294.05706  24495416.140   100304641.07145
  20819390.840   109406707.23809  20819387.240    85251990.52549
  20636862.220   108447516.37309  20636862.560    84504578.59749
  24481806.240   128652760.93006  24481815.120   100248930.13844
 15 03 26 00 17  0.0000000  0  9G04G11G16G18G19G21G22G27G32
  22919747.380   120444182.39208  22919747.940    93852641.43446
  24625907.500   129410023.28906  24625907.620   100838975.95144
  20740968.720   108994579.03409  20740966.820    84930840.47649
  22284161.540   117104369.29809  22284159.660    91250281.05147
  21834324.240   114740180.17209  21834320.760    89407938.66448
  24509230.540   128796880.09906  24509228.900   100361201.55844
  20816938.120   109393818.26709  20816934.540    85241947.19849
  20631971.580   108421815.46309  20631971.840    84484551.92049
  24459267.820   128534326.84006  24459277.600   100156645.13845
 15 03 26 00 17 30.0000000  0  9G04G11G16G18G19G21G22G27G32
  22904702.280   120365119.67908  22904702.800    93791034.21746
  24609191.400   129322177.73506  24609191.160   100770524.78644
  20748905.420   109036286.51409  20748903.520    84963339.79049
  22293826.800   117155160.23309  22293824.840    91289858.40147
  21823249.260   114681980.77509  21823245.780    89362588.50348
  24523038.260   128869440.27006  24523036.480   100417741.93344
  20814586.560   109381460.84409  20814583.000    85232318.06249
  20627127.200   108396358.00109  20627127.440    84464714.94149
  24436731.840   128415906.42106  24436742.820   100064370.69945
 15 03 26 00 18  0.0000000  0  9G04G11G16G18G19G21G22G27G32
  22889699.460   120286279.64808  22889699.960    93729600.50546
  24592489.120   129234405.93106  24592488.720   100702131.07244
  20756942.840   109078523.37009  20756940.920    84996251.60649
  22303569.120   117206356.14209  22303567.120    91329751.32147
  21812200.740   114623920.32109  21812197.220    89317346.60348
  24536840.460   128941971.17406  24536838.740   100474259.50344
  20812335.740   109369632.78609  20812332.160    85223101.41249
  20622328.860   108371142.48309  20622329.080    84445066.48349
  24414198.860   128297499.92206  24414209.860    99972106.96545
 15 03 26 00 18 30.0000000  0  9G04G11G16G18G19G21G22G27G32
  22874739.900   120207667.21008  22874740.280    93668344.14046
  24575801.720   129146713.10505  24575801.300   100633798.87544
  20765081.660   109121293.08409  20765079.720    85029578.64449
  22313389.000   117257959.77508  22313386.920    91369961.94647
  21801179.720   114566004.38409  21801176.220    89272217.30948
  24550637.820   129014476.82106  24550636.220   100530757.35145
  20810186.380   109358337.85209  20810182.760    85214300.18949
  20617577.680   108346174.83809  20617577.880    84425611.17749
  24391670.000   128179114.46206  24391680.700    99879859.60745
 15 03 26 00 19  0.0000000  0  9G04G11G16G18G19G21G22G27G32
  22859823.480   120129280.91508  22859823.620    93607263.97746
  24559128.940   129059097.12006  24559128.740   100565526.59944
  20773321.280   109164592.48009  20773319.320    85063318.42249
  22323285.820   117309968.03908  22323283.680    91410487.87247
  21790185.920   114508231.61709  21790182.400    89227199.58948
  24564429.920   129086954.48306  24564428.000   100587233.41544
  20808138.440   109347575.86509  20808134.780    85205914.25849
  20612873.460   108321454.03109  20612873.640    84406348.21949
  24369145.420   128060750.62106  24369155.520    99787628.97244
 15 03 26 00 19 30.0000000  0  9G04G11G16G18G19G21G22G27G32
  22844950.480   120051122.82508  22844950.560    93546361.63946
  24542471.160   128971560.12906  24542471.240   100497315.84944
  20781661.820   109208422.33409  20781659.880    85097471.53949
  22333259.560   117362380.60908  22333257.420    91451328.83447
  21779219.860   114450604.79809  21779216.380    89182295.59148
  24578217.000   129159405.67606  24578215.120   100643688.85244
  20806192.180   109337348.12909  20806188.460    85197944.61849
  20608216.780   108296983.17109  20608216.980    84387280.02049
  24346625.720   127942412.92706  24346635.740    99695418.69945
 15 03 26 00 20  0.0000000  0  9G04G11G16G18G19G21G22G27G32
  22830120.840   119973193.25108  22830121.080    93485637.36546
  24525828.540   128884102.44706  24525828.540   100429166.94444
  20790103.000   109252781.03509  20790101.080    85132036.74649
  22343309.800   117415195.14508  22343307.720    91492483.02047
  21768281.800   114393124.79409  21768278.260    89137505.98648
  24591998.840   129231829.46106  24591997.280   100700122.92744
  20804347.640   109327654.89809  20804343.840    85190391.47449
  20603607.840   108272763.27409  20603608.100    84368407.37449
  24324111.460   127824103.95606  24324121.640    99603230.79844
 15 03 26 00 20 30.0000000  0  9G04G11G16G18G19G21G22G27G32
  22815334.640   119895491.73408  22815335.120    93425090.79446
  24509201.000   128796723.73506  24509200.960   100361079.55844
  20798644.460   109297666.90709  20798642.580    85167012.73449
  22353436.260   117468410.17208  22353434.240    91533949.27947
  21757371.740   114335792.16609  21757368.220    89092831.22948
  24605775.180   129304224.64706  24605773.660   100756534.74145
  20802604.540   109318494.77809  20802600.660    85183253.74649
  20599046.820   108248795.02109  20599047.120    84349730.81949
  24301603.260   127705825.93807  24301612.960    99511066.96445
 15 03 26 00 21  0.0000000  0  9G04G11G16G18G19G21G22G27G32
  22800592.000   119818018.60608  22800592.520    93364722.15646
  24492588.540   128709424.04906  24492588.540   100293053.76545
  20807285.900   109343078.05709  20807284.060    85202398.02749
  22363638.520   117522023.42608  22363636.560    91575725.83647
  21746489.780   114278607.15909  21746486.300    89048271.49348
  24619545.960   129376590.67406  24619544.320   100812923.79744
  20800963.040   109309868.61809  20800959.100    85176532.08649
  20594533.800   108225079.20909  20594534.160    84331250.96149
  24279101.520   127587580.98507  24279110.700    99418928.91645
 15 03 26 00 21 30.0000000  0  9G04G11G16G18G19G21G22G27G32
  22785893.220   119740775.59408  22785893.460    93304532.83946
  24475991.500   128622205.17706  24475991.280   100225091.01444
  20816027.440   109389015.02809  20816025.600    85238193.05149
  22373916.500   117576034.42308  22373914.540    91617812.33046
  21735636.400   114221572.32709  21735632.980    89003828.78848
  24633311.480   129448928.38106  24633309.660   100869290.81544
  20799423.360   109301777.73209  20799419.420    85170227.52649
  20590069.340   108201618.61009  20590069.760    84312969.97949
  24256606.720   127469373.39706  24256615.720    99326820.00044
 15 03 26 00 22  0.0000000  0  9G04G11G16G18G19G21G22G27G32
  22771237.660   119663760.35108  22771237.680    93244521.00446
  24459409.340   128535064.77806  24459409.100   100157189.42144
  20824868.280   109435473.67509  20824866.420    85274394.57649
  22384269.320   117630438.58408  22384267.240    91660205.18247
  21724811.340   114164686.08809  21724807.900    88959501.86348
  24647070.940   129521234.50306  24647069.160   100925633.19545
  20797985.020   109294219.40709  20797981.100    85164337.94849
  20585653.180   108178411.76109  20585653.640    84294886.71849
  24234119.120   127351203.20906  24234127.300    99234740.11745
 15 03 26 00 22 30.0000000  0  9G04G11G16G18G19G21G22G27G32
  22756626.240   119586977.53008  22756626.120    93184690.27346
  24442842.760   128448007.10706  24442842.800   100089352.37945
  20833808.980   109482457.25709  20833807.100    85311005.14549
  22394697.400   117685238.15908  22394695.300    91702906.15647
  21714015.480   114107953.46609  21714012.020    88915294.64148
  24660825.100   129593512.87106  24660823.600   100981953.95144
  20796648.760   109287197.59909  20796644.900    85158866.43949
  20581286.360   108155464.09609  20581286.860    84277005.42749
  24211639.620   127233077.23806  24211647.920    99142694.75745
 15 03 26 00 23  0.0000000  0  9G04G11G16G18G19G21G22G27G32
  22742058.300   119510423.53708  22742058.520    93125037.90546
  24426291.260   128361028.52106  24426291.160   100021576.92144
  20842848.500   109529960.20009  20842846.620    85348020.40749
  22405199.760   117740428.19508  22405197.660    91745911.37847
  21703248.240   114051371.43509  21703244.800    88871204.76548
  24674573.220   129665758.96706  24674571.620   101038249.64444
  20795413.920   109280708.86809  20795410.120    85153810.30749
  20576968.340   108132772.84209  20576968.860    84259323.93249
  24189168.500   127114994.30506  24189176.640    99050682.88645
 15 03 26 00 23 30.0000000  0  9G04G11G16G18G19G21G22G27G32
  22727534.860   119434102.90108  22727535.340    93065567.37046
  24409755.560   128274133.53806  24409755.220    99953866.68643
  20851987.380   109577985.38909  20851985.520    85385442.61149
  22415776.780   117796010.62108  22415774.640    91789222.36647
  21692510.700   113994945.32609  21692507.240    88827236.38348
  24688315.660   129737976.24706  24688314.100   101094522.77545
  20794281.340   109274757.24309  20794277.560    85149172.69649
  20572700.180   108110343.40209  20572700.700    84241846.44749
  24166706.960   126996961.21607  24166714.600    98958709.74145
 15 03 26 00 24  0.0000000  0  9G04G11G16G18G19G21G22G27G32
  22713055.020   119358010.80008  22713055.660    93006274.91846
  24393234.760   128187316.86506  24393234.480    99886217.43744
  20861224.380   109626526.31709  20861222.600    85423266.69549
  22426426.980   117851978.09408  22426424.880    91832833.38847
  21681802.020   113938670.81209  21681798.580    88783386.13548
  24702051.680   129810159.40906  24702050.420   101150769.36844
  20793250.020   109269337.83609  20793246.300    85144949.81249
  20568481.080   108088171.87409  20568481.600    84224569.93549
  24144254.600   126878975.64806  24144261.800    98866773.65545
 15 03 26 00 24 30.0000000  0  9G04G11G16G18G19G21G22G27G32
  22698619.340   119282150.68408  22698619.940    92947163.21946
  24376729.720   128100582.58706  24376729.400    99818632.41044
  20870559.840   109675584.48009  20870558.120    85461493.81249
  22437150.760   117908332.38708  22437148.700    91876745.82447
  21671122.980   113882552.06409  21671119.540    88739657.25748
  24715781.660   129882310.75206  24715780.300   101206991.12244
  20792320.580   109264453.50609  20792316.860    85141143.85749
  20564311.880   108066262.57209  20564312.380    84207497.74849
  24121812.380   126761043.38206  24121819.660    98774879.08845
 15 03 26 00 25  0.0000000  0  9G04G11G16G18G19G21G22G27G32
  22684228.440   119206526.27608  22684228.860    92888235.20346
  24360240.980   128013934.10106  24360240.880    99751114.20444
  20879994.200   109725162.11409  20879992.460    85500125.71249
  22447948.500   117965075.34108  22447946.540    91920961.11147
  21660474.460   113826593.68009  21660470.900    88696053.33448
  24729506.080   129954433.18406  24729504.400   101263190.42443
  20791493.620   109260107.73409  20791489.880    85137757.55949
  20560193.500   108044620.15009  20560193.940    84190633.51749
  24099381.260   126643170.45406  24099388.660    98683030.81045
 15 03 26 00 25 30.0000000  0  9G04G11G16G18G19G21G22G27G32
  22669881.140   119131131.35708  22669881.340    92829485.99546
  24343767.400   127927365.23507  24343767.320    99683658.03644
  20889525.980   109775251.53509  20889524.220    85539156.41449
  22458818.600   118022198.32008  22458816.760    91965472.51947
  21649855.280   113770789.74609  21649851.680    88652569.76348
  24743223.700   130026519.71405  24743221.760   101319361.71143
  20790767.880   109256293.82109  20790764.120    85134785.70349
  20556124.920   108023239.37909  20556125.300    84173973.17649
  24076960.840   126525353.12107  24076968.120    98591225.75345
 15 03 26 00 26  0.0000000  0  9G04G11G16G18G19G21G22G27G32
  22655578.180   119055969.84608  22655578.320    92770918.68846
  24327309.600   127840879.45106  24327309.560    99616266.67044
  20899155.420   109825854.37409  20899153.660    85578587.18549
  22469761.340   118079702.90908  22469759.580    92010281.29647
  21639266.420   113715145.05309  21639262.840    88609210.28948
  24756935.000   130098573.79405  24756933.360   101375507.73945
  20790144.000   109253015.28309  20790140.180    85132231.02749
  20552107.020   108002124.98009  20552107.400    84157520.40849
  24054552.420   126407597.82607  24054559.320    98499469.02845
 15 03 26 00 26 30.0000000  0  9G04G11G16G18G19G21G22G27G32
  22641319.620   118981041.29308  22641319.820    92712532.88946
  24310867.640   127754476.72806  24310867.600    99548939.95945
  20908882.060   109876968.23309  20908880.340    85618416.14249
  22480776.260   118137586.68108  22480774.480    92055385.53547
  21628707.900   113659659.79809  21628704.360    88565975.04348
  24770640.060   130170593.95706  24770638.720   101431627.28044
  20789621.720   109250270.83509  20789617.900    85130092.52149
  20548139.920   107981277.47109  20548140.280    84141275.59149
  24032156.020   126289906.30407  24032162.440    98407761.96945
 15 03 26 00 27  0.0000000  0  9G04G11G16G18G19G21G22G27G32
  22627105.260   118906344.32408  22627105.620    92654327.54947
  24294441.260   127668155.32406  24294441.060    99481676.62545
  20918705.400   109928590.28309  20918703.680    85658641.09349
  22491862.640   118195845.89608  22491860.820    92100782.33047
  21618179.600   113604333.20809  21618176.100    88522863.42948
  24784338.320   130242577.91706  24784336.960   101487718.63844
  20789200.780   109248059.03609  20789196.960    85128369.05949
  20544223.440   107960696.25109  20544223.800    84125238.27349
  24009772.140   126172279.73207  24009778.380    98316105.52445
 15 03 26 00 27 30.0000000  0  9G04G11G16G18G19G21G22G27G32
  22612935.760   118831882.59208  22612936.200    92596305.52146
  24278031.040   127581919.22506  24278030.900    99414479.78844
  20928625.760   109980722.11109  20928624.060    85699263.28249
  22503020.740   118254481.97008  22503018.840    92146472.77846
  21607682.400   113549170.02909  21607678.860    88479879.15448
  24798030.300   130314528.89806  24798029.120   101543784.33544
  20788881.900   109246383.59609  20788878.100    85127063.54549
  20540358.540   107940386.06209  20540358.880    84109412.15349
  23987401.640   126054724.18106  23987407.920    98224504.42645
 15 03 26 00 28  0.0000000  0  9G04G11G16G18G19G21G22G27G32
  22598811.140   118757656.79808  22598811.520    92538467.31547
  24261637.060   127495768.82806  24261636.860    99347349.75844
  20938643.020   110033363.07309  20938641.320    85740282.19549
  22514250.340   118313493.85108  22514248.420    92192456.06647
  21597216.540   113494171.49209  21597212.940    88437023.16448
  24811715.860   130386447.03506  24811714.660   101599824.39744
  20788665.060   109245244.12309  20788661.260    85126175.66449
  20536545.460   107920348.52009  20536545.880    84093798.48649
  23965045.220   125937242.74507  23965051.520    98132961.08745
 15 03 26 00 28 30.0000000  0  9G04G11G16G18G19G21G22G27G32
  22584730.740   118683663.81808  22584730.960    92480810.52546
  24245258.820   127409701.30007  24245258.700    99280284.29744
  20948756.180   110086508.11609  20948754.520    85781693.89549
  22525550.360   118372875.81008  22525548.380    92238727.72046
  21586781.580   113439335.35209  21586777.960    88394293.71648
  24825394.320   130458328.11406  24825393.140   101655835.56445
  20788549.600   109244637.30909  20788545.760    85125702.84049
  20532783.900   107900581.58309  20532784.380    84078395.68049
  23942703.080   125819834.88707  23942708.660    98041474.97545
 15 03 26 00 29  0.0000000  0  9G04G11G16G18G19G21G22G27G32
  22570695.020   118609906.31008  22570695.060    92423337.21046
  24228896.840   127323719.29006  24228896.660    99213285.45344
  20958965.400   110140157.95609  20958963.780    85823498.94249
  22536920.900   118432628.54808  22536918.980    92285288.29147
  21576378.080   113384664.71709  21576374.480    88351693.23648
  24839066.100   130530174.22606  24839064.840   101711819.54544
  20788535.920   109244565.13109  20788531.980    85125646.61249
  20529074.500   107881088.68309  20529075.020    84063206.40649
  23920375.740   125702505.62607  23920380.940    97950050.14845
 15 03 26 00 29 30.0000000  0  9G04G11G16G18G19G21G22G27G32
  22556703.980   118536383.34808  22556703.800    92366046.64146
  24212550.800   127237821.38106  24212550.640    99146352.14944
  20969270.060   110194309.28109  20969268.460    85865694.75949
  22548361.400   118492748.69908  22548359.520    92332135.15647
  21566006.100   113330159.62809  21566002.480    88309221.75048
  24852731.160   130601983.43706  24852729.720   101767774.76345
  20788623.680   109245026.03909  20788619.680    85126005.78449
  20525417.240   107861869.70509  20525417.740    84048230.57849
  23898063.580   125585256.33907  23898068.720    97858687.63045
 15 03 26 00 30  0.0000000  0  9G04G11G16G18G19G21G22G27G32
  22542757.880   118463096.15808  22542757.560    92308939.80247
  24196221.120   127152009.11906  24196220.920    99079485.58844
  20979670.160   110248962.05409  20979668.540    85908281.31849
  22559871.640   118553235.47908  22559869.760    92379267.71847
  21555666.040   113275822.25409  21555662.420    88266880.95648
  24866389.280   130673756.43606  24866387.560   101823701.75444
  20788812.960   109246020.65009  20788808.920    85126780.82749
  20521812.540   107842927.03609  20521813.060    84033470.05949
  23875767.400   125468090.89807  23875772.420    97767390.41245
 15 03 26 00 30 30.0000000  0  9G04G11G16G18G19G21G22G27G32
  22528857.080   118390047.10808  22528856.820    92252018.54247
  24179908.140   127066284.99706  24179908.020    99012687.74944
  20990165.780   110304116.66009  20990164.100    85951258.91649
  22571451.680   118614089.13208  22571449.820    92426686.15546
  21545358.460   113221655.67709  21545354.880    88224673.24748
  24880040.720   130745495.16906  24880038.880   101879602.05344
  20789104.220   109247551.38609  20789100.200    85127973.62649
  20518261.100   107824264.14809  20518261.640    84018927.55349
  23853488.020   125351014.23607  23853493.000    97676162.37346
 15 03 26 00 31  0.0000000  0  9G04G11G16G18G19G21G22G27G32
  22515000.780   118317232.50408  22515000.800    92195279.95146
  24163611.240   126980645.21407  24163611.220    98945955.58545
  21000755.820   110359767.44609  21000754.060    85994623.14349
  22583100.440   118675303.93608  22583098.580    92474385.99246
  21535082.780   113167656.84509  21535079.260    88182596.25248
  24893684.680   130817195.12006  24893683.140   101935472.12444
  20789496.560   109249613.44409  20789492.580    85129580.44049
  20514762.360   107805878.13709  20514762.900    84004600.79249
  23831225.400   125234024.99407  23831230.220    97585002.43045
 15 03 26 00 31 30.0000000  0  9G04G11G16G18G19G21G22G27G32
  22501189.400   118244654.48108  22501189.840    92138725.71347
  24147330.860   126895091.92807  24147330.880    98879290.83145
  21011440.280   110415914.40509  21011438.460    86038374.00549
  22594817.900   118736879.65908  22594816.000    92522367.08146
  21524839.600   113113828.65509  21524836.120    88140652.21848
  24907321.540   130888857.63605  24907320.280   101991312.98945
  20789990.360   109252208.77209  20789986.460    85131602.79049
  20511316.920   107787772.17009  20511317.440    83990492.24849
  23808980.300   125117127.90507  23808984.660    97493914.27245
 15 03 26 00 32  0.0000000  0  9G04G11G16G18G19G21G22G27G32
  22487423.160   118172313.46608  22487423.820    92082356.14247
  24131067.140   126809625.89107  24131067.020    98812694.07545
  21022218.880   110472556.23009  21022217.020    86082510.47449
  22606603.740   118798814.71408  22606601.900    92570628.15746
  21514629.260   113060173.03709  21514625.740    88098842.66648
  24920951.320   130960482.85506  24920950.480   102047124.78344
  20790585.620   109255337.18109  20790581.780    85134040.53049
  20507925.060   107769947.79409  20507925.560    83976603.12649
  23786753.320   125000326.01307  23786757.480    97402900.30045
 15 03 26 00 32 30.0000000  0  9G04G11G16G18G19G21G22G27G32
  22473701.540   118100206.05808  22473702.080    92026168.58847
  24114819.440   126724243.45707  24114819.060    98746162.44544
  21033090.660   110529687.78009  21033088.800    86127028.54549
  22618456.760   118861102.95708  22618454.920    92619164.44846
  21504451.200   113006686.98409  21504447.640    88057165.22648
  24934573.460   131032066.56806  24934571.880   102102904.36844
  20791281.520   109258994.32309  20791277.680    85136890.26349
  20504586.320   107752402.46509  20504586.800    83962931.43949
  23764544.340   124883618.29907  23764548.320    97311959.68545
 15 03 26 00 33  0.0000000  0  9G04G11G16G18G19G21G22G27G32
  22460025.880   118028339.24908  22460025.860    91970168.48346
  24098588.840   126638951.50606  24098588.400    98679701.32644
  21044056.480   110587313.47709  21044054.620    86171931.65849
  22630377.980   118923749.42008  22630376.080    92667979.86346
  21494306.840   112953378.17009  21494303.320    88015625.89348
  24948188.620   131103615.24705  24948186.700   102158656.52644
  20792079.260   109263186.44409  20792075.380    85140156.86149
  20501302.180   107735144.07509  20501302.620    83949483.33449
  23742354.980   124767014.17507  23742358.900    97221099.79445
 15 03 26 00 33 30.0000000  0  9G04G11G16G18G19G21G22G27G32
  22446395.520   117956710.49108  22446395.000    91914353.89146
  24082374.980   126553748.00407  24082374.760    98613309.15445
  21055115.520   110645429.21709  21055113.720    86217216.63449
  22642366.560   118986749.69308  22642364.620    92717070.99246
  21484195.900   112900244.94309  21484192.400    87974223.39848
  24961796.500   131175125.53306  24961795.060   102214378.80344
  20792978.300   109267910.73109  20792974.340    85143838.14249
  20498072.360   107718171.24809  20498072.800    83936257.75949
  23720185.300   124650513.82507  23720188.840    97130320.70845
 15 03 26 00 34  0.0000000  0  9G04G11G16G18G19G21G22G27G32
  22432809.880   117885317.21608  22432809.380    91858722.79447
  24066177.420   126468629.99706  24066177.120    98546983.56244
  21066266.940   110704030.44309  21066265.220    86262879.91049
  22654421.540   119050098.75708  22654419.560    92766433.89946
  21474118.140   112847285.93809  21474114.620    87932956.65048
  24975396.600   131246594.43906  24975395.400   102270068.82445
  20793977.940   109273163.69309  20793973.880    85147931.37849
  20494896.600   107701482.40709  20494897.040    83923253.47149
  23698035.380   124534117.18807  23698038.960    97039622.46446
 15 03 26 00 34 30.0000000  0  9G04G11G16G18G19G21G22G27G32
  22419269.580   117814163.47608  22419269.520    91803278.36147
  24049997.100   126383601.78907  24049996.760    98480727.91444
  21077511.120   110763119.17309  21077509.460    86308923.05449
  22666543.260   119113798.57608  22666541.240    92816070.11546
  21464074.460   112794505.96709  21464070.880    87891829.40848
  24988989.560   131318025.55805  24988987.840   102325729.40044
  20795078.920   109278949.29009  20795074.800    85152439.65049
  20491775.820   107685082.54209  20491776.260    83910474.35449
  23675906.500   124417830.83107  23675910.100    96949010.13146
 15 03 26 00 35  0.0000000  0  9G04G11G16G18G19G21G22G27G32
  22405774.580   117743247.67408  22405774.880    91748019.32947
  24033833.540   126298661.96807  24033833.000    98414541.12445
  21088847.460   110822691.97909  21088845.860    86355343.40449
  22678731.020   119177845.39508  22678728.880    92865976.73647
  21454064.740   112741904.42909  21454061.040    87850841.20648
  25002574.780   131389416.87505  25002573.480   102381358.98745
  20796280.760   109285265.10709  20796276.640    85157361.08049
  20488709.940   107668971.25709  20488710.380    83897920.10849
  23653798.740   124301655.74707  23653802.360    96858484.48745
 15 03 26 00 35 30.0000000  0  9G04G11G16G18G19G21G22G27G32
  22392325.360   117672571.69808  22392325.840    91692947.17647
  24017687.160   126213812.29507  24017686.500    98348424.58845
  21100275.800   110882748.38409  21100274.260    86402140.59549
  22690984.640   119242238.64308  22690982.500    92916153.30046
  21444089.440   112689483.88109  21444085.760    87809994.04348
  25016152.760   131460769.33406  25016151.680   102436958.27745
  20797583.600   109292111.67709  20797579.500    85162696.09449
  20485699.480   107653151.07609  20485699.900    83885592.70449
  23631712.940   124185596.15807  23631716.720    96768048.84746
 15 03 26 00 36  0.0000000  0  9G04G11G16G18G19G21G22G27G32
  22378921.340   117602132.60608  22378921.700    91638059.58347
  24001557.280   126129049.62907  24001556.760    98282375.84145
  21111795.220   110943283.29809  21111793.700    86449310.63549
  22703303.180   119306973.16208  22703301.060    92966595.78546
  21434148.200   112637242.41709  21434144.560    87769286.42348
  25029722.840   131532079.41105  25029721.460   102492524.59443
  20798986.760   109299485.60109  20798982.720    85168442.02749
  20482744.080   107637620.36209  20482744.500    83873490.85449
  23609649.200   124069651.86107  23609652.520    96677702.97945
 15 03 26 00 36 30.0000000  0  9G04G11G16G18G19G21G22G27G32
  22365563.180   117531934.34708  22365563.160    91583359.65147
  23985444.820   126044378.46707  23985444.280    98216398.35945
  21123406.140   111004299.07809  21123404.620    86496855.38049
  22715686.980   119372050.85708  22715685.040    93017305.67746
  21424241.960   112585184.98809  21424238.320    87728722.20049
  25043285.120   131603350.86104  25043284.420   102548060.78744
  20800490.920   109307390.39409  20800486.980    85174601.61849
  20479844.700   107622384.09909  20479845.140    83861618.44349
  23587608.580   123953829.37907  23587611.680    96587452.05146
 15 03 26 00 37  0.0000000  0  9G04G11G16G18G19G21G22G27G32
  22352250.740   117461977.05808  22352250.540    91528847.51247
  23969349.800   125959799.08306  23969349.380    98150492.39944
  21135108.160   111065793.38809  21135106.620    86544773.00849
  22728135.740   119437469.69808  22728133.820    93068281.39546
  21414370.940   112533312.51209  21414367.340    87688302.10148
  25056839.920   131674583.02806  25056839.540   102603566.24844
  20802095.900   109315825.04609  20802092.040    85181174.09149
  20477001.560   107607443.36609  20477002.020    83849976.31549
  23565591.640   123838131.41307  23565594.980    96497298.16046
 15 03 26 00 37 30.0000000  0  9G04G11G16G18G19G21G22G27G32
  22338983.060   117392255.44408  22338982.920    91474518.99647
  23953271.280   125875306.17206  23953270.860    98084653.83845
  21146899.900   111127759.16809  21146898.320    86593058.01149
  22740648.020   119503222.21008  22740646.180    93119517.11446
  21404534.400   112481620.97709  21404530.780    87648022.99648
  25070386.600   131745770.41506  25070386.240   102659036.92744
  20803800.660   109324783.81209  20803796.820    85188154.96049
  20474213.880   107592794.16309  20474214.380    83838561.35649
  23543597.900   123722555.52808  23543601.380    96407239.40645
 15 03 26 00 38  0.0000000  0  9G04G11G16G18G19G21G22G27G32
  22325760.960   117322773.20708  22325761.060    91420377.03747
  23937209.860   125790903.23107  23937209.360    98018885.39144
  21158781.600   111190197.75009  21158780.000    86641711.43549
  22753223.960   119569309.31508  22753222.220    93171013.57046
  21394733.060   112430114.63509  21394729.460    87607888.19848
  25083925.440   131816916.06005  25083924.660   102714475.06344
  20805605.740   109334269.67109  20805601.880    85195546.55549
  20471482.540   107578440.90409  20471483.060    83827377.00049
  23521628.720   123607107.70407  23521631.960    96317280.38246
 15 03 26 00 38 30.0000000  0  8G04G11G16G18G19G22G27G32
  22312585.800   117253537.27708  22312586.120    91366426.99047
  23921166.980   125706597.75906  23921166.220    97953192.87944
  21170754.240   111253114.29509  21170752.660    86690737.30049
  22765864.680   119635736.61008  22765862.940    93222775.09946
  21384968.520   112378801.73909  21384964.920    87567904.14149
  20807512.280   109344288.54109  20807508.360    85203353.48749
  20468809.080   107564391.75309  20468809.600    83816429.61849
  23499685.580   123491797.55907  23499688.680    96227428.68146
 15 03 26 00 39  0.0000000  0  8G04G11G16G18G19G22G27G32
  22299455.420   117184536.45408  22299455.800    91312660.14147
  23905140.480   125622378.43707  23905139.780    97887567.49744
  21182815.240   111316495.23309  21182813.660    86740125.02448
  22778567.400   119702489.81808  22778565.560    93274790.58546
  21375238.860   112327672.22209  21375235.260    87528062.96848
  20809517.960   109354828.25609  20809513.940    85211566.26649
  20466191.540   107550636.48209  20466192.020    83805711.22749
  23477767.060   123376616.41507  23477769.920    96137677.46145
 15 03 26 00 39 30.0000000  0  8G04G11G16G18G19G22G27G32
  22286370.680   117115775.24208  22286370.940    91259079.99947
  23889131.420   125538250.32207  23889130.700    97822013.13245
  21194965.140   111380343.32609  21194963.540    86789876.76149
  22791332.800   119769572.14008  22791330.800    93327062.52546
  21365545.080   112276731.37409  21365541.540    87488368.81149
  20811623.460   109365892.59909  20811619.400    85220187.85049
  20463631.040   107537180.96109  20463631.500    83795226.40649
  23455874.500   123261571.84107  23455877.500    96048032.66946
 15 03 26 00 40  0.0000000  0  8G04G11G16G18G19G22G27G32
  22273331.820   117047255.39508  22273331.880    91205687.94747
  23873140.060   125454214.70907  23873139.260    97756530.87045
  21207203.820   111444657.87109  21207202.180    86839991.98148
  22804160.620   119836982.76308  22804158.600    93379590.29146
  21355887.700   112225981.79709  21355884.260    87448823.70248
  20813829.040   109377482.97909  20813824.960    85229219.33649
  20461128.040   107524027.55209  20461128.480    83784977.00449
  23434008.640   123146667.67107  23434011.740    95958497.26946
 15 03 26 00 40 30.0000000  0  8G04G11G16G18G19G22G27G32
  22260338.820   116978976.98708  22260338.680    91152484.01947
  23857166.320   125370271.83907  23857165.560    97691120.87745
  21219530.880   111509436.79009  21219529.160    86890469.03948
  22817050.520   119904719.51808  22817048.420    93432372.16846
  21346267.000   112175424.76909  21346263.540    87409428.62448
  20816134.480   109389598.23509  20816130.460    85238659.80749
  20458682.780   107511177.63209  20458683.180    83774964.07749
  23412170.120   123031906.82207  23412173.120    95869073.52146
 15 03 26 00 41  0.0000000  0  8G04G11G16G18G19G22G27G32
  22247391.520   116910938.70208  22247391.200    91099467.21346
  23841209.960   125286421.04006  23841209.400    97625782.60245
  21231945.640   111574676.71309  21231943.900    86941305.32648
  22830001.800   119972778.72508  22829999.580    93485405.32746
  21336682.920   112125060.14109  21336679.400    87370183.47148
  20818539.320   109402235.88009  20818535.360    85248507.34449
  20456295.220   107498631.00409  20456295.620    83765187.49049
  23390359.080   122917290.65707  23390362.060    95779762.52346
 15 03 26 00 41 30.0000000  0  8G04G11G16G18G19G22G27G32
  22234490.440   116843143.03308  22234490.080    91046639.45347
  23825271.600   125202664.72707  23825271.040    97560517.96546
  21244448.100   111640377.60709  21244446.420    86992500.80949
  22843014.500   120041160.71808  22843012.300    93538689.99446
  21327136.080   112074891.25809  21327132.540    87331090.85049
  20821043.960   109415398.02009  20821040.040    85258763.56949
  20453966.040   107486391.10109  20453966.420    83755649.90449
  23368576.520   122802824.27607  23368579.480    95690568.22146
 15 03 26 00 42  0.0000000  0  8G04G11G16G18G19G22G27G32
  22221635.160   116775587.79908  22221634.800    90993999.05347
  23809350.720   125119000.65506  23809350.400    97495325.20445
  21257037.600   111706535.96609  21257036.020    87044052.75949
  22856087.820   120109861.47308  22856085.660    93592223.04846
  21317626.320   112024917.21609  21317622.820    87292150.05049
  20823647.740   109429081.21809  20823643.860    85269425.82449
  20451695.060   107474456.96009  20451695.440    83746350.57349
  23346822.640   122688508.13407  23346825.560    95601490.98246
 15 03 26 00 42 30.0000000  0  8G04G11G16G18G19G22G27G32
  22208825.820   116708273.98508  22208825.560    90941546.76247
  23793447.620   125035429.94907  23793447.340    97430205.20245
  21269713.800   111773149.89609  21269712.300    87095959.69548
  22869221.520   120178879.49008  22869219.280    93646003.32146
  21308154.000   111975139.77809  21308150.480    87253362.44649
  20826350.720   109443285.61909  20826346.860    85280494.20049
  20449482.580   107462830.43109  20449483.000    83737290.93849
  23325098.080   122574345.79707  23325100.860    95512533.56446
 15 03 26 00 43  0.0000000  0  8G04G11G16G18G19G22G27G32
  22196062.220   116641201.20308  22196062.160    90889282.30247
  23777562.400   124951952.76807  23777561.800    97365158.08945
  21282476.280   111840217.13109  21282474.820    87148219.86049
  22882415.080   120248212.09808  22882412.900    93700028.72646
  21298719.300   111925559.89509  21298715.740    87214728.77749
  20829152.740   109458010.39909  20829148.840    85291968.06949
  20447328.840   107451512.40109  20447329.240    83728471.69249
  23303403.240   122460339.57007  23303405.920    95423697.78846
 15 03 26 00 43 30.0000000  0  9G01G04G11G16G18G19G22G27G32
  24590540.060   129224152.34506  24590544.100   100694162.21245
  22183344.700   116574371.17208  22183344.900    90837207.01747
  23761695.400   124868570.70007  23761694.660    97300185.11845
  21295324.880   111907736.77809  21295323.380    87200832.56149
  22895668.360   120317858.62808  22895666.260    93754298.76346
  21289322.660   111876180.14009  21289319.040    87176251.06949
  20832053.840   109473255.78809  20832049.900    85303847.61749
  20445234.300   107440505.51609  20445234.720    83719894.90449
  23281739.000   122346493.88808  23281741.640    95334987.12446
 15 03 26 00 44  0.0000000  0  9G01G04G11G16G18G19G22G27G32
  24575174.240   129143405.76706  24575178.500   100631243.00945
  22170673.700   116507785.58508  22170673.980    90785322.18247
  23745846.940   124785285.89207  23745846.180    97235287.95345
  21308259.520   111975708.61509  21308258.020    87253797.60648
  22908981.320   120387818.99408  22908979.320    93808813.31646
  21279964.740   111827003.69209  21279961.060    87137931.75849
  20835054.160   109489022.69409  20835050.220    85316133.52849
  20443199.580   107429812.84109  20443199.980    83711562.94349
  23260106.200   122232813.30407  23260108.640    95246405.06846
 15 03 26 00 44 30.0000000  0  9G01G04G11G16G18G19G22G27G32
  24559834.980   129062798.65106  24559839.620   100568432.44045
  22158048.700   116441441.38508  22158048.860    90733625.43447
  23730016.320   124702095.26207  23730015.560    97170464.17445
  21321279.200   112044127.55809  21321277.720    87307111.04848
  22922352.920   120458087.53108  22922350.960    93863568.01446
  21270645.040   111778028.32209  21270641.340    87099769.14249
  20838152.980   109505307.11109  20838149.000    85328822.70149
  20441224.240   107419432.25909  20441224.600    83703474.17649
  23238504.520   122119297.22507  23238506.980    95157951.22646
 15 03 26 00 45  0.0000000  0  9G01G04G11G16G18G19G22G27G32
  24544522.040   128982328.57206  24544526.620   100505728.65444
  22145469.240   116375335.99208  22145469.100    90682114.76547
  23714203.120   124618996.57107  23714202.300    97105712.04045
  21334383.000   112112988.49209  21334381.520    87360768.90248
  22935782.380   120528659.76708  22935780.400    93918559.38146
  21261363.360   111729252.86709  21261359.680    87061762.31149
  20841349.460   109522104.80309  20841345.460    85341911.83049
  20439308.000   107409362.34509  20439308.360    83695627.49649
  23216934.240   122005945.75508  23216936.600    95069625.62346
 15 03 26 00 45 30.0000000  0  9G01G04G11G16G18G19G22G27G32
  24529236.200   128902001.21606  24529240.760   100443136.10845
  22132936.380   116309475.13908  22132936.000    90630794.65147
  23698408.520   124535995.74007  23698407.740    97041036.16444
  21347571.580   112182294.97909  21347570.120    87414773.93948
  22949270.300   120599539.28608  22949268.380    93973790.16346
  21252120.960   111680683.91909  21252117.300    87023916.39449
  20844644.760   109539421.86009  20844640.760    85355405.65949
  20437452.140   107399609.77109  20437452.500    83688028.08849
  23195397.000   121892767.31508  23195399.080    94981434.81146
 15 03 26 00 46  0.0000000  0  9G01G04G11G16G18G19G22G27G32
  24513976.960   128821813.14806  24513981.380   100380652.03444
  22120449.320   116243855.28508  22120448.980    90579662.32247
  23682631.840   124453089.13707  23682631.020    96976433.71644
  21360843.840   112252041.04509  21360842.360    87469121.49648
  22962815.600   120670720.29708  22962813.680    94029255.87546
  21242917.360   111632318.97609  21242913.760    86986229.44049
  20848037.880   109557252.88909  20848033.900    85369299.98049
  20435656.200   107390172.13009  20435656.560    83680674.08049
  23173892.440   121779761.00707  23173894.620    94893378.17046
 15 03 26 00 46 30.0000000  0  9G01G04G11G16G18G19G22G27G32
  24498744.880   128741768.34506  24498749.320   100318279.61245
  22108008.820   116178480.29008  22108008.640    90528720.81247
  23666873.940   124370281.01607  23666872.840    96911907.97544
  21374200.080   112322228.47809  21374198.600    87523812.98248
  22976418.620   120742204.28208  22976416.580    94084957.68046
  21233753.600   111584163.12909  21233750.020    86948705.41349
  20851529.380   109575600.89309  20851525.400    85383597.13849
  20433921.160   107381054.43609  20433921.520    83673569.38149
  23152421.840   121666933.44608  23152423.960    94805460.79946
 15 03 26 00 47  0.0000000  0  9G01G04G11G16G18G19G22G27G32
  24483539.420   128661864.11205  24483543.900   100256016.75045
  22095614.460   116113347.47308  22095614.320    90477967.99447
  23651134.240   124287568.85707  23651132.880    96847456.99145
  21387639.380   112392852.44509  21387637.900    87578844.62648
  22990078.300   120813986.15808  22990076.220    94140891.60246
  21224629.340   111536214.85109  21224625.780    86911343.13149
  20855118.480   109594461.76409  20855114.480    85398293.93749
  20432246.680   107372255.05509  20432247.060    83666712.72349
  23130985.340   121554284.64308  23130987.420    94717682.71546
 15 03 26 00 47 30.0000000  0  9G01G04G11G16G18G19G22G27G32
  24468361.040   128582101.83906  24468365.560   100193864.45845
  22083266.380   116048457.82208  22083266.280    90427404.66247
  23635413.000   124204954.14207  23635411.900    96783081.95544
  21401161.440   112463911.33409  21401159.980    87634215.16248
  23003794.580   120886065.43408  23003792.400    94197057.25846
  21215545.040   111488476.66609  21215541.460    86874144.55449
  20858805.240   109613835.80809  20858801.240    85413390.60549
  20430633.200   107363776.25509  20430633.580    83660105.86349
  23109583.560   121441818.47507  23109585.660    94630046.94646
 15 03 26 00 48  0.0000000  0  9G01G04G11G16G18G19G22G27G32
  24453209.840   128502482.53106  24453214.300   100131823.52945
  22070964.800   115983812.51208  22070964.560    90377031.73247
  23619710.480   124122438.00407  23619709.760    96718783.76545
  21414766.080   112535404.03409  21414764.600    87689923.74148
  23017567.120   120958440.59408  23017564.920    94253453.49546
  21206501.160   111440950.86109  21206497.580    86837111.47349
  20862589.640   109633722.93809  20862585.600    85428887.08449
  20429081.140   107355620.22909  20429081.540    83653750.52349
  23088217.260   121329538.61208  23088219.320    94542556.33246
 15 03 26 00 48 30.0000000  0  9G01G04G11G16G18G19G22G27G32
  24438085.380   128423003.22506  24438090.020   100069891.72745
  22058709.120   115919408.53408  22058708.800    90326846.85147
  23604026.260   124040017.71007  23604025.880    96654560.26446
  21428452.340   112607325.46909  21428450.840    87745966.39948
  23031394.800   121031105.85508  23031392.640    94310075.77046
  21197497.240   111393634.88709  21197493.640    86800241.89549
  20866470.840   109654118.97609  20866466.840    85444780.11349
  20427590.120   107347784.87709  20427590.520    83647645.05449
  23066886.380   121217444.61507  23066888.420    94455210.54446
 15 03 26 00 49  0.0000000  0  9G01G04G11G16G18G19G22G27G32
  24422988.220   128343667.09006  24422992.600   100008071.44445
  22046499.900   115855248.78108  22046499.560    90276852.28247
  23588361.140   123957696.69907  23588360.740    96590414.10846
  21442220.320   112679676.29809  21442218.820    87802343.64448
  23045278.060   121104063.11808  23045275.960    94366925.57346
  21188534.180   111346533.63109  21188530.580    86763539.63449
  20870449.320   109675026.16409  20870445.300    85461071.44549
  20426160.920   107340274.53809  20426161.360    83641792.84149
  23045591.960   121105542.54408  23045594.080    94368014.31046
 15 03 26 00 49 30.0000000  0  9G01G04G11G16G18G19G22G27G32
  24407917.800   128264471.90606  24407922.220    99946361.01545
  22034336.720   115791331.14608  22034336.580    90227046.38847
  23572714.540   123875472.73807  23572714.080    96526343.57545
  21456069.120   112752452.05509  21456067.660    87859052.00148
  23059216.000   121177307.56608  23059213.860    94423999.16346
  21179611.760   111299646.09209  21179608.180    86727003.90449
  20874524.500   109696441.50309  20874520.480    85477758.73849
  20424793.360   107333087.96209  20424793.800    83636192.91649
  23024334.100   120993832.71108  23024336.080    94280967.88346
 15 03 26 00 50  0.0000000  0 10G01G04G11G14G16G18G19G22G27G32
  24392874.460   128185418.91706  24392878.740    99884761.34945
  22022219.820   115727656.54608  22022219.840    90177429.86147
  23557086.700   123793347.36507  23557085.960    96462349.83645
  24689831.040   129745936.00207  24689832.920   101100734.18043
  21469998.440   112825651.09609  21469997.060    87916090.18748
  23073208.280   121250837.53508  23073206.140    94481295.22946
  21170730.400   111252974.23809  21170726.800    86690636.22949
  20878696.240   109718364.12109  20878692.200    85494841.30649
  20423487.800   107326227.29209  20423488.260    83630846.93649
  23003113.540   120882318.73008  23003115.360    94194074.05846
 15 03 26 00 50 30.0000000  0 10G01G04G11G14G16G18G19G22G27G32
  24377857.600   128106505.01406  24377861.800    99823270.06845
  22010148.600   115664221.96508  22010148.700    90128000.35847
  23541477.000   123711317.69507  23541476.040    96398430.64745
  24676427.220   129675497.99006  24676429.580   101045847.92544
  21484007.280   112899268.13709  21484005.920    87973454.08648
  23087254.040   121324648.36808  23087251.940    94538810.15646
  21161889.720   111206516.21409  21161886.120    86654435.18849
  20882963.700   109740789.88509  20882959.660    85512315.93549
  20422243.900   107319690.65109  20422244.360    83625753.44749
  22981930.180   120771000.49608  22981932.040    94107332.75546
 15 03 26 00 51  0.0000000  0 10G01G04G11G14G16G18G19G22G27G32
  24362870.500   128027747.90506  24362874.680    99761901.00945
  21998126.380   115601045.07208  21998126.460    90078771.66447
  23525888.700   123629401.37207  23525887.340    96334599.80945
  24663032.340   129605114.93005  24663035.560   100991004.72644
  21498098.520   112973318.15309  21498097.160    88031155.37248
  23101356.100   121398755.23308  23101354.200    94596555.72245
  21153093.320   111160291.03309  21153089.740    86618415.57949
  20887330.140   109763735.66909  20887326.100    85530195.77949
  20421065.240   107313496.70309  20421065.700    83620926.99049
  22960788.040   120659898.20008  22960789.960    94020759.71846
 15 03 26 00 51 30.0000000  0 10G01G04G11G14G16G18G19G22G27G32
  24347908.680   127949123.25006  24347912.840    99700635.14445
  21986148.500   115538101.54208  21986148.500    90029724.80847
  23510317.360   123547574.18007  23510315.980    96270838.43645
  24649644.620   129534764.86606  24649647.500   100936186.89344
  21512267.220   113047775.00809  21512265.860    88089173.67748
  23115509.420   121473131.80808  23115507.600    94654511.52046
  21144336.860   111114275.48009  21144333.260    86582559.32349
  20891790.560   109787175.42109  20891786.580    85548460.53349
  20419947.380   107307622.16009  20419947.840    83616349.42649
  22939682.820   120548990.15408  22939684.620    93934338.04146
 15 03 26 00 52  0.0000000  0 10G01G04G11G14G16G18G19G22G27G32
  24332974.660   127870644.73606  24332978.580    99639483.10545
  21974217.580   115475404.55208  21974217.500    89980870.05647
  23494765.680   123465850.19907  23494764.520    96207157.48345
  24636266.500   129464463.54806  24636269.880   100881406.75645
  21526515.400   113122649.50009  21526513.980    88147517.41048
  23129716.180   121547789.19008  23129714.380    94712686.09246
  21135623.140   111068484.42809  21135619.500    86546877.99149
  20896347.360   109811121.64009  20896343.380    85567119.93149
  20418893.060   107302081.58609  20418893.500    83612032.09049
  22918617.640   120438292.63508  22918619.420    93848080.39646
 15 03 26 00 52 30.0000000  0 10G01G04G11G14G16G18G19G22G27G32
  24318068.100   127792310.56607  24318072.160    99578443.58345
  21962333.340   115412952.50108  21962333.180    89932206.18047
  23479233.460   123384227.86907  23479232.420    96143555.73746
  24622898.040   129394213.08106  24622901.960   100826666.47845
  21540842.260   113197937.66509  21540840.820    88206183.49048
  23143975.660   121622723.33708  23143973.880    94771076.33646
  21126951.980   111022917.25909  21126948.360    86511371.12749
  20901000.020   109835571.59109  20900996.040    85586171.85749
  20417902.200   107296874.40909  20417902.620    83607974.55149
  22897592.680   120327806.63608  22897594.420    93761987.58446
 15 03 26 00 53  0.0000000  0 10G01G04G11G14G16G18G19G22G27G32
  24303188.420   127714117.30406  24303192.560    99517513.82845
  21950495.120   115350741.97008  21950494.880    89883730.48047
  23463719.940   123302703.62107  23463719.000    96080030.39345
  24609539.120   129324012.36506  24609542.840   100771964.84344
  21555246.660   113273633.24509  21555245.220    88265167.02748
  23158286.680   121697928.26508  23158284.980    94829677.56046
  21118322.940   110977571.53209  21118319.340    86476036.80449
  20905747.600   109860520.26109  20905743.580    85605612.39049
  20416974.300   107291998.03809  20416974.720    83604174.78149
  22876607.800   120217531.20408  22876609.560    93676058.84846
 15 03 26 00 53 30.0000000  0 10G01G04G11G14G16G18G19G22G27G32
  24288336.380   127636069.45706  24288340.420    99456697.38545
  21938703.620   115288777.16408  21938703.360    89835446.25947
  23448226.020   123221282.61607  23448225.120    96016585.51745
  24596191.020   129253868.10706  24596194.200   100717306.97145
  21569729.000   113349738.35109  21569727.520    88324469.67548
  23172649.800   121773406.55208  23172648.060    94888491.79246
  21109737.180   110932453.21109  21109733.600    86440879.67949
  20910590.640   109885970.42909  20910586.540    85625443.69649
  20416110.400   107287458.22109  20416110.820    83600637.25349
  22855664.400   120107473.65808  22855666.020    93590299.87346
 15 03 26 00 54  0.0000000  0 10G01G04G11G14G16G18G19G22G27G32
  24273511.220   127558163.78206  24273515.380    99395991.76545
  21926958.180   115227054.93308  21926957.980    89787351.07247
  23432751.080   123139961.62607  23432750.160    95953218.55945
  24582853.800   129183780.45105  24582856.640   100662693.33243
  21584288.180   113426247.30009  21584286.700    88384087.01648
  23187063.900   121849152.80708  23187062.100    94947514.84746
  21101194.300   110887560.08109  21101190.680    86405898.03849
  20915528.380   109911918.27609  20915524.220    85645662.81349
  20415310.100   107283252.64209  20415310.520    83597360.18549
  22834762.380   119997633.44308  22834763.940    93504710.24247
 15 03 26 00 54 30.0000000  0 10G01G04G11G14G16G18G19G22G27G32
  24258713.920   127480403.78506  24258717.920    99335399.64545
  21915259.460   115165578.43808  21915259.300    89739447.36047
  23417295.900   123058744.62407  23417294.820    95889932.61645
  24569528.360   129113755.67706  24569531.160   100608128.69644
  21598924.400   113503161.15509  21598922.960    88444019.86448
  23201529.200   121925168.14308  23201527.460    95006747.57346
  21092695.140   110842896.80209  21092691.500    86371095.49749
  20920561.240   109938365.83109  20920557.000    85666271.31749
  20414574.260   107279385.79009  20414574.660    83594347.05549
  22813902.880   119888016.53308  22813904.520    93419294.64046
 15 03 26 00 55  0.0000000  0 10G01G04G11G14G16G18G19G22G27G32
  24243943.860   127402788.04606  24243948.020    99274919.98245
  21903607.300   115104346.57608  21903607.140    89691734.27447
  23401860.280   122977630.32507  23401859.160    95826726.73045
  24556215.240   129043794.76706  24556218.380   100553613.76444
  21613636.900   113580475.69109  21613635.500    88504264.92448
  23216045.040   122001449.06308  23216043.180    95066187.24146
  21084239.720   110798463.40609  21084236.040    86336472.08449
  20925688.620   109965310.44809  20925684.360    85687267.13249
  20413902.800   107275857.45909  20413903.220    83591597.70349
  22793086.100   119778624.34808  22793087.740    93334054.13146
 15 03 26 00 55 30.0000000  0 10G01G04G11G14G16G18G19G22G27G32
  24229201.020   127325314.61906  24229205.180    99214551.18046
  21892001.320   115043356.99708  21892001.040    89644209.97247
  23386443.840   122896616.74807  23386442.660    95763599.32344
  24542914.720   128973899.13506  24542917.420   100499149.83044
  21628424.900   113658186.98009  21628423.500    88564819.14648
  23230610.560   122077991.21208  23230608.580    95125830.46946
  21075827.920   110754259.17309  21075824.220    86302027.23549
  20930909.840   109992748.29109  20930905.620    85708647.28649
  20413295.580   107272666.56709  20413296.020    83589111.29449
  22772312.240   119669457.63208  22772313.800    93248989.30446
 15 03 26 00 56  0.0000000  0 10G01G04G11G14G16G18G19G22G27G32
  24214485.680   127247984.90106  24214489.720    99154294.34345
  21880441.780   114982611.07508  21880441.360    89596875.53347
  23371046.980   122815705.76307  23371045.660    95700551.86045
  24529627.300   128904072.53106  24529629.700   100444739.72544
  21643288.160   113736293.77509  21643286.760    88625681.55548
  23245225.660   122154793.87608  23245223.600    95185676.69845
  21067460.260   110710286.79109  21067456.580    86267763.05649
  20936225.040   110020680.07409  20936220.860    85730412.32649
  20412753.040   107269815.64209  20412753.500    83586889.79649
  22751582.100   119560520.40708  22751583.560    93164103.29847
 15 03 26 00 56 30.0000000  0 10G01G04G11G14G16G18G19G22G27G32
  24199798.180   127170801.26006  24199802.020    99094151.32845
  21868929.140   114922111.29208  21868928.620    89549732.88347
  23355670.180   122734900.15507  23355668.700    95637586.47545
  24516353.860   128834320.18006  24516356.240   100390387.53845
  21658226.620   113814795.65509  21658225.180    88686851.81448
  23259890.260   122231856.93208  23259888.240    95245725.80746
  21059137.340   110666549.67209  21059133.680    86233682.18649
  20941634.360   110049106.48909  20941630.220    85752562.78549
  20412275.840   107267308.01009  20412276.300    83584935.78449
  22730896.600   119451817.65508  22730898.040    93079399.99846
 15 03 26 00 57  0.0000000  0 10G01G04G11G14G16G18G19G22G27G32
  24185138.500   127093763.78006  24185142.100    99034122.20745
  21857463.320   114861857.68308  21857462.800    89502782.05247
  23340313.440   122654200.22507  23340312.020    95574703.45845
  24503094.860   128764644.97606  24503096.940   100336095.46244
  21673239.880   113893690.59609  21673238.440    88748328.35848
  23274603.980   122309178.29408  23274602.080    95305976.20246
  21050859.480   110623049.20009  21050855.820    86199785.72549
  20947137.540   110078026.09009  20947133.420    85775097.55149
  20411864.220   107265144.85709  20411864.660    83583250.21049
  22710256.220   119343352.12508  22710257.560    92994881.54147
 15 03 26 00 57 30.0000000  0 10G01G04G11G14G16G18G19G22G27G32
  24170505.920   127016869.68906  24170509.560    98974204.82045
  21846043.680   114801847.24108  21846043.200    89456020.71547
  23324976.200   122573603.28607  23324974.980    95511900.69245
  24489850.520   128695046.76306  24489852.340   100281863.35944
  21688326.800   113972972.83509  21688325.380    88810106.69648
  23289365.980   122386753.11208  23289364.060    95366424.10646
  21042626.440   110579784.11009  21042622.740    86166072.67149
  20952733.820   110107434.91309  20952729.700    85798013.53049
  20411517.840   107263324.47509  20411518.240    83581831.72949
  22689661.040   119235123.99508  22689662.260    92910548.07046
 15 03 26 00 58  0.0000000  0 10G01G04G11G14G16G18G19G22G27G32
  24155901.100   126940121.36506  24155904.820    98914401.03546
  21834670.660   114742082.12208  21834670.280    89409450.53647
  23309659.100   122493112.05507  23309658.020    95449180.31146
  24476621.780   128625530.74206  24476623.560   100227695.28744
  21703487.360   114052642.11809  21703486.020    88872186.62448
  23304176.260   122464581.52708  23304174.360    95427069.61446
  21034438.760   110536757.64509  21034435.080    86132545.56849
  20958423.320   110137333.59009  20958419.200    85821311.20849
  20411237.280   107261850.13309  20411237.700    83580682.89349
  22669111.900   119127137.95308  22669113.000    92826403.23347
 15 03 26 00 58 30.0000000  0 10G01G04G11G14G16G18G19G22G27G32
  24141323.780   126863517.49406  24141327.780    98854709.82146
  21823344.080   114682561.00708  21823343.780    89363070.49847
  23294361.940   122412725.48307  23294360.900    95386541.46146
  24463409.020   128556098.73306  24463410.880   100173592.84644
  21718720.960   114132695.36609  21718719.700    88934565.75448
  23319034.060   122542659.91708  23319032.280    95487909.90846
  21026296.540   110493969.98209  21026292.880    86099204.55549
  20964205.560   110167719.46109  20964201.440    85844988.53149
  20411022.560   107260721.67009  20411022.960    83579803.57749
  22648609.160   119019395.56108  22648610.160    92742448.25147
 15 03 26 00 59  0.0000000  0 10G01G04G11G14G16G18G19G22G27G32
  24126774.520   126787060.80606  24126778.460    98795133.28645
  21812064.480   114623286.83508  21812064.240    89316882.87847
  23279085.380   122332446.72907  23279084.220    95323986.61845
  24450213.220   128486755.63906  24450214.980   100119559.41043
  21734027.560   114213132.12309  21734026.320    88997243.71648
  23333939.480   122620988.70108  23333937.820    95548945.30346
  21018200.560   110451425.24109  21018196.840    86066052.81349
  20970080.820   110198594.06609  20970076.680    85869046.67349
  20410874.360   107259942.82609  20410874.760    83579196.68649
  22628153.780   118911902.23908  22628154.700    92658687.33447
 15 03 26 00 59 30.0000000  0 10G01G04G11G14G16G18G19G22G27G32
  24112252.280   126710745.84007  24112256.180    98735667.19046
  21800830.820   114564253.74709  21800830.560    89270883.11047
  23263828.400   122252270.42708  23263827.120    95261511.61645
  24437033.760   128417498.83306  24437035.400   100065593.11545
  21749405.700   114293944.58109  21749404.440    89060214.43448
  23348891.040   122699559.89408  23348889.340    95610169.60646
  21010150.020   110409119.20809  21010146.240    86033087.08549
  20976047.720   110229950.34509  20976043.580    85893480.15349
  20410791.820   107259509.10209  20410792.220    83578858.72149
  22607745.220   118804655.01808  22607746.220    92575118.18446
 15 03 26 01 00  0.0000000  0 10G01G04G11G14G16G18G19G22G27G32
  24097758.420   126634580.51207  24097762.360    98676317.75145
  21789644.640   114505469.80709  21789644.280    89225077.47947
  23248592.500   122172204.90908  23248591.240    95199122.95845
  24423872.940   128348339.69406  24423874.960   100011703.04343
  21764856.380   114375138.17409  21764855.060    89123482.13248
  23363889.960   122778379.82708  23363888.160    95671587.72745
  21002146.680   110367061.22309  21002142.860    86000314.63749
  20982107.500   110261794.75409  20982103.380    85918293.98449
  20410776.640   107259429.51409  20410777.040    83578796.70349
  22587385.560   118697664.71408  22587386.520    92491749.21247
 15 03 26 01 00 30.0000000  0 10G01G04G11G14G16G18G19G22G27G32
  24083291.360   126558556.36606  24083295.060    98617078.27845
  21778504.240   114446926.30509  21778503.720    89179459.20347
  23233376.160   122092242.13208  23233374.860    95136814.32245
  24410729.640   128279272.40106  24410731.160    99957884.54844
  21780377.340   114456701.15109  21780375.980    89187037.66348
  23378934.200   122857437.77908  23378932.400    95733191.31446
  20994189.160   110325244.08909  20994185.300    85967729.85549
  20988258.340   110294117.64909  20988254.240    85943480.66449
  20410827.460   107259696.58609  20410827.820    83579004.80649
  22567073.700   118590925.52408  22567074.780    92408575.89747
 15 03 26 01 01  0.0000000  0 10G01G04G11G14G16G18G19G22G27G32
  24068852.180   126482678.55206  24068856.020    98557952.85345
  21767410.640   114388628.62808  21767409.900    89134032.47547
  23218180.360   122012387.46208  23218178.960    95074589.94646
  24397605.520   128210304.57906  24397607.040    99904143.52845
  21795969.240   114538636.95809  21795967.880    89250883.71348
  23394024.280   122936736.64508  23394022.620    95794982.62846
  20986278.660   110283674.13109  20986274.740    85935337.68449
  20994500.900   110326922.57109  20994496.800    85969042.95749
  20410945.440   107260316.59809  20410945.800    83579487.93549
  22546811.100   118484445.22808  22546812.080    92325604.31647
 15 03 26 01 01 30.0000000  0 10G01G04G11G14G16G18G19G22G27G32
  24054440.800   126406946.85406  24054444.440    98498941.24345
  21756363.580   114330576.13308  21756362.700    89088796.79547
  23203005.180   121932641.26307  23203003.640    95012450.09445
  24384500.860   128141439.45506  24384502.620    99850482.69944
  21811631.540   114620942.78709  21811630.160    89315018.09748
  23409159.760   123016274.01408  23409158.100    95856959.79046
  20978415.400   110242352.54909  20978411.480    85903139.04949
  21000834.800   110360207.60309  21000830.720    85994979.35649
  20411130.740   107261290.32209  20411131.100    83580246.68349
  22526598.260   118378226.35508  22526599.120    92242836.42446
 15 03 26 01 02  0.0000000  0 10G01G04G11G14G16G18G19G22G27G32
  24040057.040   126331360.97206  24040060.740    98440043.30545
  21745363.080   114272768.66708  21745362.320    89043752.05547
  23187850.460   121853003.40507  23187848.880    94950394.66845
  24371416.080   128072679.33606  24371417.560    99796903.60944
  21827363.660   114703615.66409  21827362.340    89379438.48848
  23424340.140   123096047.16007  23424338.240    95919120.68145
  20970599.560   110201280.44009  20970595.740    85871134.81249
  21007259.740   110393971.11609  21007255.660    86021288.60249
  20411383.480   107262618.44809  20411383.860    83581281.58849
  22506435.600   118272271.26908  22506436.480    92160274.08347
 15 03 26 01 02 30.0000000  0 10G01G04G11G14G16G18G19G22G27G32
  24025701.600   126255923.21707  24025705.160    98381260.74345
  21734409.580   114215208.50808  21734409.160    88998900.02047
  23172716.820   121773476.38107  23172715.380    94888425.60746
  24358351.880   128004028.91406  24358354.080    99743409.99744
  21843165.520   114786654.80209  21843164.200    89444144.26948
  23439565.420   123176056.47807  23439563.580    95981465.57645
  20962831.940   110160461.40009  20962828.160    85839327.76849
  21013775.840   110428213.52909  21013771.760    86047971.00549
  20411704.300   107264304.33209  20411704.720    83582595.26049
  22486324.080   118166585.01708  22486325.140    92077921.21947
 15 03 26 01 03  0.0000000  0 10G01G04G11G14G16G18G19G22G27G32
  24011373.340   126180627.94406  24011376.560    98322589.21246
  21723502.120   114157889.86908  21723501.940    88954236.18847
  23157603.400   121694055.09108  23157602.060    94826538.92845
  24345308.400   127935485.82006  24345310.760    99689999.97044
  21859035.500   114870052.03609  21859034.180    89509129.10048
  23454834.100   123256293.84607  23454832.300    96043988.20445
  20955111.640   110119891.28109  20955107.940    85807714.69649
  21020381.820   110462928.25709  21020377.720    86075021.45949
  20412092.300   107266343.29109  20412092.740    83584184.06549
  22466263.220   118061164.65708  22466264.180    91995775.54347
 15 03 26 01 03 30.0000000  0 10G01G04G11G14G16G18G19G22G27G32
  23997072.580   126105476.87707  23997075.820    98264030.05446
  21712641.020   114100814.45008  21712640.920    88909761.88148
  23142510.600   121614741.48708  23142509.400    94764736.18446
  24332286.420   127867054.55106  24332288.620    99636677.10844
  21874973.600   114953807.18309  21874972.300    89574392.81848
  23470146.180   123336758.85207  23470144.160    96106688.21145
  20947439.320   110079573.13309  20947435.700    85776297.97249
  21027077.660   110498115.24909  21027073.580    86102439.90949
  20412548.040   107268738.18409  20412548.480    83586050.22049
  22446253.720   117956014.44308  22446254.520    91913840.35247
 15 03 26 01 04  0.0000000  0 10G01G04G11G14G16G18G19G22G27G32
  23982799.940   126030473.61907  23982803.120    98205586.06145
  21701826.840   114043985.69008  21701826.700    88865479.76947
  23127438.980   121535539.41108  23127437.680    94703020.32746
  24319286.840   127798741.84106  24319288.780    99583446.65443
  21890979.940   115037920.76809  21890978.620    89639935.83048
  23485501.740   123417453.02207  23485499.620    96169566.76945
  20939815.880   110039511.75609  20939812.300    85745081.32349
  21033863.780   110533776.60509  21033859.720    86130227.98549
  20413072.380   107271493.51509  20413072.800    83588197.22949
  22426296.920   117851140.85608  22426297.680    91832120.69647
 15 03 26 01 04 30.0000000  0 10G01G04G11G14G16G18G19G22G27G32
  23968555.540   125955618.57606  23968558.700    98147257.56146
  21691059.680   113987403.91408  21691059.440    88821390.11047
  23112388.760   121456449.93407  23112387.220    94641392.19445
  24306310.300   127730550.80606  24306311.640    99530311.02944
  21907054.060   115122390.66509  21907052.700    89705756.49348
  23500900.620   123498374.64607  23500898.740    96232622.56546
  20932241.640   109999708.80109  20932238.060    85714066.04249
  21040739.960   110569911.10209  21040735.860    86158384.75049
  20413665.580   107274610.72309  20413665.980    83590626.22249
  22406393.260   117746546.77208  22406394.140    91750618.86147
 15 03 26 01 05  0.0000000  0 10G01G04G11G14G16G18G19G22G27G32
  23954338.260   125880906.70206  23954341.440    98089040.63545
  21680338.560   113931064.22409  21680338.200    88777489.09647
  23097359.000   121377468.48207  23097357.300    94579848.25545
  24293356.360   127662479.27106  24293357.760    99477268.47044
  21923194.520   115207209.17609  21923193.160    89771848.80648
  23516341.420   123579516.33507  23516339.520    96295849.84745
  20924715.940   109960160.93109  20924712.360    85683249.52949
  21047704.940   110606512.27109  21047700.800    86186905.15049
  20414326.880   107278085.83909  20414327.280    83593334.10449
  22386542.440   117642230.06908  22386543.360    91669333.15247
 15 03 26 01 05 30.0000000  0 10G01G04G11G14G16G18G19G22G27G32
  23940149.020   125806342.91206  23940152.280    98030939.10345
  21669664.440   113874971.29509  21669663.920    88733780.35148
  23082350.700   121298599.95108  23082349.140    94518392.29946
  24280426.780   127594534.84206  24280428.400    99424324.96845
  21939401.780   115292378.57909  21939400.420    89838214.53448
  23531824.580   123660880.95307  23531822.700    96359250.82145
  20917240.000   109920874.47709  20917236.420    85652636.71349
  21054759.300   110643583.19609  21054755.160    86215791.59549
  20415057.400   107281924.79209  20415057.820    83596325.49449
  22366745.840   117538198.36508  22366746.780    91588269.54047
 15 03 26 01 06  0.0000000  0 10G01G04G11G14G16G18G19G22G27G32
  23925987.120   125731923.20706  23925990.680    97972949.86446
  21659036.540   113819121.20108  21659035.860    88690260.82648
  23067363.340   121219840.89308  23067361.900    94457021.64846
  24267521.360   127526716.38607  24267523.140    99371479.63545
  21955674.480   115377892.02709  21955673.120    89904848.35448
  23547348.980   123742462.48807  23547347.000    96422820.85145
  20909813.240   109881846.52409  20909809.660    85622225.33149
  21061902.080   110681118.64309  21061897.920    86245040.00349
  20415856.560   107286124.48509  20415856.980    83599597.98449
  22347003.140   117434450.17308  22347004.000    91507426.85247
 15 03 26 01 06 30.0000000  0 10G01G04G11G14G16G18G19G22G27G32
  23911853.520   125657651.63807  23911857.280    97915076.00445
  21648455.540   113763517.70509  21648454.780    88646933.45948
  23052397.760   121141195.93408  23052396.400    94395739.89746
  24254641.100   127459031.07506  24254643.160    99318738.06145
  21972012.980   115463751.20009  21972011.580    89971751.56648
  23562914.940   123824262.29907  23562913.000    96486560.95545
  20902436.740   109843082.78209  20902433.140    85592019.82149
  21069133.640   110719120.78909  21069129.480    86274652.07149
  20416725.340   107290690.05209  20416725.760    83603155.56749
  22327315.660   117330992.30608  22327316.560    91426810.39847
 15 03 26 01 07  0.0000000  0 10G01G04G11G14G16G18G19G22G27G32
  23897747.340   125583523.07007  23897750.860    97857313.55745
  21637920.500   113708155.69309  21637919.780    88603794.26247
  23037452.900   121062660.15708  23037451.640    94334543.24446
  24241785.720   127391476.55806  24241788.000    99266098.38945
  21988415.820   115549948.44909  21988414.400    90038918.21448
  23578521.140   123906273.40807  23578519.200    96550465.69946
  20895109.800   109804579.65209  20895106.220    85562017.39549
  21076452.660   110757582.72509  21076448.540    86304622.41949
  20417662.980   107295617.30709  20417663.360    83606994.98949
  22307683.020   117227822.27308  22307683.960    91346418.21647
 15 03 26 01 07 30.0000000  0 10G01G04G11G14G16G18G19G22G27G32
  23883669.560   125509543.33807  23883672.800    97799667.11545
  21627432.520   113653041.03909  21627431.860    88560847.81148
  23022530.000   120984239.91408  23022528.720    94273436.60545
  24228956.820   127324061.64006  24228958.920    99213567.46044
  22004883.560   115636486.95409  22004882.160    90106350.77848
  23594168.260   123988499.67807  23594166.420    96614538.10545
  20887833.780   109766344.08209  20887830.200    85532223.45949
  21083860.100   110796509.05309  21083855.980    86334954.62949
  20418670.740   107300913.07409  20418671.100    83611121.55749
  22288106.820   117124948.63208  22288107.860    91266257.00847
 15 03 26 01 08  0.0000000  0 10G01G04G11G14G16G18G19G22G27G32
  23869619.240   125435708.07707  23869622.120    97742133.17646
  21616990.800   113598169.33809  21616990.140    88518090.67848
  23007628.240   120905931.12607  23007626.920    94212416.81446
  24216154.420   127256784.95707  24216155.880    99161144.25744
  22021414.840   115723359.33309  22021413.460    90174043.50048
  23609855.040   124070934.56307  23609853.300    96678773.04145
  20880608.080   109728373.05909  20880604.520    85502635.65249
  21091354.700   110835893.54509  21091350.580    86365643.84949
  20419747.960   107306573.97409  20419748.320    83615532.64849
  22268586.640   117022369.67008  22268587.780    91186325.41747
 15 03 26 01 08 30.0000000  0 10G01G04G11G14G16G18G19G22G27G32
  23855596.760   125362020.04607  23855599.760    97684714.02645
  21606595.820   113543543.20809  21606595.140    88475524.89748
  22992748.220   120827736.88908  22992746.860    94151486.27746
  24203379.460   127189651.93206  24203380.520    99108832.99344
  22038009.760   115810566.01309  22038008.380    90241996.72348
  23625581.660   124153578.65607  23625580.000    96743171.03445
  20873433.600   109690671.02709  20873430.040    85473257.45849
  21098936.780   110875737.52809  21098932.620    86396691.11649
  20420895.420   107312603.82809  20420895.780    83620231.23349
  22249123.560   116920090.82808  22249124.580    91106627.68447
 15 03 26 01 09  0.0000000  0 10G01G04G11G14G16G18G19G22G27G32
  23841601.980   125288477.99206  23841605.200    97627408.63445
  21596247.340   113489161.36009  21596246.580    88433149.46847
  22977889.900   120749656.20608  22977888.500    94090644.23146
  24190632.140   127122664.35706  24190633.100    99056635.05744
  22054667.540   115898103.13309  22054666.260    90310207.42848
  23641347.440   124236428.38607  23641345.660    96807729.26745
  20866310.280   109653237.86209  20866306.680    85444088.76849
  21106605.700   110916037.91709  21106601.520    86428094.02449
  20422113.000   107319002.27009  20422113.380    83625217.02849
  22229717.880   116818113.39108  22229718.860    91027164.80547
 15 03 26 01 09 30.0000000  0 10G01G04G11G14G16G18G19G22G27G32
  23827634.860   125215081.58706  23827638.300    97570216.75245
  21585945.260   113435023.52209  21585944.420    88390964.16948
  22963053.460   120671689.86408  22963052.000    94029891.26746
  24177912.900   127055824.76806  24177914.040    99004552.47744
  22071387.540   115985967.38409  22071386.360    90378673.02948
  23657151.980   124319481.26607  23657150.280    96872445.78245
  20859238.440   109616075.07109  20859234.800    85415130.75849
  21114361.140   110956792.88809  21114356.920    86459851.14249
  20423400.860   107325770.02309  20423401.260    83630490.59749
  22210370.020   116716439.89208  22210370.920    90947938.76847
 15 03 26 01 10  0.0000000  0 10G01G04G11G14G16G18G19G22G27G32
  23813695.740   125141831.97406  23813699.380    97513139.23446
  21575689.700   113381130.68709  21575688.880    88348969.79748
  22948239.020   120593839.09608  22948237.680    93969228.37646
  24165222.500   126989137.07506  24165223.720    98952588.26045
  22088169.480   116074156.88709  22088168.340    90447392.09448
  23672995.000   124402736.71907  23672993.400    96937320.13745
  20852218.460   109579184.73809  20852214.800    85386385.05849
  21122202.960   110998001.84309  21122198.700    86491962.02949
  20424759.380   107332909.15909  20424759.800    83636053.56549
  22191080.760   116615074.12308  22191081.640    90868952.52047
 15 03 26 01 10 30.0000000  0 10G01G04G11G14G16G18G19G22G27G32
  23799784.760   125068729.42806  23799788.180    97456176.30746
  21565480.720   113327482.93709  21565480.020    88307166.38848
  22933446.640   120516104.63308  22933445.240    93908656.10046
  24152561.520   126922604.69206  24152562.660    98900745.04445
  22105013.080   116162670.32909  22105011.920    90516363.56748
  23688876.120   124486192.72307  23688874.440    97002350.78345
  20845250.740   109542568.93809  20845247.040    85357853.27649
  21130130.900   111039663.51509  21130126.640    86524425.67349
  20426188.820   107340420.90409  20426189.240    83641906.86649
  22171850.580   116514018.96108  22171851.440    90790208.29747
 15 03 26 01 11  0.0000000  0 10G01G04G11G14G16G18G19G22G27G32
  23785901.260   124995771.32407  23785904.500    97399325.95845
  21555317.960   113274077.82109  21555317.340    88265552.04948
  22918675.980   120438484.26708  22918674.480    93848172.74546
  24139930.020   126856227.89806  24139930.900    98849023.02844
  22121917.200   116251501.80609  22121916.040    90585582.86448
  23704794.500   124569844.43807  23704792.720    97067533.92145
  20838335.080   109506226.72309  20838331.340    85329534.68049
  21138144.140   111081773.44109  21138139.880    86557238.60649
  20427688.860   107348303.69109  20427689.280    83648049.29849
  22152679.520   116413274.40508  22152680.280    90711706.11347
 15 03 26 01 11 30.0000000  0 10G01G04G11G14G16G18G19G22G27G32
  23772045.700   124922959.75707  23772048.680    97342589.74145
  21545201.760   113220917.24209  21545201.260    88224128.25448
  22903927.500   120360980.57608  22903925.880    93787780.31245
  24127329.420   126790011.76006  24127330.340    98797426.23244
  22138881.780   116340651.01609  22138880.640    90655049.74048
  23720750.220   124653691.77607  23720748.300    97132869.51245
  20831472.100   109470161.10509  20831468.280    85301431.61049
  21146242.720   111124331.86109  21146238.500    86590401.02249
  20429260.080   107356560.42409  20429260.480    83654483.10949
  22133568.440   116312845.18608  22133569.040    90633449.63247
 15 03 26 01 12  0.0000000  0 10G01G04G11G14G16G18G19G22G27G32
  23758217.960   124850294.43206  23758220.660    97285967.47846
  21535132.040   113168000.82109  21535131.620    88182894.71048
  22889201.240   120283593.75008  22889199.620    93727478.92746
  24114759.820   126723958.87006  24114760.920    98745956.59345
  22155906.160   116430114.50009  22155905.020    90724761.51148
  23736742.740   124737732.57407  23736740.820    97198355.83545
  20824662.000   109434373.54609  20824658.080    85273545.20949
  21154426.340   111167337.19709  21154422.160    86623911.67649
  20430902.620   107365191.93809  20430903.000    83661208.95649
  22114517.780   116212733.84108  22114518.500    90555440.85747
 15 03 26 01 12 30.0000000  0 10G01G04G11G14G16G18G19G22G27G32
  23744418.140   124777776.51407  23744420.800    97229460.09145
  21525109.080   113115330.05009  21525108.660    88141852.58148
  22874497.600   120206325.60508  22874495.820    93667270.01846
  24102221.900   126658073.28506  24102223.540    98694617.39345
  22172990.140   116519891.28409  22172989.000    90794717.40848
  23752771.860   124821965.91307  23752769.980    97263992.19345
  20817905.320   109398866.80909  20817901.360    85245877.63249
  21162694.900   111210788.95509  21162690.780    86657770.19449
  20432616.880   107374200.31409  20432617.240    83668228.46449
  22095528.380   116112944.09108  22095529.160    90477682.68247
 15 03 26 01 13  0.0000000  0 10G01G04G11G14G16G18G19G22G27G32
  23730646.040   124705404.23907  23730648.780    97173066.21146
  21515132.460   113062902.70809  21515131.980    88101000.13348
  22859816.300   120129174.73208  22859814.400    93607152.48346
  24089716.120   126592356.14006  24089717.940    98643409.38845
  22190132.880   116609976.96709  22190131.780    90864914.00148
  23768836.820   124906387.80807  23768835.020    97329775.46145
  20811201.960   109363640.27009  20811197.940    85218428.38349
  21171047.680   111254683.24409  21171043.580    86691973.53449
  20434402.680   107383584.65409  20434403.020    83675540.92449
  22076600.340   116013476.76608  22076601.040    90400175.72747
 15 03 26 01 13 30.0000000  0 10G01G04G11G14G16G18G19G22G27G32
  23716901.580   124633177.19007  23716904.700    97116785.47146
  21505202.140   113010718.47409  21505201.580    88060337.12548
  22845157.180   120052141.13808  22845155.300    93547126.35345
  24077242.960   126526809.79607  24077244.980    98592334.51144
  22207333.720   116700368.00509  22207332.600    90935348.53948
  23784937.120   124990995.36607  23784935.280    97395703.41745
  20804552.120   109328695.21609  20804548.100    85191198.48149
  21179484.260   111299017.90509  21179480.160    86726520.02848
  20436260.120   107393345.54809  20436260.480    83683146.81449
  22057734.140   115914334.18008  22057734.680    90322921.82147
 15 03 26 01 14  0.0000000  0 10G01G04G11G14G16G18G19G22G27G32
  23703185.040   124561096.02307  23703188.220    97060618.39846
  21495318.200   112958777.89009  21495317.580    88019863.97148
  22830520.620   119975226.05608  22830518.800    93487192.56046
  24064803.260   126461438.11107  24064804.760    98541395.68344
  22224592.240   116791062.09709  22224591.180    91006019.21948
  23801072.600   125075787.71307  23801070.620    97461775.36445
  20797956.200   109294033.65709  20797952.240    85164189.48449
  21188004.500   111343792.08709  21188000.380    86761409.00949
  20438189.540   107403484.56609  20438189.880    83691047.34649
  22038930.340   115815519.56508  22038930.800    90245923.48547
 15 03 26 01 14 30.0000000  0 10G01G04G11G14G16G18G19G22G27G32
  23689496.260   124489160.73607  23689499.500    97004564.98246
  21485480.620   112907081.04009  21485479.960    87979580.73448
  22815906.800   119898430.04808  22815905.000    93427351.55146
  24052397.300   126396243.93606  24052398.220    98490595.16944
  22241908.020   116882057.13009  22241907.020    91076924.39748
  23817242.800   125160762.74007  23817240.800    97527989.65146
  20791414.500   109259657.06509  20791410.620    85137402.53549
  21196608.060   111389004.02109  21196603.900    86796639.08149
  20440191.100   107414002.64609  20440191.420    83699243.24049
  22020189.380   115717035.54708  22020189.780    90169182.74947
 15 03 26 01 15  0.0000000  0 10G01G04G11G14G16G18G19G22G27G32
  23675835.440   124417372.57407  23675838.620    96948626.21046
  21475689.580   112855629.04809  21475688.980    87939488.30548
  22801315.980   119821754.65808  22801314.180    93367604.53146
  24040025.580   126331231.45906  24040026.260    98439936.27444
  22259280.720   116973351.32409  22259279.700    91148062.69348
  23833447.580   125245919.51007  23833445.860    97594345.56945
  20784927.560   109225568.16209  20784923.700    85110839.76649
  21205294.800   111434653.23709  21205290.640    86832209.90749
  20442265.160   107424901.96009  20442265.500    83707736.21249
  22001512.120   115618886.04008  22001512.440    90092702.67647
 15 03 26 01 15 30.0000000  0 10G01G04G11G14G16G18G19G22G27G32
  23662202.580   124345731.59207  23662205.680    96892802.11846
  21465945.160   112804421.93509  21465944.540    87899586.68648
  22786748.200   119745200.61208  22786746.260    93307952.06346
  24027689.080   126266403.70207  24027690.020    98389421.32745
  22276709.940   117064942.57009  22276708.940    91219432.45248
  23849686.520   125331255.84107  23849684.920    97660841.39245
  20778495.680   109191768.70109  20778491.860    85084502.53049
  21214064.460   111480738.07509  21214060.300    86868120.17449
  20444411.960   107436183.49409  20444412.320    83716527.00949
  21982899.040   115521073.76808  21982899.300    90016485.37447
 15 03 26 01 16  0.0000000  0 10G01G04G11G14G16G18G19G22G27G32
  23648597.220   124274235.52907  23648600.220    96837090.93045
  21456246.880   112753457.32709  21456246.260    87859874.03148
  22772203.100   119668765.95108  22772201.220    93248392.63746
  24015388.100   126201761.47907  24015388.860    98339050.90345
  22294194.760   117156825.62209  22294193.720    91291029.59647
  23865958.860   125416767.68107  23865957.200    97727473.97345
  20772118.720   109158257.73409  20772114.920    85058390.09449
  21222916.200   111527254.19309  21222912.020    86904366.50448
  20446631.220   107447845.87109  20446631.600    83725614.56549
  21964350.140   115423599.01708  21964350.420    89940531.08847
 15 03 26 01 16 30.0000000  0 10G01G04G11G14G16G18G19G22G27G32
  23635019.140   124202883.25907  23635022.200    96781491.79646
  21446594.560   112702734.14809  21446593.900    87820349.50248
  22757680.600   119592450.33708  22757678.820    93188925.96846
  24003122.800   126137306.28007  24003123.420    98288826.23745
  22311734.380   117248996.60309  22311733.320    91362851.08747
  23882264.000   125502451.75407  23882262.260    97794240.77645
  20765796.680   109125035.48909  20765792.920    85032502.63149
  21231849.520   111574199.01709  21231845.300    86940946.88248
  20448922.940   107459888.92009  20448923.340    83734998.74749
  21945865.780   115326463.34908  21945866.040    89864841.01947
 15 03 26 01 17  0.0000000  0 10G01G04G11G14G16G18G19G22G27G32
  23621469.640   124131681.07607  23621472.780    96726009.59746
  21436989.340   112652258.61009  21436988.700    87781017.94548
  22743182.160   119516260.64908  22743180.400    93129557.41746
  23990894.680   126073047.46006  23990895.320    98238754.58845
  22329329.460   117341458.89909  22329328.340    91434899.59148
  23898602.680   125588312.27307  23898600.980    97861145.06245
  20759531.140   109092109.97809  20759527.380    85006846.39649
  21240865.260   111621577.09509  21240861.080    86977864.87249
  20451288.460   107472319.76109  20451288.860    83744685.11049
  21927447.620   115229675.52808  21927447.800    89789422.00347
 15 03 26 01 17 30.0000000  0 10G01G04G11G14G16G18G19G22G27G32
  23607948.000   124060624.95107  23607951.240    96670641.21146
  21427430.520   112602026.69109  21427429.940    87741876.21648
  22728707.020   119440193.24608  22728705.300    93070284.15346
  23978703.380   126008983.87706  23978704.320    98188835.07144
  22346978.700   117434205.95309  22346977.560    91507169.97347
  23914973.780   125674342.95807  23914971.980    97928181.93245
  20753321.580   109059478.62009  20753317.820    84981419.36849
  21249962.340   111669382.58109  21249958.200    87015115.90049
  20453727.180   107485135.27709  20453727.580    83754671.22249
  21909095.360   115133234.15208  21909095.600    89714272.94247
 15 03 26 01 18  0.0000000  0 10G01G04G11G14G16G18G19G22G27G32
  23594453.880   123989713.02107  23594457.000    96615385.22146
  21417917.720   112552036.39709  21417917.160    87702922.76548
  22714254.860   119364246.70108  22714253.120    93011105.06046
  23966549.420   125945116.81407  23966550.560    98139068.66745
  22364681.260   117527233.13509  22364680.160    91579658.64147
  23931376.560   125760540.26207  23931374.900    97995348.63444
  20747167.920   109027140.91509  20747164.160    84956221.15949
  21259140.000   111717611.50709  21259135.880    87052696.87948
  20456238.940   107498334.54409  20456239.320    83764956.35949
  21890809.180   115037140.14008  21890809.560    89639394.55547
 15 03 26 01 18 30.0000000  0 10G01G04G11G14G16G18G19G22G27G32
  23580987.460   123918946.03907  23580990.340    96560242.14346
  21408451.060   112502288.56109  21408450.480    87664158.24048
  22699825.980   119288422.51108  22699824.180    92952021.31346
  23954433.480   125881449.63106  23954434.480    98089458.04844
  22382436.720   117620538.28609  22382435.620    91652363.90547
  23947810.920   125846902.82607  23947809.200    98062644.14245
  20741070.600   108995099.22709  20741066.840    84931253.61049
  21268398.020   111766262.63109  21268393.840    87090606.84148
  20458824.000   107511919.12609  20458824.380    83775541.74049
  21872589.740   114941396.63108  21872590.120    89564789.28547
 15 03 26 01 19  0.0000000  0 10G01G04G11G14G16G18G19G22G27G32
  23567548.500   123848322.92107  23567551.120    96505211.19946
  21399030.320   112452781.94409  21399029.660    87625581.68448
  22685420.220   119212719.97108  22685418.440    92893032.37146
  23942356.220   125817984.46507  23942357.580    98040004.81945
  22400244.300   117714117.61109  22400243.240    91725282.81448
  23964276.080   125933427.44207  23964274.100    98130065.89546
  20735029.700   108963353.98409  20735025.940    84906517.05949
  21277735.960   111815333.84209  21277731.780    87128844.15148
  20461482.340   107525888.82009  20461482.720    83786427.21449
  21854437.280   114846005.21708  21854437.620    89490458.38647
 15 03 26 01 19 30.0000000  0 10G01G04G11G14G16G18G19G22G27G32
  23554137.500   123777846.82607  23554139.920    96450294.81246
  21389656.060   112403519.63309  21389655.260    87587195.49148
  22671038.360   119137143.00708  22671036.560    92834141.26946
  23930318.940   125754727.53007  23930320.260    97990713.83845
  22418104.280   117807972.30809  22418103.260    91798416.30347
  23980772.240   126020115.14307  23980770.080    98197614.75045
  20729046.160   108931909.99309  20729042.340    84882015.25449
  21287154.060   111864826.31009  21287149.860    87167409.71048
  20464214.740   107540247.67909  20464215.120    83797615.92949
  21836352.900   114750971.62108  21836353.220    89416406.29747
 15 03 26 01 20  0.0000000  0 10G01G04G11G14G16G18G19G22G27G32
  23540754.280   123707517.37707  23540756.720    96395492.72946
  21380328.160   112354501.12009  21380327.220    87548999.26048
  22656680.400   119061691.78108  22656678.660    92775348.14546
  23918321.780   125691681.28806  23918322.960    97941587.07644
  22436015.980   117902098.86208  22436015.000    91871761.60447
  23997299.020   126106964.00007  23997296.900    98265289.15645
  20723120.100   108900768.21909  20723116.280    84857748.92849
  21296651.840   111914737.43109  21296647.660    87206301.48749
  20467021.220   107554996.11009  20467021.660    83809108.20249
  21818337.040   114656297.91108  21818337.420    89342634.63447
 15 03 26 01 20 30.0000000  0 10G01G04G11G14G16G18G19G22G27G32
  23527398.380   123637332.49507  23527400.880    96340803.32346
  21371046.260   112305724.51609  21371045.220    87510991.54048
  22642346.180   118986364.75708  22642344.360    92716651.79346
  23906364.520   125628846.28006  23906365.520    97892624.90445
  22453978.440   117996492.13908  22453977.540    91945314.76247
  24013855.660   126193969.62007  24013853.660    98333085.73145
  20717251.420   108869928.06609  20717247.620    84833717.64449
  21306228.560   111965063.45009  21306224.400    87245516.57048
  20469901.640   107570132.99709  20469902.120    83820903.18049
  21800389.840   114561984.81808  21800390.200    89269143.98047
 15 03 26 01 21  0.0000000  0 10G01G04G11G14G16G18G19G22G27G32
  23514070.580   123567295.53707  23514073.220    96286229.19345
  21361810.960   112257193.17309  21361809.920    87473174.92648
  22628036.360   118911165.90108  22628034.460    92658055.31746
  23894448.820   125566229.08207  23894449.300    97843832.41245
  22471991.800   118091152.81409  22471990.900    92019076.27247
  24030442.360   126281133.26707  24030440.440    98401005.44145
  20711441.100   108839394.45009  20711437.280    84809925.21649
  21315884.540   112015805.89409  21315880.360    87285056.13748
  20472856.800   107585662.54409  20472857.320    83833004.11949
  21782512.340   114468038.11508  21782512.640    89195938.81747
 15 03 26 01 21 30.0000000  0 10G01G04G11G14G16G18G19G22G27G32
  23500769.660   123497399.61907  23500772.320    96231764.92946
  21352620.980   112208900.19109  21352620.140    87435544.05948
  22613749.640   118836089.10608  22613747.740    92599553.95646
  23882573.920   125503825.60207  23882573.900    97795206.46044
  22490054.320   118186071.49308  22490053.380    92093038.83047
  24047057.420   126368446.04607  24047055.460    98469041.35745
  20705688.060   108809161.90209  20705684.220    84786367.38949
  21325618.100   112066956.08909  21325613.920    87324913.43848
  20475885.520   107601578.67009  20475886.040    83845406.29349
  21764703.780   114374453.61108  21764704.040    89123015.89847
 15 03 26 01 22  0.0000000  0 10G01G04G11G14G16G18G19G22G27G32
  23487497.360   123427653.73407  23487500.020    96177417.55646
  21343478.140   112160854.46109  21343477.400    87398105.84648
  22599487.900   118761143.68508  22599486.080    92541154.96546
  23870741.940   125441647.98307  23870741.400    97746756.49844
  22508167.120   118281254.49508  22508166.120    92167207.35147
  24063702.200   126455915.19707  24063700.520    98537199.10044
  20699994.320   108779241.05709  20699990.480    84763052.44249
  21335430.560   112118520.99009  21335426.380    87365093.87948
  20478989.700   107617891.18009  20478990.220    83858117.33649
  21746966.280   114281242.60908  21746966.500    89050384.01247
 15 03 26 01 22 30.0000000  0 10G01G04G11G14G16G18G19G22G27G32
  23474252.340   123358051.20207  23474255.160    96123181.89746
  21334381.140   112113049.21409  21334380.460    87360855.02748
  22585250.000   118686323.73308  22585248.420    92482853.75746
  23858952.200   125379692.34207  23858951.840    97698479.52546
  22526328.400   118376692.36608  22526327.380    92241574.47647
  24080375.040   126543531.78407  24080373.540    98605471.76344
  20694358.940   108749626.98509  20694355.120    84739976.54449
  21345320.360   112170492.36109  21345316.200    87405591.05548
  20482168.200   107634594.33709  20482168.740    83871132.77449
  21729299.120   114188401.20609  21729299.320    88978040.13747
 15 03 26 01 23  0.0000000  0 10G01G04G11G14G16G18G19G22G27G32
  23461034.840   123288593.07807  23461037.680    96069058.75146
  21325330.080   112065485.54309  21325329.460    87323792.45348
  22571036.400   118611630.92308  22571034.820    92424651.61146
  23847205.360   125317962.85607  23847205.220    97650378.78944
  22544537.880   118472383.44508  22544536.840    92316138.90747
  24097075.800   126631294.97507  24097074.380    98673858.66345
  20688782.400   108720322.09409  20688778.560    84717141.57049
  21355287.320   112222869.23909  21355283.200    87446404.21748
  20485421.360   107651689.86009  20485421.900    83884453.96049
  21711702.960   114095932.86109  21711703.120    88905986.95747
 15 03 26 01 23 30.0000000  0 10G01G04G11G14G16G18G19G22G27G32
  23447845.320   123219282.29007  23447848.360    96015050.44246
  21316325.540   112018166.47709  21316324.980    87286920.48048
  22556847.740   118537068.73808  22556846.000    92366551.24646
  23835502.540   125256465.43807  23835502.720    97602458.87945
  22562795.520   118568327.88608  22562794.520    92390900.76047
  24113804.760   126719206.07407  24113803.020    98742360.78445
  20683265.540   108691330.92709  20683261.660    84694551.05749
  21365331.680   112275652.88609  21365327.600    87487534.33748
  20488749.920   107669181.63209  20488750.480    83898083.91849
  21694178.860   114003843.12809  21694178.980    88834228.79747
 15 03 26 01 24  0.0000000  0 10G01G04G11G14G16G18G19G22G27G32
  23434683.320   123150116.01207  23434686.380    95961154.72146
  21307366.960   111971089.03109  21307366.360    87250236.77648
  22542683.480   118462634.80808  22542681.480    92308550.79946
  23823843.720   125195199.69107  23823844.400    97554719.47944
  22581100.360   118664520.15708  22581099.320    92465855.71647
  24130560.900   126807260.02207  24130559.340    98810974.24745
  20677808.100   108662652.15709  20677804.200    84672203.95949
  21375452.540   112328838.58509  21375448.460    87528977.73548
  20492153.500   107687067.54509  20492154.060    83912020.98649
  21676726.660   113912131.56608  21676726.800    88762765.30848
 15 03 26 01 24 30.0000000  0 10G01G04G11G14G16G18G19G22G27G32
  23421548.860   123081094.45307  23421551.900    95907371.76646
  21298454.340   111924253.21009  21298453.720    87213741.35448
  22528543.820   118388330.29308  22528541.780    92250651.21646
  23812229.660   125134169.09406  23812230.300    97507163.28445
  22599451.840   118760957.72208  22599450.800    92541001.82247
  24147343.960   126895455.15007  24147342.400    98879697.69744
  20672410.440   108634287.35409  20672406.540    84650101.51549
  21385649.580   112382424.40509  21385645.460    87570732.92148
  20495632.300   107705348.63409  20495632.820    83926265.98249
  21659346.940   113820800.99109  21659347.080    88691598.69248
 15 03 26 01 25  0.0000000  0 10G01G04G11G14G16G18G19G22G27G32
  23408442.140   123012217.79607  23408444.900    95853701.68946
  21289587.860   111877659.40609  21289587.060    87177434.50648
  22514428.840   118314155.95908  22514426.960    92192853.07846
  23800661.080   125073376.89907  23800661.540    97459792.84745
  22617849.460   118857637.58708  22617848.440    92616336.73247
  24164153.440   126983789.63807  24164151.740    98948529.75544
  20667072.840   108606238.10909  20667068.940    84628244.96249
  21395922.440   112436408.57509  21395918.280    87612798.51348
  20499186.480   107724025.81809  20499186.960    83940819.62849
  21642040.220   113729854.00309  21642040.380    88620730.98048
 15 03 26 01 25 30.0000000  0 10G01G04G11G14G16G18G19G22G27G32
  23395362.060   122943481.02607  23395364.440    95800140.60246
  21280766.420   111831302.33409  21280765.520    87141312.13148
  22500337.800   118240107.26508  22500336.000    92135152.84046
  23789137.680   125012820.73507  23789137.740    97412606.32845
  22636291.920   118954553.05008  22636290.900    92691855.21647
  24180988.160   127072256.46507  24180986.320    99017464.93144
  20661794.660   108578501.19109  20661790.780    84606631.78249
  21406269.840   112490784.34509  21406265.660    87655169.24148
  20502815.240   107743094.86509  20502815.700    83955678.61649
  21624806.060   113639288.17209  21624806.240    88550160.26148
 15 03 26 01 26  0.0000000  0 10G01G04G11G14G16G18G19G22G27G32
  23382310.440   122874894.22307  23382312.660    95746696.40246
  21271991.980   111785192.44909  21271991.080    87105382.37048
  22486272.740   118166195.03908  22486270.940    92077558.93246
  23777661.720   124952513.78207  23777661.860    97365614.03045
  22654780.480   119051710.85708  22654779.300    92767562.56647
  24197849.600   127160863.72006  24197847.660    99086509.54744
  20656578.120   108551088.04109  20656574.260    84585270.89249
  21416693.360   112545559.95209  21416689.120    87697851.54048
  20506520.620   107762566.64209  20506521.060    83970851.42949
  21607646.800   113549115.99109  21607647.000    88479896.29148
 15 03 26 01 26 30.0000000  0 10G01G04G11G14G16G18G19G22G27G32
  23369286.180   122806451.54307  23369288.480    95693364.50346
  21263263.380   111739323.59609  21263262.500    87069640.43148
  22472232.680   118092414.28508  22472230.800    92020067.47546
  23766232.420   124892453.03907  23766232.900    97318813.59445
  22673313.480   119149102.39608  22673312.300    92843452.03347
  24214736.340   127249603.83006  24214734.400    99155657.65044
  20651422.420   108523994.69609  20651418.600    84564159.20149
  21427191.480   112600727.62009  21427187.220    87740839.33748
  20510301.680   107782436.09109  20510302.100    83986334.11349
  21590561.840   113459334.18909  21590562.020    88409936.50048
 15 03 26 01 27  0.0000000  0 10G01G04G11G14G16G18G19G22G27G32
  23356289.240   122738152.66707  23356291.800    95640144.67746
  21254580.580   111693695.33409  21254579.680    87034085.96848
  22458217.700   118018765.24408  22458215.820    91962678.65946
  23754850.680   124832641.07407  23754850.920    97272206.98545
  22691890.240   119246723.96008  22691889.220    92919520.72747
  24231647.880   127338474.59407  24231646.080    99224907.59045
  20646327.760   108497222.16709  20646323.960    84543297.49149
  21437763.740   112656285.21809  21437759.520    87784130.97248
  20514158.460   107802703.61209  20514158.900    84002126.97849
  21573551.540   113369944.74509  21573551.740    88340282.45248
 15 03 26 01 27 30.0000000  0 10G01G04G11G14G16G18G19G22G27G32
  23343319.880   122669998.74007  23343322.580    95587037.78547
  21245943.840   111648308.92209  21245942.880    86998719.95148
  22444228.100   117945249.53708  22444226.160    91905393.71746
  23743516.940   124773081.81807  23743517.380    97225797.29845
  22710510.720   119344575.23008  22710509.820    92995768.41647
  24248584.020   127427474.76307  24248582.240    99294258.35644
  20641294.640   108470772.90309  20641290.840    84522687.68249
  21448410.020   112712231.85509  21448405.820    87827725.75448
  20518091.360   107823371.08109  20518091.800    84018231.49349
  21556616.600   113280951.30509  21556616.880    88270936.97448
 15 03 26 01 28  0.0000000  0 10G01G04G11G14G16G18G19G22G27G32
  23330377.800   122601987.96107  23330380.540    95534042.42946
  21237352.800   111603162.80709  21237351.880    86963541.18348
  22430263.740   117871866.17708  22430261.640    91848211.91746
  23732231.560   124713776.64907  23732231.660    97179585.55545
  22729173.920   119442650.86808  22729173.020    93072190.94347
  24265544.100   127516600.71906  24265542.280    99363707.10444
  20636323.000   108444646.86609  20636319.220    84502329.73549
  21459129.600   112768563.88309  21459125.440    87871620.84348
  20522100.160   107844437.44409  20522100.620    84034646.83249
  21539757.160   113192354.55009  21539757.380    88201900.60248
 15 03 26 01 28 30.0000000  0 10G01G04G11G14G16G18G19G22G27G32
  23317463.580   122534123.41607  23317466.360    95481161.01546
  21228808.000   111558259.80309  21228807.100    86928551.85048
  22416325.320   117798619.08108  22416323.060    91791136.27846
  23720995.560   124654731.41707  23720995.480    97133576.40345
  22747879.880   119540951.42808  22747878.900    93148788.74247
  24282528.460   127605854.09607  24282526.580    99433255.22344
  20631413.780   108418848.67809  20631409.980    84482227.26349
  21469922.680   112825282.20609  21469918.580    87915816.94148
  20526185.560   107865906.47809  20526186.060    84051375.94849
  21522974.240   113104159.92809  21522974.420    88133177.58248
 15 03 26 01 29  0.0000000  0 10G01G04G11G14G16G18G19G22G27G32
  23304576.400   122466400.94407  23304579.140    95428390.30846
  21220308.700   111513595.78309  21220307.820    86893748.74048
  22402412.040   117725504.53808  22402409.720    91734163.94246
  23709808.780   124595944.83807  23709808.500    97087768.77545
  22766627.340   119639469.94508  22766626.440    93225556.37347
  24299536.000   127695228.82506  24299533.900    99502897.86345
  20626566.460   108393375.70509  20626562.600    84462378.19449
  21480788.120   112882380.77809  21480784.020    87960309.33148
  20530346.960   107887774.80409  20530347.460    84068416.19649
  21506267.540   113016365.82209  21506267.700    88064766.65148
 15 03 26 01 29 30.0000000  0 10G01G04G11G14G16G18G19G22G27G32
  23291717.040   122398825.01307  23291719.680    95375733.77446
  21211855.740   111469175.19709  21211854.900    86859135.31848
  22388524.920   117652527.67108  22388522.660    91677298.88346
  23698672.500   124537424.38207  23698672.100    97042168.51245
  22785416.660   119738208.11008  22785415.760    93302495.15647
  24316566.940   127784727.18506  24316565.020    99572636.78345
  20621782.160   108368233.80509  20621778.240    84442787.10549
  21491726.500   112939862.46309  21491722.380    88005100.25448
  20534585.320   107910047.52809  20534585.800    84085771.55349
  21489638.380   112928978.99909  21489638.440    87996673.07848
 15 03 26 01 30  0.0000000  0 10G01G04G11G14G16G18G19G22G27G32
  23278884.700   122331391.35507  23278887.260    95323188.12046
  21203448.300   111424993.80709  21203447.480    86824708.29648
  22374663.380   117579685.01808  22374661.300    91620538.41147
  23687586.640   124479168.87407  23687586.360    96996774.71645
  22804246.540   119837159.39208  22804245.680    93379600.00247
  24333620.240   127874343.01506  24333618.640    99642467.29044
  20617060.400   108343420.50809  20617056.460    84423452.07849
  21502736.620   112997720.92209  21502732.460    88050184.77548
  20538900.000   107932721.13009  20538900.420    84103439.30149
  21473086.380   112841997.73609  21473086.400    87928895.53448
 15 03 26 01 30 30.0000000  0 10G01G04G11G14G16G18G19G22G27G32
  23266079.880   122264102.48107  23266082.500    95270755.28846
  21195086.860   111381054.09309  21195086.000    86790469.57048
  22360828.040   117506979.86508  22360826.080    91563885.07847
  23676552.360   124421183.35507  23676552.120    96951591.26845
  22823116.780   119936322.97808  22823115.940    93456870.27247
  24350696.040   127964077.09406  24350694.420    99712389.92844
  20612401.900   108318939.85209  20612397.940    84404376.24049
  21513818.600   113055956.86209  21513814.360    88095563.42848
  20543291.540   107955798.78109  20543291.940    84121421.87849
  21456612.460   112755426.83009  21456612.460    87861437.73948
 15 03 26 01 31  0.0000000  0 10G01G04G11G14G16G18G19G22G27G32
  23253302.240   122196955.58707  23253304.980    95218433.06646
  21186770.820   111337353.00809  21186769.920    86756416.79748
  22347018.400   117434409.96908  22347016.520    91507337.14546
  23665569.520   124363467.98307  23665569.280    96906618.36045
  22842026.420   120035693.49508  22842025.620    93534301.78747
  24367793.440   128053924.40406  24367791.780    99782400.80545
  20607806.400   108294790.17309  20607802.400    84385558.30549
  21524971.420   113114565.19509  21524967.140    88141232.25548
  20547759.560   107979278.31409  20547759.940    84139717.60849
  21440216.580   112669265.81009  21440216.460    87794299.32948
 15 03 26 01 31 30.0000000  0 10G01G04G11G14G16G18G19G22G27G32
  23240552.220   122129953.26507  23240554.900    95166223.52446
  21178500.760   111293893.47009  21178499.760    86722552.24348
  22333235.220   117361978.87808  22333233.240    91450897.36646
  23654639.080   124306028.47007  23654638.660    96861860.39445
  22860975.420   120135270.73608  22860974.600    93611894.40247
  24384912.580   128143886.02806  24384910.980    99852500.77644
  20603274.700   108270975.92409  20603270.720    84367001.75149
  21536195.260   113173546.78609  21536191.000    88187191.93848
  20552304.680   108003163.03109  20552305.020    84158329.07449
  21423899.660   112583519.74309  21423899.460    87727484.26148
 15 03 26 01 32  0.0000000  0 10G01G04G11G14G16G18G19G22G27G32
  23227829.260   122063092.85507  23227831.760    95114124.54047
  21170276.080   111250672.54809  21170275.080    86688873.63148
  22319478.060   117289684.49508  22319475.860    91394564.09546
  23643761.020   124248864.80107  23643760.520    96817317.37445
  22879962.620   120235049.03308  22879961.840    93689643.67347
  24402052.660   128233957.53106  24402051.000    99922686.33045
  20598806.560   108247495.79709  20598802.620    84348705.55449
  21547489.180   113232896.81209  21547484.960    88233438.71648
  20556926.500   108027450.89609  20556926.840    84177254.67849
  21407661.600   112498188.23009  21407661.300    87660992.22048
 15 03 26 01 32 30.0000000  0 10G01G04G11G14G16G18G19G22G27G32
  23215133.980   121996378.26907  23215136.320    95062139.21047
  21162097.560   111207694.24309  21162096.600    86655384.07648
  22305747.720   117217531.51808  22305745.360    91338341.02346
  23632936.660   124191983.66607  23632936.220    96772994.52445
  22898988.460   120335030.44408  22898987.820    93767551.22147
  24419213.940   128324140.68206  24419212.200    99992958.91144
  20594403.000   108224355.24609  20594399.100    84330673.97249
  21558853.600   113292617.24809  21558849.420    88279974.12648
  20561625.880   108052146.46709  20561626.260    84196497.98749
  21391503.620   112413277.67709  21391503.280    87594828.21848
 15 03 26 01 33  0.0000000  0 10G01G04G11G14G16G18G19G22G27G32
  23202465.640   121929805.75907  23202467.780    95010264.56946
  21153964.440   111164954.82709  21153963.520    86622080.65348
  22292043.700   117145516.87208  22292041.360    91282225.72846
  23622165.960   124135384.30207  23622165.740    96728891.21945
  22918051.620   120435207.73408  22918050.860    93845611.39447
  24436395.520   128414430.01806  24436393.940   100063314.21544
  20590063.700   108201552.19909  20590059.820    84312905.35649
  21570287.400   113352702.39009  21570283.280    88326793.70848
  20566402.260   108077246.66609  20566402.700    84216056.56549
  21375425.440   112328786.58409  21375425.120    87528991.04548
 15 03 26 01 33 30.0000000  0 10G01G04G11G14G16G18G19G22G27G32
  23189824.340   121863375.80007  23189826.380    94958500.99546
  21145876.920   111122454.84609  21145876.000    86588963.80348
  22278366.340   117073641.83708  22278364.140    91226219.22847
  23611449.600   124079070.19907  23611449.520    96685010.18445
  22937151.620   120535578.67008  22937150.860    93923822.46047
  24453597.020   128504824.08506  24453595.340   100133751.10644
  20585788.980   108179088.48309  20585785.120    84295401.16649
  21581790.360   113413150.89009  21581786.220    88373896.43148
  20571255.840   108102752.54309  20571256.340    84235931.26449
  21359427.660   112244717.76909  21359427.340    87463482.92948
 15 03 26 01 34  0.0000000  0 10G01G04G11G14G16G18G19G22G27G32
  23177210.560   121797090.74007  23177212.640    94906850.35446
  21137835.380   111080196.52009  21137834.500    86556035.26248
  22264716.160   117001909.52808  22264714.060    91170323.94547
  23600788.600   124023046.36807  23600788.160    96641355.32545
  22956288.500   120636143.15708  22956287.760    94002184.35047
  24470818.360   128595323.25006  24470816.560   100204269.94245
  20581579.580   108156967.99209  20581575.720    84278164.42249
  21593362.580   113473963.29809  21593358.420    88421282.72148
  20576187.220   108128667.11409  20576187.740    84256124.43349
  21343511.080   112161075.84509  21343510.760    87398307.45748
 15 03 26 01 34 30.0000000  0 10G01G04G11G14G16G18G19G22G27G32
  23164623.780   121730947.56307  23164626.060    94855310.26846
  21129839.260   111038176.83609  21129838.420    86523292.67848
  22251092.740   116930317.75208  22251090.660    91114538.17246
  23590182.800   123967312.51807  23590182.500    96597926.46345
  22975461.060   120736895.44508  22975460.320    94080692.57847
  24488058.920   128685922.95507  24488057.020   100274867.10044
  20577435.220   108135189.17009  20577431.340    84261193.91349
  21605003.020   113535134.36809  21604998.860    88468948.49148
  20581195.900   108154987.92109  20581196.460    84276634.14849
  21327675.600   112077860.16409  21327675.280    87333464.11948
 15 03 26 01 35  0.0000000  0 10G01G04G11G14G16G18G19G22G27G32
  23152064.060   121664946.27207  23152066.620    94803880.72847
  21121888.640   110996395.93609  21121887.780    86490736.15248
  22237496.120   116858867.06808  22237494.020    91058862.34147
  23579632.700   123911871.70507  23579632.600    96554725.91446
  22994668.780   120837832.74708  22994668.260    94159344.94747
  24505318.260   128776621.16206  24505316.240   100345541.02944
  20573356.180   108113753.67909  20573352.320    84244490.93349
  21616711.320   113596661.91309  21616707.160    88516892.03148
  20586282.040   108181715.55509  20586282.580    84297460.86749
  21311921.680   111995072.92409  21311921.340    87268954.62648
 15 03 26 01 35 30.0000000  0 10G01G04G11G14G16G18G19G22G27G32
  23139531.920   121599089.40107  23139534.540    94752563.74047
  21113983.860   110954856.16009  21113982.980    86458367.51848
  22223926.980   116787560.96908  22223924.860    91003299.16347
  23569139.420   123856729.10107  23569139.020    96511757.72145
  23013911.640   120938954.50408  23013911.080    94238141.07247
  24522596.440   128867418.82406  24522594.420   100416292.44444
  20569343.260   108092665.51309  20569339.400    84228058.59849
  21628487.620   113658546.80009  21628483.440    88565114.02348
  20591446.180   108208853.13609  20591446.720    84318607.02649
  21296250.220   111912718.99009  21296249.860    87204782.77748
 15 03 26 01 36  0.0000000  0 10G01G04G11G14G16G18G19G22G27G32
  23127026.800   121533374.43107  23127029.480    94701357.32147
  21106124.540   110913555.12609  21106123.660    86426184.91948
  22210385.040   116716397.60208  22210382.860    90947847.21147
  23558703.000   123801885.67807  23558702.520    96469022.66345
  23033188.620   121040255.52608  23033188.080    94317076.87047
  24539892.720   128958311.46706  24539891.020   100487117.86844
  20565396.220   108071923.58309  20565392.320    84211896.06149
  21640331.080   113720784.47409  21640326.880    88613610.91348
  20596687.940   108236398.73609  20596688.480    84340071.12649
  21280661.120   111830798.11909  21280660.780    87140948.38048
 15 03 26 01 36 30.0000000  0 10G01G04G11G14G16G18G19G22G27G32
  23114548.380   121467800.10107  23114551.020    94650260.49446
  21098310.400   110872491.58809  21098309.520    86394187.37948
  22196870.240   116645376.71008  22196867.940    90892506.27947
  23548323.660   123747342.06507  23548323.420    96426521.23945
  23052499.000   121141732.16308  23052498.400    94396149.51146
  24557206.600   129049296.19806  24557204.920   100558015.04044
  20561515.160   108051528.39609  20561511.240    84196003.71049
  21652241.040   113783371.55209  21652236.820    88662380.06748
  20602007.240   108264351.63409  20602007.740    84361852.60349
  21265154.620   111749311.22109  21265154.300    87077452.14648
 15 03 26 01 37  0.0000000  0 10G01G04G11G14G16G18G19G22G27G32
  23102097.240   121402368.99507  23102099.700    94599275.25846
  21090541.940   110831667.87609  21090541.040    86362376.71748
  22183383.120   116574501.40808  22183380.840    90837278.78747
  23538002.540   123693104.21007  23538002.100    96384258.03346
  23071842.820   121243384.46608  23071842.320    94475359.02847
  24574538.100   129140373.58706  24574536.300   100628984.40244
  20557700.780   108031483.72809  20557696.880    84180384.48849
  21664217.580   113846308.72609  21664213.380    88711422.02348
  20607404.600   108292714.93609  20607405.080    84383953.87149
  21249731.640   111668263.15609  21249731.360    87014297.84648
 15 03 26 01 37 30.0000000  0 10G01G04G11G14G16G18G19G22G27G32
  23089673.360   121337081.42207  23089675.660    94548401.86946
  21082819.200   110791084.51409  21082818.220    86330753.34148
  22169923.940   116503772.96608  22169921.700    90782165.74847
  23527740.180   123639175.20807  23527739.820    96342235.50946
  23091219.500   121345209.63008  23091219.100    94554703.24246
  24591886.980   129231542.30406  24591885.180   100700024.96544
  20553953.460   108011791.42609  20553949.580    84165039.84149
  21676260.420   113909594.29609  21676256.260    88760735.45448
  20612880.220   108321489.54509  20612880.680    84406375.64049
  21234392.700   111587656.56909  21234392.400    86951487.56848
 15 03 26 01 38  0.0000000  0 10G01G04G11G14G16G18G19G22G27G32
  23077276.100   121271933.71507  23077278.360    94497637.46546
  21075141.440   110750737.66809  21075140.360    86299314.26148
  22156492.100   116433188.24908  22156489.940    90727164.69947
  23517536.320   123585553.90607  23517536.160    96300452.76445
  23110627.880   121447201.19008  23110627.500    94634177.13346
  24609252.040   129322796.56306  24609250.420   100771132.16344
  20550272.780   107992449.35909  20550268.880    84149968.10149
  21688368.460   113973222.50709  21688364.320    88810315.87448
  20618433.500   108350672.24409  20618433.940    84429115.40049
  21219137.460   111507489.84409  21219137.160    86889020.03148
 15 03 26 01 38 30.0000000  0 10G01G04G11G14G16G18G19G22G27G32
  23064905.820   121206927.40807  23064908.040    94446983.23246
  21067508.980   110710629.02809  21067507.880    86268060.79548
  22143088.100   116362749.93508  22143085.900    90672277.72347
  23507391.860   123532244.69007  23507391.660    96258913.17345
  23130067.680   121549357.60508  23130067.180    94713779.47846
  24626633.480   129414136.41306  24626631.840   100842306.06844
  20546659.320   107973460.58309  20546655.400    84135171.64749
  21700541.620   114037192.87909  21700537.500    88860162.90748
  20624064.840   108380265.10109  20624065.280    84452174.76149
  21203966.660   111427766.85209  21203966.320    86826898.25848
 15 03 26 01 39  0.0000000  0 10G01G04G11G14G16G18G19G22G27G32
  23052563.080   121142065.55108  23052565.160    94396441.58146
  21059922.400   110670761.72209  21059921.380    86236995.39548
  22129712.620   116292461.58608  22129710.440    90617507.60447
  23497307.780   123479253.46907  23497307.760    96217621.40145
  23149539.020   121651679.70908  23149538.500    94793510.93046
  24644031.520   129505563.41706  24644029.960   100913547.88744
  20543113.960   107954829.67409  20543110.080    84120654.06749
  21712780.040   114101506.33609  21712775.980    88910277.29248
  20629774.920   108410271.67409  20629775.320    84475556.50649
  21188881.260   111348492.63209  21188880.840    86765126.18348
 15 03 26 01 39 30.0000000  0 10G01G04G11G14G16G18G19G22G27G32
  23040246.940   121077344.06607  23040249.120    94346009.28447
  21052381.000   110631131.65309  21052380.080    86206114.85048
  22116365.100   116222320.12608  22116362.940    90562851.94447
  23487284.020   123426579.04007  23487284.020    96176576.44945
  23169040.600   121754160.93608  23169040.120    94873366.37046
  24661445.000   129597071.40506  24661443.320   100984852.78644
  20539636.220   107936554.12709  20539632.360    84106413.38249
  21725082.680   114166157.23209  21725078.660    88960654.61148
  20635563.060   108440688.39809  20635563.440    84499257.84349
  21173880.900   111269665.48409  21173880.500    86703702.48348
 15 03 26 01 40  0.0000000  0 10G01G04G11G14G16G18G19G22G27G32
  23027958.020   121012766.19407  23027960.560    94295688.92147
  21044885.360   110591741.92709  21044884.500    86175421.58048
  22103046.300   116152329.54908  22103044.220    90508313.85847
  23477321.660   123374227.22607  23477321.400    96135782.88145
  23188572.460   121856801.36108  23188572.040    94953345.84846
  24678874.060   129688661.89606  24678872.380   101056222.01843
  20536226.960   107918638.55009  20536223.120    84092453.19449
  21737449.740   114231146.52109  21737445.640    89011295.61648
  20641429.920   108471518.95009  20641430.320    84523281.64149
  21158966.640   111191290.66109  21158966.220    86642631.23148
 15 03 26 01 40 30.0000000  0 10G01G04G11G14G16G18G19G22G27G32
  23015695.560   120948327.78507  23015698.360    94245477.23647
  21037434.760   110552588.58709  21037433.900    86144912.50048
  22089755.520   116082486.31508  22089753.520    90453890.58647
  23467420.560   123322196.79707  23467419.940    96095239.74845
  23208133.280   121959594.19008  23208132.780    95033444.08746
  24696317.640   129780328.71406  24696315.820   101127650.68544
  20532885.680   107901080.16509  20532881.860    84078771.33849
  21749880.080   114296468.14909  21749875.880    89062195.57948
  20647374.860   108502759.65209  20647375.240    84547625.03849
  21144138.060   111113366.22309  21144137.640    86581910.93048
 15 03 26 01 41  0.0000000  0 10G01G04G11G14G16G18G19G22G27G32
  23003460.100   120884030.91507  23003463.080    94195375.83447
  21030029.500   110513673.57209  21030028.600    86114589.13448
  22076493.360   116012793.51708  22076491.440    90399584.53247
  23457581.540   123270492.54507  23457581.280    96054950.80146
  23227722.940   122062538.09108  23227722.380    95113660.06546
  24713775.860   129872072.23505  24713774.220   101199139.15544
  20529613.080   107883882.64909  20529609.280    84065370.67849
  21762373.560   114362121.81109  21762369.320    89113354.26948
  20653398.320   108534413.08009  20653398.680    84572290.03649
  21129396.020   111035896.34009  21129395.560    86521544.82548
 15 03 26 01 41 30.0000000  0 10G01G04G11G14G16G18G19G22G27G32
  22991251.560   120819874.51507  22991254.420    94145383.87746
  21022669.360   110474995.82809  21022668.420    86084450.65348
  22063259.840   115943251.05008  22063257.880    90345395.61747
  23447804.980   123219116.29607  23447804.880    96014917.43245
  23247340.840   122165630.64708  23247340.460    95193991.85446
  24731248.140   129963890.02506  24731246.580   101270685.45944
  20526409.280   107867046.46109  20526405.460    84052251.57349
  21774929.640   114428104.56209  21774925.380    89164769.39748
  20659500.200   108566478.54709  20659500.540    84597276.10849
  21114740.680   110958882.03009  21114740.220    86461533.71548
 15 03 26 01 42  0.0000000  0 10G01G04G11G14G16G18G19G22G27G32
  22979070.020   120755859.25508  22979072.520    94095501.88747
  21015354.440   110436555.92109  21015353.460    86054497.50248
  22050055.220   115873860.30108  22050053.160    90291324.92647
  23438091.420   123168071.10707  23438091.380    95975142.05045
  23266986.520   122268869.13208  23266986.220    95274437.38446
  24748734.340   130055780.91005  24748732.700   101342288.72544
  20523274.620   107850573.55409  20523270.740    84039415.54649
  21787548.180   114494415.36709  21787543.880    89216440.15848
  20665680.660   108598957.11009  20665681.000    84622584.07549
  21100172.500   110882325.92409  21100172.040    86401879.65448
 15 03 26 01 42 30.0000000  0 10G01G04G11G14G16G18G19G22G27G32
  22966915.980   120691988.61007  22966918.160    94045732.58447
  21008085.500   110398357.45009  21008084.440    86024732.48148
  22036880.280   115804625.55308  22036878.140    90237375.79447
  23428442.140   123117363.49607  23428441.820    95935629.68746
  23286660.020   122372253.91208  23286659.620    95354996.89846
  24766234.020   130147441.46105  24766233.080   101413580.19144
  20520210.040   107834468.83809  20520206.100    84026866.42349
  21800229.400   114561055.39909  21800225.080    89268367.45448
  20671940.480   108631852.71009  20671940.820    84648217.00849
  21085692.640   110806233.85109  21085692.200    86342587.17448
 15 03 26 01 43  0.0000000  0 10G01G04G11G14G16G18G19G22G27G32
  22954787.820   120628253.98507  22954789.700    93996069.27247
  21000860.920   110360392.02809  21000859.840    85995149.05248
  22023733.540   115735539.11808  22023731.460    90183542.24947
  23418855.960   123066987.32907  23418855.300    95896375.61146
  23306359.300   122475774.12208  23306358.840    95435661.94746
  24783746.760   130239471.51806  24783745.660   101485291.90543
  20517214.200   107818725.27509  20517210.200    84014598.71749
  21812971.160   114628013.91509  21812966.840    89320542.91748
  20678278.080   108665157.14109  20678278.460    84674168.50849
  21071299.760   110730599.02709  21071299.340    86283650.99148
 15 03 26 01 43 30.0000000  0 10G01G04G11G14G16G18G19G22G27G32
  22942685.680   120564656.74407  22942687.460    93946513.02646
  20993680.940   110322660.82109  20993679.860    85965748.12448
  22010615.460   115666603.33108  22010613.440    90129826.07047
  23409333.640   123016946.90207  23409332.860    95857383.13245
  23326084.140   122579428.41408  23326083.680    95516431.48946
  24801271.860   130331565.91506  24801270.720   101557053.75243
  20514287.560   107803345.64409  20514283.560    84002614.58749
  21825773.480   114695290.50009  21825769.180    89372966.22248
  20684693.820   108698872.18209  20684694.200    84700439.96349
  21056994.620   110655425.14009  21056994.180    86225073.97148
 15 03 26 01 44  0.0000000  0 10G01G04G11G14G16G18G19G22G27G32
  22930611.200   120501205.45907  22930613.060    93897070.51147
  20986547.140   110285172.49609  20986546.060    85936536.45248
  21997527.780   115597827.24008  21997525.760    90076234.33547
  23399877.160   122967253.33207  23399876.260    95818660.95145
  23345835.540   122683222.44608  23345834.980    95597309.89846
  24818810.480   130423731.36005  24818809.220   101628870.97344
  20511432.080   107788339.99009  20511428.060    83990921.87049
  21838637.540   114762891.78909  21838633.340    89425642.53948
  20691189.380   108733006.75909  20691189.800    84727038.32449
  21042779.180   110580722.53609  21042778.720    86166864.18248
 15 03 26 01 44 30.0000000  0 10G01G04G11G14G16G18G19G22G27G32
  22918562.980   120437892.11908  22918565.080    93847735.48447
  20979457.980   110247918.91409  20979456.940    85907507.70948
  21984469.240   115529204.01508  21984467.160    90022761.72347
  23390485.700   122917901.48907  23390484.800    95780205.03145
  23365611.500   122787145.46508  23365611.000    95678288.82346
  24836360.700   130515957.74705  24836359.380   101700735.69543
  20508646.500   107773701.74409  20508642.520    83979515.45549
  21851561.480   114830807.40809  21851557.240    89478563.79648
  20697763.320   108767553.22509  20697763.780    84753957.64749
  21028652.260   110506485.30909  21028651.820    86109017.04048
 15 03 26 01 45  0.0000000  0 10G01G04G11G14G16G18G19G22G27G32
  22906541.580   120374719.70908  22906543.820    93798510.28047
  20972414.100   110210903.31609  20972413.060    85878664.40148
  21971440.520   115460737.50108  21971438.340    89969411.21747
  23381160.180   122868896.59107  23381159.060    95742019.46244
  23385411.980   122891197.99208  23385411.680    95759368.64446
  24853922.800   130608246.73006  24853921.440   101772649.14743
  20505931.680   107759435.32109  20505927.740    83968398.76049
  21864545.360   114899038.21509  21864541.220    89531730.65348
  20704416.300   108802514.89709  20704416.800    84781200.50249
  21014614.800   110432718.48709  21014614.420    86051536.44048
 15 03 26 01 45 30.0000000  0 10G01G04G11G14G16G18G19G22G27G32
  22894546.540   120311685.62208  22894548.720    93749392.85547
  20965415.020   110174122.88409  20965413.960    85850004.34548
  21958441.300   115392426.04608  21958438.960    89916181.53747
  23371900.760   122820238.81507  23371899.540    95704104.36946
  23405235.960   122995373.46608  23405235.660    95840544.27246
  24871496.000   130700593.91206  24871494.540   101844607.97644
  20503287.380   107745539.39209  20503283.460    83957570.77149
  21877588.400   114967579.88509  21877584.320    89585139.74248
  20711147.880   108837889.49409  20711148.380    84808765.12149
  21000666.700   110359421.29409  21000666.420    85994421.79148
 15 03 26 01 46  0.0000000  0 11G01G03G04G11G14G16G18G19G22G27G32
  22882578.540   120248793.47808  22882580.780    93700386.03547
  24625177.560   129406184.81106  24625184.700   100836007.90645
  20958461.400   110137581.29109  20958460.300    85821530.39048
  21945472.340   115324273.95708  21945470.040    89863076.03547
  23362708.780   122771934.82307  23362707.800    95666464.96846
  23425083.820   123099674.39508  23425083.420    95921817.66146
  24889080.720   130793001.38006  24889079.320   101916613.78345
  20500714.580   107732019.21809  20500710.640    83947035.57249
  21890690.880   115036433.83509  21890686.780    89638792.16648
  20717958.820   108873680.99709  20717959.300    84836654.59349
  20986809.100   110286599.47209  20986808.860    85937677.54948
 15 03 26 01 46 30.0000000  0 11G01G03G04G11G14G16G18G19G22G27G32
  22870637.660   120186043.99508  22870639.800    93651490.37547
  24604836.040   129299292.99906  24604843.280   100752716.16845
  20951553.320   110101279.32509  20951552.280    85793243.15648
  21932534.020   115256282.86308  21932531.780    89810095.98647
  23353584.740   122723987.61107  23353583.880    95629103.55845
  23444955.220   123204098.81308  23444954.820    96003187.27146
  24906676.520   130885467.76306  24906675.360   101988665.51644
  20498213.640   107718876.69809  20498209.700    83936794.64749
  21903852.580   115105598.88009  21903848.440    89692686.99848
  20724849.260   108909890.40609  20724849.760    84864869.70749
  20973042.520   110214255.59509  20973042.220    85881305.73048
 15 03 26 01 47  0.0000000  0 11G01G03G04G11G14G16G18G19G22G27G32
  22858723.000   120123432.33408  22858725.140    93602702.11047
  24584515.600   129192512.20206  24584523.120   100669510.92245
  20944690.000   110065212.29009  20944688.980    85765138.99648
  21919625.660   115188449.00208  21919623.480    89757238.45947
  23344528.120   122676395.05707  23344527.500    95592018.52246
  23464848.520   123308638.59808  23464848.220    96084646.76446
  24924282.420   130977987.10306  24924280.820   102060758.52444
  20495783.940   107706108.70109  20495780.000    83926845.56149
  21917072.160   115175067.84209  21917067.960    89746818.65348
  20731818.360   108946513.21109  20731818.880    84893406.95449
  20959366.360   110142386.82409  20959365.940    85825304.12948
 15 03 26 01 47 30.0000000  0 10G01G03G04G11G14G16G19G22G27G32
  22846833.820   120060954.39008  22846835.880    93554018.05147
  24564216.480   129085840.51806  24564223.760   100586390.64545
  20937870.540   110029375.93009  20937869.520    85737214.56848
  21906746.640   115120769.12408  21906744.420    89704500.91747
  23335538.720   122629155.62507  23335538.280    95555208.63746
  23484762.520   123413286.68808  23484762.180    96166190.64446
  20493424.960   107693712.46409  20493421.060    83917186.15749
  21930348.420   115244834.89709  21930344.160    89801182.59448
  20738865.380   108983545.54309  20738865.920    84922263.30849
  20945780.160   110070990.88209  20945779.660    85769670.96248
 15 03 26 01 48  0.0000000  0 10G01G03G04G11G14G16G19G22G27G32
  22834972.120   119998620.55408  22834974.040    93505446.26847
  24543940.300   128979290.16806  24543947.300   100503364.89345
  20931096.940   109993780.53509  20931095.900    85709477.91448
  21893899.000   115053254.12608  21893896.600    89651891.85247
  23326619.000   122582282.31107  23326618.640    95518684.03446
  23504698.540   123518050.77808  23504698.040    96247824.94946
  20491138.900   107681699.36809  20491135.020    83907825.31049
  21943682.980   115314908.41709  21943678.620    89855785.33348
  20745992.320   109020998.02909  20745992.900    84951447.05749
  20932286.240   110000080.04609  20932285.700    85714415.80648
 15 03 26 01 48 30.0000000  0 10G01G03G04G11G14G16G19G22G27G32
  22823136.600   119936424.23808  22823138.420    93456981.65147
  24523686.380   128872856.72106  24523693.480   100420430.30945
  20924368.020   109958419.86909  20924366.920    85681924.15948
  21881081.620   114985898.57308  21881079.160    89599407.02647
  23317768.100   122535771.21707  23317767.640    95482441.68646
  23524654.880   123622921.72208  23524654.340    96329542.50046
  20488924.840   107670064.55709  20488920.940    83898759.22149
  21957074.180   115385279.64209  21957069.840    89910620.05048
  20753198.040   109058864.39509  20753198.640    84980953.30949
  20918883.780   109929649.67509  20918883.240    85659535.03648
 15 03 26 01 49  0.0000000  0 10G01G03G04G11G14G16G19G22G27G32
  22811327.840   119874368.46508  22811329.660    93408626.54647
  24503455.520   128766545.21806  24503462.760   100337590.74645
  20917684.340   109923297.00709  20917683.240    85654555.71548
  21868295.340   114918706.50708  21868292.920    89547049.59947
  23308987.280   122489627.93507  23308986.700    95446485.92346
  23544631.640   123727900.10408  23544631.300    96411343.76746
  20486783.600   107658812.47209  20486779.740    83889991.36949
  21970522.100   115455949.09709  21970517.760    89965687.16148
  20760483.160   109097147.91209  20760483.760    85010784.61649
  20905573.660   109859704.58509  20905573.120    85605032.41248
 15 03 26 01 49 30.0000000  0 10G01G03G04G11G14G16G19G22G27G32
  22799545.040   119812449.66108  22799546.840    93360378.17747
  24483247.680   128660354.15706  24483254.360   100254844.89245
  20911045.180   109888407.93809  20911044.040    85627369.43448
  21855539.720   114851675.39509  21855537.400    89494817.58247
  23300276.260   122443851.36607  23300275.440    95410815.91545
  23564627.560   123832978.92908  23564627.300    96493223.29546
  20484714.760   107647940.65009  20484710.920    83881519.82049
  21984025.820   115526911.80309  21984021.560    90020982.76448
  20767847.020   109135845.17609  20767847.600    85040938.31649
  20892355.580   109790243.05609  20892355.040    85550906.58048
 15 03 26 01 50  0.0000000  0 10G01G03G04G11G14G16G19G22G27G32
  22787788.720   119750670.28208  22787790.540    93312238.44847
  24463063.620   128554287.95306  24463069.920   100172196.41045
  20904451.040   109853755.40409  20904449.880    85600367.47648
  21842815.380   114784808.41409  21842813.100    89442713.46747
  23291636.000   122398446.82907  23291635.200    95375435.80345
  23584642.580   123938158.54608  23584642.300    96575181.36646
  20482719.060   107637453.18109  20482715.240    83873347.76649
  21997585.340   115598167.71909  21997581.160    90076506.85048
  20775290.140   109174958.94109  20775290.680    85071416.56649
  20879230.340   109721269.43309  20879229.780    85497160.94148
 15 03 26 01 50 30.0000000  0 10G01G03G04G11G14G16G19G22G27G32
  22776058.860   119689029.67508  22776060.660    93264206.84547
  24442903.660   128448348.02506  24442909.760   100089646.31045
  20897901.820   109819338.93909  20897900.620    85573549.47048
  21830122.300   114718105.77809  21830120.140    89390737.42447
  23283066.780   122353415.75507  23283066.160    95340346.70646
  23604676.240   124043435.63808  23604675.800    96657215.40545
  20480796.660   107627350.77009  20480792.820    83865475.76349
  22011200.180   115669714.37009  22011196.040    90132257.48448
  20782812.420   109214488.63709  20782812.920    85102218.91949
  20866198.140   109652784.82309  20866197.500    85443796.34848
 15 03 26 01 51  0.0000000  0 10G01G03G04G11G14G16G19G22G27G32
  22764355.300   119627527.04908  22764357.000    93216282.74647
  24422767.820   128342535.52605  24422773.860   100007195.50245
  20891397.260   109785157.42209  20891396.100    85546914.51748
  21817460.500   114651567.55409  21817458.260    89338889.46647
  23274569.020   122308759.95407  23274568.580    95305550.02246
  23624727.660   124148806.78407  23624727.320    96739322.69546
  20478947.600   107617633.71809  20478943.740    83857904.02849
  22024869.860   115741549.00709  22024865.660    90188232.50948
  20790413.740   109254433.72709  20790414.220    85133344.94149
  20853259.100   109584790.12109  20853258.440    85390813.49248
 15 03 26 01 51 30.0000000  0 10G01G03G04G11G14G16G19G22G27G32
  22752678.240   119566164.08208  22752679.880    93168467.48346
  24402656.780   128236854.16706  24402663.060    99924846.92145
  20884937.800   109751213.04809  20884936.740    85520464.36848
  21804830.500   114585196.53809  21804828.060    89287171.80747
  23266143.580   122264483.87807  23266143.060    95271049.21946
  23644796.780   124254270.68708  23644796.600    96821502.26646
  20477172.480   107608305.14909  20477168.580    83850635.01849
  22038594.240   115813671.01909  22038590.020    90244431.48248
  20798094.460   109294796.04709  20798094.920    85164796.09049
  20840413.980   109517288.92009  20840413.320    85338215.19748
 15 03 26 01 52  0.0000000  0 10G01G03G04G11G14G16G19G22G27G32
  22741026.760   119504935.88508  22741028.360    93120757.24947
  24382570.460   128131301.18507  24382576.140    99842598.25845
  20878522.460   109717500.49809  20878521.420    85494194.86148
  21792231.520   114518988.56409  21792228.960    89235581.19847
  23257790.000   122220585.03308  23257789.460    95236842.38046
  23664882.220   124359819.69608  23664882.100    96903748.17945
  20475470.620   107599361.68909  20475466.680    83843666.09449
  22052372.000   115886073.47909  22052367.780    90300848.98148
  20805853.680   109335570.88709  20805854.100    85196568.68549
  20827662.220   109450278.01909  20827661.560    85285998.95148
 15 03 26 01 52 30.0000000  0 10G01G03G04G11G14G16G19G22G27G32
  22729402.180   119443848.88508  22729403.980    93073157.02247
  24362510.080   128025884.80606  24362515.740    99760456.11245
  20872152.520   109684026.36609  20872151.480    85468111.13248
  21779664.980   114452951.19209  21779662.520    89184123.52747
  23249509.840   122177072.28307  23249509.160    95202936.39046
  23684984.500   124465457.62507  23684984.260    96986063.34845
  20473843.500   107590810.88909  20473839.520    83837003.13149
  22066203.980   115958760.86909  22066199.700    90357488.50448
  20813692.660   109376764.73409  20813693.020    85228667.77449
  20815005.340   109383765.58709  20815004.660    85234171.12148
 15 03 26 01 53  0.0000000  0 10G01G03G04G11G14G16G19G22G27G32
  22717803.820   119382899.34108  22717805.740    93025663.91247
  24342475.420   127920603.41306  24342480.880    99678419.08145
  20865827.280   109650787.01309  20865826.220    85442210.36048
  21767130.380   114387081.58008  21767128.140    89132796.57447
  23241302.880   122133944.34907  23241302.080    95169330.26146
  23705102.420   124571177.80907  23705101.980    97068442.64446
  20472290.560   107582650.10809  20472286.580    83830644.08349
  22080089.060   116031727.29209  22080084.740    90414345.45648
  20821610.700   109418374.03909  20821611.000    85261090.59949
  20802442.880   109317749.57109  20802442.240    85182730.11748
 15 03 26 01 53 30.0000000  0 10G01G03G04G11G14G16G19G22G27G32
  22706231.660   119322087.33008  22706233.760    92978277.97047
  24322466.720   127815459.03406  24322472.260    99596488.82846
  20859546.760   109617782.44309  20859545.660    85416492.52548
  21754627.840   114321380.57509  21754625.740    89081601.02547
  23233169.640   122091203.91807  23233168.680    95136026.06446
  23725235.580   124676978.04207  23725235.440    97150884.28246
  20470812.140   107574880.94609  20470808.160    83824590.18849
  22094026.800   116104970.72008  22094022.540    90471418.25148
  20829607.800   109460398.97509  20829608.080    85293837.29249
  20789975.140   109252231.73109  20789974.600    85131677.29148
 15 03 26 01 54  0.0000000  0 10G01G03G04G11G14G16G19G22G27G32
  22694685.700   119261413.35508  22694687.860    92930999.59847
  24302484.700   127710454.22107  24302490.420    99514667.33445
  20853311.000   109585013.18409  20853309.940    85390958.05448
  21742157.720   114255849.79909  21742155.580    89030538.09947
  23225110.560   122048853.91607  23225109.540    95103026.10146
  23745383.620   124782856.09507  23745383.580    97233386.58946
  20469408.620   107567505.32709  20469404.640    83818842.95549
  22108016.980   116178489.66509  22108012.740    90528705.73548
  20837684.080   109502840.12609  20837684.380    85326908.31149
  20777602.640   109187214.18809  20777602.160    85081014.30848
 15 03 26 01 54 30.0000000  0 10G01G03G04G11G14G16G19G22G27G32
  22683165.700   119200875.43108  22683167.740    92883827.21847
  24282529.280   127605588.93206  24282535.020    99432954.51345
  20847119.700   109552477.57509  20847118.620    85365605.64848
  21729719.860   114190488.49309  21729717.580    88979607.22647
  23217125.800   122006894.54107  23217124.740    95070330.52246
  23765545.440   124888807.06307  23765545.380    97315945.67745
  20468079.860   107560522.60209  20468075.880    83813401.86849
  22122058.760   116252279.69609  22122054.520    90586204.45648
  20845839.140   109545695.58409  20845839.520    85360302.16649
  20765325.340   109122696.73609  20765324.860    85030741.00948
 15 03 26 01 55  0.0000000  0 10G01G03G04G11G14G16G19G22G27G32
  22671672.420   119140477.43708  22671674.260    92836763.88147
  24262601.300   127500869.00506  24262606.720    99351354.97145
  20840973.500   109520179.09209  20840972.440    85340438.01848
  21717315.100   114125301.22109  21717312.720    88928811.96747
  23209216.640   121965332.14007  23209215.780    95037944.28446
  23785721.440   124994832.34608  23785721.260    97398562.68745
  20466826.800   107553937.82209  20466822.860    83808270.87249
  22136152.560   116326343.27208  22136148.360    90643916.33048
  20854073.800   109588969.31209  20854074.280    85394021.93949
  20753144.260   109058684.78309  20753143.700    84980861.60148
 15 03 26 01 55 30.0000000  0 10G01G03G04G11G14G16G19G22G27G32
  22660204.740   119080214.31208  22660206.540    92789805.63247
  24242700.460   127396291.42706  24242705.820    99269866.31946
  20834871.540   109488113.15009  20834870.440    85315451.57748
  21704942.660   114060283.90409  21704940.260    88878149.13347
  23201382.600   121924164.43907  23201381.740    95005865.58546
  23805910.200   125100924.09508  23805909.920    97481231.50446
  20465648.760   107547747.15109  20465644.820    83803446.96749
  22150297.000   116400673.02208  22150292.820    90701835.61148
  20862387.100   109632656.31909  20862387.680    85428063.74749
  20741058.760   108995174.90009  20741058.100    84931373.40848
 15 03 26 01 56  0.0000000  0 10G01G03G04G11G14G16G19G22G27G32
  22648763.420   119020089.67708  22648765.220    92742955.29647
  24222827.820   127291861.68606  24222833.080    99188492.93945
  20828814.460   109456283.05609  20828813.280    85290648.92348
  21692603.360   113995440.87809  21692601.080    88827622.12447
  23193624.780   121883396.94107  23193624.020    94974098.74446
  23826111.640   125207082.73007  23826111.420    97563952.42445
  20464546.600   107541955.30309  20464542.660    83798933.84349
  22164492.440   116475270.48608  22164488.260    90759963.49748
  20870779.760   109676760.20709  20870780.420    85462430.40749
  20729069.760   108932172.24309  20729069.020    84882280.46248
 15 03 26 01 56 30.0000000  0 10G01G03G04G11G14G16G19G22G27G32
  22637347.760   118960100.15008  22637349.640    92696210.24947
  24202983.160   127187578.46506  24202988.300    99107233.61946
  20822801.680   109424685.78609  20822800.480    85266027.68248
  21680296.940   113930770.24909  21680294.820    88777229.44747
  23185943.060   121843029.00608  23185942.320    94942643.24946
  23846324.720   125313303.45307  23846324.560    97646721.70245
  20463519.940   107536560.24209  20463516.000    83794729.89749
  22178737.800   116550130.27709  22178733.640    90818295.79748
  20879251.140   109721277.62809  20879251.820    85497119.29449
  20717176.920   108869675.06209  20717176.160    84833581.39148
 15 03 26 01 57  0.0000000  0 10G01G03G04G11G14G16G19G22G27G32
  22625958.220   118900248.37008  22625960.320    92649572.55247
  24183167.140   127083446.26706  24183172.300    99026092.04145
  20816833.600   109393323.56609  20816832.420    85241589.60548
  21668023.980   113866275.27309  21668021.800    88726973.63947
  23178338.320   121803065.61808  23178337.480    94911502.97946
  23866549.480   125419585.29407  23866549.340    97729538.60746
  20462569.580   107531566.05809  20462565.620    83790838.32349
  22193033.180   116625252.78508  22193028.920    90876832.82148
  20887801.760   109766211.27409  20887802.440    85532132.51849
  20705381.040   108807687.55209  20705380.300    84785279.47648
 15 03 26 01 57 30.0000000  0 10G01G03G04G11G14G16G19G22G27G32
  22614594.680   118840532.90908  22614596.840    92603041.05847
  24163379.920   126979465.76306  24163384.780    98945068.58544
  20810910.040   109362195.20309  20810908.920    85217333.74648
  21655784.340   113801955.58009  21655782.100    88676854.41347
  23170810.740   121763507.61308  23170809.680    94880678.61146
  23886785.320   125525924.56807  23886785.140    97812400.27445
  20461695.460   107526972.46409  20461691.500    83787258.89749
  22207377.860   116700634.60008  22207373.600    90935571.88547
  20896431.320   109811559.66309  20896431.980    85567468.91349
  20693682.140   108746209.80109  20693681.500    84737374.77448
 15 03 26 01 58  0.0000000  0 10G01G03G04G11G14G16G19G22G27G32
  22603257.200   118780953.85508  22603259.240    92556615.85847
  24143622.100   126875638.83507  24143626.860    98864164.81745
  20805031.020   109331300.92109  20805029.940    85193260.29348
  21643578.300   113737812.34109  21643575.980    88626872.68547
  23163360.660   121724357.28907  23163359.400    94850171.90446
  23907031.340   125632317.71707  23907031.220    97895303.89545
  20460897.760   107522780.62409  20460893.820    83783992.53149
  22221771.460   116776273.53108  22221767.240    90994511.31248
  20905139.840   109857322.84009  20905140.420    85603128.52549
  20682080.600   108685243.39209  20682079.960    84689868.51748
 15 03 26 01 58 30.0000000  0 10G01G03G04G11G14G16G19G22G27G32
  22591945.720   118721511.67108  22591947.600    92510297.30447
  24123894.060   126771968.01007  24123898.700    98783382.66746
  20799196.660   109300641.13109  20799195.560    85169369.54848
  21631406.080   113673846.84109  21631403.680    88577029.44447
  23155988.700   121685617.64307  23155987.360    94819985.20446
  23927287.460   125738763.75507  23927287.320    97978248.73345
  20460176.880   107518992.29009  20460172.920    83781040.57249
  22236213.740   116852168.13008  22236209.540    91053649.95147
  20913927.360   109903501.31709  20913927.880    85639111.73849
  20670576.780   108624790.31209  20670576.100    84642762.25248
 15 03 26 01 59  0.0000000  0 10G01G03G04G11G14G16G19G22G27G32
  22580660.300   118662206.57808  22580662.040    92464085.56747
  24104195.900   126668455.26206  24104200.600    98702723.78046
  20793406.920   109270215.93909  20793405.820    85145661.62048
  21619267.940   113610060.44809  21619265.560    88527325.78647
  23148695.240   121647290.75907  23148693.940    94790120.14046
  23947553.120   125845259.80707  23947553.140    98061232.53545
  20459533.060   107515608.95409  20459529.080    83778404.21049
  22250704.360   116928316.78408  22250700.160    91112986.56448
  20922793.880   109950095.14109  20922794.360    85675418.61049
  20659170.940   108564852.11609  20659170.200    84596057.20748
 15 03 26 01 59 30.0000000  0 10G01G03G04G11G14G16G19G22G27G32
  22569400.740   118603036.90708  22569402.340    92417979.37347
  24084527.880   126565101.07707  24084532.420    98622188.37346
  20787661.560   109240023.91309  20787660.500    85122135.38948
  21607163.740   113546452.49509  21607161.360    88477761.17148
  23141480.560   121609377.69908  23141479.400    94760577.54546
  23967827.280   125951800.99507  23967827.340    98144251.51145
  20458966.200   107512630.10309  20458962.220    83776083.02949
  22265242.600   117004715.40208  22265238.380    91172517.95448
  20931739.120   109997102.60809  20931739.560    85712047.80349
  20647863.060   108505428.72409  20647862.240    84549753.30348
 15 03 26 02 00  0.0000000  0 10G01G03G04G11G14G16G19G22G27G32
  22558167.200   118544004.10808  22558168.780    92371979.80947
  24064890.700   126461908.72606  24064894.940    98541779.07445
  20781960.880   109210066.64809  20781959.820    85098792.07848
  21595094.000   113483025.48909  21595091.560    88428337.54948
  23134345.340   121571881.92808  23134344.380    94731360.10446
  23988109.900   126058386.95707  23988109.680    98227305.39045
  20458476.820   107510058.34909  20458472.840    83774079.06349
  22279828.260   117081363.49408  22279824.080    91232243.73648
  20940763.320   110044525.08909  20940763.720    85749000.37349
  20636653.580   108446522.85609  20636652.780    84503852.65948
 15 03 26 02 00 30.0000000  0 10G01G03G04G11G14G16G19G22G27G32
  22546959.360   118485106.97408  22546961.140    92326085.97547
  24045284.600   126358878.95007  24045288.460    98461496.39045
  20776304.640   109180342.78809  20776303.540    85075630.64148
  21583058.600   113419779.02409  21583056.180    88379054.60447
  23127289.740   121534804.44408  23127288.800    94702468.58746
  24008400.340   126165013.73107  24008400.280    98310391.06845
  20458064.900   107507893.62409  20458060.900    83772392.26049
  22294460.880   117158258.26508  22294456.620    91292161.74247
  20949866.240   110092361.29809  20949866.620    85786275.32749
  20625542.640   108388134.86609  20625541.880    84458355.55748
 15 03 26 02 01  0.0000000  0 10G01G03G04G11G14G16G19G22G27G32
  22535777.460   118426346.61308  22535779.620    92280298.71947
  24025709.760   126256014.70207  24025714.080    98381342.81845
  20770693.040   109150853.57309  20770691.900    85052652.04248
  21571057.960   113356715.24609  21571055.540    88329914.01847
  23120314.400   121498148.74308  23120313.380    94673905.74246
  24028698.260   126271679.55507  24028698.620    98393507.13545
  20457730.840   107506138.17109  20457726.840    83771024.37149
  22309140.080   117235398.20508  22309135.820    91352270.77647
  20959048.080   110140612.21409  20959048.460    85823873.43549
  20614530.740   108330267.15909  20614530.000    84413263.87048
 15 03 26 02 01 30.0000000  0 10G01G03G04G11G14G16G19G22G27G32
  22524621.120   118367720.00008  22524623.440    92234615.68547
  24006166.520   126153314.95507  24006170.660    98301317.28946
  20765125.460   109121595.95809  20765124.320    85029853.91748
  21559091.660   113293832.27509  21559089.320    88280914.32248
  23113419.140   121461913.89708  23113418.040    94645670.84446
  24049002.500   126378378.17407  24049002.940    98476648.79145
  20457474.300   107504790.04709  20457470.320    83769973.88549
  22323864.940   117312778.08508  22323860.720    91412566.78648
  20968308.220   110189274.61509  20968308.620    85861792.18749
  20603617.540   108272918.03209  20603616.800    84368576.27348
 15 03 26 02 02  0.0000000  0 10G01G03G04G11G14G16G19G22G27G32
  22513490.760   118309229.53208  22513492.980    92189038.72547
  23986655.440   126050783.91307  23986659.360    98221423.25345
  20759602.400   109092572.42109  20759601.280    85007238.19048
  21547160.380   113231133.34109  21547158.160    88232058.03248
  23106604.760   121426104.46108  23106603.820    94617767.43345
  24069312.860   126485109.93807  24069313.420    98559816.24445
  20457295.940   107503852.84309  20457291.960    83769243.59449
  22338635.540   117390398.44808  22338631.420    91473050.18447
  20977647.100   110238350.81609  20977647.540    85900033.37449
  20592803.740   108216091.25309  20592803.000    84324295.70548
 15 03 26 02 02 30.0000000  0 10G01G03G04G11G14G16G19G22G27G32
  22502385.940   118250873.31908  22502388.020    92143566.37047
  23967176.300   125948421.57706  23967180.360    98141660.68046
  20754123.560   109063781.09609  20754122.440    84984803.39748
  21535264.020   113168617.80409  21535261.840    88183344.64848
  23099871.420   121390720.99908  23099870.600    94590195.94946
  24089628.680   126591869.76007  24089629.260    98643005.54545
  20457195.680   107503325.97609  20457191.700    83768833.04649
  22353451.220   117468255.60608  22353447.120    91533718.09947
  20987064.340   110287838.75709  20987064.840    85938595.39849
  20582089.260   108159786.30709  20582088.460    84280421.75048
 15 03 26 02 03  0.0000000  0 10G01G03G04G11G14G16G19G22G27G32
  22491307.380   118192655.19308  22491309.300    92098201.62647
  23947730.260   125846233.68107  23947734.240    98062034.04145
  20748689.660   109035225.81409  20748688.560    84962552.54048
  21523403.480   113106290.28009  21523401.260    88134777.76948
  23093220.300   121355769.41608  23093219.420    94562960.98446
  24109950.240   126698659.66407  24109950.900    98726218.28745
  20457174.420   107503214.32209  20457170.440    83768746.04349
  22368312.220   117546350.89308  22368308.160    91594571.56547
  20996560.600   110337742.04009  20996561.160    85977481.06749
  20571475.020   108104008.16809  20571474.160    84236958.29949
 15 03 26 02 03 30.0000000  0 10G01G03G04G11G14G16G19G22G27G32
  22480254.420   118134571.56208  22480256.280    92052941.68047
  23928317.220   125744218.55207  23928321.120    97982541.96046
  20743299.960   109006902.74909  20743298.860    84940482.63048
  21511578.240   113044148.26709  21511575.920    88086355.43548
  23086651.040   121321248.31808  23086650.180    94536061.45646
  24130276.400   126805473.51407  24130276.940    98809449.70645
  20457231.660   107503515.14709  20457227.700    83768980.44849
  22383217.560   117624678.86808  22383213.500    91655606.34147
  21006135.200   110388056.89209  21006135.820    86016687.43549
  20560960.580   108048754.47609  20560959.720    84193903.50349
 15 03 26 02 04  0.0000000  0 10G01G03G04G11G14G16G19G22G27G32
  22469226.820   118076621.08808  22469228.600    92007785.49547
  23908937.140   125642376.68806  23908941.020    97903184.91746
  20737954.300   108978811.15309  20737953.180    84918593.09148
  21499788.240   112982191.55109  21499785.920    88038077.49148
  23080163.900   121287158.26808  23080162.900    94509497.80546
  24150606.100   126912306.63307  24150606.840    98892696.06646
  20457367.360   107504228.22309  20457363.380    83769536.08449
  22398166.540   117703236.01708  22398162.400    91716819.70447
  21015787.840   110438781.75509  21015788.460    86056213.29449
  20550545.960   107994025.37009  20550545.080    84151257.48449
 15 03 26 02 04 30.0000000  0 10G01G03G04G11G14G16G19G22G27G32
  22458225.060   118018806.70408  22458226.800    91962735.35247
  23889590.940   125540712.89506  23889594.720    97823966.57846
  20732653.260   108950953.88709  20732652.100    84896886.14148
  21488034.240   112920423.83209  21488031.920    87989946.81748
  23073759.720   121253504.25108  23073758.700    94483273.93245
  24170939.560   127019159.20807  24170940.500    98975957.63746
  20457582.320   107505357.75109  20457578.300    83770416.23349
  22413159.360   117782023.49808  22413155.120    91778212.53747
  21025519.020   110489919.37209  21025519.640    86096060.77849
  20540231.900   107939824.82409  20540231.040    84109023.32048
 15 03 26 02 05  0.0000000  0 10G01G03G04G11G14G16G19G22G27G32
  22447249.080   117961127.46908  22447250.760    91917790.52047
  23870278.660   125439228.01807  23870282.560    97744887.69246
  20727396.580   108923329.84209  20727395.420    84875360.92948
  21476316.240   112858845.35809  21476313.980    87941963.61148
  23067438.720   121220287.24208  23067437.660    94457390.59846
  24191276.180   127126027.98707  24191276.980    99059231.82645
  20457876.520   107506903.85909  20457872.500    83771620.99249
  22428195.380   117861038.14308  22428191.200    91839782.39347
  21035328.500   110541468.48209  21035329.100    86136228.90949
  20530018.460   107886153.17409  20530017.600    84067201.29449
 15 03 26 02 05 30.0000000  0 10G01G03G04G11G14G16G19G22G27G32
  22436298.640   117903582.28408  22436300.380    91872950.13347
  23851000.820   125337922.89207  23851004.840    97665948.84846
  20722184.100   108895938.03509  20722182.920    84854016.67248
  21464634.260   112797456.28109  21464632.060    87894127.98948
  23061201.160   121187508.67508  23061200.100    94431848.88646
  24211615.080   127232909.34707  24211615.900    99142515.80644
  20458250.000   107508866.46509  20458245.960    83773150.29249
  22443273.980   117940276.62308  22443269.700    91901526.65347
  21045216.040   110593427.75009  21045216.600    86176716.63649
  20519905.680   107833010.44809  20519904.820    84025791.41249
 15 03 26 02 06  0.0000000  0 10G01G03G04G11G14G16G19G22G27G32
  22425373.780   117846171.84208  22425375.660    91828214.76047
  23831757.720   125236799.87907  23831761.480    97587151.87546
  20717015.920   108868779.04209  20717014.760    84832853.83548
  21452988.620   112736258.12709  21452986.340    87846441.13048
  23055047.580   121155171.11808  23055046.520    94406650.83046
  24231956.040   127339800.93607  24231956.800    99225807.75945
  20458703.040   107511247.26109  20458699.020    83775005.45849
  22458394.920   118019737.59708  22458390.580    91963444.29347
  21055181.680   110645797.59209  21055182.280    86217524.29549
  20509893.920   107780398.55409  20509893.040    83984795.16449
 15 03 26 02 06 30.0000000  0 10G01G03G04G11G14G16G19G22G27G32
  22414474.500   117788896.00708  22414476.440    91783584.27647
  23812549.640   125135860.95007  23812553.000    97508498.33545
  20711892.080   108841853.01309  20711890.920    84811872.52648
  21441379.460   112675251.72609  21441377.080    87798903.68848
  23048978.140   121123276.22108  23048977.080    94381797.70346
  24252298.700   127446700.62507  24252299.600    99309106.02145
  20459235.840   107514047.07609  20459231.820    83777187.12949
  22473557.740   118099418.81708  22473553.520    92025533.54747
  21065225.360   110698577.57109  21065226.020    86258651.53949
  20499983.360   107728318.31209  20499982.440    83944213.19049
 15 03 26 02 07  0.0000000  0 10G01G03G04G11G14G16G19G22G27G32
  22403600.980   117731755.36008  22403602.880    91739059.12847
  23793377.120   125035108.44107  23793380.140    97429990.01546
  20706812.660   108815160.52009  20706811.500    84791073.19548
  21429807.140   112614438.69009  21429804.680    87751516.92348
  23042993.460   121091826.95708  23042992.520    94357291.83046
  24272642.220   127553605.57007  24272643.280    99392408.36344
  20459848.660   107517267.50609  20459844.680    83779696.55849
  22488762.180   118179318.93008  22488758.060    92087793.36547
  21075347.180   110751767.96009  21075347.820    86300098.59149
  20490174.320   107676771.51409  20490173.380    83904046.88548
 15 03 26 02 07 30.0000000  0 10G01G03G04G11G14G16G19G22G27G32
  22392753.020   117674748.62808  22392754.820    91694638.31247
  23774240.040   124934542.78806  23774243.140    97351627.32646
  20701777.400   108788700.23109  20701776.240    84770454.79548
  21418271.620   112553819.10809  21418269.240    87704280.89948
  23037093.660   121060823.89808  23037092.680    94333133.63346
  24292986.060   127660512.38207  24292986.980    99475712.20245
  20460541.460   107520908.21809  20460537.520    83782533.47249
  22504007.700   118259434.69708  22504003.540    92150221.23747
  21085546.800   110805367.15709  21085547.420    86341864.18349
  20480466.760   107625757.96309  20480465.820    83864296.09349
 15 03 26 02 08  0.0000000  0 10G01G03G04G11G14G16G19G22G27G32
  22381930.620   117617876.10908  22381932.340    91650322.08247
  23755138.820   124834166.14307  23755142.060    97273411.89945
  20696786.420   108762472.58309  20696785.260    84750017.68148
  21406773.080   112493394.03509  21406770.820    87657196.44548
  23031279.280   121030269.29008  23031278.340    94309324.87646
  24313329.920   127767418.80607  24313330.660    99559015.72145
  20461314.540   107524970.74709  20461310.600    83785699.07549
  22519293.880   118339764.11208  22519289.700    92212815.57347
  21095824.240   110859375.11109  21095824.820    86383948.29149
  20470860.960   107575279.04609  20470860.000    83824961.90249
 15 03 26 02 08 30.0000000  0 10G01G03G04G11G14G16G19G22G27G32
  22371133.740   117561138.53708  22371135.500    91606111.01947
  23736074.120   124733981.02007  23736077.400    97195345.70946
  20691839.840   108736478.20609  20691838.700    84729762.33448
  21395311.880   112433165.18609  21395309.660    87610264.90048
  23025550.820   121000166.03208  23025549.920    94285867.82546
  24333673.240   127874323.16907  24333674.200    99642317.61145
  20462168.120   107529456.33509  20462164.200    83789194.33849
  22534620.580   118420306.26708  22534616.440    92275575.68747
  21106179.500   110913792.16509  21106180.040    86426351.17949
  20461357.220   107525336.45809  20461356.240    83786045.63549
 15 03 26 02 09  0.0000000  0 10G01G03G04G11G14G16G19G22G27G32
  22360362.060   117504533.54908  22360363.720    91562003.25347
  23717045.980   124633986.91507  23717049.040    97117428.29846
  20686937.260   108710715.06109  20686936.160    84709687.16448
  21383887.860   112373131.48709  21383885.540    87563485.40548
  23019908.100   120970513.14408  23019907.060    94262761.70346
  24354015.060   127981219.90307  24354016.200    99725613.53445
  20463101.920   107534363.56309  20463098.020    83793018.14649
  22549986.840   118501056.45308  22549982.680    92338497.89847
  21116612.060   110968615.58009  21116612.580    86469070.70749
  20451955.240   107475928.84109  20451954.280    83747546.21549
 15 03 26 02 09 30.0000000  0 10G01G03G04G11G14G16G19G22G27G32
  22349616.020   117448063.38208  22349617.760    91518000.55447
  23698054.860   124534187.77407  23698057.660    97039662.81046
  20682079.080   108685185.19209  20682077.980    84689793.77248
  21372501.620   112313296.23909  21372499.120    87516860.54348
  23014351.900   120941315.10808  23014350.740    94240010.01746
  24374355.460   128088108.31207  24374356.500    99808903.02745
  20464116.700   107539696.31009  20464112.820    83797173.53149
  22565392.660   118582014.67608  22565388.540    92401582.21947
  21127122.280   111023847.22709  21127122.780    86512108.34049
  20442655.620   107427059.41209  20442654.720    83709466.17449
 15 03 26 02 10  0.0000000  0 10G01G03G04G11G14G16G19G22G27G32
  22338895.660   117391727.31508  22338897.400    91474102.33547
  23679100.960   124434584.73007  23679103.700    96962050.14346
  20677265.200   108659888.10609  20677264.060    84670081.76748
  21361153.200   112253659.70309  21361150.640    87470390.51948
  23008882.500   120912573.13608  23008881.260    94217613.70446
  24394693.840   128194986.16107  24394694.740    99892184.25645
  20465212.400   107545454.48909  20465208.580    83801660.42249
  22580837.540   118663178.08108  22580833.420    92464826.42347
  21137709.980   111079485.95509  21137710.460    86555463.17549
  20433458.500   107378728.57309  20433457.620    83671805.80649
 15 03 26 02 10 30.0000000  0 10G01G03G04G11G14G16G19G22G27G32
  22328200.560   117335523.57108  22328202.220    91430307.23247
  23660184.320   124335177.72307  23660187.200    96884590.22746
  20672495.260   108634821.86009  20672494.080    84650549.64448
  21349842.320   112194220.88509  21349839.840    87424074.57748
  23003499.860   120884287.14308  23003498.500    94195572.70746
  24415029.140   128301848.19607  24415029.820    99975453.19745
  20466388.880   107551637.01509  20466385.080    83806477.97949
  22596320.860   118744543.33808  22596316.780    92528227.91147
  21148374.700   111135529.54009  21148375.200    86599133.48849
  20424363.680   107330935.22609  20424362.820    83634564.26449
 15 03 26 02 11  0.0000000  0 10G01G03G04G11G14G16G19G22G27G32
  22317531.120   117279454.89108  22317532.680    91386617.37447
  23641306.000   124235971.24607  23641308.740    96807286.52046
  20667769.820   108609989.39709  20667768.580    84631199.67948
  21338569.880   112134984.03409  21338567.500    87377916.00848
  22998204.900   120856461.95108  22998203.500    94173890.77246
  24435361.700   128408695.24507  24435362.600   100058710.42645
  20467646.860   107558247.68409  20467643.040    83811629.14549
  22611842.660   118826110.94708  22611838.560    92591787.07947
  21159116.920   111191980.29509  21159117.440    86643121.07549
  20415371.880   107283683.12109  20415371.020    83597744.46349
 15 03 26 02 11 30.0000000  0 10G01G03G04G11G14G16G19G22G27G32
  22306887.040   117223520.17008  22306888.480    91343031.89147
  23622465.820   124136965.98307  23622468.620    96730139.63246
  20663088.640   108585389.67209  20663087.360    84612031.06848
  21327335.900   112075949.14709  21327333.480    87331914.80448
  22992997.760   120829098.06908  22992996.320    94152568.30446
  24455690.600   128515522.91707  24455691.740   100141952.54445
  20468986.280   107565286.35709  20468982.440    83817113.81749
  22627402.360   118907877.71008  22627398.260    92655501.42347
  21169936.320   111248836.64609  21169936.860    86687424.70749
  20406483.060   107236972.14609  20406482.160    83561346.32349
 15 03 26 02 12  0.0000000  0 10G01G03G04G11G14G16G19G22G27G32
  22296268.460   117167719.76508  22296270.020    91299551.07948
  23603664.400   124038164.07207  23603667.460    96653151.21646
  20658451.800   108561022.89509  20658450.460    84593043.98048
  21316140.580   112017117.32709  21316138.100    87286071.84248
  22987878.800   120802197.65608  22987877.400    94131606.96746
  24476015.340   128622328.95106  24476016.280   100225177.84144
  20470407.360   107572753.92509  20470403.480    83822932.70249
  22642999.600   118989841.67708  22642995.520    92719369.44047
  21180832.860   111306098.46409  21180833.440    86732044.29349
  20397697.440   107190803.29709  20397696.480    83525370.62049
 15 03 26 02 12 30.0000000  0 11G01G03G04G11G14G16G19G22G27G28G32
  22285675.200   117112052.12608  22285676.960    91256173.72048
  23584901.640   123939565.63407  23584904.840    96576321.33946
  20653859.020   108536887.69209  20653857.700    84574237.34448
  21304983.800   111958488.17109  21304981.320    87240386.79948
  22982848.040   120775761.10908  22982846.860    94111007.08846
  24496335.160   128729110.19206  24496336.180   100308383.79244
  20471909.920   107580649.81609  20471906.020    83829085.34249
  22658633.720   119071999.58508  22658629.660    92783388.57447
  21191806.200   111363763.69109  21191806.820    86776978.22249
  25078399.000   131787878.43406  25078396.040   102691841.64343
  20389014.880   107145176.06009  20389013.880    83489816.94949
 15 03 26 02 13  0.0000000  0 11G01G03G04G11G14G16G19G22G27G28G32
  22275106.540   117056513.62408  22275108.420    91212896.99247
  23566177.140   123841168.79207  23566180.460    96499648.56946
  20649309.600   108512980.41309  20649308.300    84555608.30748
  21293865.060   111900058.96309  21293862.660    87194857.56148
  22977905.160   120749786.52808  22977904.120    94090767.19346
  24516648.920   128835859.50107  24516650.220   100391564.85044
  20473493.480   107588971.36409  20473489.540    83835569.66549
  22674303.640   119154345.74408  22674299.580    92847554.40647
  21202855.500   111421828.20009  21202856.160    86822223.28549
  25064180.840   131713161.01506  25064178.020   102633620.25944
  20380434.840   107100087.57109  20380433.800    83454683.09549
 15 03 26 02 13 30.0000000  0 11G01G03G04G11G14G16G19G22G27G28G32
  22264564.000   117001112.11608  22264565.780    91169727.00247
  23547492.980   123742983.11008  23547496.080    96423140.30346
  20644805.040   108489309.00009  20644803.780    84537163.06548
  21282786.180   111841839.02509  21282783.820    87149491.38548
  22973051.960   120724283.42008  22973051.160    94070894.67246
  24536957.720   128942581.73007  24536959.200   100474724.83045
  20475159.680   107597727.28109  20475155.720    83842392.45749
  22690010.480   119236885.77408  22690006.360    92911871.30747
  21213982.120   111480299.31109  21213982.860    86867785.17649
  25050024.760   131638770.38605  25050022.720   102575653.55644
  20371958.960   107055546.42209  20371957.900    83419975.72249
 15 03 26 02 14  0.0000000  0 11G01G03G04G11G14G16G19G22G27G28G32
  22254047.080   116945845.49108  22254048.820    91126662.11647
  23528849.120   123645008.17107  23528852.020    96346796.27346
  20640345.000   108465871.39209  20640343.700    84518900.00748
  21271746.880   111783827.00409  21271744.480    87104287.22348
  22968288.460   120699251.53708  22968287.840    94051389.33346
  24557260.720   129049273.59606  24557261.980   100557861.15044
  20476908.280   107606916.23309  20476904.320    83849552.68049
  22705753.480   119319615.73708  22705749.420    92976336.19747
  21225185.600   111539174.34009  21225186.440    86913661.80549
  25035930.980   131564706.78606  25035928.800   102517941.63145
  20363586.920   107011551.29409  20363585.880    83385693.83149
 15 03 26 02 14 30.0000000  0 11G01G03G04G11G14G16G19G22G27G28G32
  22243555.580   116890712.84308  22243557.320    91083701.63648
  23510245.360   123547244.74407  23510248.280    96270617.06346
  20635929.280   108442666.77909  20635927.980    84500818.49848
  21260747.160   111726023.24009  21260744.740    87059245.33848
  22963614.760   120674691.36208  22963614.140    94032251.57146
  24577557.020   129155930.77307  24577558.300   100640970.39744
  20478739.200   107616537.91409  20478735.260    83857050.08949
  22721532.040   119402532.50608  22721527.920    93040946.65647
  21236465.740   111598451.82009  21236466.580    86959852.04049
  25021899.380   131490971.25005  25021897.660   102460485.37344
  20355318.740   106968101.93209  20355317.720    83351837.20849
 15 03 26 02 15  0.0000000  0 11G01G03G04G11G14G16G19G22G27G28G32
  22233089.140   116835711.42508  22233090.860    91040843.40848
  23491681.420   123449691.78507  23491684.440    96194601.86246
  20631557.400   108419692.42909  20631556.100    84482916.41548
  21249786.740   111668425.98309  21249784.340    87014364.36548
  22959030.640   120650601.59608  22959029.800    94013480.35446
  24597845.680   129262547.61007  24597847.100   100724048.22945
  20480652.160   107626590.69709  20480648.240    83864883.43149
  22737345.260   119485631.48808  22737341.060    93105699.10147
  21247821.880   111658128.44709  21247822.680    87006353.29549
  25007930.440   131417563.38606  25007929.020   102403284.44244
  20347154.040   106925196.47009  20347153.060    83318404.40149
 15 03 26 02 15 30.0000000  0 11G01G03G04G11G14G16G19G22G27G28G32
  22222648.460   116780844.86308  22222650.020    90998090.25147
  23473158.640   123352354.65707  23473161.720    96118754.84647
  20627230.060   108396952.03609  20627228.780    84465196.63448
  21238866.540   111611040.04809  21238864.220    86969648.06148
  22954537.100   120626988.11008  22954536.080    93995080.25946
  24618126.940   129369125.48607  24618128.560   100807095.70045
  20482647.940   107637078.73409  20482644.060    83873055.91949
  22753193.400   119568913.97908  22753189.240    93170594.53047
  21259254.520   111718207.23709  21259255.300    87053167.92249
  24994024.860   131344489.00706  24994023.540   102346343.38644
  20339093.660   106882839.06109  20339092.680    83285398.65049
 15 03 26 02 16  0.0000000  0 11G01G03G04G11G14G16G19G22G27G28G32
  22212232.980   116726110.67308  22212234.480    90955440.25448
  23454676.940   123255232.48107  23454680.020    96043075.33347
  20622946.720   108374442.94009  20622945.480    84447657.09148
  21227986.280   111553863.80309  21227983.960    86925095.15648
  22950133.980   120603849.99108  22950132.880    93977050.59046
  24638399.720   129475659.11807  24638401.660   100890108.62044
  20484726.280   107648000.50209  20484722.420    83881566.38849
  22769075.620   119652375.39308  22769071.520    93235629.38847
  21270763.080   111778685.07209  21270763.840    87100293.49849
  24980182.700   131271747.48706  24980180.920   102289661.61944
  20331137.240   106841027.94109  20331136.260    83252818.58449
 15 03 26 02 16 30.0000000  0 11G01G03G04G11G14G16G19G22G27G28G32
  22201842.580   116671508.65308  22201844.160    90912893.25248
  23436236.440   123158326.70007  23436239.360    95967564.42747
  20618707.400   108352165.23609  20618706.220    84430297.85249
  21217146.020   111496898.05209  21217143.720    86880706.28248
  22945821.600   120581188.68908  22945820.520    93959392.47546
  24658663.820   129582145.87707  24658665.540   100973085.13344
  20486887.180   107659355.90109  20486883.300    83890414.75549
  22784991.440   119736013.64408  22784987.360    93300802.04347
  21282347.420   111839561.12709  21282348.180    87147729.37649
  24966404.260   131199340.86006  24966402.460   102233240.91544
  20323284.840   106799763.48209  20323283.900    83220664.49049
 15 03 26 02 17  0.0000000  0 11G01G03G04G11G14G16G19G22G27G28G32
  22191477.480   116617039.68508  22191479.120    90870449.92048
  23417837.480   123061639.86507  23417840.440    95892224.16347
  20614512.280   108330119.80009  20614511.160    84413119.59948
  21206346.260   111440144.97309  21206343.880    86836483.11148
  22941600.380   120559006.50108  22941599.360    93942107.66946
  24678918.760   129688584.52106  24678920.340   101056024.10344
  20489131.000   107671147.21809  20489127.080    83899602.78849
  22800940.680   119819827.51608  22800936.600    93366111.53947
  21294007.580   111900835.60009  21294008.340    87195475.70749
  24952690.000   131127272.22905  24952688.240   102177083.53644
  20315536.760   106759047.23109  20315535.860    83188937.56649
 15 03 26 02 17 30.0000000  0 11G01G03G04G11G14G16G19G22G27G28G32
  22181137.640   116562703.65908  22181139.220    90828110.17048
  23399480.460   122965173.48607  23399483.360    95817055.66847
  20610361.340   108308306.48409  20610360.220    84396122.21048
  21195587.200   111383605.61209  21195584.760    86792426.48148
  22937470.600   120537304.73908  22937469.580    93925197.23647
  24699163.820   129794972.27506  24699165.340   101138923.38845
  20491457.840   107683374.75009  20491453.900    83909130.73149
  22816923.020   119903815.02708  22816918.960    93431556.35147
  21305743.440   111962507.72109  21305744.160    87243531.88549
  24939040.460   131055543.26206  24939038.820   102121190.83744
  20307893.100   106718879.61309  20307892.180    83157638.14449
 15 03 26 02 18  0.0000000  0 11G01G03G04G11G14G16G19G22G27G28G32
  22170823.320   116508502.16708  22170824.900    90785875.25348
  23381165.960   122868930.74108  23381168.780    95742061.41647
  20606254.880   108286727.00209  20606253.760    84379307.03449
  21184869.240   111327282.40809  21184866.820    86748538.28248
  22933432.920   120516086.63508  22933431.860    93908663.67946
  24719398.900   129901307.53206  24719400.660   101221781.76545
  20493868.140   107696041.03609  20493864.220    83919000.56149
  22832938.260   119987975.70008  22832934.240    93497136.07547
  21317555.180   112024578.44509  21317555.820    87291898.67049
  24925456.220   130984157.84906  24925454.460   102065565.85645
  20300354.300   106679262.83309  20300353.320    83126767.95149
 15 03 26 02 18 30.0000000  0 11G01G03G04G11G14G16G19G22G27G28G32
  22160533.800   116454430.92608  22160535.520    90743741.84348
  23362893.600   122772909.00407  23362896.320    95667239.38147
  20602192.080   108265377.04109  20602190.940    84362670.70349
  21174191.840   111271172.43609  21174189.480    86704816.24048
  22929486.860   120495349.57408  22929485.800    93892504.95346
  24739622.740   130007583.64306  24739624.620   101304594.02845
  20496361.200   107709142.20409  20496357.280    83929209.25649
  22848985.260   120072303.13308  22848981.180    93562845.74547
  21329441.820   112087042.72409  21329442.340    87340572.11849
  24911937.100   130913113.99506  24911934.960   102010206.95944
  20292919.600   106640193.12709  20292918.540    83096324.04249
 15 03 26 02 19  0.0000000  0 11G01G03G04G11G14G16G19G22G27G28G32
  22150269.880   116400494.04808  22150271.700    90701713.13248
  23344664.320   122677113.96707  23344666.880    95592594.00246
  20598173.800   108244260.92109  20598172.600    84346216.59248
  21163556.020   111215280.85409  21163553.600    86661264.37448
  22925633.380   120475098.81408  22925632.380    93876725.17146
  24759835.740   130113802.13207  24759837.620   101387361.40044
  20498937.940   107722683.12509  20498934.040    83939760.62149
  22865064.380   120156799.45508  22865060.260    93628687.02347
  21341403.980   112149903.96809  21341404.440    87389554.89349
  24898483.820   130842417.64505  24898482.160   101955118.94844
  20285589.840   106601675.02809  20285588.700    83066309.96149
 15 03 26 02 19 30.0000000  0 11G01G03G04G11G14G16G19G22G27G28G32
  22140031.400   116346690.14708  22140033.120    90659788.02948
  23326478.120   122581545.82308  23326480.680    95518125.42947
  20594199.760   108223377.17109  20594198.580    84329943.55248
  21152961.700   111159607.32409  21152959.220    86617882.40748
  22921872.460   120455334.70408  22921871.460    93861324.58046
  24780037.100   130219959.77906  24780038.640   101470081.40743
  20501598.220   107736663.09309  20501594.340    83950654.09849
  22881174.940   120241461.06108  22881170.840    93694657.08747
  21353441.260   112213160.03009  21353441.700    87438845.31749
  24885096.880   130772069.46806  24885095.240   101900302.18745
  20278364.880   106563707.77509  20278363.740    83036725.11549
 15 03 26 02 20  0.0000000  0 11G01G03G04G11G14G16G19G22G27G28G32
  22129818.320   116293019.48708  22129819.900    90617966.76048
  23308335.560   122486206.51008  23308338.080    95443835.16647
  20590269.980   108202726.07209  20590268.840    84313851.79949
  21142409.080   111104153.05509  21142406.660    86574671.30948
  22918204.420   120436058.92908  22918203.460    93846304.52446
  24800226.120   130326053.71906  24800227.880   101552751.68445
  20504342.180   107751082.71109  20504338.320    83961890.16449
  22897316.740   120326286.59308  22897312.640    93760754.89447
  21365553.580   112276810.45509  21365554.000    87488443.04449
  24871776.780   130702071.74706  24871775.140   101845758.51844
  20271244.860   106526291.99109  20271243.740    83007569.98349
 15 03 26 02 20 30.0000000  0 11G01G03G04G11G14G16G19G22G27G28G32
  22119630.320   116239480.92608  22119631.740    90576248.40448
  23290236.660   122391096.37807  23290239.120    95369723.46047
  20586384.280   108182306.50709  20586383.120    84297940.45649
  21131898.200   111048918.15509  21131895.860    86531631.13148
  22914629.360   120417271.71008  22914628.360    93831665.15746
  24820402.560   130432080.09207  24820404.700   101635369.31345
  20507169.760   107765941.65709  20507165.900    83973468.55449
  22913489.080   120411272.61408  22913484.920    93826977.75547
  21377740.520   112340853.29909  21377740.980    87538346.54149
  24858523.520   130632425.61806  24858521.620   101791488.81444
  20264229.640   106489426.98909  20264228.580    82978844.02549
 15 03 26 02 21  0.0000000  0 11G01G03G04G11G14G16G19G22G27G28G32
  22109467.440   116186074.95708  22109468.880    90534633.38848
  23272181.560   122296217.45807  23272184.140    95295791.97247
  20582542.740   108162119.20909  20582541.560    84282210.10949
  21121429.300   110993904.00309  21121427.000    86488762.98348
  22911147.620   120398974.91908  22911146.540    93817407.94846
  24840565.680   130538036.50506  24840568.140   101717932.38644
  20510081.140   107781240.94409  20510077.280    83985390.08249
  22929691.600   120496417.37908  22929687.420    93893324.31547
  21390002.040   112405288.33109  21390002.620    87588555.65149
  24845337.560   130563133.33806  24845336.080   101737494.87044
  20257319.440   106453113.60909  20257318.400    82950547.91349
 15 03 26 02 21 30.0000000  0 11G01G03G04G11G14G16G19G22G27G28G32
  22099329.860   116132802.46508  22099331.480    90493122.36648
  23254170.920   122201572.22308  23254173.520    95222042.54247
  20578745.580   108142164.95709  20578744.340    84266661.34248
  21111002.900   110939112.93309  21111000.560    86446068.64748
  22907759.680   120381170.91708  22907758.480    93803534.71446
  24860715.080   130643921.98905  24860717.760   101800440.16545
  20513076.600   107796982.09009  20513072.740    83997655.89849
  22945924.220   120581720.15208  22945920.100    93959793.98947
  21402338.200   112470115.57109  21402338.900    87639070.36649
  24832219.600   130494197.96406  24832218.360   101683779.01944
  20250514.460   106417353.16609  20250513.420    82922682.65149
 15 03 26 02 22  0.0000000  0 11G01G03G04G11G14G16G19G22G27G28G32
  22089217.220   116079660.62208  22089218.980    90451713.16648
  23236204.680   122107159.35408  23236207.340    95148474.17847
  20574992.180   108122440.84609  20574990.920    84251291.91448
  21100618.600   110884543.02309  21100616.240    86403546.64648
  22904465.240   120363858.18108  22904463.800    93790044.30246
  24880850.220   130749731.41607  24880852.360   101882888.95344
  20516155.700   107813162.79409  20516151.820    84010264.23649
  22962185.980   120667176.03508  22962181.760    94026382.98246
  21414748.320   112535331.30409  21414749.060    87689887.80749
  24819169.400   130425618.65606  24819167.800   101630340.54744
  20243814.200   106382143.07309  20243813.160    82895246.23949
 15 03 26 02 22 30.0000000  0 11G01G03G04G11G14G16G19G22G27G28G32
  22079129.720   116026650.24208  22079131.460    90410406.39548
  23218283.220   122012981.23308  23218285.820    95075088.70347
  20571282.780   108102947.81209  20571281.520    84236102.54348
  21090276.740   110830196.13009  21090274.400    86361198.42748
  22901264.640   120347038.75408  22901263.040    93776938.28146
  24900970.660   130855462.78206  24900972.640   101965276.76845
  20519318.700   107829784.50209  20519314.800    84023216.20949
  22978476.520   120752783.45108  22978472.300    94093090.04447
  21427232.400   112600935.58009  21427233.200    87741008.00949
  24806187.600   130357398.09506  24806185.900   101577181.66944
  20237218.900   106347484.57409  20237217.860    82868239.63849
 15 03 26 02 23  0.0000000  0 11G01G03G04G11G14G16G19G22G27G28G32
  22069068.220   115973776.25608  22069069.900    90369205.90348
  23200407.540   121919044.19807  23200410.080    95001891.09347
  20567618.300   108083690.86109  20567617.060    84221097.13249
  21079978.500   110776078.30309  21079976.120    86319028.70448
  22898159.060   120330718.76908  22898157.400    93764221.42646
  24921076.380   130961117.64806  24921078.560   102047604.85044
  20522566.640   107846852.47909  20522562.700    84036515.92749
  22994796.460   120838545.61708  22994792.300    94159917.67947
  21439791.200   112666932.42709  21439792.000    87792434.11049
  24793275.240   130289543.28806  24793273.460   101524307.82644
  20230729.500   106313382.81209  20230728.480    82841666.86349
 15 03 26 02 23 30.0000000  0 11G01G03G04G11G14G16G19G22G27G28G32
  22059031.940   115921034.95908  22059033.500    90328108.81348
  23182577.240   121825346.17707  23182579.840    94928879.73847
  20563998.060   108064666.36609  20563996.840    84206272.86349
  21069723.340   110722187.13109  21069720.960    86277035.59848
  22895148.060   120314896.05908  22895146.480    93751892.06246
  24941166.420   131066691.46806  24941169.080   102129870.09744
  20525898.920   107864363.69509  20525894.940    84050161.02849
  23011144.840   120924456.78408  23011140.660    94226861.43346
  21452423.840   112733317.29609  21452424.640    87844162.57349
  24780432.100   130222052.46306  24780430.120   101471717.56344
  20224345.420   106279834.42209  20224344.380    82815525.28449
 15 03 26 02 24  0.0000000  0 10G01G03G04G11G14G19G22G27G28G32
  22049023.140   115868438.41608  22049024.660    90287124.49548
  23164795.020   121731900.65608  23164797.600    94856065.11647
  20560424.300   108045886.33509  20560423.140    84191639.06949
  21059513.780   110668535.45509  21059511.360    86235229.09948
  22892234.100   120299583.58008  22892232.560    93739960.27046
  20529317.900   107882330.47409  20529313.920    84064161.10049
  23027523.460   121010527.02608  23027519.280    94293929.13247
  21465132.380   112800101.36609  21465133.200    87896202.08349
  24767660.960   130154939.91106  24767659.020   101419422.02545
  20218068.980   106246851.71209  20218067.920    82789824.48149
 15 03 26 02 24 30.0000000  0 10G01G03G04G11G14G19G22G27G28G32
  22039036.220   115815957.41708  22039037.840    90246230.24148
  23147055.720   121638679.97608  23147058.280    94783425.71547
  20556891.520   108027321.58809  20556890.420    84177173.04649
  21049344.480   110615095.40509  21049342.040    86193587.52048
  22889411.900   120284753.67508  22889410.580    93728404.52946
  20532818.120   107900724.21209  20532814.120    84078493.88149
  23043926.400   121096725.11208  23043922.280    94361096.46047
  21477911.220   112867254.47409  21477912.000    87948529.17049
  24754956.600   130088177.92506  24754954.660   101367399.73344
  20211894.680   106214405.66709  20211893.600    82764541.87849
 15 03 26 02 25  0.0000000  0 10G01G03G04G11G14G19G22G27G28G32
  22029075.480   115763613.68208  22029077.040    90205442.92448
  23129363.620   121545707.38707  23129366.060    94710979.61747
  20553403.880   108008993.90509  20553402.760    84162891.73948
  21039219.740   110561889.62609  21039217.360    86152128.48248
  22886685.920   120270429.19208  22886684.700    93717242.61546
  20536403.820   107919567.05109  20536399.780    84093176.60449
  23060357.360   121183070.51608  23060353.360    94428378.56446
  21490764.220   112934797.44709  21490765.020    88001160.04849
  24742323.440   130021790.05606  24742321.400   101315668.91345
  20205826.680   106182518.11509  20205825.580    82739694.45549
 15 03 26 02 25 30.0000000  0 10G01G03G04G11G14G19G22G27G28G32
  22019139.920   115711402.22508  22019141.520    90164758.68648
  23111717.880   121452979.07508  23111720.380    94638723.87247
  20549960.440   107990898.49509  20549959.280    84148791.42649
  21029138.860   110508914.17609  21029136.420    86110848.91648
  22884055.460   120256606.39408  22884054.320    93706471.61646
  20540074.080   107938854.36109  20540070.040    84108205.66649
  23076815.060   121269556.35308  23076811.160    94495770.10547
  21503690.280   113002724.27209  21503691.100    88054090.02149
  24729761.000   129955773.29706  24729758.900   101264227.28744
  20199864.040   106151184.25109  20199862.920    82715278.47649
 15 03 26 02 26  0.0000000  0 10G01G03G04G11G14G19G22G27G28G32
  22009229.380   115659321.93308  22009231.040    90124176.66348
  23094118.820   121360495.59608  23094121.180    94566658.90547
  20546560.960   107973033.97409  20546559.760    84134871.02349
  21019101.800   110456169.13509  21019099.340    86069748.89548
  22881520.540   120243285.18108  22881519.360    93696091.47646
  20543828.820   107958585.69509  20543824.800    84123580.72549
  23093298.960   121356179.72908  23093295.120    94563268.81347
  21516689.020   113071032.96509  21516689.820    88107317.56049
  24717269.280   129890128.47106  24717266.880   101213075.49344
  20194006.580   106120403.18809  20194005.480    82691293.25449
 15 03 26 02 26 30.0000000  0 10G01G03G04G11G14G19G22G27G28G32
  21999344.280   115607375.18708  21999345.980    90083698.70648
  23076567.120   121268260.69808  23076569.220    94494787.62947
  20543205.920   107955402.93509  20543204.700    84121132.56049
  21009109.240   110403658.07809  21009106.800    86028831.20848
  22879081.780   120230469.12508  22879080.480    93686104.95546
  20547668.620   107978763.83809  20547664.620    84139303.95049
  23109809.060   121442940.70908  23109805.140    94630874.76147
  21529760.660   113139724.87309  21529761.460    88160843.71049
  24704849.120   129824860.02706  24704846.800   101162216.94445
  20188254.800   106090177.42009  20188253.720    82667740.73249
 15 03 26 02 27  0.0000000  0 10G01G03G04G11G14G19G22G27G28G32
  21989484.200   115555560.15408  21989485.940    90043323.36348
  23059062.660   121176273.96108  23059064.580    94423109.70847
  20539894.920   107938003.64409  20539893.760    84107574.66749
  20999161.040   110351380.09909  20999158.660    85988095.12548
  22876738.920   120218157.36508  22876737.660    93676511.39246
  20551593.040   107999386.89909  20551589.080    84155373.85349
  23126344.680   121529835.74008  23126340.720    94698585.14447
  21542904.680   113208797.19309  21542905.480    88214666.26449
  24692500.500   129759968.03506  24692498.380   101111651.75444
  20182608.340   106060505.13809  20182607.240    82644619.48249
 15 03 26 02 27 30.0000000  0 10G01G03G04G11G14G19G22G27G28G32
  21979649.560   115503878.97208  21979651.380    90003052.34348
  23041606.040   121084538.95608  23041608.080    94351627.97847
  20536628.460   107920838.17309  20536627.300    84094198.98149
  20989257.820   110299338.43009  20989255.460    85947543.18348
  22874492.640   120206353.21208  22874491.500    93667313.36846
  20555602.660   108020457.57309  20555598.720    84171792.55649
  23142905.780   121616864.72408  23142901.820    94766399.91646
  21556121.300   113278250.99009  21556122.020    88268786.09349
  24680224.280   129695456.20506  24680222.320   101061382.75744
  20177067.620   106031388.42309  20177066.520    82621931.15549
 15 03 26 02 28  0.0000000  0 10G01G03G04G11G14G19G22G27G28G32
  21969840.340   115452331.24408  21969842.040    89962885.30048
  23024197.460   120993056.66608  23024199.640    94280343.15747
  20533406.440   107903906.30709  20533405.260    84081005.32649
  20979399.760   110247533.97209  20979397.280    85907176.08148
  22872343.020   120195057.28008  22872342.040    93658511.36146
  20559697.460   108041975.89309  20559693.560    84188560.07249
  23159491.920   121704025.44108  23159487.980    94834317.34046
  21569410.300   113348084.90409  21569410.900    88323202.11849
  24668020.640   129631326.13507  24668018.680   101011411.30744
  20171632.580   106002827.06709  20171631.440    82599675.57149
 15 03 26 02 28 30.0000000  0 10G01G03G04G11G14G19G22G27G28G32
  21960056.400   115400916.33408  21960057.920    89922821.74748
  23006837.100   120901827.82308  23006839.320    94209255.82147
  20530228.700   107887207.21609  20530227.500    84067993.05449
  20969586.940   110195967.18909  20969584.400    85866994.17948
  22870290.180   120184269.97408  22870289.220    93650105.67746
  20563877.340   108063941.36009  20563873.460    84205676.01449
  23176102.620   121791315.17508  23176098.740    94902335.29346
  21582771.300   113418297.20909  21582771.840    88377912.98949
  24655890.000   129567578.82406  24655888.160   100961738.05945
  20166303.040   105974820.35509  20166301.900    82577852.18249
 15 03 26 02 29  0.0000000  0 10G01G03G04G11G14G19G22G27G28G32
  21950297.640   115349633.69908  21950299.020    89882861.25848
  22989525.220   120810853.34308  22989527.200    94138366.68347
  20527095.200   107870740.67509  20527094.000    84055161.98649
  20959819.380   110144638.20709  20959816.820    85826997.58048
  22868334.220   120173991.67108  22868333.220    93642096.62846
  20568142.300   108086353.93409  20568138.440    84223140.34949
  23192737.400   121878731.25808  23192733.360    94970451.68746
  21596204.000   113488886.28509  21596204.520    88432917.44549
  24643832.420   129504215.58706  24643830.500   100912364.09444
  20161078.960   105947367.74809  20161077.820    82556460.56049
 15 03 26 02 29 30.0000000  0 10G01G03G04G11G14G19G22G27G28G32
  21940563.960   115298482.87308  21940565.240    89843003.49248
  22972261.860   120720134.02608  22972263.500    94067676.35747
  20524005.820   107854505.96309  20524004.660    84042511.56949
  20950097.260   110093548.13509  20950094.720    85787187.14048
  22866475.100   120164222.72308  22866474.200    93634484.47946
  20572492.300   108109213.47209  20572488.480    84240952.97049
  23209395.820   121966271.45908  23209391.620    95038664.82346
  21609708.080   113559850.60509  21609708.600    88488214.30149
  24631848.180   129441237.95006  24631846.360   100863290.59545
  20155960.200   105920468.66909  20155959.040    82535500.26049
 15 03 26 02 30  0.0000000  0 10G01G03G04G11G14G19G22G27G28G32
  21930856.100   115247467.66708  21930857.440    89803251.40048
  22955048.040   120629675.02208  22955049.820    93997188.87947
  20520961.300   107838506.97609  20520960.140    84030044.83048
  20940421.480   110042701.62609  20940418.960    85747566.49348
  22864713.900   120154968.16208  22864712.980    93627273.14746
  20576928.120   108132523.87209  20576924.300    84259116.91449
  23226078.180   122053937.54008  23226074.000    95106976.02446
  21623284.040   113631192.82409  21623284.560    88543805.62048
  24619938.300   129378651.18406  24619936.660   100814521.69144
  20150947.500   105894126.89209  20150946.340    82514974.21649
 15 03 26 02 30 30.0000000  0 10G01G03G04G11G14G19G22G27G28G32
  21921173.240   115196583.87608  21921174.760    89763601.71348
  22937883.220   120539473.49508  22937885.280    93926902.05047
  20517960.900   107822739.66009  20517959.680    84017758.61448
  20930791.520   109992095.74409  20930788.960    85708133.34748
  22863050.000   120146224.54508  22863049.100    93620459.95346
  20581449.000   108156281.19309  20581445.160    84277629.10649
  23242783.200   122141723.09108  23242779.100    95175380.33846
  21636930.880   113702907.67609  21636931.440    88599687.30549
  24608102.400   129316452.89707  24608100.680   100766055.45044
  20146040.020   105868338.20509  20146038.880    82494879.15149
 15 03 26 02 31  0.0000000  0 10G01G03G04G11G14G19G22G27G28G32
  21911515.740   115145833.25208  21911517.380    89724055.79548
  22920768.040   120449532.49608  22920770.220    93856818.22947
  20515004.940   107807205.69309  20515003.640    84005654.23549
  20921207.860   109941733.23709  20921205.260    85668889.85448
  22861483.920   120137994.62308  22861482.900    93614047.05046
  20586055.300   108180487.31609  20586051.420    84296491.02249
  23259510.960   122229628.06608  23259506.820    95243877.70646
  21650648.740   113774995.75609  21650649.380    88655859.82449
  24596340.920   129254646.37806  24596339.240   100717894.51844
  20141238.100   105843104.07309  20141236.980    82475216.21549
 15 03 26 02 31 30.0000000  0 10G01G03G04G11G14G19G22G27G28G32
  21901883.720   115095216.47208  21901885.300    89684614.16248
  22903702.820   120359854.02308  22903704.980    93786938.95647
  20512093.540   107791905.84109  20512092.160    83993732.27249
  20911670.820   109891615.74609  20911668.200    85629837.26548
  22860015.920   120130279.69808  22860014.720    93608035.43246
  20590747.240   108205143.45909  20590743.300    84315703.58949
  23276261.180   122317651.25307  23276256.980    95312467.18646
  21664437.580   113847456.55409  21664438.240    88712322.76449
  24584654.560   129193234.44106  24584653.000   100670041.06744
  20136541.820   105818425.06609  20136540.720    82455985.83549
 15 03 26 02 32  0.0000000  0 10G01G03G04G11G14G19G22G27G28G32
  21892276.780   115044731.75108  21892278.300    89645275.43148
  22886687.360   120270437.56608  22886689.340    93717263.85147
  20509226.280   107776838.17809  20509224.880    83981991.23849
  20902180.280   109841742.58209  20902177.720    85590975.06448
  22858645.820   120123079.19308  22858644.420    93602424.66346
  20595524.420   108230247.58609  20595520.460    84335265.23649
  23293033.060   122405788.64708  23293028.980    95381145.62846
  21678296.820   113920287.09209  21678297.480    88769073.81149
  24573043.420   129132217.14207  24573041.960   100622495.09944
  20131950.840   105794299.21109  20131949.740    82437186.48249
 15 03 26 02 32 30.0000000  0 10G01G03G04G11G14G19G22G27G28G32
  21882695.220   114994380.49508  21882696.580    89606040.70448
  22869722.160   120181285.83908  22869724.100    93647795.03847
  20506403.460   107762004.25309  20506402.080    83970432.34849
  20892736.740   109792116.56809  20892734.180    85552305.45748
  22857374.020   120116395.23708  22857372.560    93597216.41046
  20600387.220   108255801.57809  20600383.260    84355177.43649
  23309826.720   122494039.88408  23309822.680    95449912.81346
  21692226.500   113993487.67409  21692227.120    88826113.21149
  24561507.780   129071596.95007  24561506.140   100575258.59844
  20127465.340   105770727.69709  20127464.240    82418819.08949
 15 03 26 02 33  0.0000000  0 10G01G03G04G11G14G19G22G27G28G32
  21873139.040   114944162.70608  21873140.280    89566909.97048
  22852807.680   120092400.10408  22852809.640    93578533.47147
  20503625.140   107747404.08109  20503623.740    83959055.59049
  20883340.360   109742738.38909  20883337.820    85513828.96048
  22856200.600   120110228.30308  22856199.060    93592411.02846
  20605335.580   108281805.39609  20605331.640    84375440.14349
  23326641.680   122582402.87208  23326637.720    95518767.06146
  21706226.300   114067057.00909  21706226.940    88883439.95249
  24550048.140   129011375.83007  24550046.200   100528333.01244
  20123085.300   105747710.30009  20123084.180    82400883.47249
 15 03 26 02 33 30.0000000  0 10G01G03G04G11G14G19G22G27G28G32
  21863608.180   114894078.04508  21863609.440    89527882.97648
  22835943.940   120003781.21208  22835945.960    93509479.86147
  20500891.280   107733037.34409  20500889.820    83947860.74349
  20873991.320   109693609.07809  20873988.800    85475546.39848
  22855125.620   120104579.01908  22855124.000    93588009.00946
  20610369.500   108308258.89709  20610365.580    84396053.25749
  23343477.540   122670875.39308  23343473.580    95587706.68446
  21720295.960   114140993.56309  21720296.640    88941052.83549
  24538664.600   128951555.08407  24538662.800   100481719.47044
  20118810.580   105725246.32409  20118809.420    82383379.09949
 15 03 26 02 34  0.0000000  0 10G01G03G04G11G14G19G22G27G28G32
  21854102.920   114844127.87208  21854104.320    89488960.76948
  22819131.480   119915431.84208  22819133.680    93440636.24747
  20498202.100   107718905.52109  20498200.620    83936848.92649
  20864690.060   109644730.84509  20864687.580    85437459.45748
  22854149.460   120099449.40308  22854147.920    93584011.90946
  20615489.300   108335163.73309  20615485.400    84417018.04749
  23360334.020   122759456.89108  23360330.120    95656731.17046
  21734435.520   114215297.47409  21734436.240    88998951.95349
  24527357.900   128892137.73807  24527355.940   100435420.20644
  20114641.380   105703336.92809  20114640.180    82366306.85149
 15 03 26 02 34 30.0000000  0 10G01G03G04G11G14G19G22G27G28G32
  21844622.900   114794310.08008  21844624.400    89450141.72348
  22802370.200   119827351.05308  22802372.580    93372001.93547
  20495557.180   107705006.38909  20495555.700    83926018.43549
  20855436.420   109596102.58109  20855433.940    85399567.31148
  22853271.820   120094838.09608  22853270.360    93580418.71246
  20620694.580   108362517.66409  20620690.700    84438332.79549
  23377210.460   122848142.96408  23377206.600    95725837.18246
  21748644.400   114289965.31609  21748645.120    89057134.67549
  24516127.740   128833123.18306  24516126.060   100389434.83744
  20110577.220   105681979.63309  20110576.000    82349664.81949
 15 03 26 02 35  0.0000000  0 10G01G03G04G11G14G19G22G27G28G32
  21835168.180   114744625.27808  21835169.800    89411426.31548
  22785660.420   119739540.70308  22785662.800    93303578.35247
  20492956.660   107691340.63509  20492955.180    83915369.79849
  20846230.700   109547726.28509  20846228.240    85361871.50548
  22852493.160   120090746.45508  22852491.720    93577230.43246
  20625985.540   108390321.75709  20625981.660    84459998.31649
  23394106.560   122936932.39208  23394102.720    95795023.73046
  21762922.440   114364996.47909  21762923.100    89115600.50048
  24504974.780   128774513.60107  24504973.140   100343765.01944
  20106618.140   105661174.71409  20106616.920    82333453.20649
 15 03 26 02 35 30.0000000  0 10G01G03G04G11G14G19G22G27G28G32
  21825739.420   114695076.76208  21825741.040    89372817.09948
  22769002.980   119652005.25708  22769005.280    93235368.97747
  20490401.160   107677911.45009  20490399.680    83904905.50449
  20837073.720   109499606.09109  20837071.280    85324375.26048
  22851814.060   120087178.19908  22851812.720    93574449.98546
  20631362.700   108418578.87409  20631358.800    84482016.85049
  23411022.600   123025826.50708  23411018.660    95864291.83646
  21777269.940   114440392.92709  21777270.640    89174350.96648
  24493899.680   128716313.86007  24493897.900   100298414.60844
  20102764.740   105640925.10209  20102763.500    82317674.30449
 15 03 26 02 36  0.0000000  0 10G01G03G04G11G14G19G22G27G28G32
  21816335.660   114645659.61508  21816337.220    89334310.23948
  22752397.100   119564740.97908  22752399.100    93167370.87947
  20487889.740   107664713.98809  20487888.300    83894621.77249
  20827964.840   109451738.48809  20827962.360    85287075.83348
  22851233.800   120084129.26408  22851232.560    93572074.20846
  20636825.120   108447284.10109  20636821.240    84504384.55149
  23427957.320   123114818.66908  23427953.300    95933636.36846
  21791685.760   114516148.42009  21791686.480    89233381.20848
  24482902.040   128658520.82506  24482900.020   100253381.03945
  20099016.000   105621225.42509  20099014.760    82302323.92149
 15 03 26 02 36 30.0000000  0 10G01G03G04G11G14G19G22G27G28G32
  21806957.780   114596378.47808  21806959.200    89295909.36148
  22735844.040   119477753.73508  22735845.840    93099588.65847
  20485423.360   107651753.07909  20485421.940    83884522.36049
  20818905.060   109404129.19109  20818902.620    85249977.68148
  22850753.400   120081604.78708  22850752.080    93570107.09446
  20642373.720   108476442.24609  20642369.860    84527105.17149
  23444911.100   123203911.25608  23444907.160    96003059.13646
  21806170.460   114592266.32409  21806171.280    89292693.83848
  24471982.840   128601140.58806  24471980.880   100208669.15244
  20095372.720   105602080.00909  20095371.480    82287405.42549
 15 03 26 02 37  0.0000000  0 10G01G03G04G11G14G19G22G27G28G32
  21797604.860   114547228.60708  21797606.260    89257610.78348
  22719342.960   119391039.85108  22719344.760    93032019.45747
  20483001.060   107639023.77709  20482999.640    83874603.42649
  20809893.680   109356774.23209  20809891.280    85213077.72648
  22850372.040   120079600.49808  22850370.600    93568545.33546
  20648007.600   108506048.52409  20648003.740    84550174.99749
  23461882.680   123293097.56308  23461878.780    96072554.94446
  21820722.980   114668740.52209  21820723.880    89352284.11048
  24461141.700   128544169.89406  24461139.740   100164276.44444
  20091833.900   105583483.54209  20091832.680    82272914.69049
 15 03 26 02 37 30.0000000  0 10G01G03G04G11G14G19G22G27G28G32
  21788277.940   114498215.33808  21788279.300    89219418.63548
  22702895.160   119304605.85008  22702896.980    92964668.33347
  20480623.840   107626531.64909  20480622.480    83864869.29649
  20800931.900   109309679.94209  20800929.500    85176380.88048
  22850090.820   120078122.18908  22850089.340    93567393.41546
  20653727.760   108536108.24709  20653723.920    84573598.14549
  23478872.760   123382381.06808  23478868.960    96142126.47346
  21835344.080   114745574.96509  21835345.020    89412155.08149
  24450379.580   128487615.47306  24450377.880   100120208.04244
  20088400.440   105565440.90009  20088399.280    82258855.50149
 15 03 26 02 38  0.0000000  0 10G01G03G04G11G14G19G22G27G28G32
  21778976.620   114449336.47909  21778977.980    89181331.22748
  22686500.420   119218450.66008  22686502.240    92897534.47647
  20478291.260   107614274.16309  20478289.980    83855318.00849
  20792019.560   109262845.38409  20792017.120    85139886.42448
  22849909.380   120077168.38408  22849907.840    93566650.20546
  20659533.800   108566619.37409  20659529.980    84597373.04149
  23495880.560   123471757.64708  23495876.720    96211770.53446
  21850033.040   114822766.07109  21850033.980    89472303.97848
  24439696.640   128431476.66507  24439695.260   100076463.53645
  20085071.880   105547949.41009  20085070.740    82245225.78749
 15 03 26 02 38 30.0000000  0 10G01G03G04G11G14G19G22G27G28G32
  21769700.720   114400591.43308  21769702.140    89143348.08848
  22670158.720   119132574.78608  22670160.560    92830618.27847
  20476003.340   107602251.04109  20476002.080    83845949.34449
  20783156.760   109216271.07709  20783154.340    85103594.76648
  22849827.680   120076738.97708  22849826.140    93566315.62246
  20665425.620   108597581.08109  20665421.800    84621499.04749
  23512905.620   123561224.81208  23512901.680    96281485.19446
  21864789.500   114900311.89909  21864790.520    89532729.27848
  24429093.140   128375754.50507  24429091.720   100033043.69244
  20081847.960   105531007.83009  20081846.840    82232024.57449
 15 03 26 02 39  0.0000000  0 10G01G03G04G11G14G19G22G27G28G32
  21760450.100   114351979.15708  21760451.500    89105468.41148
  22653870.260   119046978.30408  22653871.980    92763919.76347
  20473759.780   107590461.15609  20473758.560    83836762.42249
  20774343.520   109169957.04109  20774341.100    85067505.91748
  22849845.660   120076833.32508  22849844.120    93566389.16446
  20671402.920   108628992.12109  20671399.160    84645975.17549
  23529947.260   123650779.32707  23529943.220    96351267.91646
  21879613.000   114978209.93609  21879614.000    89593429.03348
  24418568.960   128320449.25006  24418567.300    99989948.69044
  20078728.440   105514614.65409  20078727.280    82219250.68349
 15 03 26 02 39 30.0000000  0 10G01G03G04G11G14G19G22G27G28G32
  21751225.480   114303503.38608  21751226.820    89067695.09548
  22637635.920   118961666.00608  22637637.540    92697442.69547
  20471561.300   107578908.24209  20471560.100    83827760.15149
  20765580.700   109123908.07109  20765578.280    85031623.61448
  22849964.040   120077455.39808  22849962.420    93566873.91846
  20677466.460   108660856.20909  20677462.740    84670804.32949
  23547005.860   123740423.12507  23547001.880    96421120.19146
  21894504.000   115056462.51409  21894504.940    89654405.05348
  24408125.020   128265565.97006  24408123.340    99947182.52945
  20075713.920   105498773.01109  20075712.700    82206906.56249
 15 03 26 02 40  0.0000000  0 10G01G03G04G11G14G19G22G27G28G32
  21742026.280   114255161.15309  21742027.580    89030025.84248
  22621455.300   118876636.02708  22621456.760    92631185.62247
  20469407.360   107567589.26109  20469406.160    83818940.17049
  20756867.940   109078122.36409  20756865.540    84995946.45348
  22850182.300   120078602.68308  22850180.620    93567767.92746
  20683615.600   108693170.19809  20683611.900    84695984.05649
  23564080.560   123830151.49907  23564076.660    96491038.38946
  21909461.620   115135065.21209  21909462.500    89715653.90048
  24397761.200   128211103.34207  24397759.480    99904744.10745
  20072803.660   105483479.33709  20072802.380    82194989.43649
 15 03 26 02 40 30.0000000  0 10G01G03G04G11G14G19G22G27G28G32
  21732853.040   114206955.53008  21732854.360    88992463.03348
  22605329.160   118791892.44708  22605330.580    92565151.71347
  20467298.500   107556507.27409  20467297.360    83810304.85449
  20748206.040   109032603.73009  20748203.600    84960477.38848
  22850501.240   120080278.82908  22850499.540    93569074.02146
  20689851.000   108725937.11209  20689847.240    84721516.70649
  23581171.580   123919965.14507  23581167.660    96561023.02746
  21924486.140   115214019.64709  21924487.080    89777176.81648
  24387478.140   128157065.55007  24387476.500    99862636.75545
  20069998.100   105468735.99309  20069996.800    82183501.12449
 15 03 26 02 41  0.0000000  0 10G01G03G04G11G14G19G22G27G28G32
  21723705.140   114158883.25908  21723706.540    88955004.13948
  22589257.060   118707433.09208  22589258.520    92499339.28347
  20465234.220   107545659.29909  20465233.060    83801851.88449
  20739594.540   108987350.04709  20739592.120    84925214.78848
  22850920.180   120082480.85208  22850918.540    93570789.89746
  20696171.960   108759153.68709  20696168.160    84747399.74749
  23598277.880   124009859.20307  23598273.900    96631070.32146
  21939576.720   115293321.04409  21939577.680    89838970.09448
  24377275.780   128103451.07407  24377274.020    99820859.25345
  20067296.500   105454539.10209  20067295.200    82172438.63049
 15 03 26 02 41 30.0000000  0 10G01G03G04G11G14G19G22G27G28G32
  21714583.220   114110947.46408  21714584.720    88917651.58448
  22573239.820   118623262.11408  22573241.200    92433751.56047
  20463215.020   107535048.26809  20463213.840    83793583.54649
  20731034.280   108942365.61409  20731031.880    84890161.98949
  22851439.760   120085211.98808  22851438.380    93572918.07146
  20702578.980   108792822.59409  20702575.140    84773635.24749
  23615399.720   124099834.79607  23615395.720    96701181.15246
  21954733.620   115372971.06209  21954734.620    89901035.02148
  24367154.560   128050264.02406  24367152.960    99779414.81445
  20064699.360   105440891.08409  20064698.060    82161803.82349
 15 03 26 02 42  0.0000000  0 10G01G03G04G11G14G19G22G27G28G32
  21705487.320   114063148.40809  21705488.900    88880405.58048
  22557277.640   118539380.72608  22557278.820    92368389.48647
  20461240.960   107524674.32409  20461239.740    83785499.95549
  20722525.480   108897651.60709  20722523.080    84855319.91648
  22852060.180   120088472.80908  22852058.920    93575458.98346
  20709072.080   108826943.87809  20709068.200    84800223.25549
  23632536.760   124189890.08407  23632532.740    96771354.08346
  21969956.620   115452968.40609  21969957.560    89963370.59748
  24357115.020   127997506.07507  24357113.200    99738304.72545
  20062206.560   105427791.41309  20062205.260    82151596.30249
 15 03 26 02 42 30.0000000  0 10G01G03G04G11G14G19G22G27G28G32
  21696416.580   114015481.41609  21696418.120    88843262.48648
  22541369.940   118455785.30008  22541371.160    92303250.23847
  20459311.120   107514532.95409  20459309.880    83777597.59349
  20714067.520   108853204.61509  20714065.060    84820685.90248
  22852780.660   120092259.13308  22852779.560    93578409.38046
  20715650.300   108861512.57109  20715646.420    84827159.89449
  23649687.720   124280018.60607  23649683.800    96841584.07246
  21985244.540   115533306.91609  21985245.480    90025972.02148
  24347156.600   127945173.87507  24347154.740    99697526.38545
  20059817.100   105415234.73709  20059815.780    82141811.89549
 15 03 26 02 43  0.0000000  0 10G01G03G04G11G14G19G22G27G28G32
  21687372.420   113967953.91109  21687373.900    88806228.07748
  22525518.200   118372484.19608  22525519.620    92238340.33947
  20457426.900   107504631.38209  20457425.660    83769882.08149
  20705661.940   108809032.88609  20705659.440    84786266.37748
  22853602.620   120096578.44608  22853601.560    93581775.09346
  20722314.980   108896535.90009  20722311.120    84854450.78849
  23666853.580   124370225.61507  23666849.680    96911875.23745
  22000598.560   115613992.41709  22000599.380    90088843.81648
  24337280.800   127893276.24007  24337279.160    99657086.68945
  20057532.240   105403227.70909  20057530.900    82132455.78249
 15 03 26 02 43 30.0000000  0 10G01G03G04G11G14G19G22G27G28G32
  21678353.640   113920559.83909  21678355.020    88769297.63948
  22509721.400   118289472.33508  22509723.020    92173655.83348
  20455587.200   107494963.66409  20455585.920    83762348.79649
  20697307.780   108765131.55809  20697305.280    84752057.55848
  22854524.880   120101424.87108  22854523.700    93585551.54246
  20729064.980   108932007.59709  20729061.160    84882091.06349
  23684032.880   124460503.48807  23684028.980    96982221.60346
  22016017.160   115695017.31109  22016017.880    90151980.08048
  24327486.860   127841808.25707  24327484.820    99616981.75945
  20055350.640   105391763.33909  20055349.320    82123522.52149
 15 03 26 02 44  0.0000000  0 10G01G03G04G11G14G19G22G27G28G32
  21669360.920   113873302.78409  21669362.200    88732473.96248
  22493980.560   118206754.33508  22493982.160    92109200.29148
  20453792.680   107485533.51909  20453791.400    83755000.62749
  20689005.960   108721505.18609  20689003.460    84718062.98548
  22855548.280   120106802.24408  22855546.940    93589741.71546
  20735900.920   108967930.88609  20735897.160    84910083.22449
  23701225.940   124550853.69607  23701222.080    97052624.34046
  22031500.720   115776383.62609  22031501.460    90215382.38148
  24317775.620   127790774.98907  24317773.560    99577215.55945
  20053272.860   105380844.59209  20053271.580    82115014.41649
 15 03 26 02 44 30.0000000  0 10G01G03G04G11G14G19G22G27G28G32
  21660394.120   113826181.88509  21660395.460    88695756.39148
  22478295.580   118124330.13408  22478297.120    92044973.68247
  20452043.200   107476340.01609  20452041.900    83747836.86249
  20680756.440   108678153.70509  20680753.920    84684282.61048
  22856672.500   120112709.28208  22856671.000    93594344.62846
  20742822.580   109004304.51809  20742818.860    84938426.30549
  23718432.300   124641273.46307  23718428.400    97123081.27946
  22047048.680   115858088.86009  22047049.500    90279048.77548
  24308147.060   127740176.63907  24308144.840    99537788.30045
  20051298.560   105370469.69609  20051297.300    82106930.09449
 15 03 26 02 45  0.0000000  0 10G01G03G04G11G14G19G22G27G28G32
  21651453.280   113779197.58509  21651454.760    88659145.26248
  22462666.820   118042201.16608  22462668.380    91980977.13648
  20450338.760   107467383.28309  20450337.480    83740857.59449
  20672559.580   108635078.94909  20672557.040    84650717.86849
  22857897.720   120119147.34708  22857896.060    93599361.30246
  20749830.000   109041128.79209  20749826.320    84967120.53749
  23735651.640   124731761.44507  23735647.760    97193591.37446
  22062660.920   115940131.86309  22062661.780    90342978.36948
  24298601.520   127690014.78707  24298599.360    99498701.10244
  20049427.640   105360638.04809  20049426.400    82099269.08649
 15 03 26 02 45 30.0000000  0 10G01G03G04G11G14G19G22G27G28G32
  21642538.660   113732351.13009  21642540.280    88622641.54948
  22447094.760   117960369.58508  22447096.260    91917212.30748
  20448679.700   107458664.87209  20448678.420    83734064.03149
  20664415.780   108592282.94709  20664413.260    84617370.34149
  22859224.120   120126117.64708  22859222.360    93604792.72546
  20756923.320   109078404.48009  20756919.660    84996166.52249
  23752883.700   124822316.77907  23752879.860    97264153.95146
  22078337.400   116022512.21709  22078338.240    90407170.84048
  24289139.440   127640291.64706  24289137.460    99459955.80045
  20047660.200   105351350.08009  20047658.920    82092031.72349
 15 03 26 02 46  0.0000000  0 10G01G03G04G11G14G19G22G27G28G32
  21633650.060   113685641.21109  21633651.680    88586244.21648
  22431579.220   117878834.91908  22431580.720    91853678.85148
  20447065.740   107450183.45809  20447064.460    83727455.13549
  20656325.020   108549765.73409  20656322.540    84584240.04449
  22860651.480   120133618.69208  22860649.720    93610637.70646
  20764102.260   109116129.95909  20764098.620    85025562.98949
  23770127.960   124912936.27107  23770124.180    97334766.51046
  22094077.500   116105226.99309  22094078.300    90471623.89248
  24279760.800   127591007.50407  24279759.040    99421552.56545
  20045995.760   105342603.61709  20045994.480    82085216.30849
 15 03 26 02 46 30.0000000  0 10G01G03G04G11G14G19G22G27G28G32
  21624787.180   113639066.57009  21624788.700    88549952.29248
  22416120.140   117797596.81608  22416121.720    91790376.48448
  20445496.580   107441937.44209  20445495.300    83721029.67349
  20648287.220   108507526.91309  20648284.760    84551326.67748
  22862179.600   120141649.38008  22862178.000    93616895.39346
  20771366.440   109154303.44109  20771362.780    85055308.54649
  23787383.820   125003616.64507  23787380.060    97405426.53046
  22109880.660   116188273.24809  22109881.520    90536335.23948
  24270465.800   127542162.08607  24270464.220    99383491.20345
  20044433.960   105334396.39509  20044432.660    82078821.08049
 15 03 26 02 47  0.0000000  0 10G01G03G04G11G14G19G22G27G28G32
  21615951.080   113592632.47209  21615952.440    88513769.88748
  22400718.640   117716661.39508  22400720.200    91727309.96947
  20443973.320   107433932.47609  20443972.020    83714792.03848
  20640303.620   108465572.91709  20640301.160    84518635.26548
  22863809.460   120150214.86108  22863807.920    93623569.80446
  20778716.800   109192929.77509  20778713.120    85085406.98249
  23804652.020   125094361.44107  23804648.320    97476136.73845
  22125747.600   116271654.56809  22125748.620    90601307.67848
  24261255.440   127493761.71407  24261253.840    99345776.63644
  20042975.600   105326732.68209  20042974.300    82072849.37249
 15 03 26 02 47 30.0000000  0 10G01G03G04G11G14G19G22G27G28G32
  21607140.540   113546332.79609  21607141.820    88477692.22948
  22385373.680   117636023.39108  22385375.060    91664475.21248
  20442494.680   107426162.11509  20442493.360    83708737.22049
  20632373.220   108423898.48109  20632370.720    84486161.68548
  22865539.880   120159308.86808  22865538.560    93630656.06846
  20786152.120   109232002.49009  20786148.360    85115853.25049
  23821930.920   125185162.61607  23821927.260    97546890.88546
  22141676.840   116355363.14209  22141677.900    90666535.12248
  24252128.940   127445801.35207  24252127.280    99308404.91244
  20041619.300   105319605.38609  20041618.020    82067295.65349
 15 03 26 02 48  0.0000000  0 10G01G03G04G11G14G19G22G27G28G32
  21598356.260   113500171.18009  21598357.580    88441722.13648
  22370086.180   117555687.18408  22370087.440    91601875.60547
  20441061.340   107418629.95209  20441060.040    83702867.99449
  20624496.880   108382507.95609  20624494.380    84453909.32649
  22867371.660   120168934.98708  22867370.460    93638156.93046
  20793672.960   109271524.69509  20793669.100    85146649.75549
  23839220.860   125276021.81607  23839217.260    97617690.22146
  22157668.660   116439400.85409  22157669.720    90732019.02548
  24243087.080   127398285.83107  24243085.360    99271379.82145
  20040365.540   105313016.98209  20040364.280    82062161.83649
 15 03 26 02 48 30.0000000  0 10G01G03G04G11G14G19G22G27G28G32
  21589598.160   113454147.03809  21589599.580    88405859.17548
  22354856.200   117475653.09108  22354857.460    91539511.41348
  20439673.240   107411335.59709  20439672.000    83697184.08549
  20616674.680   108341402.01709  20616672.200    84421878.72949
  22869304.680   120179092.76108  22869303.460    93646072.09846
  20801279.180   109311495.63809  20801275.300    85177795.93249
  23856521.360   125366936.50807  23856517.760    97688532.80946
  22173722.660   116523765.44109  22173723.720    90797757.64348
  24234129.980   127351215.59307  24234128.260    99234701.69545
  20039214.020   105306965.87409  20039212.800    82057446.69949
 15 03 26 02 49  0.0000000  0 10G01G03G04G11G14G19G22G27G28G32
  21580866.660   113408262.58809  21580868.200    88370105.07848
  22339684.180   117395924.07308  22339685.540    91477384.94948
  20438330.780   107404281.07209  20438329.600    83691687.05549
  20608907.260   108300583.86009  20608904.760    84390072.37949
  22871339.220   120189784.03308  22871337.860    93654402.96646
  20808971.000   109351916.48509  20808967.120    85209292.68649
  23873832.500   125457907.05507  23873828.740    97759418.93846
  22189838.980   116608457.34208  22189840.020    90863751.32048
  24225258.220   127304593.67807  24225256.220    99198372.93644
  20038165.000   105301453.23209  20038163.780    82053151.14849
 15 03 26 02 49 30.0000000  0 10G01G03G04G11G14G19G22G27G28G32
  21572161.400   113362516.03809  21572162.940    88334458.42448
  22324570.100   117316499.14208  22324571.540    91415495.44548
  20437033.640   107397464.66609  20437032.500    83686375.56949
  20601194.440   108260052.76209  20601191.920    84358489.71349
  22873474.940   120201007.04708  22873473.560    93663148.19046
  20816748.040   109392785.16409  20816744.200    85241138.40149
  23891153.660   125548929.79207  23891149.820    97830345.72546
  22206016.960   116693472.99909  22206018.020    90929997.26448
  24216471.620   127258419.47307  24216469.780    99162393.02245
  20037217.900   105296476.12509  20037216.660    82049272.89549
 15 03 26 02 50  0.0000000  0 10G01G03G04G11G14G19G22G27G28G32
  21563482.600   113316908.73309  21563484.120    88298920.27948
  22309514.340   117237380.38108  22309515.880    91353844.51248
  20435782.020   107390887.40009  20435780.900    83681250.43149
  20593536.720   108219811.25609  20593534.220    84327132.69949
  22875712.040   120212763.15808  22875710.740    93672308.80447
  20824610.480   109434102.46309  20824606.640    85273333.69349
  23908484.640   125640004.05007  23908480.800    97901312.65146
  22222256.440   116778811.97608  22222257.500    90996495.15048
  24207770.600   127212695.46707  24207768.980    99126763.93045
  20036372.740   105292034.75309  20036371.480    82045812.09849
 15 03 26 02 50 30.0000000  0 10G01G03G04G11G14G19G22G27G28G32
  21554830.120   113271439.90709  21554831.620    88263490.02748
  22294516.760   117158567.77708  22294518.320    91292432.13248
  20434575.800   107384548.78209  20434574.680    83676311.24249
  20585934.040   108179859.06609  20585931.560    84296001.12749
  22878050.300   120225050.87308  22878049.000    93681883.64546
  20832558.080   109475867.17509  20832554.260    85305877.60849
  23925824.820   125731127.29207  23925821.080    97972317.74246
  22238556.940   116864471.70009  22238558.040    91063242.95648
  24199155.340   127167421.86807  24199153.540    99091485.82345
  20035629.180   105288127.25009  20035627.900    82042767.29349
 15 03 26 02 51  0.0000000  0 10G01G03G04G11G14G19G22G27G28G32
  21546203.960   113226109.04109  21546205.400    88228167.28648
  22279577.560   117080061.53508  22279578.820    91231258.48048
  20433414.880   107378448.13509  20433413.780    83671557.49949
  20578386.620   108140197.05409  20578384.120    84265095.67149
  22880489.620   120237869.65408  22880488.340    93691872.32446
  20840590.560   109518077.90809  20840586.740    85338769.08649
  23943173.880   125822297.17807  23943170.180    98043359.18545
  22254918.060   116950449.86908  22254919.160    91130238.91648
  24190625.820   127122598.66407  24190623.880    99056558.65045
  20034986.840   105284751.84909  20034985.580    82040137.12849
 15 03 26 02 51 30.0000000  0 10G01G03G04G11G14G19G22G27G28G32
  21537604.600   113180919.06209  21537606.020    88192954.31848
  22264697.320   117001865.28808  22264698.340    91170326.36748
  20432299.800   107372588.42609  20432298.720    83666991.49149
  20570895.160   108100829.11809  20570892.620    84234419.35849
  22883030.600   120251222.57308  22883029.160    93702277.20046
  20848708.300   109560736.90409  20848704.540    85372009.84849
  23960532.080   125913514.61707  23960528.180    98114437.69345
  22271340.000   117036747.53108  22271341.100    91197483.81648
  24182182.700   127078230.01907  24182180.960    99021985.66745
  20034446.120   105281910.32309  20034444.820    82037922.95849
 15 03 26 02 52  0.0000000  0 10G01G03G04G11G14G19G22G27G28G32
  21529031.440   113135866.99109  21529032.900    88157848.81848
  22249875.620   116923976.77108  22249876.700    91109634.05948
  20431229.980   107366966.37609  20431228.880    83662610.66849
  20563459.300   108061753.33909  20563456.720    84203970.70149
  22885672.560   120265106.04608  22885671.040    93713095.49946
  20856910.700   109603840.89609  20856907.000    85405597.36449
  23977898.300   126004774.62207  23977894.520    98185549.34846
  22287821.860   117123359.93008  22287822.940    91264973.97948
  24173825.840   127034313.92107  24173824.040    98987765.31145
  20034006.160   105279598.38809  20034004.840    82036121.45949
 15 03 26 02 52 30.0000000  0 10G01G03G04G11G14G19G22G27G28G32
  21520485.440   113090957.81609  21520487.000    88122854.67248
  22235113.540   116846401.64308  22235114.660    91049185.95048
  20430206.360   107361587.21209  20430205.260    83658419.11849
  20556080.120   108022975.33709  20556077.540    84173754.07949
  22888416.260   120279524.57608  22888414.720    93724330.72946
  20865198.560   109647393.99209  20865194.900    85439534.83349
  23995273.280   126096080.50907  23995269.460    98256696.77645
  22304364.120   117210290.16908  22304365.220    91332711.80548
  24165556.160   126990856.07107  24165554.340    98953902.05545
  20033667.720   105277819.82709  20033666.380    82034735.57949
 15 03 26 02 53  0.0000000  0 10G01G03G04G11G14G19G22G27G28G32
  21511965.820   113046187.13609  21511967.380    88087968.43648
  22220410.340   116769136.14008  22220411.460    90988979.10548
  20429228.100   107356446.38909  20429226.980    83654413.28249
  20548756.880   107984491.45109  20548754.300    84143766.63449
  22891260.860   120294473.53608  22891259.280    93735979.28046
  20873570.880   109691390.97509  20873567.240    85473818.18249
  24012655.720   126187425.86607  24012651.880    98327874.95445
  22320965.700   117297531.94208  22320966.820    91400692.37948
  24157372.980   126947853.12007  24157371.000    98920393.23345
  20033429.680   105276568.84409  20033428.340    82033760.79449
 15 03 26 02 53 30.0000000  0 10G01G03G04G11G14G19G22G27G28G32
  21503473.120   113001557.48109  21503474.600    88053192.09048
  22205766.720   116692183.44708  22205767.880    90929016.00548
  20428295.680   107351546.41309  20428294.540    83650595.12149
  20541490.380   107946305.63609  20541487.760    84114011.45349
  22894206.820   120309955.02808  22894205.220    93748042.78846
  20882028.120   109735834.05309  20882024.460    85508449.14049
  24030045.760   126278811.47107  24030042.020    98399084.47145
  22337626.660   117385085.84708  22337627.720    91468916.17848
  24149276.840   126905308.09807  24149275.080    98887241.29545
  20033292.300   105275846.79509  20033290.940    82033198.16449
 15 03 26 02 54  0.0000000  0 10G01G03G04G11G14G19G22G27G28G32
  21495007.100   112957068.10109  21495008.520    88018525.05148
  22191182.560   116615543.46108  22191183.820    90869296.57248
  20427408.900   107346886.31609  20427407.760    83646963.88249
  20534280.620   107908417.96009  20534277.980    84084488.59149
  22897253.920   120325967.80408  22897252.280    93760520.28546
  20890569.940   109780721.71209  20890566.320    85543426.52649
  24047443.020   126370234.51107  24047438.980    98470323.19345
  22354346.520   117472949.31408  22354347.660    91537381.18348
  24141268.100   126863221.26707  24141266.240    98854446.33745
  20033255.140   105275651.46009  20033253.780    82033045.96149
 15 03 26 02 54 30.0000000  0 10G01G03G04G11G14G19G22G27G28G32
  21486568.440   112912722.67209  21486569.860    87983970.18048
  22176658.640   116539220.46608  22176659.980    90809824.14948
  20426568.480   107342469.79209  20426567.320    83643522.43349
  20527128.520   107870833.40009  20527125.860    84055201.92549
  22900402.820   120342515.52208  22900401.200    93773414.62246
  20899196.920   109826056.76909  20899193.300    85578752.53849
  24064847.760   126461696.89307  24064843.780    98541592.54045
  22371125.640   117561124.06208  22371126.840    91606088.74748
  24133347.080   126821596.75206  24133345.500    98822011.65445
  20033318.660   105275985.26209  20033317.320    82033306.07749
 15 03 26 02 55  0.0000000  0 10G01G03G04G11G14G19G22G27G28G32
  21478156.180   112868516.33109  21478157.680    87949523.69048
  22162194.340   116463210.21108  22162195.660    90750595.41048
  20425773.500   107338292.14709  20425772.340    83640267.12949
  20520033.240   107833547.61509  20520030.640    84026148.06849
  22903652.420   120359592.46108  22903650.840    93786721.33546
  20907908.000   109871833.57709  20907904.320    85614422.77049
  24082258.700   126553191.81607  24082254.760    98612887.26345
  22387962.760   117649603.31208  22387963.920    91675033.59348
  24125513.340   126780430.91107  24125511.720    98789934.37344
  20033481.620   105276841.79409  20033480.300    82033973.51249
 15 03 26 02 55 30.0000000  0 10G01G03G04G11G14G19G22G27G28G32
  21469770.940   112824451.63509  21469772.460    87915187.57548
  22147790.120   116387515.80808  22147791.520    90691612.79348
  20425024.400   107334355.61509  20425023.220    83637199.70849
  20512995.480   107796564.13909  20512992.920    83997329.77949
  22907003.220   120377200.95308  22907001.720    93800442.24946
  20916703.460   109918053.75309  20916699.720    85650438.48249
  24099675.880   126644719.98307  24099672.220    98684207.87646
  22404857.940   117738387.62808  22404858.980    91744216.14448
  24117767.480   126739726.99106  24117766.080    98758217.05144
  20033744.320   105278222.29909  20033743.000    82035049.23949
 15 03 26 02 56  0.0000000  0 10G01G03G04G11G14G19G22G27G28G32
  21461413.020   112780530.28709  21461414.480    87880963.15548
  22133446.400   116312139.51308  22133447.860    90632878.05148
  20424321.520   107330661.84009  20424320.280    83634321.44649
  20506015.780   107759885.71709  20506013.220    83968749.19549
  22910455.340   120395341.99008  22910453.900    93814578.13046
  20925583.460   109964718.33909  20925579.720    85686800.48949
  24117099.440   126736281.35607  24117095.780    98755554.38445
  22421811.140   117827476.71908  22421812.060    91813636.19348
  24110109.860   126699487.22407  24110108.380    98726861.39345
  20034106.760   105280127.05809  20034105.420    82036533.47349
 15 03 26 02 56 30.0000000  0 10G01G03G04G11G14G19G22G27G28G32
  21453082.100   112736751.04109  21453083.520    87846849.46548
  22119163.100   116237080.65708  22119164.640    90574390.65848
  20423664.600   107327209.61309  20423663.320    83631631.39949
  20499094.060   107723512.00409  20499091.500    83940406.04449
  22914008.420   120414013.73508  22914006.880    93829127.54046
  20934547.540   110011824.86309  20934543.800    85723506.86149
  24134528.640   126827872.69307  24134525.020    98826924.21645
  22438821.700   117916867.39308  22438822.620    91883291.22648
  24102540.800   126659711.25307  24102539.340    98695867.12245
  20034568.460   105282553.32609  20034567.120    82038424.07849
 15 03 26 02 57  0.0000000  0 10G01G03G04G11G14G19G22G27G28G32
  21444778.060   112693112.98809  21444779.440    87812845.79548
  22104940.100   116162338.84408  22104941.800    90516150.31848
  20423053.420   107323997.80409  20423052.160    83629128.69549
  20492230.320   107687442.89109  20492227.780    83912300.24449
  22917662.260   120433214.86508  22917660.640    93844089.45346
  20943595.500   110059372.21909  20943591.760    85760556.73849
  24151963.160   126919491.26507  24151959.420    98898315.29945
  22455889.040   118006556.74608  22455889.920    91953179.00548
  24095059.880   126620398.72707  24095058.620    98665233.99945
  20035128.960   105285498.83109  20035127.600    82040719.28349
 15 03 26 02 57 30.0000000  0 10G01G03G04G11G14G19G22G27G28G32
  21436501.620   112649620.13609  21436503.060    87778955.27548
  22090778.340   116087918.59308  22090780.060    90458160.54648
  20422488.720   107321030.49809  20422487.500    83626816.51449
  20485425.520   107651683.55209  20485423.040    83884435.83249
  22921417.440   120452948.59208  22921415.680    93859466.40446
  20952727.900   110107363.28709  20952724.200    85797952.36949
  24169403.160   127011139.20207  24169399.340    98969729.25344
  22473013.580   118096546.79008  22473014.520    92023301.08948
  24087667.920   126581554.10907  24087666.620    98634965.46444
  20035788.680   105288965.95109  20035787.340    82043420.94549
 15 03 26 02 58  0.0000000  0 10G01G03G04G11G14G19G22G27G28G32
  21428251.880   112606267.48109  21428253.380    87745173.99448
  22076676.980   116013815.38008  22076678.500    90400417.80048
  20421969.580   107318302.42809  20421968.380    83624690.74549
  20478678.840   107616229.59109  20478676.400    83856809.37349
  22925272.900   120473209.37108  22925271.120    93875254.02846
  20961943.600   110155792.22009  20961939.940    85835689.18649
  24186847.480   127102809.43607  24186843.660    99041160.58645
  22490193.980   118186830.40208  22490195.000    92093651.93148
  24080364.420   126543173.17707  24080362.940    98605058.21945
  20036546.440   105292948.08809  20036545.100    82046523.91549
 15 03 26 02 58 30.0000000  0 10G01G03G04G11G14G19G22G27G28G32
  21420029.660   112563059.57509  21420031.220    87711505.51348
  22062636.940   115940034.28508  22062638.400    90342926.06848
  20421496.840   107315818.17309  20421495.640    83622754.97349
  20471991.360   107581086.67709  20471988.900    83829425.29149
  22929229.460   120494001.22108  22929227.700    93891455.47846
  20971243.300   110204662.55409  20971239.720    85873769.95849
  24204296.560   127194504.93807  24204292.900    99112611.60045
  22507430.740   118277410.18408  22507431.780    92164233.54948
  24073150.020   126505261.11607  24073148.760    98575516.37345
  20037402.780   105297448.39809  20037401.460    82050030.66049
 15 03 26 02 59  0.0000000  0 10G01G03G04G11G14G19G22G27G28G32
  21411834.860   112519995.58709  21411836.340    87677949.16248
  22048658.160   115866574.91209  22048659.560    90285685.02248
  20421070.380   107313576.91609  20421069.120    83621008.53949
  20465363.060   107546254.68609  20465360.580    83802283.47749
  22933286.820   120515322.51008  22933285.080    93908069.48246
  20980626.680   110253972.48409  20980623.100    85912193.26749
  24221749.900   127286222.84107  24221746.260    99184080.06545
  22524723.340   118368283.17708  22524724.280    92235043.64848
  24066024.860   126467817.59507  24066023.320    98546339.59645
  20038357.300   105302464.40109  20038355.980    82053939.23749
 15 03 26 02 59 30.0000000  0 10G01G03G04G11G14G19G22G27G28G32
  21403667.540   112477076.11509  21403668.960    87644505.42648
  22034740.800   115793438.28408  22034742.140    90228695.47948
  20420690.200   107311578.97009  20420688.920    83619451.70049
  20458794.300   107511735.51709  20458791.800    83775385.42849
  22937444.900   120537173.01108  22937443.120    93925095.84446
  20990093.680   110303721.66509  20990090.080    85950958.85149
  24239207.280   127377962.07107  24239203.640    99255565.17145
  22542071.440   118459447.91308  22542072.420    92306081.07448
  24058989.100   126430843.68307  24058987.320    98517528.75245
  20039409.780   105307995.04909  20039408.440    82058248.83849
 15 03 26 03 00  0.0000000  0 10G01G03G04G11G14G19G22G27G28G32
  21395528.000   112434302.57009  21395529.400    87611175.40348
  22020885.180   115720626.23608  22020886.520    90171958.83948
  20420356.600   107309825.88009  20420355.320    83618085.65349
  20452285.460   107477531.16109  20452282.920    83748732.68349
  22941703.840   120559553.42408  22941702.080    93942535.12746
  20999644.380   110353910.60109  20999640.740    85990067.10049
  24256668.640   127469722.02907  24256665.040    99327066.38845
  22559474.900   118550903.70708  22559475.860    92377345.29548
  24052042.960   126394341.17407  24052041.280    98489085.24645
  20040560.160   105314040.16909  20040558.800    82062959.32549
 15 03 26 03 00 30.0000000  0 10G01G03G04G11G14G19G22G27G28G32
  21387415.920   112391673.33809  21387417.320    87577957.83248
  22007091.060   115648137.61508  22007092.420    90115474.23448
  20420069.220   107308315.76109  20420067.920    83616908.94149
  20445836.360   107443640.78309  20445833.780    83722324.60249
  22946063.180   120582461.42208  22946061.520    93960385.53146
  21009278.220   110404536.66209  21009274.560    86029515.97349
  24274133.320   127561499.50006  24274129.740    99398581.30545
  22576933.040   118642646.87808  22576934.000    92448833.45548
  24045186.560   126358309.25407  24045184.540    98461008.40545
  20041807.780   105320596.52209  20041806.420    82068068.17849
 15 03 26 03 01  0.0000000  0 10G01G03G04G11G14G19G22G27G28G32
  21379331.320   112349188.48609  21379332.740    87544852.75348
  21993358.560   115575972.85109  21993359.860    90059241.97348
  20419828.100   107307048.60909  20419826.760    83615921.54649
  20439447.220   107410065.48709  20439444.620    83696162.03349
  22950522.640   120605896.24208  22950521.180    93978646.42046
  21018995.060   110455598.89309  21018991.380    86069304.70649
  24291600.980   127653292.58307  24291597.360    99470108.35445
  22594445.440   118734675.34808  22594446.540    92520543.91248
  24038419.620   126322748.36807  24038417.540    98433298.63845
  20043152.360   105327662.49009  20043151.040    82073574.12749
 15 03 26 03 01 30.0000000  0 10G01G03G04G11G14G19G22G27G28G32
  21371274.880   112306851.59509  21371276.240    87511862.97448
  21979688.440   115504135.91709  21979689.740    90003265.17248
  20419633.880   107306028.03109  20419632.520    83615126.29149
  20433118.880   107376809.83309  20433116.320    83670248.53949
  22955082.780   120629860.53608  22955081.520    93997319.90246
  21028795.340   110507099.82009  21028791.640    86109435.29449
  24309071.880   127745102.74806  24309068.400    99541648.70145
  22612012.460   118826990.56908  22612013.640    92592477.82048
  24031742.980   126287662.55407  24031740.920    98405959.03445
  20044594.300   105335239.94409  20044593.000    82079478.64449
 15 03 26 03 02  0.0000000  0 10G01G03G04G11G14G19G22G27G28G32
  21363246.200   112264660.48209  21363247.520    87478986.78748
  21966080.280   115432624.93409  21966081.680    89947542.35948
  20419486.120   107305251.54709  20419484.760    83614521.23249
  20426851.120   107343872.30309  20426848.540    83644582.93649
  22959743.200   120654351.64408  22959742.200    94016403.87646
  21038678.460   110559035.96109  21038674.740    86149905.00249
  24326545.380   127836926.04807  24326541.840    99613199.31245
  22629633.220   118919588.15408  22629634.360    92664631.75448
  24025156.340   126253049.90307  24025154.420    98378988.15245
  20046132.820   105343325.00809  20046131.500    82085778.70049
 15 03 26 03 02 30.0000000  0 10G01G03G04G11G14G19G22G27G28G32
  21355245.680   112222617.58109  21355247.000    87446226.09248
  21952534.660   115361442.76209  21952536.160    89892075.75848
  20419385.300   107304721.65309  20419383.960    83614108.32649
  20420644.540   107311256.44009  20420641.920    83619167.97549
  22964504.080   120679370.57908  22964503.180    94035899.16046
  21048644.660   110611408.93409  21048640.960    86190715.09949
  24344021.540   127928763.33507  24344017.860    99684760.81045
  22647307.780   119012468.42608  22647308.840    92737005.96148
  24018660.300   126218913.33707  24018658.460    98352388.23444
  20047768.100   105351918.35209  20047766.760    82092474.81949
 15 03 26 03 03  0.0000000  0 10G01G03G04G11G14G19G22G27G28G32
  21347272.980   112180720.73609  21347274.340    87413579.19948
  21939051.260   115290587.49808  21939052.860    89836863.88248
  20419330.940   107304435.83709  20419329.620    83613885.60449
  20414498.820   107278960.62609  20414496.160    83594002.40449
  22969364.840   120704914.56008  22969363.940    94055803.54946
  21058693.380   110664215.41709  21058689.720    86231862.99349
  24361499.340   128020610.51906  24361495.840    99756330.02445
  22665035.260   119105627.02208  22665036.300    92809597.03248
  24012254.600   126185250.90907  24012252.700    98326157.77345
  20049499.340   105361016.09009  20049498.000    82099563.96749
 15 03 26 03 03 30.0000000  0 10G01G03G04G11G14G19G22G27G28G32
  21339328.020   112138969.67609  21339329.380    87381045.92048
  21925630.020   115220059.16208  21925631.800    89781906.76648
  20419323.000   107304393.97009  20419321.700    83613852.97649
  20408414.060   107246985.20409  20408411.400    83569086.49649
  22974325.360   120730982.28708  22974324.300    94076116.08046
  21068824.340   110717453.89509  21068820.660    86273347.51349
  24378978.780   128112465.33606  24378975.260    99827905.19345
  22682815.300   119199061.46908  22682816.320    92882403.06548
  24005939.160   126152062.94307  24005937.100    98300297.01045
  20051326.160   105370616.09109  20051324.800    82107044.49649
 15 03 26 03 04  0.0000000  0 10G01G03G04G11G14G19G22G27G28G32
  21331411.640   112097368.87909  21331412.980    87348629.71548
  21912272.000   115149862.59809  21912273.840    89727208.16148
  20419362.300   107304600.34309  20419360.980    83614013.77649
  20402391.420   107215336.20109  20402388.800    83544424.93449
  22979386.300   120757577.25208  22979385.000    94096839.42746
  21079038.180   110771127.98409  21079034.500    86315171.46049
  24396460.100   128204330.52106  24396456.580    99899488.42045
  22700648.220   119292774.00108  22700649.300    92955425.77948
  23999714.760   126119354.30207  23999712.860    98274809.75345
  20053249.060   105380721.07809  20053247.700    82114918.51149
 15 03 26 03 04 30.0000000  0 10G01G03G04G11G14G19G22G27G28G32
  21323522.780   112055912.72709  21323524.100    87316326.22648
  21898976.140   115079992.41909  21898977.980    89672763.89448
  20419447.700   107305049.06009  20419446.380    83614363.41949
  20396429.880   107184008.30209  20396427.280    83520013.59049
  22984546.280   120784692.80408  22984544.820    94117968.43546
  21089333.580   110825230.60509  21089329.900    86357329.33849
  24413942.040   128296198.74906  24413938.660    99971074.05845
  22718532.600   119386756.86608  22718533.640    93028659.14748
  23993580.620   126087119.41007  23993578.820    98249691.65545
  20055266.640   105391323.61409  20055265.300    82123180.23649
 15 03 26 03 05  0.0000000  0 10G01G03G04G11G14G19G22G27G28G32
  21315662.700   112014607.95909  21315664.060    87284140.70448
  21885743.780   115010455.64009  21885745.500    89618579.42648
  20419580.520   107305747.00009  20419579.200    83614907.26649
  20390530.940   107153009.23109  20390528.340    83495858.47049
  22989806.480   120812334.64308  22989804.800    94139507.52846
  21099711.620   110879767.35809  21099707.920    86399825.50149
  24431425.440   128388074.67006  24431422.180   100042665.64845
  22736469.260   119481014.51908  22736470.340    93102106.63748
  23987537.940   126055365.17707  23987536.260    98224948.09745
  20057379.820   105402428.56509  20057378.480    82131833.45749
 15 03 26 03 05 30.0000000  0 10G01G03G04G11G14G19G22G27G28G32
  21307831.260   111973453.49009  21307832.640    87252072.30248
  21872574.740   114941251.36909  21872576.240    89564654.04748
  20419760.500   107306692.82209  20419759.200    83615644.26949
  20384694.540   107122338.68209  20384691.940    83471959.34749
  22995166.400   120840500.66808  22995164.520    94161455.10146
  21110171.800   110934735.89009  21110168.100    86442658.11649
  24448909.760   128479955.52107  24448906.600   100114261.06945
  22754457.580   119575543.62908  22754458.680    93175765.64848
  23981586.540   126024091.09707  23981585.000    98200578.69346
  20059588.080   105414032.97109  20059586.740    82140875.85749
 15 03 26 03 06  0.0000000  0 10G01G03G04G11G14G19G22G27G28G32
  21300027.880   111932446.45109  21300029.240    87220118.76748
  21859468.460   114872376.99509  21859469.740    89510985.72648
  20419987.040   107307883.39009  20419985.740    83616571.97649
  20378920.280   107091994.56509  20378917.660    83448314.57849
  23000625.280   120869187.08208  23000623.200    94183808.15846
  21120713.380   110990132.29909  21120709.680    86485824.13249
  24466394.340   128571836.94906  24466391.080   100185856.98345
  22772496.560   119670339.05908  22772497.720    93249632.17448
  23975725.940   125993294.33007  23975724.600    98176581.22645
  20061890.480   105426132.12809  20061889.100    82150303.77649
 15 03 26 03 06 30.0000000  0 10G01G03G04G11G14G19G22G27G28G32
  21292253.280   111891590.64709  21292254.620    87188283.08848
  21846425.720   114803836.51109  21846426.800    89457577.58348
  20420260.880   107309322.40009  20420259.580    83617693.27849
  20373209.060   107061981.76409  20373206.400    83424927.98249
  23006183.580   120898396.28508  23006181.520    94206568.58646
  21131336.860   111045959.05209  21131333.180    86529325.49549
  24483879.220   128663720.59506  24483875.700   100257454.62345
  22790586.480   119765402.30908  22790587.760    93323707.39948
  23969956.980   125962978.58707  23969955.740    98152958.58044
  20064287.340   105438727.77209  20064285.960    82160118.57449
 15 03 26 03 07  0.0000000  0 10G01G03G04G11G14G19G22G27G28G32
  21284506.920   111850883.34509  21284508.300    87156563.11849
  21833445.960   114735627.37509  21833446.940    89404427.64048
  20420581.480   107311007.20409  20420580.180    83619006.10249
  20367560.460   107032298.15009  20367557.780    83401797.89149
  23011840.560   120928124.41708  23011838.720    94229733.35346
  21142041.440   111102212.16009  21142037.820    86573159.07149
  24501363.540   128755601.76406  24501360.240   100329050.27046
  22808726.460   119860728.39708  22808727.700    93397987.42947
  23964279.220   125933141.51507  23964277.940    98129708.90944
  20066777.840   105451815.44409  20066776.460    82170316.76649
 15 03 26 03 07 30.0000000  0 10G01G03G04G11G14G19G22G27G28G32
  21276789.780   111810329.60609  21276791.200    87124962.81048
  21820530.260   114667754.82109  21820531.220    89351539.96048
  20420949.780   107312942.59709  20420948.480    83620514.19449
  20361975.540   107002949.42809  20361972.860    83378928.76049
  23017597.040   120958375.50508  23017595.380    94253305.62446
  21152827.820   111158895.07209  21152824.260    86617327.55949
  24518848.220   128847483.88106  24518844.840   100400646.71845
  22826917.020   119956320.04608  22826918.120    93472474.39848
  23958693.480   125903788.49307  23958692.220    98106836.42845
  20069362.540   105465398.25509  20069361.200    82180900.77449
 15 03 26 03 08  0.0000000  0 10G01G03G04G11G14G19G22G27G28G32
  21269100.780   111769923.48809  21269102.160    87093477.52848
  21807677.460   114600213.06409  21807678.460    89298910.04248
  20421364.560   107315122.37709  20421363.300    83622212.72049
  20356453.420   106973930.58109  20356450.760    83356316.66949
  23023451.800   120989142.45808  23023450.200    94277279.88446
  21163694.700   111216000.90909  21163691.180    86661825.60249
  24536331.600   128939359.46306  24536328.240   100472238.04244
  22845156.480   120052168.99008  22845157.640    93547161.83548
  23953198.820   125874913.68307  23953197.560    98084336.57345
  20072039.920   105479468.12909  20072038.640    82191864.32149
 15 03 26 03 08 30.0000000  0 10G01G03G04G11G14G19G22G27G28G32
  21261441.180   111729672.04009  21261442.500    87062112.77548
  21794888.920   114533009.25909  21794890.020    89246543.46548
  20421827.160   107317553.48309  20421825.940    83624107.08249
  20350995.540   106945249.24709  20350992.860    83333967.57949
  23029405.800   121020431.09908  23029404.340    94301660.64346
  21174643.120   111273535.16609  21174639.600    86706657.48249
  24553814.640   129031233.28206  24553811.080   100543828.01344
  22863445.820   120148279.97308  22863447.080    93622053.46347
  23947796.500   125846524.04307  23947795.080    98062214.79145
  20074810.960   105494030.18409  20074809.720    82203211.38549
 15 03 26 03 09  0.0000000  0 10G01G03G04G11G14G19G22G27G28G32
  21253810.280   111689571.52609  21253811.580    87030865.62649
  21782164.000   114466139.78109  21782165.240    89194437.40148
  20422336.880   107320232.06109  20422335.640    83626194.28049
  20345601.340   106916902.56309  20345598.640    83311879.25449
  23035458.060   121052236.30508  23035456.740    94326443.93146
  21185672.060   111331492.56909  21185668.560    86751819.08049
  24571296.240   129123099.78406  24571292.780   100615412.26345
  22881783.860   120244646.81608  22881784.960    93697144.47548
  23942485.880   125818615.87107  23942484.220    98040468.16045
  20077674.560   105509078.64309  20077673.340    82214937.46149
 15 03 26 03 09 30.0000000  0 10G01G03G04G11G14G19G22G27G28G32
  21246208.460   111649623.58209  21246209.780    86999737.36848
  21769503.040   114399606.42309  21769504.380    89142593.25348
  20422894.000   107323159.83909  20422892.780    83628475.66349
  20340271.300   106888893.04809  20340268.640    83290053.66249
  23041608.820   121084558.43908  23041607.420    94351630.00546
  21196781.660   111389873.76909  21196778.140    86797310.91449
  24588776.560   129214959.03406  24588772.980   100686990.86446
  22900170.500   120341268.91508  22900171.700    93772434.37947
  23937267.160   125791190.79507  23937265.440    98019097.95245
  20080630.680   105524613.15009  20080629.420    82227042.28449
 15 03 26 03 10  0.0000000  0 10G01G03G04G11G14G19G22G27G28G32
  21238635.780   111609828.73009  21238637.140    86968728.40348
  21756906.200   114333409.72709  21756907.520    89091011.43048
  20423498.560   107326336.83309  20423497.360    83630951.24549
  20335005.620   106861221.65509  20335002.980    83268491.54049
  23047857.760   121117396.63008  23047856.280    94377218.21846
  21207971.720   111448677.72109  21207968.140    86843132.16349
  24606255.300   129306809.70706  24606251.580   100758562.82245
  22918605.320   120438144.32408  22918606.540    93847921.66647
  23932140.460   125764249.52807  23932138.740    97998104.77445
  20083678.980   105540632.15409  20083677.700    82239524.62949
 15 03 26 03 10 30.0000000  0 10G01G03G04G11G14G19G22G27G28G32
  21231092.580   111570188.83609  21231093.920    86937840.18248
  21744373.820   114267551.66009  21744375.100    89039693.47848
  20424150.920   107329764.89009  20424149.700    83633622.45849
  20329804.860   106833891.29009  20329802.180    83247195.15649
  23054205.040   121150751.66207  23054203.560    94403209.15646
  21219242.280   111507904.64309  21219238.620    86889283.00549
  24623732.300   129398651.85206  24623728.560   100830128.07845
  22937088.260   120535272.54808  22937089.460    93923605.95647
  23927106.160   125737793.80907  23927104.340    97977489.91945
  20086819.440   105557135.37709  20086818.140    82252384.29449
 15 03 26 03 11  0.0000000  0 10G01G03G04G11G14G19G22G27G28G32
  21223578.660   111530703.01809  21223579.960    86907072.01348
  21731905.780   114202031.33109  21731907.020    88988638.69548
  20424850.840   107333442.97109  20424849.640    83636488.48949
  20324668.940   106806901.73809  20324666.220    83226164.33049
  23060650.220   121184621.22708  23060648.680    94429601.02346
  21230592.940   111567552.67909  21230589.280    86935761.97649
  24641207.200   129490482.88706  24641203.420   100901684.66944
  22955618.680   120632650.30808  22955619.820    93999484.68847
  23922164.000   125711822.63007  23922162.220    97957252.64745
  20090051.500   105574119.92509  20090050.180    82265619.00649
 15 03 26 03 11 30.0000000  0 10G01G03G04G11G14G19G22G27G28G32
  21216094.260   111491372.30409  21216095.520    86876424.71248
  21719502.200   114136849.86309  21719503.480    88937847.96948
  20425598.500   107337371.85309  20425597.240    83639549.95849
  20319598.220   106780254.70209  20319595.460    83205400.40949
  23067193.140   121219004.97907  23067191.680    94456393.56845
  21242023.600   111627621.10609  21242019.920    86982568.53249
  24658679.800   129582301.95107  24658676.180   100973231.99445
  22974196.300   120730276.20208  22974197.500    94075556.75647
  23917314.220   125686337.00607  23917312.420    97937393.71545
  20093374.940   105591584.60209  20093373.560    82279227.85549
 15 03 26 03 12  0.0000000  0 10G01G03G04G11G14G19G22G27G28G32
  21208639.180   111452195.74909  21208640.480    86845897.53948
  21707162.900   114072006.24609  21707164.200    88887320.50048
  20426393.640   107341550.30809  20426392.340    83642805.89949
  20314592.600   106753949.84609  20314589.820    83184903.12649
  23073833.360   121253900.26507  23073831.980    94483584.69346
  21253533.740   111688107.31009  21253530.100    87029700.62949
  24676149.520   129674106.41706  24676145.880   101044767.90545
  22992820.480   120828146.83908  22992821.680    94151819.55247
  23912556.680   125661335.96707  23912554.640    97917912.38744
  20096789.160   105609526.38309  20096787.760    82293208.47349
 15 03 26 03 12 30.0000000  0 10G01G03G04G11G14G19G22G27G28G32
  21201213.820   111413175.27109  21201215.180    86815491.97449
  21694888.240   114007502.43809  21694889.500    88837057.80948
  20427236.660   107345980.38709  20427235.340    83646257.90249
  20309652.560   106727989.69309  20309649.760    83164674.43049
  23080571.180   121289307.86307  23080569.760    94511175.02146
  21265123.460   111749011.84709  21265119.900    87077158.69049
  24693616.540   129765896.15306  24693612.860   101116292.34644
  23011491.180   120926261.75208  23011492.340    94228272.67747
  23907891.660   125636821.13007  23907889.640    97898809.93245
  20100294.120   105627945.08009  20100292.720    82307560.70449
 15 03 26 03 13  0.0000000  0 10G01G03G04G11G14G19G22G27G28G32
  21193818.000   111374310.25609  21193819.420    86785207.56148
  21682678.120   113943337.81109  21682679.260    88787059.42348
  20428127.380   107350661.07609  20428126.060    83649905.19549
  20304778.200   106702374.76309  20304775.400    83144714.75149
  23087406.160   121325225.58907  23087404.660    94539162.87646
  21276792.400   111810332.57809  21276788.880    87124941.06749
  24711080.320   129857668.79007  24711076.760   101187803.43845
  23030207.700   121024617.83808  23030208.820    94304913.74047
  23903319.120   125612792.00507  23903317.100    97880085.91045
  20103889.240   105646837.86809  20103887.900    82322282.36549
 15 03 26 03 13 30.0000000  0  9G01G03G04G11G14G19G27G28G32
  21186453.540   111335610.03609  21186455.000    86755051.55548
  21670534.220   113879521.63809  21670535.320    88737332.54748
  20429067.480   107355601.38709  20429066.180    83653754.78849
  20299971.340   106677114.67009  20299968.600    83125031.55949
  23094339.740   121361661.65607  23094338.200    94567554.61145
  21288542.040   111872077.38409  21288538.560    87173053.88949
  23048971.420   121123221.94508  23048972.620    94381748.04947
  23898840.600   125589257.56207  23898838.820    97861747.39545
  20107575.960   105666211.91509  20107574.660    82337379.02549
 15 03 26 03 14  0.0000000  0  9G01G03G04G11G14G19G27G28G32
  21179117.360   111297058.23109  21179118.760    86725011.20248
  21658453.520   113816037.48009  21658454.560    88687864.39348
  20430053.860   107360784.88409  20430052.540    83657793.88449
  20295229.040   106652193.86709  20295226.360    83105612.76049
  23101368.360   121398597.36907  23101366.800    94596335.69646
  21300369.000   111934228.26009  21300365.500    87221483.13949
  23067778.800   121222055.18908  23067780.000    94458760.93047
  23894453.060   125566201.19407  23894451.320    97843781.38645
  20111350.720   105686048.54909  20111349.460    82352836.14949
 15 03 26 03 14 30.0000000  0  9G01G03G04G11G14G19G27G28G32
  21171811.380   111258665.07109  21171812.760    86695094.46049
  21646437.900   113752895.44909  21646438.960    88638662.83748
  20431088.480   107366221.79609  20431087.160    83662030.43749
  20290553.360   106627623.05309  20290550.680    83086466.67549
  23108493.800   121436041.67808  23108492.260    94625513.08545
  21312274.840   111996793.81709  21312271.300    87270235.50849
  23086631.280   121321125.36108  23086632.500    94535958.42447
  23890158.360   125543632.82607  23890156.800    97826195.66645
  20115215.040   105706355.76909  20115213.780    82368659.96749
 15 03 26 03 15  0.0000000  0  9G01G03G04G11G14G19G27G28G32
  21164535.980   111220432.64609  21164537.400    86665302.97349
  21634487.820   113690097.61009  21634488.940    88589729.46648
  20432171.620   107371913.64009  20432170.280    83666465.64449
  20285944.840   106603405.24809  20285942.180    83067595.66349
  23115716.240   121473995.38108  23115714.480    94655087.40346
  21324259.640   112059774.39509  21324256.080    87319311.27149
  23105528.800   121420432.04208  23105530.020    94613340.20847
  23885956.840   125521554.33107  23885955.320    97808991.62545
  20119168.940   105727133.49909  20119167.640    82384850.40849
 15 03 26 03 15 30.0000000  0  9G01G03G04G11G14G19G27G28G32
  21157290.300   111182356.08109  21157291.660    86635632.93049
  21622602.280   113627638.93809  21622603.420    88541060.39348
  20433302.360   107377855.68509  20433301.000    83671095.80749
  20281402.700   106579536.32809  20281400.100    83048996.51049
  23123034.320   121512451.88507  23123032.620    94685053.50946
  21336322.140   112123163.33309  21336318.600    87368705.23949
  23124469.900   121519967.79208  23124471.180    94690900.48047
  23881847.660   125499960.52807  23881845.960    97792165.26945
  20123210.980   105748374.50209  20123209.660    82401401.84349
 15 03 26 03 16  0.0000000  0  9G01G03G04G11G14G19G27G28G32
  21150075.300   111144440.73509  21150076.560    86606088.50849
  21610782.280   113565524.65609  21610783.400    88492659.67248
  20434481.640   107384052.86909  20434480.260    83675924.78649
  20276928.080   106556022.01509  20276925.500    83030673.66949
  23130448.680   121551414.62908  23130447.080    94715414.09046
  21348463.140   112186964.90009  21348459.640    87418420.73149
  23143455.120   121619735.47308  23143456.380    94768641.48547
  23877831.720   125478856.42407  23877830.000    97775720.50245
  20127341.800   105770081.82909  20127340.420    82418316.64749
 15 03 26 03 16 30.0000000  0  9G01G03G04G11G14G19G27G28G32
  21142890.920   111106686.48909  21142892.120    86576669.62449
  21599027.780   113503754.52009  21599028.860    88444527.12348
  20435709.420   107390504.95509  20435708.060    83680952.39349
  20272521.100   106532863.03709  20272518.460    83012627.72049
  23137959.100   121590882.50107  23137957.540    94746168.27545
  21360682.340   112251177.20409  21360678.860    87468456.28049
  23162483.940   121719732.41408  23162485.240    94846561.13447
  23873908.840   125458241.47207  23873907.100    97759656.90744
  20131560.900   105792253.19509  20131559.500    82435593.04449
 15 03 26 03 17  0.0000000  0  9G01G03G04G11G14G19G27G28G32
  21135736.760   111069090.99309  21135737.940    86547374.43949
  21587338.320   113442325.99309  21587339.320    88396660.75948
  20436985.200   107397209.23709  20436983.820    83686176.50749
  20268181.340   106510057.41809  20268178.660    82994857.10849
  23145564.860   121630851.12108  23145563.240    94777312.65846
  21372978.880   112315795.75209  21372975.380    87518808.38449
  23181555.480   121819953.69908  23181556.880    94924655.59747
  23870078.660   125438113.26707  23870076.920    97743972.58345
  20135867.380   105814883.86609  20135865.980    82453227.34149
 15 03 26 03 17 30.0000000  0  9G01G03G04G11G14G19G27G28G32
  21128613.040   111031655.74409  21128614.260    86518204.10949
  21575714.200   113381240.39109  21575715.140    88349061.60348
  20438309.240   107404167.14609  20438307.860    83691598.25049
  20263909.260   106487607.43309  20263906.560    82977363.61249
  23153265.960   121671320.17907  23153264.140    94808846.98846
  21385352.760   112380820.56309  21385349.200    87569477.05149
  23200669.400   121920398.24708  23200670.780    95002924.03547
  23866341.340   125418472.54307  23866339.580    97728668.11945
  20140261.100   105837973.03009  20140259.680    82471218.89249
 15 03 26 03 18  0.0000000  0  9G01G03G04G11G14G19G27G28G32
  21121520.280   110994383.14709  21121521.520    86489160.53249
  21564155.680   113320499.89309  21564156.680    88301731.36348
  20439681.940   107411380.76709  20439680.580    83697219.25249
  20259705.380   106465515.83209  20259702.700    82960149.37949
  23161062.340   121712290.42707  23161060.500    94840771.86346
  21397804.060   112446252.23709  21397800.480    87620462.75649
  23219825.820   122021065.88208  23219827.320    95081366.29747
  23862697.160   125399321.46007  23862695.360    97713745.18246
  20144742.080   105861520.63409  20144740.640    82489567.67449
 15 03 26 03 18 30.0000000  0  9G01G03G04G11G14G19G27G28G32
  21114458.580   110957273.87009  21114459.800    86460244.22949
  21552662.880   113260104.99209  21552664.000    88254670.43248
  20441103.400   107418850.51909  20441102.040    83703039.84449
  20255569.920   106443783.99809  20255567.280    82943215.48849
  23168953.860   121753760.77307  23168952.120    94873086.42546
  21410332.540   112512089.78309  21410328.940    87671764.73449
  23239024.380   122121954.68608  23239025.880    95159980.91647
  23859146.000   125380660.32207  23859144.300    97699204.05045
  20149309.980   105885524.99809  20149308.520    82508272.38349
 15 03 26 03 19  0.0000000  0  9G01G03G04G11G14G19G27G28G32
  21107427.840   110920327.09009  21107429.060    86431454.53749
  21541235.620   113200054.61709  21541236.880    88207877.95748
  20442573.400   107426575.41809  20442572.040    83709059.24849
  20251502.900   106422411.85009  20251500.260    82926561.87349
  23176940.040   121795728.64007  23176938.480    94905788.66046
  21422937.680   112578330.53209  21422934.140    87723380.88849
  23258264.380   122223061.22708  23258265.820    95238765.18547
  23855687.800   125362487.59707  23855686.200    97685043.48145
  20153964.200   105909982.92609  20153962.700    82527330.51749
 15 03 26 03 19 30.0000000  0  9G01G03G04G11G14G19G27G28G32
  21100428.340   110883544.45609  21100429.600    86402792.74649
  21529874.200   113140350.12509  21529875.500    88161354.98448
  20444092.180   107434556.75609  20444090.840    83715278.46049
  20247504.700   106401401.31409  20247502.080    82910190.01949
  23185020.820   121838193.71207  23185019.320    94938878.32146
  21435619.560   112644974.47209  21435616.100    87775311.20849
  23277545.640   122324384.53308  23277547.080    95317718.35547
  23852322.760   125344804.52607  23852321.200    97671264.45345
  20158704.560   105934893.68109  20158703.040    82546741.49149
 15 03 26 03 20  0.0000000  0  9G01G03G04G11G14G19G27G28G32
  21093460.020   110846925.73009  21093461.300    86374258.68649
  21518578.520   113080991.05009  21518579.820    88115101.17848
  20445659.700   107442794.19509  20445658.400    83721697.24749
  20243575.400   106380753.02709  20243572.860    82894100.45049
  23193195.880   121881154.13407  23193194.420    94972353.98046
  21448377.780   112712019.56709  21448374.420    87827554.12949
  23296867.580   122425921.74708  23296868.940    95396838.21747
  23849050.760   125327610.35207  23849049.340    97657866.39745
  20163530.560   105960254.57609  20163529.020    82566503.23049
 15 03 26 03 20 30.0000000  0  9G01G03G04G11G14G19G27G28G32
  21086522.720   110810470.26409  21086524.040    86345851.84149
  21507348.380   113021976.44709  21507349.720    88069115.79348
  20447275.820   107451286.80009  20447274.540    83728314.86149
  20239715.020   106360466.88709  20239712.520    82878293.06449
  23201464.780   121924607.28907  23201463.240    95006213.57846
  21461211.880   112779463.09709  21461208.500    87880107.51749
  23316229.560   122527669.58408  23316230.980    95476122.19447
  23845871.560   125310904.01407  23845870.160    97644848.45345
  20168441.620   105986062.51809  20168440.080    82586613.31649
 15 03 26 03 21  0.0000000  0  9G01G03G04G11G14G19G27G28G32
  21079617.340   110774182.30509  21079618.660    86317575.52449
  21496184.500   112963310.23209  21496185.920    88023401.88448
  20448941.180   107460038.33909  20448939.940    83735134.24349
  20235924.480   106340547.48309  20235921.960    82862771.45549
  23209827.900   121968555.48208  23209826.260    95040458.91946
  21474122.280   112847307.61809  21474118.900    87932973.36549
  23335631.900   122629629.61308  23335633.400    95555571.52947
  23842785.880   125294688.95807  23842784.500    97632213.34545
  20173438.080   106012319.22709  20173436.540    82607073.09749
 15 03 26 03 21 30.0000000  0  9G01G03G04G11G14G19G27G28G32
  21072743.340   110738059.12809  21072744.680    86289427.59849
  21485086.400   112904989.39909  21485087.820    87977957.09448
  20450655.300   107469046.10509  20450654.040    83742153.27549
  20232203.320   106320992.68409  20232200.800    82847533.94349
  23218284.340   122012994.31607  23218282.540    95075086.58845
  21487108.080   112915548.41509  21487104.720    87986147.99649
  23355073.660   122731796.48408  23355075.040    95635182.03447
  23839793.120   125278961.90107  23839791.600    97619958.49145
  20178518.980   106039019.68909  20178517.480    82627878.64449
