     2.11           OBSERVATION DATA    M                   RINEX VERSION / TYPE
SPIDER V4,0,0,3554                      2015 03 27 00:22    PGM / RUN BY / DATE 
CBCK                                                        MARKER NAME         
CBCK                                                        MARKER NUMBER       
                                                            OBSERVER / AGENCY   
496514              LEICA GRX1200+GNSS  8.10/4.007          REC # / TYPE / VERS 
10301041            LEIAR25         NONE                    ANT # / TYPE        
  5163536.5817   764112.4203  3655122.7607                  APPROX POSITION XYZ 
        0.0720        0.0000        0.0000                  ANTENNA: DELTA H/E/N
     1     1                                                WAVELENGTH FACT L1/2
     4    C1    L1    P2    L2                              # / TYPES OF OBSERV 
    30.000                                                  INTERVAL            
  2015    03    26    00    00    0.0000000     GPS         TIME OF FIRST OBS   
  2015    03    26    23    59   30.0000000     GPS         TIME OF LAST OBS    
    16                                                      LEAP SECONDS        
    39                                                      # OF SATELLITES     
   G 1   808   808   808   808                              PRN / # OF OBS      
   G 2   937   922   931   922                              PRN / # OF OBS      
   G 3   858   857   857   857                              PRN / # OF OBS      
   G 4   844   844   844   844                              PRN / # OF OBS      
   G 5   713   709   711   708                              PRN / # OF OBS      
   G 6   843   838   842   838                              PRN / # OF OBS      
   G 7   681   681   681   681                              PRN / # OF OBS      
   G 9   817   817   816   816                              PRN / # OF OBS      
   G10   753   752   752   752                              PRN / # OF OBS      
   G11   769   769   769   769                              PRN / # OF OBS      
   G12   831   818   825   817                              PRN / # OF OBS      
   G13   757   756   756   756                              PRN / # OF OBS      
   G14   911   894   901   891                              PRN / # OF OBS      
   G15   658   658   658   658                              PRN / # OF OBS      
   G16   659   658   658   657                              PRN / # OF OBS      
   G17   939   939   937   937                              PRN / # OF OBS      
   G18   888   877   861   858                              PRN / # OF OBS      
   G19   755   754   754   754                              PRN / # OF OBS      
   G20   717   717   717   717                              PRN / # OF OBS      
   G21   708   703   702   699                              PRN / # OF OBS      
   G22   664   651   640   636                              PRN / # OF OBS      
   G23   763   763   763   763                              PRN / # OF OBS      
   G24   789   769   780   768                              PRN / # OF OBS      
   G25   831   810   826   810                              PRN / # OF OBS      
   G27   801   799   799   799                              PRN / # OF OBS      
   G28   843   842   842   842                              PRN / # OF OBS      
   G29   740   722   735   722                              PRN / # OF OBS      
   G30   729   729   729   729                              PRN / # OF OBS      
   G31   833   815   821   809                              PRN / # OF OBS      
   G32   777   777   777   777                              PRN / # OF OBS      
   R 1    30    30    30    30                              PRN / # OF OBS      
   R 2    10    10     9     9                              PRN / # OF OBS      
   R 8    30    30    30    30                              PRN / # OF OBS      
   R13    28    28    28    28                              PRN / # OF OBS      
   R14    30    30    30    30                              PRN / # OF OBS      
   R15    30    30    30    30                              PRN / # OF OBS      
   R17    24    24    24    24                              PRN / # OF OBS      
   R23    30    30    30    30                              PRN / # OF OBS      
   R24    30    30    30    30                              PRN / # OF OBS      
BIT 2 OF LLI FLAGS DATA COLLECTED UNDER A/S CONDITION       COMMENT             
SNR is mapped to RINEX snr flag value [2-9]                 COMMENT             
Lx:     = 25dBHz -> 1; 26-27dBHz -> 2; 28-31dBHz -> 3       COMMENT             
       32-35dBHz -> 4; 36-38dBHz -> 5; 39-41dBHz -> 6       COMMENT             
       42-44dBHz -> 7; 45-48dBHz -> 8; >=49dBHz -> 9        COMMENT             
                                                            END OF HEADER       
 15 03 26 00 00  0.0000000  0 14G04G16G18G19G21G22G27R01R08R13R14R15
                                R23R24
  23926823.680   125736326.33808  23926825.300    97976373.70946
  20658087.440   108559018.59109  20658084.680    84591453.75549
  21669485.420   113874218.01409  21669482.880    88733277.85448
  22490581.200   118188831.48009  22490577.120    92095191.56948
  23623070.900   124140465.45308  23623068.180    96732989.50446
  20815896.200   109388379.10609  20815891.360    85237721.75948
  20873371.160   109690366.26909  20873370.520    85473030.81149
  20756064.340   110953163.48209  20756069.300    86296943.92807
  20847573.160   111637899.40408  20847573.660    86829524.13008
  23148574.000   123612081.69506  23148580.640    96142740.72806
  21400331.540   114075830.11808  21400337.640    88725673.73606
  22832749.400   122011291.52908  22832753.220    94897687.03106
  20912356.200   111867256.82709  20912360.200    87007978.40506
  20496653.640   109604900.96608  20496653.460    85248289.75007
 15 03 26 00 00 30.0000000  0 14G04G16G18G19G21G22G27R01R08R13R14R15
                                R23R24
  23910096.420   125648424.37708  23910097.820    97907878.89345
  20662699.920   108583257.36609  20662697.160    84610341.09848
  21675979.900   113908346.90309  21675977.400    88759871.79748
  22477199.640   118118511.16709  22477195.520    92040396.55347
  23636071.420   124208783.30308  23636068.740    96786224.15146
  20809463.840   109354577.26509  20809459.120    85211382.68648
  20865492.180   109648962.05809  20865491.520    85440767.79349
  20739283.120   110863458.10809  20739287.940    86227173.15807
  20852696.000   111665331.53008  20852696.320    86850860.24108
  23171117.680   123732462.06306  23171124.080    96236369.60706
  21409728.040   114125917.88108  21409734.200    88764630.84406
  22824168.060   121965435.07608  22824171.860    94862020.92606
  20919253.240   111904152.19309  20919257.500    87036674.78107
  20490519.740   109572100.18708  20490519.520    85222778.02707
 15 03 26 00 01  0.0000000  0 14G04G16G18G19G21G22G27R01R08R13R14R15
                                R23R24
  23893401.600   125560692.63208  23893402.760    97839516.74645
  20667421.040   108608067.40509  20667418.360    84629673.59648
  21682562.120   113942936.22409  21682559.560    88786824.52748
  22463838.700   118048298.67309  22463834.380    91985685.53547
  23649075.580   124277120.36708  23649072.960    96839473.80046
  20803128.220   109321284.33209  20803123.720    85185440.17848
  20857655.820   109607782.07309  20857655.180    85408679.51449
  20722606.120   110774309.83809  20722610.780    86157835.68707
  20857966.820   111693556.07608  20857967.000    86872812.67808
  23193677.720   123852929.73806  23193684.060    96330066.37506
  21419254.640   114176699.33207  21419260.860    88804127.49506
  22815721.160   121920297.12008  22815724.960    94826913.64506
  20926183.260   111941223.51309  20926187.700    87065508.01607
  20484412.600   109539442.34608  20484412.400    85197377.50107
 15 03 26 00 01 30.0000000  0 14G04G16G18G19G21G22G27R01R08R13R14R15
                                R23R24
  23876738.760   125473129.38408  23876739.720    97771285.85745
  20672250.280   108633445.76009  20672247.740    84649448.92249
  21689231.400   113977982.90409  21689228.720    88814133.63048
  22450497.860   117978192.50809  22450493.560    91931057.37148
  23662082.780   124345473.69108  23662080.160    96892736.10146
  20796889.100   109288498.66209  20796884.800    85159892.92748
  20849861.900   109566825.19409  20849861.380    85376765.07549
  20706033.580   110685720.37309  20706038.240    86088932.85107
  20863384.860   111722569.11008  20863385.040    86895378.37808
  23216252.800   123973477.55006  23216259.120    96423825.47906
  21428910.220   114228168.69008  21428916.400    88844159.17406
  22807408.480   121875876.38508  22807412.080    94792364.18406
  20933145.900   111978468.68509  20933150.200    87094476.46706
  20478331.840   109506925.53008  20478331.680    85172086.65607
 15 03 26 00 02  0.0000000  0 14G04G16G18G19G21G22G27R01R08R13R14R15
                                R23R24
  23860108.100   125385735.47208  23860108.920    97703186.91245
  20677187.620   108659392.13509  20677185.180    84669666.85848
  21695987.440   114013485.91909  21695984.660    88841798.32148
  22437177.460   117908194.33009  22437173.440    91876513.36748
  23675092.880   124413842.54808  23675090.260    96946010.51345
  20790746.860   109256221.55609  20790742.580    85134741.95648
  20842110.840   109526093.25909  20842110.460    85345025.91149
  20689566.340   110597694.09409  20689571.060    86020468.04207
  20868950.020   111752370.05108  20868950.200    86918556.89608
  23238842.140   124094101.72606  23238848.560    96517643.92506
  21438694.380   114280323.47307  21438700.440    88884723.97006
  22799230.360   121832174.74308  22799233.780    94758374.00606
  20940141.340   112015888.77809  20940145.440    87123580.96706
  20472277.640   109474550.80908  20472277.420    85146906.33107
 15 03 26 00 02 30.0000000  0 14G04G16G18G19G21G22G27R01R08R13R14R15
                                R23R24
  23843509.820   125298511.80008  23843510.560    97635220.59445
  20682233.120   108685906.54809  20682230.740    84690327.42348
  21702830.100   114049444.20609  21702827.300    88869817.77248
  22423877.780   117838305.03009  22423874.040    91822054.19548
  23688105.900   124482226.77408  23688103.300    96999296.88246
  20784701.700   109224454.37309  20784697.440    85109988.33248
  20834402.960   109485587.85809  20834402.620    85313463.26749
  20673205.280   110510235.50109  20673210.060    85952444.76307
  20874661.960   111782957.59708  20874662.240    86942347.20908
  23261444.840   124214797.85306  23261451.400    96611518.35207
  21448606.380   114333160.44807  21448612.520    88925819.35506
  22791187.060   121789194.08608  22791190.480    94724944.60606
  20947169.400   112053484.42209  20947173.540    87152821.99606
  20466250.200   109442319.10108  20466249.860    85121837.21807
 15 03 26 00 03  0.0000000  0 15G04G16G18G19G21G22G27R01R08R13R14R15
                                R17R23R24
  23826944.160   125211459.61708  23826944.880    97567387.90745
  20687386.760   108712988.94609  20687384.420    84711430.57248
  21709759.260   114085857.31309  21709756.540    88898191.62048
  22410599.200   117768526.38109  22410595.660    91767681.24448
  23701121.920   124550626.44708  23701119.360    97052595.30046
  20778753.900   109193198.64409  20778749.640    85085633.23848
  20826738.620   109445311.10109  20826738.220    85282078.77949
  20656951.320   110423349.25109  20656956.200    85884866.64307
  20880520.680   111814331.37908  20880521.160    86966749.04808
  23284060.260   124335562.19706  23284067.040    96705445.83407
  21458645.860   114386676.74707  21458652.120    88967443.10206
  22783279.120   121746937.13908  22783282.560    94692078.07906
  23589271.500   126230946.96007  23589273.340    98179635.87706
  20954230.580   112091257.55409  20954234.840    87182201.08006
  20460249.800   109410231.97408  20460249.400    85096880.56607
 15 03 26 00 03 30.0000000  0 15G04G16G18G19G21G22G27R01R08R13R14R15
                                R17R23R24
  23810410.620   125124576.11408  23810411.180    97499686.61545
  20692647.720   108740635.25209  20692645.320    84732973.13348
  21716774.120   114122720.60909  21716771.420    88926916.27448
  22397341.340   117698856.17909  22397337.860    91713392.79648
  23714140.220   124619037.67108  23714137.640    97105902.70846
  20772903.000   109162451.83609  20772898.640    85061674.70748
  20819117.360   109405261.08609  20819116.940    85250870.98849
  20640804.540   110337035.85409  20640809.440    85817734.07807
  20886525.340   111846486.72808  20886526.000    86991758.76808
  23306687.140   124456387.17906  23306694.160    96799420.43406
  21468811.680   114440866.03407  21468818.020    89009590.27806
  22775506.340   121705402.68108  22775509.980    94659773.49606
  23574991.700   126154534.40407  23574993.460    98120203.96806
  20961324.540   112129205.09809  20961328.780    87211715.81606
  20454275.880   109378286.58908  20454275.560    85072034.16207
 15 03 26 00 04  0.0000000  0 15G04G16G18G19G21G22G27R01R08R13R14R15
                                R17R23R24
  23793909.360   125037862.18508  23793909.600    97432117.46544
  20698015.920   108768845.24409  20698013.460    84754954.93348
  21723874.440   114160032.88009  21723871.680    88955990.77348
  22384104.500   117629295.74209  22384101.000    91659189.87048
  23727160.740   124687459.92008  23727157.940    97159218.73546
  20767149.180   109132215.09709  20767144.760    85038113.64348
  20811539.440   109365439.41509  20811539.060    85219841.12449
  20624765.760   110251299.93309  20624770.600    85751050.65907
  20892675.820   111879422.38408  20892676.440    87017375.39108
  23329324.620   124577268.67806  23329331.800    96893439.01506
  21479103.140   114495725.14007  21479109.400    89052258.44006
  22767869.020   121664591.49208  22767872.940    94628031.46106
  23560704.780   126078082.35407  23560706.200    98060741.32905
  20968451.340   112167328.07609  20968455.540    87241366.99407
  20448328.520   109346483.84008  20448328.380    85047298.70607
 15 03 26 00 04 30.0000000  0 15G04G16G18G19G21G22G27R01R08R13R14R15
                                R17R23R24
  23777441.040   124951321.33108  23777441.220    97364683.14445
  20703491.880   108797621.24009  20703489.360    84777377.77348
  21731060.520   114197795.42809  21731057.560    88985416.14148
  22370889.240   117559848.66709  22370885.660    91605075.28748
  23740183.840   124755896.05708  23740181.000    97212545.57546
  20761493.240   109102492.49309  20761488.760    85014953.19548
  20804005.740   109325850.52909  20804005.540    85188992.64849
  20608836.300   110166148.25509  20608841.100    85684821.63407
  20898972.420   111913140.08908  20898972.960    87043600.28108
  23351972.460   124698205.39306  23351979.740    96987500.51606
  21489520.160   114551253.77107  21489526.400    89095447.33206
  22760368.080   121624509.16008  22760372.240    94596856.32407
  23546410.960   126001593.79807  23546412.340    98001250.24606
  20975611.600   112205630.35809  20975615.860    87271157.63907
  20442408.560   109314827.66108  20442408.520    85022677.24207
 15 03 26 00 05  0.0000000  0 15G04G16G18G19G21G22G27R01R08R13R14R15
                                R17R23R24
  23761005.920   124864955.04308  23761006.200    97297384.82645
  20709075.560   108826963.42409  20709073.040    84800241.79449
  21738332.320   114236008.59809  21738329.220    89015192.63948
  22357696.000   117490517.37909  22357692.380    91551050.92648
  23753209.400   124824345.77708  23753206.620    97265882.97846
  20755935.440   109073285.71609  20755930.840    84992194.69148
  20796516.880   109286496.77209  20796516.840    85158327.38549
  20593017.020   110081585.51109  20593021.780    85619050.67507
  20905414.980   111947639.19908  20905415.380    87070432.92208
  23374629.880   124819193.52906  23374637.200    97081602.01706
  21500062.180   114607448.88607  21500068.440    89139154.59406
  22753004.020   121585157.60508  22753008.220    94566249.55706
  23532110.380   125925069.53807  23532111.840    97941731.43005
  20982805.720   112244113.29209  20982810.020    87301088.78307
  20436516.360   109283319.69508  20436516.340    84998171.04507
 15 03 26 00 05 30.0000000  0 15G04G16G18G19G21G22G27R01R08R13R14R15
                                R17R23R24
  23744603.720   124778761.92008  23744604.120    97230221.46445
  20714766.440   108856869.07209  20714763.900    84823544.88648
  21745689.180   114274669.19509  21745686.120    89045317.78648
  22344524.620   117421300.58709  22344520.880    91497115.78348
  23766237.160   124892806.69508  23766234.340    97319229.12546
  20750475.540   109044593.60009  20750470.840    84969837.23048
  20789072.760   109247377.57609  20789072.720    85127844.90749
  20577308.420   109997613.89709  20577313.060    85553739.48907
  20912002.860   111982916.52008  20912003.200    87097870.84308
  23397295.780   124940226.70206  23397303.200    97175738.51006
  21510728.300   114664305.85907  21510734.620    89183376.65506
  22745776.460   121546535.69708  22745780.460    94536210.29106
  23517802.780   125848507.44907  23517804.180    97882183.21705
  20990033.360   112282775.72809  20990037.520    87331159.55006
  20430651.700   109251958.79208  20430651.660    84973779.23507
 15 03 26 00 06  0.0000000  0 15G04G16G18G19G21G22G27R01R08R13R14R15
                                R17R23R24
  23728234.160   124692739.87408  23728234.580    97163191.34645
  20720563.840   108887334.63809  20720561.320    84847284.27048
  21753130.260   114313772.51609  21753127.240    89075787.89648
  22331374.720   117352196.70809  22331370.740    91443268.61248
  23779266.460   124961275.75008  23779263.520    97372581.61346
  20745113.200   109016414.17909  20745108.460    84947879.26048
  20781673.120   109208491.63809  20781672.980    85097544.17349
  20561710.660   109914234.62909  20561715.200    85488889.00907
  20918735.120   112018967.41308  20918735.420    87125910.42708
  23419968.800   125061298.08506  23419976.380    97269904.73206
  21521517.480   114721818.12707  21521523.860    89228108.37306
  22738685.340   121508642.15108  22738689.220    94506737.51806
  23503487.620   125771904.69007  23503488.800    97822603.32605
  20997294.060   112321615.38209  20997298.120    87361368.14906
  20424814.020   109220742.60208  20424814.060    84949499.98007
 15 03 26 00 06 30.0000000  0 15G04G16G18G19G21G22G27R01R08R13R14R15
                                R17R23R24
  23711898.440   124606895.09208  23711898.780    97096299.33846
  20726468.700   108918365.21509  20726466.300    84871463.92449
  21760656.480   114353323.10309  21760653.440    89106606.53748
  22318247.540   117283212.31209  22318243.340    91389514.55048
  23792298.220   125029757.93508  23792295.300    97425944.32446
  20739849.680   108988754.35309  20739844.960    84926326.17548
  20774319.200   109169846.16709  20774319.000    85067430.82249
  20546225.620   109831457.70809  20546230.060    85424507.02807
  20925612.600   112055796.33308  20925612.840    87154555.14808
  23442649.320   125182409.06406  23442656.840    97364101.75306
  21532430.000   114779988.19607  21532436.460    89273351.72306
  22731731.880   121471484.67508  22731735.720    94477837.24307
  23489166.020   125695267.27407  23489167.280    97762996.49706
  21004589.080   112360639.12709  21004593.140    87391719.92606
  20419004.620   109189677.89908  20419004.700    84925338.55707
 15 03 26 00 07  0.0000000  0 15G04G16G18G19G21G22G27R01R08R13R14R15
                                R17R23R24
  23695595.420   124521221.82308  23695595.600    97029540.94845
  20732479.780   108949953.71409  20732477.380    84896078.32248
  21768266.320   114393313.42109  21768263.320    89137767.82447
  22305142.060   117214342.46609  22305137.720    91335849.74748
  23805331.140   125098246.30508  23805328.320    97479311.86146
  20734683.880   108961608.15909  20734679.240    84905173.31748
  20767010.040   109131436.29309  20767009.760    85037501.05849
  20530852.700   109749280.54909  20530857.120    85360591.52007
  20932633.900   112093395.08108  20932634.120    87183798.63208
  23465335.380   125303549.27606  23465342.880    97458321.49406
  21543464.080   114838805.75607  21543470.600    89319098.66506
  22724915.220   121435058.35308  22724919.120    94449505.64907
  23474836.800   125618588.46107  23474838.020    97703357.47306
  21011917.380   112399840.94909  21011921.440    87422210.21306
  20413222.480   109158759.10708  20413222.600    84901290.61607
 15 03 26 00 07 30.0000000  0 15G04G16G18G19G21G22G27R01R08R13R14R15
                                R17R23R24
  23679325.980   124435724.75008  23679326.100    96962919.85545
  20738597.720   108982103.54609  20738595.300    84921130.12148
  21775960.260   114433745.96909  21775957.400    89169273.70547
  22292059.300   117145592.21909  22292054.880    91282278.13448
  23818365.880   125166744.45708  23818363.160    97532686.99945
  20729616.760   108934980.53909  20729612.220    84884424.54548
  20759746.700   109093267.43109  20759746.400    85007759.09049
  20515593.340   109667710.52709  20515597.760    85297148.22607
  20939799.440   112131766.30308  20939799.780    87213642.91308
  23488026.760   125424718.08306  23488034.320    97552563.43906
  21554619.700   114898271.30407  21554626.280    89365349.60506
  22718236.200   121399367.81008  22718240.180    94421746.35007
  23460500.620   125541872.21408  23460501.840    97643689.32606
  21019280.000   112439225.88709  21019284.000    87452842.92806
  20407468.680   109127991.10508  20407468.940    84877359.96707
 15 03 26 00 08  0.0000000  0 15G04G16G18G19G21G22G27R01R08R13R14R15
                                R17R23R24
  23663089.960   124350403.39208  23663090.020    96896435.66245
  20744822.100   109014812.88609  20744819.720    84946617.89848
  21783737.940   114474618.75709  21783735.280    89201122.62348
  22278999.360   117076961.85809  22278994.920    91228799.94748
  23831402.080   125235250.83608  23831399.500    97586068.56146
  20724648.400   108908871.54409  20724643.860    84864079.90048
  20752529.400   109055340.23709  20752529.100    84978205.43449
  20500448.120   109586751.23709  20500452.680    85234179.94807
  20947108.700   112170907.40108  20947109.160    87244085.98708
  23510722.460   125545910.27206  23510730.180    97646823.54006
  21565896.100   114958380.71007  21565902.660    89412101.31506
  22711694.920   121364413.90108  22711698.980    94394559.99307
  23446157.260   125465117.67808  23446158.580    97583991.39006
  21026676.760   112478793.70109  21026680.760    87483617.87406
  20401743.180   109097373.91508  20401743.440    84853546.60107
 15 03 26 00 08 30.0000000  0 15G04G16G18G19G21G22G27R01R08R13R14R15
                                R17R23R24
  23646887.940   124265261.23408  23646888.080    96830091.09446
  20751153.280   109048083.56409  20751150.960    84972543.07948
  21791599.720   114515933.12309  21791597.160    89233315.62447
  22265962.960   117008455.18209  22265958.520    91175418.11748
  23844440.240   125303767.95208  23844437.920    97639458.48245
  20719779.360   108883284.31909  20719774.760    84844141.82548
  20745358.920   109017658.88709  20745358.640    84948843.33549
  20485418.360   109506409.15309  20485423.020    85171691.71007
  20954562.000   112210819.39608  20954562.480    87275128.64108
  23533422.320   125667124.65605  23533430.160    97741100.92506
  21577293.180   115019133.22907  21577299.660    89459353.23106
  22705292.380   121330200.88808  22705296.500    94367949.87107
  23431807.240   125388327.77208  23431808.600    97524265.95506
  21034108.460   112518548.13809  21034112.500    87514537.96206
  20396046.540   109066910.93108  20396046.700    84829853.16507
 15 03 26 00 09  0.0000000  0 15G04G16G18G19G21G22G27R01R08R13R14R15
                                R17R23R24
  23630719.060   124180293.36208  23630719.240    96763882.35845
  20757590.200   109081909.57309  20757587.860    84998900.99248
  21799544.380   114557682.21509  21799541.760    89265847.38347
  22252949.200   116940067.80009  22252944.920    91122129.26948
  23857479.340   125372289.71008  23857477.160    97692852.03745
  20715008.700   108858214.37109  20715004.100    84824606.82548
  20738234.500   108980219.51809  20738234.160    84919669.80149
  20470503.720   109426682.50609  20470508.440    85109682.15607
  20962157.780   112251495.31008  20962158.460    87306765.46308
  23556124.420   125788351.07606  23556132.540    97835387.59306
  21588809.200   115080519.60307  21588815.560    89507098.13206
  22699027.660   121296723.86908  22699031.760    94341912.19707
  23417449.520   125311496.96408  23417451.000    97464508.70706
  21041574.040   112558483.88209  21041578.100    87545599.07206
  20390377.800   109036597.61208  20390377.960    84806276.14307
 15 03 26 00 09 30.0000000  0 15G04G16G18G19G21G22G27R01R08R13R14R15
                                R17R23R24
  23614583.660   124095501.04708  23614583.760    96697810.42145
  20764132.720   109116290.27509  20764130.280    85025691.13848
  21807571.580   114599864.80309  21807568.860    89298716.94247
  22239958.420   116871801.39009  22239954.240    91068934.67248
  23870519.460   125440816.19508  23870517.160    97746249.28845
  20710336.680   108833662.96709  20710332.060    84805475.88748
  20731156.460   108943024.12209  20731156.100    84890686.38449
  20455705.020   109347575.86909  20455709.760    85048154.82807
  20969896.000   112292933.58408  20969896.800    87338995.23208
  23578828.300   125909586.30706  23578836.460    97929681.15906
  21600443.520   115142536.93107  21600449.920    89555333.79306
  22692901.100   121263985.30808  22692905.220    94316448.88107
  23403084.200   125234625.61208  23403085.620    97404719.92006
  21049073.820   112598602.61909  21049077.800    87576802.51706
  20384737.360   109006435.66608  20384737.720    84782816.86607
 15 03 26 00 10  0.0000000  0 16G04G16G18G19G21G22G27R01R02R08R13R14
                                R15R17R23R24
  23598481.720   124010884.45508  23598481.800    96631875.41245
  20770780.640   109151224.75509  20770778.040    85052912.79548
  21815681.020   114642479.79609  21815678.240    89331923.43247
  22226990.820   116803657.19809  22226986.780    91015835.31448
  23883560.540   125509346.78408  23883558.180    97799649.72046
  20705763.420   108809630.74109  20705758.820    84786749.49448
  20724125.000   108906073.96309  20724124.660    84861894.04849
  20441023.000   109269092.55009  20441027.660    84987112.29207
  23566797.720   125756951.11708                                
  20977776.360   112335132.40208  20977777.160    87371816.53508
  23601533.080   126030825.83206  23601541.120    98023978.04706
  21612195.320   115205180.85907  21612202.000    89604056.79806
  22686912.860   121231985.88808  22686917.040    94291560.46507
  23388711.280   125157713.48908  23388712.740    97344899.43406
  21056607.860   112638904.95209  21056611.880    87608148.74906
  20379125.300   108976425.40008  20379125.700    84759475.54607
 15 03 26 00 10 30.0000000  0 16G04G16G18G19G21G22G27R01R02R08R13R14
                                R15R17R23R24
  23582414.320   123926449.44108  23582414.320    96566081.89245
  20777534.660   109186717.35109  20777532.020    85080569.35548
  21823873.340   114685530.71209  21823870.560    89365469.59548
  22214047.640   116735641.39009  22214043.760    90962836.00548
  23896603.300   125577886.40908  23896601.020    97853057.17946
  20701290.100   108786123.80109  20701285.560    84768432.42248
  20717141.540   108869375.88509  20717141.220    84833298.14349
  20426459.280   109191241.93509  20426464.100    84926561.87007
  23541703.540   125623044.41508  23541714.020    97706853.55307
  20985799.380   112378095.25608  20985800.160    87405232.10108
  23624238.820   126152070.74706  23624246.800    98118279.12706
  21624065.200   115268453.80707  21624071.980    89653269.03706
  22681064.160   121200731.88808  22681068.240    94267251.80407
  23374331.780   125080766.35408  23374333.180    97285051.70606
  21064177.420   112679396.75009  21064181.440    87639642.34907
  20373542.760   108946573.22108  20373543.100    84736257.19307
 15 03 26 00 11  0.0000000  0 16G04G16G18G19G21G22G27R01R02R08R13R14
                                R15R17R23R24
  23566380.840   123842192.94508  23566380.780    96500427.48645
  20784393.940   109222763.43109  20784391.340    85108657.18948
  21832147.760   114729012.85409  21832144.920    89399351.78348
  22201128.440   116667751.25509  22201124.720    90909934.62248
  23909646.920   125646430.67208  23909644.580    97906468.26046
  20696916.180   108763138.62709  20696911.560    84750521.92048
  20710205.680   108832927.71909  20710205.420    84804896.97049
  20412013.980   109114024.00909  20412018.880    84866503.52807
  23516609.560   125489139.82408  23516620.240    97602706.29106
  20993964.020   112421816.72808  20993964.800    87439237.68208
  23646944.020   126273313.07706  23646952.100    98212578.15906
  21636051.680   115332347.95807  21636058.360    89702964.43006
  22675354.460   121170220.34908  22675358.220    94243520.60507
  23359945.020   125003780.16508  23359946.400    97225173.61306
  21071781.880   112720075.40109  21071786.000    87671281.26806
  20367989.260   108916876.37808  20367989.680    84713159.64807
 15 03 26 00 11 30.0000000  0 16G04G16G18G19G21G22G27R01R02R08R13R14
                                R15R17R23R24
  23550381.120   123758113.79908  23550381.060    96434911.28945
  20791358.180   109259360.56009  20791355.540    85137174.41848
  21840503.500   114772922.32709  21840500.600    89433566.95347
  22188233.100   116599986.28509  22188229.520    90857130.76448
  23922691.080   125714977.51208  23922688.540    97959881.35645
  20692641.380   108740674.28109  20692636.660    84733017.25148
  20703317.360   108796729.12909  20703317.120    84776690.28149
  20397687.480   109037440.81609  20397692.380    84806938.87307
  23491516.160   125355239.51508  23491527.060    97498562.37406
  21002269.600   112466292.82008  21002270.360    87473830.18908
  23669647.600   126394547.11806  23669655.820    98306870.70305
  21648153.580   115396857.47607  21648160.180    89753138.45406
  22669783.660   121140451.06108  22669787.140    94220366.71407
  23345550.620   124926753.17308  23345551.980    97165263.78706
  21079420.980   112760939.43709  21079425.140    87703064.37906
  20362464.760   108887333.91208  20362465.040    84690182.18307
 15 03 26 00 12  0.0000000  0 16G04G16G18G19G21G22G27R01R02R08R13R14
                                R15R17R23R24
  23534415.700   123674215.03508  23534415.700    96369535.65346
  20798427.600   109296510.47609  20798424.980    85166122.38048
  21848940.740   114817260.69109  21848937.980    89468116.32547
  22175362.360   116532350.47709  22175358.980    90804427.56548
  23935736.160   125783529.25808  23935733.440    98013298.28246
  20688466.320   108718734.31309  20688461.580    84715921.19348
  20696477.400   108760784.49809  20696477.140    84748681.47749
  20383480.960   108961498.73709  20383485.780    84747872.85707
  23466424.780   125221350.72108  23466435.900    97394427.51907
  21010716.360   112511524.75808  21010717.060    87509010.58008
  23692349.340   126515771.04405  23692357.860    98401155.39406
  21660370.860   115461981.88007  21660377.340    89803790.72306
  22664352.340   121111427.72308  22664355.940    94197793.03807
  23331149.180   124849688.50407  23331150.660    97105324.67006
  21087095.500   112801992.91009  21087099.660    87734994.83606
  20356969.880   108857949.81108  20356970.060    84667327.88707
 15 03 26 00 12 30.0000000  0 16G04G16G18G19G21G22G27R01R02R08R13R14
                                R15R17R23R24
  23518484.500   123590496.23708  23518484.440    96304300.25145
  20805601.700   109334210.55509  20805599.040    85195499.05148
  21857459.160   114862025.50509  21857456.420    89502997.99947
  22162516.280   116464843.97009  22162512.960    90751825.11348
  23948781.740   125852083.85208  23948778.900    98066717.42845
  20684390.880   108697317.67909  20684386.120    84699232.92748
  20689685.780   108725093.93609  20689685.520    84720870.65049
  20369394.820   108886200.03209  20369399.520    84689307.24307
  23441335.840   125087475.20408  23441347.120    97290302.94106
  21019303.700   112557508.98008  21019304.380    87544776.09208
  23715048.300   126636979.76805  23715057.020    98495428.27006
  21672702.540   115527715.97607  21672708.900    89854917.18806
  22659060.400   121083149.18408  22659064.060    94175798.62307
  23316740.440   124772584.78207  23316741.860    97045355.15006
  21094805.340   112843235.01509  21094809.440    87767072.01106
  20351504.500   108828723.46308  20351504.680    84644596.28907
 15 03 26 00 13  0.0000000  0 16G04G16G18G19G21G22G27R01R02R08R13R14
                                R15R17R23R24
  23502587.580   123506957.56108  23502587.500    96239205.18745
  20812880.280   109372459.65109  20812877.580    85225303.52748
  21866058.380   114907214.78009  21866055.640    89538210.41747
  22149695.000   116397467.44509  22149691.580    90699323.93948
  23961827.760   125920640.83708  23961824.900    98120138.42746
  20680415.160   108676424.89009  20680410.360    84682952.85248
  20682942.720   108689658.74909  20682942.400    84693258.82049
  20355429.780   108811548.38709  20355434.280    84631244.89407
  23416250.200   124953617.04808  23416261.460    97186191.79506
  21028031.040   112604243.23208  21028031.720    87581124.95208
  23737743.520   126758168.77405  23737752.340    98589685.74206
  21685147.740   115594055.56407  21685153.960    89906514.58906
  22653908.080   121055616.97808  22653911.840    94154384.68907
  23302324.340   124695441.65307  23302325.740    96985354.99906
  21102550.500   112884666.17409  21102554.640    87799296.20806
  20346068.640   108799655.53008  20346068.820    84621987.90507
 15 03 26 00 13 30.0000000  0 16G04G16G18G19G21G22G27R01R02R08R13R14
                                R15R17R23R24
  23486725.340   123423601.39308  23486725.260    96174252.35745
  20820263.500   109411258.77309  20820260.820    85255536.59148
  21874738.520   114952829.14709  21874735.740    89573754.07747
  22136899.020   116330224.04509  22136895.620    90646926.51148
  23974874.420   125989201.35908  23974871.680    98173562.16746
  20676539.560   108656058.30209  20676534.740    84667082.79948
  20676248.880   108654482.36909  20676248.520    84665848.65249
  20341586.760   108737549.10809  20341591.120    84573689.95207
  23391168.900   124819782.08908  23391180.080    97082098.63906
  21036898.440   112651727.51808  21036899.020    87618057.17508
  23760434.440   126879335.78405  23760443.780    98683926.04206
  21697706.140   115660998.94607  21697712.400    89958581.60406
  22648895.960   121028834.09408  22648899.700    94133553.57007
  23287901.220   124618261.40607  23287902.740    96925325.98706
  21110331.620   112926289.50709  21110335.740    87831669.87606
  20340662.900   108770748.92508  20340663.060    84599504.98707
 15 03 26 00 14  0.0000000  0 15G04G16G18G19G21G22G27R01R02R08R14R15
                                R17R23R24
  23470897.260   123340424.87008  23470897.320    96109439.52145
  20827750.480   109450603.35509  20827747.840    85286194.68648
  21883498.500   114998863.02209  21883495.560    89609624.62947
  22124128.020   116263111.57509  22124124.420    90594631.09248
  23987921.180   126057762.47408  23987918.560    98226986.38246
  20672763.560   108636215.36609  20672758.740    84651620.78649
  20669603.940   108619563.04709  20669603.540    84638638.79149
  20327865.860   108664202.61509  20327870.060    84516642.72007
  23366092.280   124685971.02208  23366103.240    96978023.98106
  21045904.900   112699956.26408  21045905.400    87655568.42108
  21710376.380   115728538.61207  21710382.880    90011112.38506
  22644023.520   121002797.60208  22644027.300    94113302.97907
  23273470.480   124541040.74107  23273472.200    96865265.52606
  21118148.000   112968101.99009  21118152.100    87864190.68006
  20335286.920   108742001.62508  20335287.220    84577145.97907
 15 03 26 00 14 30.0000000  0 15G04G16G18G19G21G22G27R01R02R08R14R15
                                R17R23R24
  23455104.080   123257431.54608  23455104.280    96044769.44545
  20835341.700   109490495.43309  20835339.100    85317279.40848
  21892338.720   115045318.80409  21892335.700    89645823.93647
  22111382.820   116196134.53709  22111379.060    90542441.21348
  24000968.460   126126326.37308  24000965.960    98280412.76446
  20669087.820   108616899.00209  20669082.960    84636569.09248
  20663008.740   108584905.05809  20663008.300    84611632.56749
  20314268.260   108591515.21709  20314272.220    84460108.12307
  23341021.500   124552190.66008  23341032.180    96873973.12806
  21055050.480   112748930.19608  21055050.940    87693659.26608
  21723158.400   115796674.14507  21723165.100    90064106.64006
  22639291.360   120977510.88908  22639295.300    94093635.54507
  23259032.840   124463782.34208  23259034.540    96805175.69106
  21126000.500   113010107.69609  21126004.580    87896861.76506
  20329941.320   108713416.93608  20329941.740    84554913.44707
 15 03 26 00 15  0.0000000  0  7G04G16G18G19G21G22G27
  23439345.160   123174618.21708  23439345.320    95980239.63445
  20843036.160   109530930.12509  20843033.560    85348786.93948
  21901258.080   115092190.82509  21901255.200    89682347.58447
  22098662.820   116129289.91009  22098658.980    90490354.50948
  24014015.380   126194888.41808  24014012.880    98333837.70246
  20665511.800   108598106.64309  20665506.920    84621925.71849
  20656462.960   108550506.28709  20656462.400    84584828.33649
 15 03 26 00 15 30.0000000  0  7G04G16G18G19G21G22G27
  23423621.580   123091990.47708  23423621.640    95915854.44045
  20850834.600   109571911.40309  20850832.100    85380720.38548
  21910257.400   115139482.73609  21910254.640    89719198.41647
  22085969.260   116062584.33209  22085965.220    90438376.15748
  24027062.900   126263453.60108  24027060.460    98387265.06646
  20662036.460   108579843.68109  20662031.580    84607694.85149
  20649967.800   108516373.46009  20649967.160    84558231.32849
 15 03 26 00 16  0.0000000  0  7G04G16G18G19G21G22G27
  23407932.280   123009542.76808  23407932.340    95851609.53045
  20858735.740   109613432.39809  20858733.340    85413074.38848
  21919335.240   115187186.96009  21919332.500    89756370.54347
  22073301.240   115996012.84109  22073296.860    90386502.28048
  24040109.920   126332015.98608  24040107.460    98440690.29345
  20658660.740   108562104.52909  20658655.920    84593872.15349
  20643522.340   108482502.16809  20643521.740    84531838.12049
 15 03 26 00 16 30.0000000  0  7G04G16G18G19G21G22G27
  23392278.120   122927279.49408  23392278.180    95787508.32746
  20866740.040   109655495.27009  20866737.640    85445850.63448
  21928491.980   115235305.66209  21928489.280    89793865.63347
  22060659.700   115929580.54309  22060655.160    90334736.86348
  24053156.980   126400578.67808  24053154.380    98494115.72845
  20655385.400   108544892.85009  20655380.620    84580460.47048
  20637127.520   108448897.49409  20637127.020    84505652.65949
 15 03 26 00 17  0.0000000  0  7G04G16G18G19G21G22G27
  23376658.680   122845198.38608  23376658.560    95723549.09445
  20874846.820   109698096.49209  20874844.360    85479046.36948
  21937726.800   115283834.92409  21937724.220    89831680.64047
  22048044.300   115863286.25009  22048039.740    90283078.99548
  24066203.460   126469138.48308  24066200.800    98547538.91745
  20652210.240   108528207.04609  20652205.380    84567458.56148
  20630783.160   108415558.42709  20630782.740    84479674.16849
 15 03 26 00 17 30.0000000  0  7G04G16G18G19G21G22G27
  23361074.520   122763302.81008  23361074.300    95659734.41745
  20883056.380   109741237.60609  20883053.860    85512662.80748
  21947039.840   115332775.46109  21947037.320    89869816.12047
  22035455.780   115797133.71209  22035451.320    90231531.58748
  24079249.860   126537697.99008  24079247.280    98600961.88046
  20649135.740   108512050.03709  20649130.820    84554868.70549
  20624490.160   108382489.29809  20624489.800    84453906.02149
 15 03 26 00 18  0.0000000  0  7G04G16G18G19G21G22G27
  23345525.740   122681593.24808  23345525.480    95596064.66846
  20891368.400   109784917.19809  20891365.880    85546698.82448
  21956430.920   115382125.74109  21956428.340    89908270.88147
  22022894.520   115731124.27009  22022890.280    90180095.67748
  24092296.160   126606256.79908  24092293.740    98654384.28545
  20646161.960   108496422.38209  20646156.980    84542691.31748
  20618248.880   108349691.59109  20618248.580    84428349.36149
 15 03 26 00 18 30.0000000  0  7G04G16G18G19G21G22G27
  23330011.840   122600067.47408  23330011.640    95532538.15246
  20899782.080   109829131.46609  20899779.680    85581151.48048
  21965899.160   115431881.38609  21965896.460    89947041.51847
  22010360.280   115665256.66509  22010356.000    90128770.29148
  24105341.760   126674811.86308  24105339.400    98707803.77945
  20643288.160   108481320.72909  20643283.220    84530923.81448
  20612059.120   108317164.37209  20612058.880    84403003.48249
 15 03 26 00 19  0.0000000  0  7G04G16G18G19G21G22G27
  23314533.280   122518727.57908  23314533.160    95469156.47246
  20908297.560   109873880.61609  20908295.200    85616020.93348
  21975444.620   115482042.94109  21975441.840    89986128.44447
  21997853.540   115599533.42109  21997849.300    90077557.40448
  24118386.860   126743364.19208  24118384.560    98761221.14545
  20640515.120   108466748.53909  20640510.160    84519568.87549
  20605921.340   108284910.46209  20605921.120    84377870.57149
 15 03 26 00 19 30.0000000  0  7G04G16G18G19G21G22G27
  23299090.160   122437573.81108  23299090.140    95405919.82146
  20916914.620   109919163.37509  20916912.240    85651306.17748
  21985066.820   115532608.17709  21985064.000    90025529.92047
  21985374.540   115533955.69209  21985370.340    90026457.89348
  24131431.440   126811913.58108  24131429.040    98814636.22545
  20637842.740   108452705.24209  20637837.820    84508626.06149
  20599835.800   108252931.31209  20599835.680    84352951.75749
 15 03 26 00 20  0.0000000  0  7G04G16G18G19G21G22G27
  23283682.260   122356604.84508  23283682.340    95342827.18846
  20925632.580   109964976.30109  20925630.100    85687004.53848
  21994765.080   115583573.15309  21994762.280    90065242.88547
  21972923.140   115468523.01709  21972918.920    89975471.41048
  24144475.060   126880457.65008  24144472.580    98868047.16345
  20635270.700   108439189.46709  20635265.800    84498094.30248
  20593802.500   108221226.57909  20593802.460    84328246.77249
 15 03 26 00 20 30.0000000  0  7G04G16G18G19G21G22G27
  23268310.220   122275824.59208  23268310.340    95279881.59546
  20934451.940   110011321.93309  20934449.360    85723117.99548
  22004540.000   115634940.76209  22004537.280    90105269.58547
  21960500.300   115403240.61009  21960496.140    89924602.01648
  24157518.260   126948999.72408  24157515.800    98921456.53245
  20632799.640   108426204.22209  20632794.720    84487975.94448
  20587822.460   108189801.59609  20587822.440    84303759.76849
 15 03 26 00 21  0.0000000  0  7G04G16G18G19G21G22G27
  23252973.820   122195231.67308  23252973.840    95217081.99246
  20943372.000   110058196.49409  20943369.320    85759643.61348
  22014390.840   115686707.14209  22014388.160    90145607.02147
  21948105.800   115338107.31209  21948101.600    89873848.82848
  24170560.560   127017537.62508  24170558.200    98974862.64845
  20630429.420   108413748.70309  20630424.500    84478270.36748
  20581895.560   108158655.72109  20581895.560    84279490.25749
 15 03 26 00 21 30.0000000  0  7G04G16G18G19G21G22G27
  23237673.040   122114826.14908  23237673.040    95154428.42546
  20952392.420   110105598.67209  20952389.720    85796580.34848
  22024317.160   115738870.05909  22024314.360    90186253.45047
  21935739.880   115273124.30009  21935735.600    89823212.72948
  24183601.880   127086070.77908  24183599.600    99028265.08945
  20628159.940   108401822.55709  20628155.100    84468977.27749
  20576022.120   108127790.29909  20576022.120    84255439.28349
 15 03 26 00 22  0.0000000  0  8G04G16G18G19G21G22G27G32
  23222408.300   122034610.51008  23222408.480    95091922.83746
  20961513.260   110153528.94209  20961510.600    85833928.58248
  22034318.980   115791429.80709  22034316.100    90227209.09447
  21923403.200   115208295.04809  21923398.980    89772696.44948
  24196642.640   127154600.77408  24196640.400    99081665.05345
  20625991.540   108390427.89309  20625986.800    84460098.33649
  20570202.800   108097208.92509  20570202.720    84231609.64749
  24485330.880   128671289.61508  24485337.020   100263352.32745
 15 03 26 00 22 30.0000000  0  8G04G16G18G19G21G22G27G32
  23207178.140   121954576.36508  23207178.460    95029558.66646
  20970732.640   110201977.30809  20970730.040    85871680.53348
  22044394.200   115844375.59809  22044391.360    90268465.55047
  21911094.280   115143611.82009  21911090.160    89722293.95648
  24209681.160   127223118.54608  24209679.000    99135055.49645
  20623922.520   108379555.63009  20623917.840    84451626.45749
  20564436.120   108066904.21209  20564435.960    84207995.59049
  24462678.180   128552251.16708  24462684.480   100170595.90645
 15 03 26 00 23  0.0000000  0  8G04G16G18G19G21G22G27G32
  23191984.680   121874734.74008  23191985.080    94967344.48946
  20980052.340   110250952.70109  20980049.760    85909843.15448
  22054544.720   115897717.13209  22054541.840    90310030.38047
  21898815.440   115079086.59009  21898811.420    89672014.57348
  24222719.380   127291634.42908  24222717.200    99188444.46945
  20621955.020   108369217.06209  20621950.440    84443570.44649
  20558724.380   108036888.34609  20558724.180    84184606.61549
  24440034.640   128433260.73908  24440040.800   100077876.82945
 15 03 26 00 23 30.0000000  0  8G04G16G18G19G21G22G27G32
  23176827.180   121795082.00208  23176827.520    94905277.50546
  20989471.280   110300449.63809  20989468.760    85948412.16848
  22064769.380   115951448.21409  22064766.520    90351898.75247
  21886566.240   115014716.72809  21886562.240    89621856.24948
  24235756.340   127360143.86708  24235754.160    99241828.41345
  20620088.280   108359408.02909  20620083.840    84435927.05249
  20553067.120   108007158.78909  20553066.860    84161440.71949
  24417399.860   128314316.87607  24417406.060    99985194.00245
 15 03 26 00 24  0.0000000  0  8G04G16G18G19G21G22G27G32
  23161706.120   121715620.60608  23161706.420    94843359.62545
  20998989.640   110350468.65609  20998987.120    85987388.00748
  22075068.140   116005568.72409  22075065.400    90394070.56947
  21874347.200   114950505.46309  21874343.180    89571821.51148
  24248792.460   127428648.92408  24248790.120    99295208.97445
  20618322.900   108350130.94409  20618318.520    84428698.16949
  20547464.980   107977719.09509  20547464.700    84138500.70149
  24394774.700   128195424.15308  24394781.080    99892550.97744
 15 03 26 00 24 30.0000000  0  8G04G16G18G19G21G22G27G32
  23146620.640   121636345.94708  23146620.740    94781587.23545
  21008606.120   110401003.02609  21008603.540    86026765.41448
  22085439.860   116060072.43009  22085437.180    90436540.98247
  21862157.740   114886449.18109  21862153.680    89521907.53448
  24261826.640   127497143.92608  24261824.420    99348581.68045
  20616657.840   108341380.58509  20616653.420    84421879.71949
  20541917.280   107948565.78009  20541917.020    84115783.83449
  24372158.820   128076580.43808  24372165.260    99799946.05845
 15 03 26 00 25  0.0000000  0  8G04G16G18G19G21G22G27G32
  23131571.620   121557263.03408  23131571.540    94719964.28746
  21018321.320   110452056.02709  21018318.600    86066546.95948
  22095885.060   116114962.40309  22095882.380    90479312.38147
  21849998.900   114822553.99309  21849994.640    89472119.09648
  24274859.680   127565633.22408  24274857.700    99401949.93945
  20615093.880   108333161.72509  20615089.400    84415475.43449
  20536425.220   107919704.98009  20536424.920    84093294.90649
  24349553.820   127957792.88108  24349560.220    99707384.81245
 15 03 26 00 25 30.0000000  0  8G04G16G18G19G21G22G27G32
  23116558.480   121478369.01308  23116558.340    94658488.50646
  21028134.220   110503623.11709  21028131.480    86106729.08448
  22106402.800   116170233.40009  22106400.080    90522380.68047
  21837870.320   114758817.60509  21837865.980    89422454.38648
  24287890.960   127634113.27808  24287889.180    99455310.98446
  20613630.380   108325470.99609  20613625.860    84409482.67549
  20530988.540   107891135.03109  20530988.200    84071032.61049
  24326959.600   127839061.13808  24326965.760    99614867.02344
 15 03 26 00 26  0.0000000  0  8G04G16G18G19G21G22G27G32
  23101581.600   121399665.41108  23101581.560    94597161.10646
  21038044.740   110555703.43309  21038042.040    86147311.12448
  22116993.000   116225884.64609  22116990.160    90565745.28947
  21825772.480   114695242.75309  21825768.100    89372915.55348
  24300920.760   127702585.26008  24300919.000    99508665.73646
  20612267.580   108318309.64709  20612263.080    84403902.41749
  20525607.780   107862858.57609  20525607.340    84048999.00749
  24304376.800   127720389.14708  24304382.660    99522395.82345
 15 03 26 00 26 30.0000000  0  8G04G16G18G19G21G22G27G32
  23086640.860   121321151.82508  23086640.900    94535981.78746
  21048052.380   110608294.36709  21048049.820    86188291.05448
  22127655.060   116281913.73409  22127652.200    90609404.31747
  21813705.460   114631829.92709  21813701.180    89323502.97648
  24313948.820   127771047.97508  24313946.940    99562013.26545
  20611005.360   108311676.36809  20611000.760    84398733.64849
  20520282.960   107834876.37409  20520282.480    84027194.69549
  24281805.780   127601778.72108  24281811.340    99429972.64945
 15 03 26 00 27  0.0000000  0  8G04G16G18G19G21G22G27G32
  23071736.780   121242830.56708  23071736.920    94474952.31246
  21058157.320   110661396.50809  21058154.880    86229669.32148
  22138388.880   116338320.57809  22138386.080    90653357.69647
  21801669.800   114568582.21009  21801665.660    89274219.05848
  24326975.320   127839502.77907  24326973.340    99615354.62245
  20609844.060   108305573.36909  20609839.420    84393978.08349
  20515014.680   107807191.64709  20515014.260    84005622.17849
  24259247.280   127483234.35208  24259252.620    99337600.96445
 15 03 26 00 27 30.0000000  0  8G04G16G18G19G21G22G27G32
  23056869.480   121164702.31708  23056869.640    94414073.23146
  21068359.380   110715008.29009  21068356.860    86271444.70848
  22149194.300   116395103.60909  22149191.520    90697604.20347
  21789665.900   114505501.67309  21789661.800    89225065.39948
  24340000.360   127907950.13908  24339998.340    99668690.20845
  20608783.760   108300001.40309  20608779.100    84389636.30149
  20509803.460   107779806.40109  20509803.080    83984283.02249
  24236701.900   127364759.10408  24236707.000    99245283.14245
 15 03 26 00 28  0.0000000  0  8G04G16G18G19G21G22G27G32
  23042038.320   121086763.98508  23042038.360    94353342.14746
  21078657.560   110769125.12709  21078654.940    86313613.64848
  22160070.380   116452258.02909  22160067.680    90742140.10647
  21777693.380   114442586.06609  21777689.440    89176040.26548
  24353023.440   127976386.52908  24353021.340    99722017.23745
  20607823.700   108294956.38709  20607819.020    84385705.13149
  20504648.880   107752718.73209  20504648.540    83963175.74749
  24214169.540   127246352.24308  24214174.440    99153018.58045
 15 03 26 00 28 30.0000000  0  8G04G16G18G19G21G22G27G32
  23027243.820   121009018.12108  23027243.660    94292761.02846
  21089051.880   110823747.32909  21089049.180    86356176.38148
  22171017.180   116509783.71209  22171014.460    90786965.31447
  21765752.940   114379838.98709  21765749.040    89127146.45648
  24366044.820   128044813.42308  24366042.580    99775336.84945
  20606964.320   108290440.54409  20606959.660    84382186.31249
  20499551.620   107725932.38909  20499551.280    83942303.28149
  24191651.040   127128018.60508  24191655.880    99060811.09345
 15 03 26 00 29  0.0000000  0  8G04G16G18G19G21G22G27G32
  23012485.800   120931464.45208  23012485.600    94232329.66946
  21099541.880   110878872.50409  21099539.140    86399131.04648
  22182034.200   116567678.44809  22182031.460    90832078.09347
  21753844.680   114317260.88709  21753840.780    89078384.31348
  24379064.260   128113230.04108  24379061.740    99828648.46545
  20606205.560   108286452.96009  20606200.840    84379079.12249
  20494511.860   107699448.10909  20494511.480    83921666.18349
  24169146.780   127009760.21708  24169151.520    98968662.24045
 15 03 26 00 29 30.0000000  0  8G04G16G18G19G21G22G27G32
  22997764.440   120854103.72708  22997764.320    94172048.66746
  21110127.200   110934498.88809  21110124.520    86442476.24848
  22193121.120   116625940.64609  22193118.420    90877477.19647
  21741968.940   114254853.82609  21741965.020    89029755.44848
  24392081.680   128181636.49508  24392078.980    99881952.15345
  20605547.400   108282993.85409  20605542.540    84376383.72149
  20489529.880   107673267.73209  20489529.520    83901265.88349
  24146657.480   126891580.09808  24146662.180    98876574.32745
 15 03 26 00 30  0.0000000  0  8G04G16G18G19G21G22G27G32
  22983079.700   120776935.42608  22983079.640    94111917.60746
  21120807.480   110990624.42809  21120804.920    86486210.41248
  22204277.480   116684567.67109  22204274.820    90923160.58647
  21730125.980   114192618.40109  21730122.020    88981260.32648
  24405096.960   128250031.70708  24405094.040    99935247.10245
  20604989.500   108280062.07509  20604984.620    84374099.22649
  20484605.820   107647392.04009  20484605.500    83881103.01549
  24124183.460   126773480.15208  24124188.020    98784548.88445
 15 03 26 00 30 30.0000000  0  8G04G16G18G19G21G22G27G32
  22968431.800   120699960.51208  22968431.700    94051937.23046
  21131582.500   111047247.89709  21131580.060    86530332.56548
  22215503.020   116743558.37609  22215500.360    90969127.36847
  21718316.120   114130556.55609  21718311.980    88932900.45948
  24418110.180   128318416.19308  24418107.200    99988533.68845
  20604532.000   108277658.57909  20604527.260    84372226.39149
  20479740.120   107621823.30809  20479739.880    83861179.32949
  24101725.360   126655463.86808  24101729.680    98692588.61745
 15 03 26 00 31  0.0000000  0  8G04G16G18G19G21G22G27G32
  22953821.240   120623181.59308  22953821.100    93992109.57146
  21142452.380   111104369.69109  21142449.940    86574843.01548
  22226797.900   116802913.29809  22226795.280    91015377.94147
  21706539.960   114068671.75009  21706535.620    88884678.53248
  24431121.660   128386791.87408  24431118.500   100041813.42345
  20604175.360   108275784.86209  20604170.720    84370766.35249
  20474933.540   107596565.09009  20474933.380    83841497.59549
  24079284.060   126537535.96708  24079288.220    98600697.17145
 15 03 26 00 31 30.0000000  0  9G04G11G16G18G19G21G22G27G32
  22939247.400   120546596.07308  22939247.380    93932432.63646
  24617320.660   129364894.67008  24617319.800   100803806.21044
  21153416.200   111161984.82809  21153413.720    86619737.91148
  22238161.100   116862627.45609  22238158.480    91061908.46347
  21694797.160   114006962.38609  21694792.680    88836593.33248
  24444130.880   128455155.51108  24444127.740   100095083.79644
  20603919.080   108274438.12809  20603914.440    84369716.97149
  20470185.880   107571616.00309  20470185.780    83822056.76049
  24056859.480   126419696.33208  24056863.680    98508874.51945
 15 03 26 00 32  0.0000000  0  9G04G11G16G18G19G21G22G27G32
  22924711.220   120470208.26208  22924711.100    93872909.74746
  24600436.340   129276166.92808  24600435.440   100734667.77344
  21164474.340   111220095.71209  21164471.820    86665019.09448
  22249593.060   116922703.14809  22249590.540    91108720.68647
  21683088.860   113945434.51309  21683084.320    88788649.54548
  24457138.520   128523511.14108  24457135.440   100148347.90944
  20603763.780   108273622.06509  20603759.080    84369081.09249
  20465498.140   107546981.68609  20465498.060    83802861.18949
  24034453.040   126301951.73908  24034457.200    98417125.89945
 15 03 26 00 32 30.0000000  0  9G04G11G16G18G19G21G22G27G32
  22910211.100   120394009.79108  22910210.820    93813534.39046
  24583560.940   129187485.97908  24583559.660   100665565.79444
  21175624.740   111278691.99809  21175622.360    86710678.50748
  22261091.680   116983129.26109  22261089.280    91155805.96347
  21671413.560   113884080.45709  21671409.100    88740841.20448
  24470142.860   128591849.88508  24470140.100   100201598.84945
  20603707.740   108273327.36009  20603702.960    84368851.47349
  20460868.940   107522654.81609  20460868.760    83783905.18249
  24012063.580   126184296.08808  24012067.680    98325446.56645
 15 03 26 00 33  0.0000000  0  9G04G11G16G18G19G21G22G27G32
  22895748.600   120318009.36108  22895748.260    93754313.35146
  24566696.020   129098860.47308  24566694.500   100596506.99344
  21186868.700   111337779.64609  21186866.420    86756720.79848
  22272658.280   117043912.56909  22272655.820    91203169.57147
  21659773.040   113822909.82709  21659768.680    88693175.79648
  24483145.520   128660179.77608  24483142.940   100254842.89045
  20603752.440   108273562.04009  20603747.600    84369034.34449
  20456300.140   107498645.20809  20456299.860    83765196.39649
  23989693.100   126066740.43708  23989697.240    98233845.16445
 15 03 26 00 33 30.0000000  0  9G04G11G16G18G19G21G22G27G32
  22881323.160   120242203.86108  22881322.980    93695244.20046
  24549841.060   129010287.78007  24549839.680   100527489.40244
  21198205.360   111397353.72609  21198203.040    86803142.13448
  22284291.940   117105048.02809  22284289.520    91250807.58547
  21648167.000   113761920.61309  21648162.820    88645651.75248
  24496145.860   128728497.09808  24496143.500   100308077.14645
  20603897.120   108274322.63809  20603892.340    84369627.03049
  20451791.360   107474951.06009  20451790.980    83746733.41849
  23967341.540   125949284.17808  23967345.720    98142321.20145
 15 03 26 00 34  0.0000000  0  9G04G11G16G18G19G21G22G27G32
  22866934.720   120166592.37108  22866934.640    93636326.24946
  24532995.880   128921766.67408  24532994.580   100458512.01544
  21209634.020   111457411.10409  21209631.620    86849940.06648
  22295992.020   117166532.25809  22295989.600    91298717.37147
  21636595.640   113701113.37809  21636591.540    88598269.50648
  24509143.580   128796800.64507  24509141.240   100361300.65345
  20604141.500   108275607.32809  20604136.800    84370628.10449
  20447342.580   107451572.61309  20447342.200    83728516.45849
  23945009.140   125831928.76008  23945013.380    98050875.82445
 15 03 26 00 34 30.0000000  0  9G04G11G16G18G19G21G22G27G32
  22852583.740   120091177.39408  22852583.560    93577561.38946
  24516161.100   128833299.93607  24516159.780   100389576.94645
  21221154.680   111517951.97609  21221152.200    86897114.74648
  22307758.520   117228365.62309  22307756.140    91346899.20347
  21625059.600   113640491.50409  21625055.640    88551031.70048
  24522139.060   128865092.41707  24522136.860   100414514.96945
  20604486.100   108277418.42609  20604481.460    84372039.36549
  20442954.480   107428513.44109  20442954.220    83710548.27249
  23922696.920   125714679.03408  23922701.120    97959512.78846
 15 03 26 00 35  0.0000000  0  9G04G11G16G18G19G21G22G27G32
  22838270.140   120015958.73708  22838269.820    93518949.52846
  24499336.600   128744887.56407  24499335.360   100320684.28945
  21232766.840   111578974.18609  21232764.380    86944664.50348
  22319590.960   117290545.83509  22319588.660    91395351.30647
  21613559.080   113580056.16409  21613555.100    88503939.24348
  24535132.160   128933371.95507  24535130.140   100467719.76345
  20604930.720   108279755.02809  20604926.100    84373860.12149
  20438627.440   107405774.81609  20438627.220    83692829.87549
  23900405.260   125597537.30408  23900409.300    97868233.90746
 15 03 26 00 35 30.0000000  0  9G04G11G16G18G19G21G22G27G32
  22823993.820   119940936.34808  22823993.420    93460490.59546
  24482522.500   128656529.48108  24482521.320   100251833.94744
  21244469.980   111640475.04909  21244467.660    86992587.22548
  22331488.980   117353070.29409  22331486.620    91444071.66047
  21602094.180   113519808.13609  21602090.320    88456992.74248
  24548122.740   129001638.39907  24548120.920   100520914.32945
  20605475.100   108282615.68509  20605470.460    84376089.21249
  20434361.580   107383357.43609  20434361.300    83675361.78549
  23878134.620   125480505.67808  23878138.440    97777040.78445
 15 03 26 00 36  0.0000000  0  9G04G11G16G18G19G21G22G27G32
  22809754.720   119866109.58008  22809754.300    93402184.08446
  24465718.600   128568224.84308  24465717.480   100183025.25944
  21256263.660   111702451.53909  21256261.420    87040880.56948
  22343452.060   117415936.20809  22343449.640    91493058.07847
  21590665.140   113459748.04909  21590661.140    88410192.68948
  24561110.620   129069890.60008  24561108.980   100574097.81846
  20606119.040   108285999.26609  20606114.280    84378725.78549
  20430157.000   107361262.12009  20430156.660    83658144.66049
  23855885.380   125363586.12808  23855888.960    97685935.00046
 15 03 26 00 36 30.0000000  0  9G04G11G16G18G19G21G22G27G32
  22795552.900   119791478.84308  22795552.420    93344030.32746
  24448925.080   128479974.57008  24448923.940   100114258.89144
  21268147.620   111764902.25709  21268145.400    87089543.44048
  22355479.800   117479141.81909  22355477.320    91542309.19347
  21579272.220   113399877.54809  21579268.120    88363540.36748
  24574095.920   129138128.64208  24574094.240   100627270.28445
  20606862.500   108289905.72309  20606857.620    84381769.79649
  20426014.000   107339490.47909  20426013.640    83641179.75349
  23833657.980   125246781.39608  23833661.340    97594918.66045
 15 03 26 00 37  0.0000000  0  9G04G11G16G18G19G21G22G27G32
  22781388.720   119717045.91408  22781388.220    93286030.71346
  24432142.200   128391780.49008  24432141.040   100045536.36344
  21280121.660   111827826.26709  21280119.460    87138575.11648
  22367572.160   117542686.77009  22367569.520    91591824.73747
  21567915.900   113340199.41009  21567911.720    88317037.94548
  24587078.820   129206353.70308  24587076.980   100680432.65445
  20607705.620   108294335.69709  20607700.620    84385221.74449
  20421933.140   107318045.40209  20421932.780    83624469.30549
  23811453.260   125130095.69008  23811456.340    97503995.06345
 15 03 26 00 37 30.0000000  0  9G04G11G16G18G19G21G22G27G32
  22767262.100   119642810.64508  22767261.700    93228185.11546
  24415370.040   128303642.56708  24415368.680    99976857.54945
  21292185.440   111891221.44409  21292183.180    87187973.93048
  22379728.580   117606568.71809  22379725.820    91641602.88247
  21556596.480   113280714.99209  21556592.180    88270686.46048
  24600059.200   129274565.60308  24600057.280   100733584.75545
  20608648.220   108299288.56809  20608643.100    84389081.13049
  20417914.680   107296928.16209  20417914.320    83608014.31849
  23789271.660   125013531.57008  23789274.520    97413166.20845
 15 03 26 00 38  0.0000000  0  9G04G11G16G18G19G21G22G27G32
  22753172.820   119568771.49108  22753172.440    93170492.33146
  24398608.340   128215559.10208  24398606.940    99908221.16344
  21304338.100   111955083.61009  21304335.740    87237736.62648
  22391948.200   117670783.32009  22391945.420    91691640.22147
  21545313.720   113221423.53509  21545309.380    88224485.33348
  24613036.660   129342762.13708  24613034.660   100786724.88145
  20609689.800   108304762.03909  20609684.620    84393346.18349
  20413958.440   107276138.09109  20413958.080    83591814.25649
  23767113.260   124897089.61208  23767115.960    97322432.52746
 15 03 26 00 38 30.0000000  0  9G04G11G16G18G19G21G22G27G32
  22739121.260   119494930.54108  22739120.900    93112953.99046
  24381857.420   128127532.67108  24381856.080    99839629.24444
  21316579.620   112019412.84209  21316577.200    87287863.27448
  22404231.240   117735331.22809  22404228.500    91741937.29647
  21534068.280   113162328.63609  21534064.080    88178437.38248
  24626011.560   129410945.06908  24626009.480   100839854.40745
  20610830.580   108310757.13909  20610825.400    84398017.70649
  20410065.160   107255678.62709  20410064.760    83575871.82349
  23744978.940   124780774.42008  23744981.600    97231797.63745
 15 03 26 00 39  0.0000000  0  9G04G11G16G18G19G21G22G27G32
  22725107.460   119421287.63809  22725107.080    93055569.97146
  24365117.340   128039563.03008  24365115.800    99771081.54644
  21328909.480   112084206.34709  21328907.040    87338351.69948
  22416577.120   117800209.19409  22416574.360    91792491.55147
  21522860.480   113103431.44909  21522856.400    88132543.48548
  24638983.700   129479113.40508  24638981.520   100892972.57744
  20612070.380   108317272.72109  20612065.220    84403094.80349
  20406235.020   107235550.70409  20406234.560    83560187.72949
  23722869.060   124664588.15508  23722871.880    97141263.22745
 15 03 26 00 39 30.0000000  0 10G04G11G14G16G18G19G21G22G27G32
  22711131.380   119347842.95808  22711130.960    92998340.41846
  24348388.140   127951650.99308  24348386.640    99702578.75045
  24673837.480   129661889.38708  24673839.340   101035247.69545
  21341327.320   112149462.42609  21341324.880    87389200.56148
  22428985.560   117865416.17309  22428982.780    91843302.17647
  21511690.580   113044733.22609  21511686.500    88086804.63048
  24651953.120   129547267.73608  24651950.800   100946079.84444
  20613409.060   108324308.29909  20613404.040    84408577.08849
  20402468.260   107215756.07309  20402467.760    83544763.34949
  23700784.300   124548533.95508  23700787.160    97050831.70046
 15 03 26 00 40  0.0000000  0 10G04G11G14G16G18G19G21G22G27G32
  22697193.160   119274597.20408  22697192.760    92941265.86446
  24331669.960   127863796.78908  24331668.380    99634120.99344
  24659377.520   129585903.21707  24659379.660   100976037.97444
  21353832.760   112215179.02809  21353830.320    87440408.27248
  22441456.220   117930950.17809  22441453.500    91894367.62447
  21500558.860   112986235.69709  21500554.760    88041222.15948
  24664919.640   129615407.59007  24664917.380   100999175.79044
  20614846.800   108331864.13809  20614841.900    84414464.76849
  20398765.180   107196296.16409  20398764.600    83529599.78449
  23678725.180   124432614.33908  23678728.080    96960505.04045
 15 03 26 00 40 30.0000000  0 10G04G11G14G16G18G19G21G22G27G32
  22683293.020   119201551.51509  22683292.540    92884347.20646
  24314963.000   127776001.70308  24314961.380    99565709.32345
  24644918.240   129509921.42307  24644920.600   100916831.68144
  21366425.580   112281354.86209  21366423.160    87491973.84248
  22453988.980   117996810.07709  22453986.180    91945687.03447
  21489465.800   112927941.40809  21489461.720    87995798.05948
  24677883.520   129683533.98207  24677881.420   101052261.25944
  20616383.540   108339940.10109  20616378.700    84420757.74849
  20395126.280   107177173.49209  20395125.660    83514699.00549
  23656692.500   124316833.16708  23656695.360    96870286.26046
 15 03 26 00 41  0.0000000  0 10G04G11G14G16G18G19G21G22G27G32
  22669430.560   119128703.75908  22669430.020    92827582.78246
  24298267.120   127688264.35808  24298265.440    99497342.61844
  24630459.900   129433944.56207  24630462.460   100857629.23544
  21379104.940   112347985.55409  21379102.580    87543893.82748
  22466582.920   118062991.36309  22466580.060    91997256.85747
  21478411.300   112869849.61809  21478407.200    87950531.74048
  24690844.420   129751644.60807  24690842.500   101105334.46544
  20618018.620   108348532.89609  20618013.800    84427453.44049
  20391551.400   107158387.24009  20391550.780    83500060.36449
  23634686.380   124201190.78008  23634689.060    96780175.59446
 15 03 26 00 41 30.0000000  0 10G04G11G14G16G18G19G21G22G27G32
  22655605.920   119056054.81208  22655605.340    92770973.27346
  24281582.340   127600585.52408  24281580.780    99429021.54544
  24616003.160   129357976.05906  24616005.620   100798433.31044
  21391870.500   112415069.20609  21391868.200    87596166.78648
  22479237.700   118129492.73309  22479234.860    92049076.10247
  21467395.660   112811962.23109  21467391.560    87905424.70848
  24703802.500   129819739.99007  24703800.580   101158395.76745
  20619752.180   108357643.00409  20619747.440    84434552.23849
  20388040.920   107139939.30609  20388040.280    83485685.36349
  23612707.280   124085690.48408  23612709.820    96690175.65246
 15 03 26 00 42  0.0000000  0 10G04G11G14G16G18G19G21G22G27G32
  22641818.840   118983603.50908  22641818.160    92714517.77346
  24264908.460   127512963.91608  24264906.880    99360745.02145
  24601548.380   129282017.43007  24601550.660   100739245.03044
  21404721.840   112482603.08809  21404719.500    87648790.56848
  22491952.800   118196311.16909  22491949.920    92101142.40347
  21456419.020   112754279.58509  21456414.940    87860477.21048
  24716757.500   129887818.71707  24716755.420   101211444.08145
  20621583.740   108367267.95409  20621579.040    84442052.20749
  20384594.800   107121829.90809  20384594.240    83471574.13749
  23590755.500   123970333.61408  23590757.820    96600287.45046
 15 03 26 00 42 30.0000000  0 10G04G11G14G16G18G19G21G22G27G32
  22628069.740   118911352.04508  22628069.100    92658217.99546
  24248245.940   127425401.93208  24248244.460    99292514.96144
  24587096.440   129206073.44407  24587098.640   100680068.19944
  21417658.700   112550586.29709  21417656.280    87701764.46848
  22504728.200   118263446.29909  22504725.360    92153455.49047
  21445482.000   112696804.87309  21445477.860    87815691.73248
  24729709.700   129955882.40407  24729707.600   101264480.69845
  20623513.520   108377409.09709  20623508.860    84449954.40749
  20381213.680   107104062.19709  20381213.180    83457729.16649
  23568831.800   123855124.67908  23568833.940    96510514.52446
 15 03 26 00 43  0.0000000  0 10G04G11G14G16G18G19G21G22G27G32
  22614358.860   118839301.17009  22614358.180    92602074.50746
  24231595.020   127337900.77808  24231593.320    99224332.26844
  24572648.080   129130147.50407  24572650.040   100620905.37044
  21430680.800   112619017.39209  21430678.340    87755087.36148
  22517563.540   118330896.55009  22517560.720    92206014.12147
  21434584.940   112639540.31009  21434580.740    87771070.00948
  24742659.060   130023931.45107  24742657.100   101317505.89645
  20625541.580   108388066.64309  20625536.880    84458258.99949
  20377897.960   107086638.25409  20377897.460    83444152.07249
  23546936.820   123740066.93308  23546938.800    96420859.39946
 15 03 26 00 43 30.0000000  0 10G04G11G14G16G18G19G21G22G27G32
  22600685.500   118767447.17909  22600684.740    92546084.43946
  24214954.980   127250456.63808  24214953.320    99156194.03445
  24558203.000   129054238.53808  24558204.680   100561755.78744
  21443786.840   112687889.84009  21443784.340    87808754.17748
  22530457.660   118398655.77309  22530454.880    92258813.50247
  21423727.340   112582483.27409  21423723.080    87726610.00448
  24755604.780   130091961.67407  24755602.780   101370516.42345
  20627666.900   108399235.40409  20627662.160    84466961.94149
  20374647.160   107069555.45509  20374646.700    83430840.80249
  23525070.380   123625159.17708  23525072.260    96331321.14846
 15 03 26 00 44  0.0000000  0 10G04G11G14G16G18G19G21G22G27G32
  22587050.680   118695795.61609  22587049.900    92490252.11446
  24198326.860   127163075.61408  24198325.320    99088104.98845
  24543762.840   128978355.03408  24543764.480   100502626.04844
  21456977.460   112757207.01809  21456974.980    87862767.53848
  22543411.360   118466727.73709  22543408.620    92311856.59047
  21412910.600   112525641.00309  21412906.300    87682317.33748
  24768548.020   130159978.71508  24768545.900   101423516.67944
  20629890.440   108410920.13009  20629885.660    84476066.93348
  20371462.660   107052820.84209  20371462.220    83417800.84649
  23503234.040   123510409.65508  23503235.860    96241906.17346
 15 03 26 00 44 30.0000000  0 10G04G11G14G16G18G19G21G22G27G32
  22573453.960   118624344.20509  22573453.200    92434575.74747
  24181710.240   127075755.39908  24181708.680    99020063.29144
  24529327.540   128902497.31008  24529329.180   100443516.38745
  21470251.840   112826964.39009  21470249.460    87917123.90548
  22556423.640   118535107.48009  22556420.880    92365139.50147
  21402134.440   112469012.23909  21402130.160    87638191.04648
  24781488.320   130227979.93308  24781486.160   101476504.61045
  20632211.540   108423117.55109  20632206.800    84485571.42948
  20368344.260   107036433.15909  20368343.800    83405031.21849
  23481427.780   123395818.39108  23481429.620    96152614.52945
 15 03 26 00 45  0.0000000  0 10G04G11G14G16G18G19G21G22G27G32
  22559895.480   118553094.04309  22559894.760    92379056.19247
  24165105.460   126988497.43508  24165103.900    98952070.13945
  24514897.920   128826669.21608  24514899.480   100384429.81045
  21483609.640   112897160.29009  21483607.420    87971821.97848
  22569494.280   118603794.24909  22569491.600    92418661.64847
  21391399.420   112412599.69609  21391395.240    87594233.23548
  24794425.800   130295966.14508  24794423.680   101529480.86144
  20634630.040   108435827.08009  20634625.380    84495474.95849
  20365292.400   107020394.77209  20365291.800    83392533.77449
  23459652.340   123281388.94708  23459654.140    96063448.95946
 15 03 26 00 45 30.0000000  0 10G04G11G14G16G18G19G21G22G27G32
  22546375.060   118482044.16109  22546374.360    92323692.69647
  24148512.360   126901300.93908  24148511.000    98884124.88744
  24500474.180   128750872.20308  24500475.720   100325367.46745
  21497050.260   112967791.26409  21497048.160    88026859.07648
  22582622.720   118672784.79309  22582620.100    92472420.50347
  21380705.580   112356403.39509  21380701.400    87550443.92248
  24807360.100   130363935.86108  24807357.920   101582444.24245
  20637145.780   108449048.03509  20637141.200    84505777.00149
  20362306.940   107004705.70609  20362306.240    83380308.53049
  23437908.020   123167122.73408  23437909.740    95974410.57246
 15 03 26 00 46  0.0000000  0 10G04G11G14G16G18G19G21G22G27G32
  22532892.860   118411195.17609  22532892.200    92268485.74847
  24131931.040   126814166.42808  24131929.640    98816227.92345
  24486056.840   128675109.46608  24486058.380   100266331.81046
  21510573.320   113038855.27109  21510571.240    88082233.58848
  22595808.680   118742077.45709  22595806.120    92526414.78347
  21370053.220   112300425.18409  21370049.100    87506824.55448
  24820291.340   130431889.44008  24820289.040   101635395.06845
  20639758.620   108462779.15909  20639754.060    84516476.58649
  20359388.200   106989367.82909  20359387.520    83368356.93549
  23416195.460   123053022.86008  23416197.060    95885501.78246
 15 03 26 00 46 30.0000000  0 10G04G11G14G16G18G19G21G22G27G32
  22519449.020   118340547.88809  22519448.480    92213435.98947
  24115361.780   126727095.12807  24115360.460    98748380.22345
  24471646.760   128599384.76708  24471648.220   100207325.77846
  21524178.560   113110350.83009  21524176.440    88137944.39148
  22609051.860   118811670.62509  22609049.280    92580643.21947
  21359442.900   112244667.33409  21359438.660    87463376.87748
  24833219.560   130499827.55208  24833217.380   101688333.81845
  20642468.560   108477020.37609  20642464.000    84527573.65349
  20356536.620   106974383.20309  20356536.020    83356680.59949
  23394515.260   122939092.74808  23394516.720    95796725.27646
 15 03 26 00 47  0.0000000  0 10G04G11G14G16G18G19G21G22G27G32
  22506043.440   118270101.75409  22506043.000    92158542.95147
  24098804.440   126640086.69708  24098803.300    98680581.51245
  24457244.320   128523700.32208  24457245.820   100148351.11345
  21537865.280   113182274.93209  21537863.160    88193989.12348
  22622351.640   118881561.28509  22622348.980    92635103.47647
  21348874.600   112189130.59509  21348870.220    87420101.51748
  24846144.740   130567749.62708  24846142.680   101741260.07345
  20645275.260   108491769.63409  20645270.700    84539066.59349
  20353752.360   106959752.37509  20353751.800    83345279.96049
  23372867.720   122825334.22608  23372869.040    95708082.46646
 15 03 26 00 47 30.0000000  0 10G04G11G14G16G18G19G21G22G27G32
  22492675.980   118199855.97408  22492675.600    92103806.03947
  24082259.140   126553140.85308  24082258.060    98612831.56144
  24442849.840   128448057.98608  24442851.340   100089409.27145
  21551632.780   113254624.01109  21551630.740    88250364.99248
  22635707.620   118951747.17109  22635704.940    92689793.76947
  21338348.560   112133815.93709  21338344.140    87376999.20248
  24859066.680   130635654.73008  24859064.620   101794173.10845
  20648178.400   108507025.49609  20648173.820    84550954.28648
  20351035.620   106945475.95209  20351035.060    83334155.47549
  23351253.220   122711749.26408  23351254.440    95619574.89846
 15 03 26 00 48  0.0000000  0 10G04G11G14G16G18G19G21G22G27G32
  22479346.980   118129812.32609  22479346.620    92049226.64147
  24065726.200   126466259.30608  24065725.100    98545131.73345
  24428464.180   128372462.10707  24428465.600   100030503.61445
  21565481.040   113327397.23009  21565479.040    88307071.37848
  22649119.580   119022227.30209  22649116.860    92744713.34346
  21327865.380   112078726.36709  21327860.880    87334072.27348
  24871985.540   130703543.78208  24871983.520   101847073.62046
  20651178.000   108522788.37709  20651173.420    84563237.06348
  20348386.900   106931556.77909  20348386.360    83323309.36449
  23329672.420   122598341.83608  23329673.520    95531205.66846
 15 03 26 00 48 30.0000000  0 10G04G11G14G16G18G19G21G22G27G32
  22466056.400   118059970.43209  22466056.020    91994804.44747
  24049205.540   126379441.96908  24049204.080    98477481.91145
  24414087.800   128296915.06507  24414089.140    99971636.01945
  21579409.520   113400591.95209  21579407.520    88364106.19548
  22662586.920   119092998.49909  22662584.120    92799859.72247
  21317425.040   112023862.18409  21317420.620    87291320.98148
  24884901.280   130771416.30407  24884899.280   101899961.28145
  20654273.780   108539056.72609  20654269.180    84575913.71148
  20345806.220   106917995.50809  20345805.780    83312742.14049
  23308125.700   122485113.99408  23308126.760    95442976.37146
 15 03 26 00 49  0.0000000  0 10G04G11G14G16G18G19G21G22G27G32
  22452804.100   117990329.03109  22452803.600    91940538.47847
  24032696.960   126292688.04908  24032695.360    98409881.52445
  24399720.940   128221418.66707  24399722.380    99912807.91245
  21593417.500   113474204.37009  21593415.520    88421466.48948
  22676109.220   119164058.38709  22676106.320    92855231.05547
  21307027.720   111969224.22909  21307023.340    87248745.96648
  24897813.640   130839271.17707  24897811.540   101952835.19044
  20657465.340   108555828.51109  20657460.740    84588982.63648
  20343293.680   106904792.33409  20343293.280    83302453.95049
  23286613.440   122372067.35508  23286614.440    95354888.26246
 15 03 26 00 49 30.0000000  0 10G04G11G14G16G18G19G21G22G27G32
  22439590.820   117920892.82309  22439590.220    91886432.40346
  24016201.260   126206002.25308  24016199.500    98342334.20144
  24385365.200   128145980.03707  24385366.620    99854024.76245
  21607505.420   113548236.61109  21607503.440    88479153.92048
  22689686.800   119235408.97509  22689683.880    92910828.90646
  21296674.660   111914818.54809  21296670.240    87206351.93748
  24910723.420   130907112.62607  24910721.540   102005698.59944
  20660753.460   108573107.57509  20660748.820    84602446.84648
  20340850.380   106891952.92409  20340850.000    83292449.21149
  23265136.940   122259208.82908  23265138.040    95266946.74546
 15 03 26 00 50  0.0000000  0 10G04G11G14G16G18G19G21G22G27G32
  22426415.500   117851656.42209  22426414.920    91832482.01047
  23999717.600   126119379.70408  23999715.720    98274836.15445
  24371020.000   128070596.68908  24371021.480    99795284.70544
  21621671.640   113622680.44209  21621669.660    88537162.06348
  22703318.180   119307042.19009  22703315.200    92966646.98747
  21286365.040   111860640.94209  21286360.680    87164135.62548
  24923629.420   130974934.86806  24923627.460   102058547.06344
  20664136.740   108590886.66009  20664132.000    84616300.68149
  20338475.580   106879473.15509  20338475.140    83282724.71249
  23243695.700   122146535.52908  23243696.780    95179149.52346
 15 03 26 00 50 30.0000000  0 10G04G11G14G16G18G19G21G22G27G32
  22413278.820   117782623.32809  22413278.240    91778690.05447
  23983246.640   126032824.11208  23983244.660    98207390.29845
  24356686.600   127995274.71608  24356687.960    99736592.45044
  21635916.420   113697536.84609  21635914.360    88595491.70648
  22717003.700   119378959.88309  22717000.740    93022686.74847
  21276099.760   111806696.22709  21276095.340    87122100.78648
  24936532.380   131042741.83106  24936530.880   102111383.62443
  20667615.640   108609168.09609  20667610.840    84630545.97248
  20336170.120   106867357.72409  20336169.640    83273284.12049
  23222290.980   122034053.58908  23222291.960    95091501.40346
 15 03 26 00 51  0.0000000  0 10G04G11G14G16G18G19G21G22G27G32
  22400180.880   117713793.62009  22400180.280    91725056.55647
  23966788.380   125946335.49808  23966786.300    98139996.62044
  24342365.480   127920016.99308  24342366.560    99677950.21844
  21650239.200   113772802.94309  21650236.980    88654140.57648
  22730742.860   119451159.55109  22730739.860    93078946.20746
  21265879.080   111752985.97009  21265874.780    87080248.64648
  24949432.440   131110532.92306  24949430.520   102164207.86942
  20671190.020   108627951.13709  20671185.140    84645182.11249
  20333934.260   106855607.77709  20333933.760    83264128.30949
  23200923.240   121921765.43908  23200924.060    95004004.27446
 15 03 26 00 51 30.0000000  0 10G04G11G14G16G18G19G21G22G27G32
  22387121.400   117645165.63709  22387120.740    91671580.26746
  23950342.540   125859912.27008  23950340.400    98072653.90045
  24328056.800   127844824.60108  24328057.720    99619358.92444
  21664639.200   113848474.97509  21664636.880    88713105.77848
  22744534.940   119523637.44709  22744532.060    93135422.50046
  21255702.960   111699509.80509  21255698.640    87038578.92748
  24962329.220   131178306.04907  24962327.060   102217018.10144
  20674859.220   108647232.31709  20674854.300    84660206.42249
  20331767.880   106844222.69009  20331767.320    83255256.81749
  23179592.460   121809671.77008  23179593.100    94916658.69346
 15 03 26 00 52  0.0000000  0 10G04G11G14G16G18G19G21G22G27G32
  22374100.440   117576739.73909  22374099.720    91618261.42447
  23933909.380   125773555.73408  23933907.180    98005363.14344
  24313761.260   127769700.89908  24313761.900    99560821.12644
  21679115.940   113924550.73409  21679113.620    88772385.54448
  22758379.560   119596391.83109  22758376.740    93192114.20546
  21245571.800   111646269.94509  21245567.420    86997093.32448
  24975222.860   131246061.99808  24975220.560   102269814.92843
  20678623.100   108667011.29309  20678618.140    84675618.60549
  20329671.280   106833204.32109  20329670.620    83246671.06449
  23158299.320   121697775.84808  23158299.900    94829467.19246
 15 03 26 00 52 30.0000000  0 10G04G11G14G16G18G19G21G22G27G32
  22361117.960   117508515.96209  22361117.180    91565100.09747
  23917488.860   125687266.00508  23917486.640    97938124.44044
  24299479.320   127694648.84008  24299479.800    99502339.18044
  21693668.960   114001027.58809  21693666.760    88831977.87448
  22772276.320   119669420.29709  22772273.640    93249019.49347
  21235485.740   111593267.57809  21235481.420    86955792.79348
  24988113.260   131313800.20408  24988111.020   102322597.93644
  20682481.420   108687286.91509  20682476.460    84691417.80349
  20327644.620   106822553.75409  20327643.920    83238371.92149
  23137044.200   121586080.08708  23137044.840    94742431.68846
 15 03 26 00 53  0.0000000  0 10G04G11G14G16G18G19G21G22G27G32
  22348174.800   117440498.93709  22348174.000    91512099.86946
  23901081.740   125601047.49908  23901079.680    97870941.24344
  24285212.300   127619675.22608  24285212.660    99443918.38544
  21708298.640   114077907.06509  21708296.520    88891883.93748
  22786225.600   119742724.75809  22786223.020    93306139.85646
  21225445.980   111540508.45909  21225441.660    86914681.81048
  25001001.060   131381524.81008  25000998.820   102375370.35045
  20686434.800   108708062.14009  20686429.860    84707606.30548
  20325688.920   106812276.51009  20325688.220    83230363.68349
  23115828.460   121474591.35408  23115829.160    94655557.51746
 15 03 26 00 53 30.0000000  0 10G04G11G14G16G18G19G21G22G27G32
  22335269.800   117372682.61209  22335269.000    91459256.03547
  23884687.260   125514895.17408  23884685.340    97803809.61244
  24270959.620   127544777.32508  24270959.980    99385556.57745
  21723003.360   114155180.76409  21723001.260    88952097.18048
  22800225.940   119816297.54009  22800223.540    93363469.27247
  21215451.760   111487988.44709  21215447.420    86873757.13548
  25013885.180   131449230.22508  25013883.020   102428127.78545
  20690481.860   108729329.47709  20690476.880    84724178.26449
  20323803.300   106802368.08309  20323802.680    83222642.82749
  23094651.460   121363306.45608  23094652.280    94568842.18646
 15 03 26 00 54  0.0000000  0  9G04G11G14G16G18G19G22G27G32
  22322404.460   117305075.02309  22322403.580    91406574.84047
  23868307.060   125428816.93608  23868305.320    97736735.72845
  24256723.240   127469965.50008  24256723.480    99327261.84544
  21737784.120   114232853.91609  21737782.020    89012621.68448
  22814278.460   119890144.32809  22814276.100    93421012.22247
  21205504.740   111435716.60909  21205500.440    86833025.84748
  20694623.980   108751096.19909  20694618.920    84741139.35049
  20321989.540   106792837.37909  20321989.000    83215216.30349
  23073515.260   121252235.72708  23073516.100    94482293.74247
 15 03 26 00 54 30.0000000  0  9G04G11G14G16G18G19G22G27G32
  22309577.060   117237666.68309  22309576.040    91354048.91447
  23851939.340   125342804.07608  23851937.700    97669712.77545
  24242501.920   127395233.65907  24242502.320    99269029.44245
  21752638.600   114310914.64909  21752636.520    89073448.19448
  22828381.040   119964253.48709  22828378.640    93478759.60847
  21195603.400   111383685.11309  21195599.220    86792481.84148
  20698859.120   108773351.62309  20698853.960    84758481.25049
  20320246.100   106783676.25509  20320245.720    83208077.76249
  23052418.520   121141372.27509  23052419.340    94395906.82646
 15 03 26 00 55  0.0000000  0  9G04G11G14G16G18G19G22G27G32
  22296788.600   117170462.79109  22296787.440    91301682.28447
  23835585.080   125256861.71808  23835583.420    97602744.77845
  24228297.220   127320589.22507  24228297.860    99210865.19245
  21767567.140   114389364.85609  21767565.100    89134578.18948
  22842534.100   120038627.91209  22842531.560    93536713.70347
  21185749.080   111331900.54609  21185744.940    86752130.24248
  20703187.900   108796099.41909  20703182.740    84776206.81949
  20318574.180   106774890.91009  20318573.940    83201232.04349
  23031362.700   121030723.60909  23031363.520    94309687.26546
 15 03 26 00 55 30.0000000  0  9G04G11G14G16G18G19G22G27G32
  22284038.500   117103460.60309  22284037.320    91249472.83147
  23819243.740   125170987.30708  23819241.940    97535829.72245
  24214109.240   127246032.67408  24214110.180    99152769.39545
  21782568.900   114468199.86509  21782566.940    89196008.03648
  22856736.700   120113262.62409  22856734.180    93594870.61647
  21175941.580   111280361.81409  21175937.400    86711970.20248
  20707609.480   108819335.23109  20707604.340    84794312.65049
  20316973.600   106766479.79809  20316973.320    83194677.92649
  23010347.740   120920289.74309  23010348.540    94223635.07846
 15 03 26 00 56  0.0000000  0  9G04G11G14G16G18G19G22G27G32
  22271327.640   117036664.61409  22271326.460    91197424.04847
  23802916.280   125085185.95708  23802914.440    97468971.59545
  24199939.460   127171571.10208  24199940.380    99094747.57745
  21797644.180   114547421.32009  21797642.380    89257739.00048
  22870989.300   120188160.02509  22870986.680    93653232.21947
  21166181.940   111229074.89909  21166177.720    86672006.38248
  20712124.640   108843062.81909  20712119.500    84812801.68949
  20315445.380   106758448.61109  20315445.040    83188419.85649
  22989374.980   120810077.59209  22989375.660    94137755.64846
 15 03 26 00 56 30.0000000  0  9G04G11G14G16G18G19G22G27G32
  22258655.460   116970071.90909  22258654.280    91145533.66147
  23786602.260   124999455.08508  23786600.380    97402168.36145
  24185787.820   127097204.36808  24185788.620    99036799.65045
  21812791.900   114627023.15209  21812790.160    89319766.36948
  22885290.740   120263314.58609  22885288.200    93711794.18846
  21156469.800   111178037.97109  21156465.620    86632237.35348
  20716732.480   108867277.49709  20716727.340    84831670.27548
  20313989.060   106750795.33309  20313988.740    83182456.26049
  22968444.260   120700086.48609  22968444.820    94052048.43246
 15 03 26 00 57  0.0000000  0  9G04G11G14G16G18G19G22G27G32
  22246021.820   116903682.03209  22246020.600    91093801.33647
  23770301.640   124913794.40208  23770299.620    97335419.83245
  24171654.640   127022934.79408  24171655.440    98978927.45245
  21828011.580   114707002.52709  21828009.740    89382087.93548
  22899640.640   120338723.56209  22899638.040    93770554.42946
  21146805.520   111127252.03109  21146801.320    86592663.90048
  20721432.620   108891977.17809  20721427.560    84850916.79049
  20312604.700   106743520.61109  20312604.420    83176787.65249
  22947555.940   120590318.39609  22947556.500    93966515.01346
 15 03 26 00 57 30.0000000  0  9G04G11G14G16G18G19G22G27G32
  22233428.000   116837501.61609  22233426.880    91042232.23447
  23754015.680   124828210.91308  23754013.600    97268731.46345
  24157541.780   126948771.96808  24157542.540    98921138.41345
  21843303.860   114787363.08609  21843301.820    89444706.52448
  22914039.840   120414391.75109  22914037.240    93829516.63746
  21137190.720   111076725.60609  21137186.420    86553292.66448
  20726226.200   108917167.55309  20726221.180    84870545.66848
  20311293.900   106736632.43109  20311293.600    83171420.23349
  22926711.880   120480782.98108  22926712.400    93881162.89246
 15 03 26 00 58  0.0000000  0  9G04G11G14G16G18G19G22G27G32
  22220872.380   116771521.72309  22220871.320    90990819.35147
  23737742.700   124742696.17308  23737740.700    97202096.64545
  24143448.100   126874709.81508  24143448.820    98863427.80645
  21858666.400   114868093.23009  21858664.260    89507613.08748
  22928486.260   120490308.09809  22928483.480    93888672.21646
  21127623.880   111026450.95209  21127619.480    86514117.60948
  20731111.100   108942838.03109  20731106.100    84890548.64249
  20310055.240   106730122.92709  20310054.880    83166347.88449
  22905910.760   120371473.48208  22905911.280    93795986.81346
 15 03 26 00 58 30.0000000  0  9G04G11G14G16G18G19G22G27G32
  22208356.280   116705749.30009  22208355.260    90939568.15147
  23721484.100   124657257.42608  23721482.180    97135521.05145
  24129375.380   126800758.13408  24129376.080    98805803.29045
  21874100.180   114949197.82809  21874098.000    89570811.44748
  22942980.820   120566477.12209  22942977.980    93948024.71146
  21118106.480   110976436.63309  21118102.040    86475145.42848
  20736088.380   108968994.18409  20736083.460    84910930.07649
  20308890.200   106724000.23009  20308889.820    83161576.95349
  22885154.420   120262399.49508  22885155.020    93710994.25247
 15 03 26 00 59  0.0000000  0  9G04G11G14G16G18G19G22G27G32
  22195878.780   116640179.77609  22195877.760    90888475.04947
  23705239.160   124571890.33108  23705237.260    97069001.27245
  24115323.360   126726915.13008  24115323.900    98748263.44045
  21889603.660   115030668.70309  21889601.460    89634295.20848
  22957522.020   120642891.78609  22957519.040    94007568.58246
  21108637.940   110926679.42209  21108633.460    86436373.58248
  20741156.960   108995629.98909  20741152.120    84931685.25949
  20307797.980   106718260.57509  20307797.600    83157104.49349
  22864442.560   120153558.73209  22864443.160    93626183.41147
 15 03 26 00 59 30.0000000  0  9G04G11G14G16G18G19G22G27G32
  22183440.400   116574815.79809  22183439.360    90837542.11647
  23689008.520   124486597.93908  23689006.580    97002539.72745
  24101293.120   126653186.23108  24101293.480    98690812.49345
  21905176.940   115112506.21409  21905174.680    89698064.66548
  22972110.140   120719552.39609  22972107.160    94067304.13146
  21099219.140   110877183.66409  21099214.720    86397805.46748
  20746317.060   109022746.76809  20746312.300    84952815.22249
  20306779.380   106712907.88509  20306779.040    83152933.56649
  22843776.160   120044956.37809  22843776.760    93541558.35147
 15 03 26 01 00  0.0000000  0 10G01G04G11G14G16G18G19G22G27G32
  24583068.640   129184894.65308  24583070.400   100663556.69145
  22171040.660   116509655.20809  22171039.720    90786767.65847
  23672791.760   124401378.43508  23672789.800    96936134.95945
  24087284.800   126579572.25408  24087285.180    98633451.10045
  21920819.080   115194705.35309  21920816.680    89762115.91348
  22986744.240   120796455.06109  22986741.280    94127228.26846
  21089850.020   110827948.67509  21089845.540    86359440.54048
  20751568.000   109050340.75409  20751563.240    84974317.03248
  20305834.200   106707941.05409  20305833.900    83149063.30449
  22823155.180   119936592.74309  22823155.760    93457119.30347
 15 03 26 01 00 30.0000000  0 10G01G04G11G14G16G18G19G22G27G32
  24568201.680   129106771.75607  24568204.540   100602681.76145
  22158680.920   116444704.92209  22158680.100    90736157.08947
  23656590.320   124316239.33508  23656588.340    96869792.83445
  24073300.260   126506082.97908  24073300.580    98576186.88045
  21936530.660   115277269.70609  21936528.160    89826451.75048
  23001425.300   120873604.62309  23001422.460    94187344.79646
  21080532.180   110778982.94309  21080527.720    86321285.43048
  20756910.900   109078417.79909  20756906.080    84996195.25949
  20304964.000   106703368.14409  20304963.720    83145499.99949
  22802581.420   119828477.43808  22802581.960    93372873.75447
 15 03 26 01 01  0.0000000  0 10G01G04G11G14G16G18G19G22G27G32
  24553354.640   129028751.15807  24553357.640   100541886.49346
  22146359.660   116379956.41909  22146358.800    90685703.73647
  23640402.560   124231172.08708  23640400.620    96803506.71945
  24059338.220   126432712.11608  24059338.480    98519014.91445
  21952309.600   115360188.51409  21952307.060    89891063.77348
  23016151.220   120950989.92509  23016148.500    94247645.00346
  21071264.220   110730279.01609  21071259.700    86283334.32148
  20762343.720   109106967.48209  20762338.840    85018441.76548
  20304167.300   106699181.49409  20304167.020    83142237.66449
  22782053.660   119720604.00908  22782054.160    93288816.67247
 15 03 26 01 01 30.0000000  0 10G01G04G11G14G16G18G19G22G27G32
  24538527.580   128950835.32507  24538530.800   100481172.88145
  22134077.220   116315411.85809  22134076.320    90635409.30647
  23624229.020   124146179.84708  23624227.120    96737279.04845
  24045399.800   126359465.56908  24045399.940    98461939.82845
  21968155.840   115443461.56409  21968153.300    89955951.83148
  23030922.040   121028611.37409  23030919.320    94308129.23246
  21062046.900   110681841.03209  21062042.240    86245590.44748
  20767866.660   109135990.64309  20767861.700    85041057.22848
  20303444.720   106695384.70209  20303444.500    83139279.12149
  22761572.860   119612977.52508  22761573.380    93204952.01246
 15 03 26 01 02  0.0000000  0 10G01G04G11G14G16G18G19G22G27G32
  24523721.000   128873027.00507  24523724.320   100420543.07345
  22121834.100   116251074.38209  22121833.260    90585276.25447
  23608070.360   124061265.81808  23608068.520    96671112.34445
  24031486.100   126286348.98908  24031486.040    98404966.00045
  21984069.500   115527088.84209  21984067.000    90021115.91847
  23045738.000   121106469.36209  23045735.260    94368797.79046
  21052880.940   110633673.43409  21052876.300    86208057.26548
  20773479.940   109165488.85509  20773474.940    85064042.84948
  20302797.080   106691981.68809  20302796.900    83136627.41949
  22741140.100   119505603.39508  22741140.620    93121284.00247
 15 03 26 01 02 30.0000000  0 10G01G04G11G14G16G18G19G22G27G32
  24508934.620   128795324.35608  24508937.940   100359995.59345
  22109630.040   116186942.08709  22109629.300    90535303.06547
  23591926.260   123976428.28408  23591924.440    96605005.21745
  24017597.200   126213363.00808  24017597.160    98348093.94645
  22000049.540   115611065.14209  22000047.200    90086551.94847
  23060598.200   121184560.09309  23060595.420    94429647.69046
  21043766.240   110585775.79309  21043761.740    86170734.43448
  20779182.880   109195458.27509  20779177.880    85087395.65448
  20302224.220   106688971.60609  20302224.100    83134281.89549
  22720755.520   119398482.15609  22720756.000    93037813.03647
 15 03 26 01 03  0.0000000  0 10G01G04G11G14G16G18G19G22G27G32
  24494168.060   128717725.00508  24494171.080   100299528.58745
  22097464.640   116123012.64709  22097463.900    90485487.95447
  23575796.420   123891665.53908  23575794.520    96538956.38145
  24003733.260   126140508.38108  24003733.280    98291324.25344
  22016095.060   115695385.47009  22016092.860    90152256.06448
  23075501.800   121262878.76609  23075498.980    94490675.21846
  21034702.780   110538147.50709  21034698.400    86133621.48348
  20784974.840   109225895.72409  20784969.920    85111113.15348
  20301725.920   106686353.21609  20301725.920    83132241.58749
  22700419.200   119291614.06809  22700419.520    92954539.32447
 15 03 26 01 03 30.0000000  0 10G01G04G11G14G16G18G19G22G27G32
  24479422.600   128640236.59307  24479425.600   100239148.07146
  22085339.360   116059293.82609  22085338.580    90435836.95747
  23559682.340   123806985.58708  23559680.320    96472972.05645
  23989896.340   126067795.61908  23989896.360    98234665.08745
  22032207.160   115780055.42209  22032205.100    90218232.60848
  23090449.800   121341431.01009  23090446.880    94551884.75246
  21025692.380   110490797.75909  21025688.080    86096725.58048
  20790857.020   109256807.09909  20790852.140    85135199.93948
  20301303.880   106684135.35809  20301303.920    83130513.38649
  22680132.940   119185009.14109  22680133.100    92871470.67347
 15 03 26 01 04  0.0000000  0 10G01G04G11G14G16G18G19G22G27G32
  24464696.660   128562850.97508  24464699.760   100178847.64745
  22073252.600   115995777.48609  22073251.780    90386343.74247
  23543582.500   123722380.69608  23543580.500    96407046.21445
  23976085.500   125995219.92708  23976085.580    98178112.72445
  22048383.740   115865063.66609  22048381.740    90284472.75948
  23105440.320   121420206.64009  23105437.360    94613268.35846
  21016733.780   110443719.89909  21016729.540    86060041.55548
  20796827.580   109288182.87909  20796822.780    85159648.60548
  20300956.740   106682310.95409  20300956.760    83129091.77249
  22659895.720   119078662.00109  22659895.740    92788602.88747
 15 03 26 01 04 30.0000000  0 10G01G04G11G14G16G18G19G22G27G32
  24449991.420   128485574.32007  24449994.540   100118632.10645
  22061205.540   115932469.86909  22061204.680    90337013.15447
  23527498.320   123637857.86708  23527496.220    96341184.32345
  23962302.420   125922790.14408  23962302.480    98121674.05745
  22064625.420   115950413.72409  22064623.420    90350979.25348
  23120474.120   121499209.80308  23120471.060    94674829.25646
  21007828.440   110396921.59809  21007824.160    86023575.35148
  20802887.400   109320027.67909  20802882.680    85184462.73148
  20300685.920   106680887.28609  20300685.880    83127982.41749
  22639709.120   118972581.15109  22639709.120    92705942.58747
 15 03 26 01 05  0.0000000  0 10G01G04G11G14G16G18G19G22G27G32
  24435306.000   128408401.95907  24435308.900   100058497.82245
  22049197.300   115869366.47609  22049196.380    90287841.71447
  23511428.960   123553412.86308  23511426.840    96275383.07045
  23948546.740   125850504.50908  23948546.800    98065347.74145
  22080930.720   116036097.98909  22080928.620    90417746.18248
  23135549.880   121578433.40409  23135546.880    94736561.92846
  20998975.800   110350399.97209  20998971.420    85987324.74048
  20809035.360   109352335.30909  20809030.660    85209637.52048
  20300490.660   106679860.72009  20300490.560    83127182.49949
  22619572.760   118866764.54809  22619572.840    92623488.20047
 15 03 26 01 05 30.0000000  0 10G01G04G11G14G16G18G19G22G27G32
  24420641.040   128331337.17907  24420644.060    99998447.41045
  22037228.520   115806470.51409  22037227.600    90238831.90847
  23495375.080   123469049.13308  23495373.080    96209645.13945
  23934819.660   125778369.05508  23934819.740    98009138.42645
  22097299.680   116122117.03909  22097297.580    90484773.97348
  23150667.820   121657878.76709  23150664.980    94798467.38146
  20990176.740   110304160.02709  20990172.240    85951293.62049
  20815271.640   109385107.33109  20815266.960    85235174.16748
  20300371.800   106679235.69409  20300371.620    83126695.46449
  22599487.760   118761218.05409  22599487.940    92541244.28947
 15 03 26 01 06  0.0000000  0 10G01G04G11G14G16G18G19G22G27G32
  24405996.420   128254379.45808  24405999.620    99938480.40745
  22025299.260   115743781.68309  22025298.320    90189983.50347
  23479336.680   123384766.81408  23479334.680    96143970.65446
  23921121.600   125706386.17008  23921121.800    97953048.01245
  22113731.660   116208467.34609  22113729.500    90552059.89148
  23165827.480   121737543.36608  23165824.780    94860543.68146
  20981431.380   110258202.52709  20981426.780    85915482.58348
  20821596.020   109418342.06209  20821591.300    85261071.36648
  20300329.460   106679012.67309  20300329.200    83126521.67749
  22579454.480   118655943.51909  22579454.760    92459212.28847
 15 03 26 01 06 30.0000000  0 10G01G04G11G14G16G18G19G22G27G32
  24391371.760   128177526.58507  24391374.920    99878595.08845
  22013409.000   115681297.64309  22013407.960    90141294.68547
  23463313.500   123300564.36208  23463311.380    96078358.40345
  23907452.860   125634556.90108  23907453.060    97897077.28946
  22130225.760   116295144.22409  22130223.540    90619600.28748
  23181027.920   121817422.44608  23181025.300    94922787.11046
  20972739.600   110212527.13809  20972735.000    85879891.38949
  20828007.640   109452035.46009  20828002.940    85287325.97249
  20300363.380   106679190.58509  20300363.020    83126660.30849
  22559473.040   118550941.34108  22559473.380    92377392.51447
 15 03 26 01 07  0.0000000  0 10G01G04G11G14G16G18G19G22G27G32
  24376767.720   128100782.41207  24376770.820    99818794.49345
  22001558.540   115619022.46609  22001557.320    90092768.60547
  23447306.340   123216446.12108  23447304.120    96012811.76045
  23893814.720   125562888.00208  23893814.800    97841231.50946
  22146782.220   116382148.95309  22146780.060    90687396.14148
  23196269.600   121897518.09608  23196266.980    94985199.29346
  20964102.440   110167139.56509  20964098.000    85844524.46749
  20834506.980   109486189.74409  20834502.240    85313939.70548
  20300474.500   106679774.40609  20300474.080    83127115.22549
  22539544.680   118446217.94309  22539545.060    92295789.96547
 15 03 26 01 07 30.0000000  0 10G01G04G11G14G16G18G19G22G27G32
  24362183.560   128024142.18408  24362186.600    99759074.90345
  21989746.920   115556951.46909  21989745.600    90044401.61547
  23431314.340   123132407.79908  23431312.180    95947327.38846
  23880206.740   125491377.58408  23880206.800    97785509.24146
  22163399.540   116469473.84009  22163397.480    90755441.46047
  23211551.240   121977823.50409  23211548.680    95047774.92546
  20955519.440   110122036.30509  20955515.140    85809379.07249
  20841092.880   109520798.85509  20841088.100    85340907.84648
  20300662.120   106680760.29509  20300661.660    83127883.44649
  22519668.960   118341771.00808  22519669.400    92214402.83447
 15 03 26 01 08  0.0000000  0 10G01G04G11G14G16G18G19G22G27G32
  24347619.600   127947607.97108  24347622.380    99699437.89045
  21977974.540   115495086.78009  21977973.140    89996195.39647
  23415337.980   123048451.84608  23415335.900    95881907.21745
  23866629.860   125420030.71408  23866629.820    97729914.42446
  22180077.640   116557117.72909  22180075.660    90823735.36548
  23226872.740   122058338.56908  23226870.260    95110513.92546
  20946991.240   110077220.88209  20946987.040    85774457.98148
  20847765.360   109555863.02709  20847760.620    85368230.58448
  20300926.800   106682151.35309  20300926.300    83128967.39249
  22499846.740   118237605.07409  22499847.100    92133234.67147
 15 03 26 01 08 30.0000000  0 10G01G04G11G14G16G18G19G22G27G32
  24333076.120   127871181.32008  24333078.860    99639884.74645
  21966241.660   115433429.94509  21966240.180    89948151.15047
  23399377.620   122964580.28708  23399375.580    95816552.80545
  23853084.900   125348851.62908  23853084.760    97674450.32546
  22196816.280   116645079.76309  22196814.400    90892277.16748
  23242234.060   122139062.73808  23242231.580    95173415.85846
  20938518.600   110032696.80009  20938514.440    85739763.89849
  20854524.580   109591382.42909  20854519.740    85395908.04648
  20301269.080   106683950.24909  20301268.600    83130369.12549
  22480078.800   118133724.22209  22480079.140    92052288.64447
 15 03 26 01 09  0.0000000  0 10G01G04G11G14G16G18G19G22G27G32
  24318553.140   127794862.14908  24318555.580    99580415.35045
  21954548.360   115371981.04509  21954546.780    89900268.91047
  23383433.420   122880793.42608  23383431.380    95751264.38445
  23839572.460   125277843.48208  23839572.260    97619119.42345
  22213614.900   116733357.12009  22213613.060    90961064.66847
  23257634.720   122219993.67609  23257632.340    95236478.89846
  20930101.660   109988465.34309  20930097.440    85705297.83748
  20861370.080   109627355.23309  20861365.180    85423938.80448
  20301689.080   106686157.89209  20301688.720    83132089.35849
  22460365.580   118030130.74309  22460365.800    91971566.53547
 15 03 26 01 09 30.0000000  0 10G01G04G11G14G16G18G19G22G27G32
  24304049.780   127718646.07008  24304052.040    99521026.30045
  21942893.740   115310735.80309  21942892.140    89852545.38447
  23367504.780   122797088.04708  23367502.700    95686039.45945
  23826092.200   125207004.64008  23826091.920    97563920.45445
  22230472.060   116821942.23309  22230470.240    91030091.99047
  23273073.580   122301124.83609  23273071.160    95299697.98846
  20921739.920   109944524.09409  20921735.640    85671057.92048
  20868300.700   109663775.55109  20868295.820    85452318.28348
  20302186.260   106688770.91409  20302186.020    83134125.47749
  22440706.680   117926822.91309  22440706.820    91891067.01747
 15 03 26 01 10  0.0000000  0 10G01G04G11G14G16G18G19G22G27G32
  24289567.460   127642541.02808  24289569.700    99461723.78045
  21931279.320   115249702.23109  21931277.700    89804986.77947
  23351593.220   122713472.37508  23351591.100    95620884.42045
  23812646.160   125136345.91908  23812645.720    97508861.83545
  22247388.680   116910839.89709  22247386.940    91099362.85047
  23288551.620   122382462.53009  23288549.160    95363077.97746
  20913435.120   109900882.21009  20913430.760    85637051.26148
  20875317.600   109700649.66709  20875312.740    85481051.36348
  20302762.360   106691798.29509  20302762.120    83136484.46549
  22421104.100   117823811.16109  22421104.240    91810798.20847
 15 03 26 01 10 30.0000000  0 10G01G04G11G14G16G18G19G22G27G32
  24275104.300   127566537.24008  24275106.640    99402500.19745
  21919703.320   115188870.52909  21919701.700    89757585.48447
  23335697.000   122629937.25908  23335694.740    95555792.16745
  23799233.220   125065860.81708  23799232.580    97453938.48545
  22264362.600   117000038.72509  22264360.960    91168868.38547
  23304066.740   122463994.75009  23304064.240    95426609.57246
  20905185.840   109857531.96709  20905181.400    85603271.86148
  20882418.720   109737966.37809  20882413.860    85510129.32348
  20303415.700   106695231.32009  20303415.320    83139159.55149
  22401556.520   117721088.25009  22401556.660    91730754.45547
 15 03 26 01 11  0.0000000  0 10G01G04G11G14G16G18G19G22G27G32
  24260662.080   127490643.87808  24260664.540    99343362.65245
  21908167.500   115128250.04809  21908165.980    89710348.77647
  23319817.900   122546492.24608  23319815.540    95490770.11445
  23785855.560   124995561.29108  23785854.700    97399159.74445
  22281394.920   117089544.31209  22281393.340    91238612.96047
  23319620.160   122545728.42609  23319617.580    95490298.13346
  20896994.120   109814484.26909  20896989.640    85569728.21149
  20889605.480   109775732.92509  20889600.640    85539557.80448
  20304148.160   106699080.12409  20304147.620    83142158.60549
  22382066.180   117618665.66009  22382066.180    91650944.71347
 15 03 26 01 11 30.0000000  0 10G01G04G11G14G16G18G19G22G27G32
  24246240.260   127414857.80608  24246242.700    99284308.67246
  21896671.300   115067837.75309  21896669.940    89663274.29747
  23303955.380   122463134.95508  23303953.180    95425816.40945
  23772513.220   124925447.28308  23772512.300    97344525.55345
  22298484.580   117179351.07709  22298482.980    91308592.21847
  23335210.940   122627658.33108  23335208.300    95554139.62546
  20888859.620   109771737.23809  20888855.100    85536418.84648
  20896876.900   109813944.48009  20896872.100    85569333.03948
  20304959.260   106703342.52009  20304958.700    83145479.95149
  22362632.900   117516542.84209  22362632.740    91571368.56047
 15 03 26 01 12  0.0000000  0 10G01G04G11G14G16G18G19G22G27G32
  24231838.580   127339177.79407  24231841.120    99225337.37945
  21885214.520   115007632.39309  21885213.220    89616361.06747
  23288109.520   122379864.66708  23288107.300    95360930.50945
  23759206.520   124855520.45708  23759205.580    97290037.22845
  22315630.780   117269454.43509  22315629.120    91378802.59047
  23350838.360   122709781.37208  23350835.820    95618131.57646
  20880782.460   109729291.51809  20880777.900    85503344.27348
  20904232.460   109852598.51009  20904227.680    85599453.07948
  20305849.040   106708018.39809  20305848.480    83149123.48449
  22343256.940   117414721.14109  22343256.740    91492027.05447
 15 03 26 01 12 30.0000000  0 10G01G04G11G14G16G18G19G22G27G32
  24217456.840   127263602.12508  24217459.500    99166447.36545
  21873796.880   114947632.64209  21873795.660    89569608.03747
  23272280.120   122296680.36408  23272277.740    95296111.59645
  23745935.680   124785782.02508  23745934.760    97235695.68245
  22332832.700   117359850.31209  22332831.000    91449240.89548
  23366501.800   122792093.75108  23366499.280    95682271.09546
  20872762.640   109687147.11309  20872758.080    85470504.48448
  20911671.600   109891691.64409  20911666.800    85629915.25748
  20306817.340   106713106.92209  20306816.800    83153088.55749
  22323938.340   117313201.17909  22323938.140    91412920.66447
 15 03 26 01 13  0.0000000  0 10G01G04G11G14G16G18G19G22G27G32
  24203095.820   127188135.19208  24203098.400    99107642.08545
  21862419.160   114887842.74609  21862418.000    89523018.53847
  23256468.000   122213587.04208  23256465.580    95231363.58245
  23732702.080   124716239.35508  23732701.100    97181506.68345
  22350090.620   117450540.45309  22350088.880    91519908.50048
  23382201.680   122874597.76108  23382199.280    95746559.89446
  20864801.260   109645309.89509  20864796.760    85437904.06648
  20919194.780   109931226.26909  20919189.920    85660721.46748
  20307865.220   106718613.49309  20307864.700    83157379.38749
  22304678.300   117211989.84709  22304678.240    91334054.78347
 15 03 26 01 13 30.0000000  0 10G01G04G11G14G16G18G19G22G27G32
  24188754.660   127112772.56207  24188757.180    99048918.08345
  21851080.500   114828258.33409  21851079.520    89476589.16147
  23240672.480   122130580.70809  23240670.020    95166683.34745
  23719505.320   124646890.68608  23719504.460    97127468.86746
  22367403.020   117541517.05709  22367401.240    91590799.31747
  23397936.880   122957286.41408  23397934.320    95810992.60946
  20856897.820   109603777.19009  20856893.360    85405540.92948
  20926800.720   109971196.17909  20926795.960    85691866.85348
  20308992.000   106724534.58309  20308991.440    83161993.22049
  22285476.620   117111085.17309  22285476.660    91255427.83847
 15 03 26 01 14  0.0000000  0 10G01G04G11G14G16G18G19G22G27G32
  24174433.820   127037516.88607  24174436.480    98990277.40546
  21839781.500   114768882.19609  21839780.700    89430322.08147
  23224894.200   122047664.76408  23224891.680    95102073.55346
  23706346.580   124577741.90708  23706345.800    97073586.81146
  22384769.740   117632779.72309  22384768.000    91661913.04947
  23413707.380   123040160.94508  23413704.760    95875570.15446
  20849053.140   109562553.26809  20849048.720    85373418.39948
  20934489.760   110011602.62509  20934485.080    85723352.39848
  20310198.360   106730873.84809  20310197.760    83166932.89849
  22266334.280   117010492.30209  22266334.380    91177043.86047
 15 03 26 01 14 30.0000000  0 10G01G04G11G14G16G18G19G22G27G32
  24160133.280   126962367.80908  24160136.140    98931719.82345
  21828522.140   114709714.14109  21828521.320    89384217.14247
  23209133.140   121964839.45908  23209130.540    95037534.38546
  23693226.380   124508795.60308  23693225.700    97019862.52845
  22402190.340   117724325.76509  22402188.660    91733247.59047
  23429512.860   123123218.82008  23429510.200    95940290.57246
  20841267.440   109521639.33809  20841263.080    85341537.43348
  20942261.520   110052443.41309  20942256.820    85755176.39848
  20311484.380   106737631.81809  20311483.760    83172198.84749
  22247251.700   116910213.19509  22247251.760    91098904.38347
 15 03 26 01 15  0.0000000  0 10G01G04G11G14G16G18G19G22G27G32
  24145853.320   126887326.81707  24145856.260    98873246.44646
  21817302.800   114650755.71409  21817301.860    89338275.53547
  23193389.620   121882106.73808  23193387.080    94973067.37246
  23680145.560   124440056.27908  23680144.900    96966299.51945
  22419664.580   117816153.61009  22419662.960    91804801.71047
  23445352.980   123206459.52508  23445350.280    96005153.44046
  20833541.320   109481038.64209  20833537.000    85309900.54249
  20950115.920   110093718.47709  20950111.200    85787338.78848
  20312850.540   106744811.00109  20312849.940    83177793.01149
  22228229.720   116810251.95809  22228229.660    91021012.58347
 15 03 26 01 15 30.0000000  0 10G01G04G11G14G16G18G19G22G27G32
  24131593.300   126812390.55508  24131596.160    98814854.68946
  21806122.740   114592003.64509  21806121.660    89292494.73947
  23177663.140   121799463.98708  23177660.680    94908670.46546
  23667104.040   124371523.42508  23667103.440    96912897.39945
  22437191.360   117908257.48509  22437189.720    91876570.92047
  23461226.880   123289877.35608  23461224.260    96070154.35046
  20825874.540   109440749.61209  20825870.300    85278506.50248
  20958051.920   110135422.68309  20958047.220    85819835.57648
  20314296.360   106752408.90409  20314295.860    83183713.45249
  22209268.120   116710607.61209  22209267.860    90943367.70847
 15 03 26 01 16  0.0000000  0 10G01G04G11G14G16G18G19G22G27G32
  24117353.640   126737560.79908  24117356.440    98756545.87646
  21794982.200   114533459.67809  21794981.100    89246876.10147
  23161954.140   121716913.38908  23161951.800    94844345.36046
  23654102.740   124303201.85508  23654102.300    96859659.92345
  22454770.420   118000636.04209  22454768.860    91948554.16247
  23477134.440   123373472.38708  23477131.920    96135293.29246
  20818267.660   109400775.51109  20818263.500    85247357.86148
  20966069.560   110177555.75209  20966064.820    85852666.53348
  20315822.320   106760428.17309  20315821.940    83189962.22049
  22190367.580   116611284.28909  22190367.140    90865972.97847
 15 03 26 01 16 30.0000000  0 10G01G04G11G14G16G18G19G22G27G32
  24103134.260   126662837.16708  24103136.820    98698319.79845
  21783881.220   114475123.68209  21783880.160    89201419.51947
  23146262.740   121634455.45308  23146260.560    94780092.47646
  23641142.200   124235093.94608  23641141.640    96806588.90745
  22472401.140   118093286.02509  22472399.640    92020748.91347
  23493075.300   123457242.05408  23493072.760    96200568.35946
  20810720.980   109361117.50009  20810716.880    85216455.52749
  20974168.560   110220115.92709  20974163.680    85885830.30748
  20317428.580   106768869.42309  20317428.280    83196539.80749
  22171528.500   116512284.14509  22171527.940    90788830.08447
 15 03 26 01 17  0.0000000  0 10G01G04G11G14G16G18G19G22G27G32
  24088935.160   126588219.84308  24088937.440    98640176.52146
  21772819.840   114416995.89009  21772818.720    89156125.16247
  23130589.200   121552091.08308  23130587.140    94715912.48246
  23628223.040   124167202.90808  23628222.160    96753686.88446
  22490083.020   118186204.54809  22490081.480    92093152.92247
  23509048.980   123541184.50908  23509046.640    96265978.02546
  20803234.880   109321777.65109  20803230.800    85185801.10149
  20982348.560   110263101.64909  20982343.540    85919325.68048
  20319115.380   106777733.60409  20319115.120    83203446.95949
  22152751.300   116413609.57609  22152750.700    90711940.88247
 15 03 26 01 17 30.0000000  0 10G01G04G11G14G16G18G19G22G27G32
  24074756.200   126513708.77708  24074758.380    98582116.05246
  21761798.140   114359076.43909  21761796.900    89110993.15847
  23114933.620   121469820.78108  23114931.600    94651805.79646
  23615345.720   124099531.60108  23615344.640    96700956.07745
  22507815.480   118279388.93109  22507813.900    92165764.09747
  23525055.240   123625297.57108  23525052.860    96331520.66546
  20795809.660   109282757.55909  20795805.580    85155395.84348
  20990609.140   110306511.15609  20990604.100    85953151.26548
  20320882.860   106787021.65809  20320882.640    83210684.40249
  22134036.480   116315263.07209  22134035.960    90635307.32247
 15 03 26 01 18  0.0000000  0 10G01G04G11G14G16G18G19G22G27G32
  24060597.340   126439303.54208  24060599.400    98524138.04545
  21750816.060   114301364.90709  21750814.700    89066023.16747
  23099295.980   121387644.64608  23099294.000    94587772.48746
  23602510.660   124032082.76108  23602509.480    96648398.61145
  22525597.880   118372835.82709  22525596.200    92238579.82147
  23541093.460   123709579.08308  23541091.140    96397194.54146
  20788445.480   109244058.33509  20788441.360    85125240.60949
  20998949.860   110350341.95109  20998944.860    85987305.13448
  20322731.040   106796734.05709  20322730.840    83218252.50149
  22115384.500   116217246.80009  22115384.080    90558931.08447
 15 03 26 01 18 30.0000000  0 10G01G04G11G14G16G18G19G22G27G32
  24046458.940   126365006.18408  24046460.920    98466244.08545
  21739874.000   114243863.56809  21739872.520    89021216.95147
  23083676.760   121305565.55308  23083674.840    94523814.79046
  23589718.800   123964861.08908  23589717.580    96596018.15946
  22543430.080   118466544.23709  22543428.340    92311599.31847
  23557163.760   123794029.04808  23557161.480    96462999.68445
  20781143.080   109205683.76209  20781138.920    85095338.35748
  21007370.740   110394594.10309  21007365.800    86021787.32848
  20324660.500   106806873.64009  20324660.300    83226153.46849
  22096796.180   116119564.92609  22096795.800    90482815.41247
 15 03 26 01 19  0.0000000  0 10G01G04G11G14G16G18G19G22G27G32
  24032340.720   126290814.63708  24032342.640    98408432.57745
  21728971.540   114186570.33609  21728969.920    88976572.90147
  23068075.700   121223581.96308  23068073.860    94459931.50746
  23576970.300   123897867.65008  23576969.100    96543815.56746
  22561311.000   118560509.22409  22561309.220    92384818.74747
  23573265.380   123878643.30108  23573262.980    96528932.86746
  20773902.420   109167633.49009  20773898.140    85065688.80449
  21015871.240   110439264.53209  21015866.320    86056595.45648
  20326671.080   106817439.21209  20326670.820    83234386.37749
  22078271.600   116022217.92909  22078271.220    90406960.67947
 15 03 26 01 19 30.0000000  0 10G01G04G11G14G16G18G19G22G27G32
  24018242.880   126216730.51308  24018244.900    98350704.76945
  21718108.980   114129486.88009  21718107.280    88932092.31347
  23052493.380   121141696.30608  23052491.500    94396124.54746
  23564266.020   123831107.08808  23564264.980    96491794.44046
  22579240.600   118654730.25209  22579238.900    92458237.68547
  23589398.120   123963421.29608  23589395.640    96594993.63646
  20766724.100   109129910.84309  20766719.680    85036294.54449
  21024451.300   110484352.85709  21024446.380    86091729.20848
  20328763.200   106828433.20809  20328762.900    83242953.12649
  22059811.560   115925209.74909  22059811.140    90331369.96347
 15 03 26 01 20  0.0000000  0 10G01G04G11G14G16G18G19G22G27G32
  24004165.040   126142751.30608  24004167.040    98293058.69946
  21707285.840   114072610.75909  21707284.120    88887773.27847
  23036929.400   121059906.78108  23036927.360    94332392.48746
  23551606.160   123764579.84708  23551605.260    96439955.12046
  22597217.920   118749201.62209  22597216.280    92531851.69147
  23605561.200   124048359.05908  23605558.760    96661178.86946
  20759607.960   109092514.92809  20759603.380    85007154.86849
  21033110.060   110529854.46209  21033105.040    86127185.00848
  20330936.440   106839853.95109  20330936.220    83251852.40049
  22041415.960   115828540.17409  22041415.460    90256043.09147
 15 03 26 01 20 30.0000000  0 10G01G04G11G14G16G18G19G22G27G32
  23990107.160   126068877.30808  23990109.240    98235494.62446
  21696502.200   114015942.54809  21696500.460    88843616.24547
  23021383.920   120978214.33608  23021381.740    94268736.06046
  23538991.340   123698288.86508  23538990.540    96388299.89146
  22615242.320   118843920.35209  22615240.700    92605658.44047
  23621754.360   124133454.58408  23621751.820    96727487.05446
  20752554.320   109055447.60009  20752549.660    84978271.23449
  21041847.100   110575767.94109  21041842.060    86162961.73748
  20333191.140   106851702.62609  20333190.960    83261085.12849
  22023085.340   115732212.08909  22023084.720    90180982.31147
 15 03 26 01 21  0.0000000  0 10G01G04G11G14G16G18G19G22G27G32
  23976069.380   125995108.82508  23976071.420    98178012.76546
  21685758.160   113959482.70209  21685756.460    88799621.59647
  23005857.120   120896619.93808  23005854.840    94205156.05546
  23526422.120   123632237.47808  23526421.340    96336831.37646
  22633313.380   118938883.92409  22633311.760    92679655.98647
  23637977.260   124218706.05808  23637974.640    96793916.76346
  20745563.540   109018710.85609  20745558.880    84949645.21249
  21050662.200   110622091.79109  21050657.240    86199058.24948
  20335527.600   106863980.31809  20335527.360    83270652.17249
  22004820.160   115636228.00409  22004819.440    90106189.60047
 15 03 26 01 21 30.0000000  0 10G01G04G11G14G16G18G19G22G27G32
  23962052.380   125921449.85008  23962054.500    98120616.24546
  21675054.580   113903235.25109  21675052.880    88755792.43247
  22990349.900   120815128.40309  22990347.400    94141656.18746
  23513899.800   123566432.42908  23513898.860    96285554.79846
  22651431.280   119034093.57409  22651429.600    92753845.27747
  23654230.260   124304115.42908  23654227.560    96860469.51246
  20738636.660   108982310.16809  20738632.100    84921281.04649
  21059555.800   110668828.14509  21059550.940    86235476.18348
  20337946.640   106876691.72009  20337946.280    83280557.14749
  21986621.680   115540594.33109  21986620.920    90031669.93247
 15 03 26 01 22  0.0000000  0 10G01G04G11G14G16G18G19G22G27G32
  23948054.920   125847893.38108  23948057.120    98063299.58645
  21664390.100   113847193.26709  21664388.460    88712123.38047
  22974861.000   120733733.19809  22974858.280    94078231.38246
  23501423.600   123500869.93108  23501422.540    96234467.20546
  22669594.120   119129539.54609  22669592.420    92828218.70847
  23670511.560   124389673.96508  23670508.840    96927138.48746
  20731772.700   108946240.37209  20731768.280    84893174.71349
  21068526.260   110715968.03609  21068521.340    86272208.56848
  20340446.940   106889830.66009  20340446.580    83290795.27349
  21968488.900   115445306.17609  21968488.120    89957419.49547
 15 03 26 01 22 30.0000000  0 10G01G04G11G14G16G18G19G22G27G32
  23934077.980   125774444.31008  23934080.160    98006066.61946
  21653765.620   113791361.71809  21653764.100    88668618.30447
  22959391.500   120652440.10709  22959388.520    94014886.16146
  23488994.940   123435557.61808  23488993.860    96183574.57146
  22687802.320   119225223.81309  22687800.540    92902777.83447
  23686821.760   124475384.36308  23686819.100    96993925.79445
  20724973.060   108910508.27209  20724968.740    84865331.52549
  21077574.220   110763514.83209  21077569.140    86309258.02648
  20343029.600   106903402.88409  20343029.300    83301371.03349
  21950423.260   115350371.05709  21950422.440    89883444.14747
 15 03 26 01 23  0.0000000  0 10G01G04G11G14G16G18G19G22G27G32
  23920121.180   125701100.47408  23920123.280    97948915.63746
  21643180.740   113735738.59709  21643179.500    88625275.62847
  22943941.140   120571247.63309  22943937.980    93951619.32146
  23476614.160   123370496.49008  23476613.100    96132877.66646
  22706054.860   119321141.32609  22706053.100    92977518.69047
  23703160.040   124561242.59608  23703157.380    97060828.28445
  20718237.640   108875113.14109  20718233.300    84837750.89549
  21086698.720   110811464.36909  21086693.500    86346621.29148
  20345694.380   106917406.86809  20345694.120    83312283.21849
  21932424.780   115255788.93409  21932423.940    89809743.85547
 15 03 26 01 23 30.0000000  0 10G01G04G11G14G16G18G19G22G27G32
  23906184.800   125627864.17108  23906186.900    97891848.47046
  21632635.980   113680326.43109  21632635.000    88582097.34447
  22928510.380   120490158.76808  22928507.340    93888433.24446
  23464282.140   123305691.73908  23464281.140    96082380.53646
  22724351.740   119417291.43309  22724349.920    93052440.81347
  23719526.560   124647249.24708  23719523.920    97127846.44245
  20711567.120   108840059.02809  20711562.660    84810436.00949
  21095899.960   110859817.27809  21095894.740    86384298.89048
  20348441.960   106931845.77409  20348441.720    83323534.31149
  21914494.400   115161564.58509  21914493.580    89736322.35647
 15 03 26 01 24  0.0000000  0 10G01G04G11G14G16G18G19G22G27G32
  23892268.280   125554732.74608  23892270.440    97834863.00246
  21622130.900   113625122.62209  21622130.120    88539081.40447
  22913098.880   120409171.45409  22913096.060    93825326.28246
  23451998.880   123241143.22408  23451997.980    96032083.06346
  22742691.840   119513668.68709  22742689.880    93127539.92447
  23735920.400   124733399.56808  23735917.780    97194976.53346
  20704961.280   108805344.91809  20704956.780    84783386.05849
  21105177.080   110908569.08009  21105171.920    86422287.29948
  20351271.980   106946717.64309  20351271.740    83335122.77249
  21896632.040   115067697.54309  21896631.240    89663179.27347
 15 03 26 01 24 30.0000000  0 10G01G04G11G14G16G18G19G22G27G32
  23878372.060   125481708.71608  23878374.320    97777961.22546
  21611666.040   113570129.54909  21611665.220    88496229.68047
  22897707.400   120328289.16909  22897704.720    93762301.16246
  23439765.560   123176856.57308  23439764.560    95981989.62845
  22761075.040   119610272.64009  22761073.040    93202815.68647
  23752341.740   124819694.13008  23752339.120    97262219.03446
  20698420.900   108770974.81009  20698416.360    84756604.15849
  21114530.160   110957720.11509  21114525.040    86460586.80548
  20354185.040   106962025.70609  20354184.840    83347051.12749
  21878838.580   114974192.66409  21878837.760    89590318.40547
 15 03 26 01 25  0.0000000  0 10G01G04G11G14G16G18G19G22G27G32
  23864495.520   125408787.88608  23864497.800    97721139.84946
  21601240.580   113515343.42309  21601239.660    88453539.22447
  22882335.280   120247508.54809  22882332.740    93699355.26346
  23427581.820   123112830.70308  23427580.680    95932099.41346
  22779499.920   119707095.84809  22779498.000    93278262.29347
  23768789.380   124906126.78808  23768786.700    97329569.14946
  20691945.400   108736946.06509  20691940.900    84730088.25449
  21123958.080   111007264.30809  21123953.040    86499192.66848
  20357180.440   106977766.51509  20357180.220    83359316.68149
  21861113.640   114881048.06909  21861112.800    89517738.27147
 15 03 26 01 25 30.0000000  0 10G01G04G11G14G16G18G19G22G27G32
  23850639.440   125335974.02508  23850641.600    97664401.81846
  21590855.260   113460767.86509  21590854.200    88411012.82547
  22866983.380   120166833.80609  22866980.800    93636491.86446
  23415448.880   123049071.95608  23415447.700    95882417.33745
  22797966.860   119804140.14709  22797965.000    93353881.17447
  23785263.600   124992699.29608  23785260.960    97397028.21445
  20685535.820   108703264.30609  20685531.460    84703842.72249
  21133461.140   111057203.64309  21133456.220    86538106.42948
  20360258.920   106993944.46809  20360258.760    83371922.86149
  21843458.360   114788269.76909  21843457.540    89445443.55947
 15 03 26 01 26  0.0000000  0 10G01G04G11G14G16G18G19G22G27G32
  23836803.400   125263265.44108  23836805.580    97607745.82446
  21580509.820   113406401.70909  21580508.580    88368649.61147
  22851651.460   120086264.15109  22851648.760    93573710.35246
  23403367.060   122985581.76608  23403365.800    95832944.51946
  22816474.840   119901400.41709  22816472.980    93429668.35247
  23801763.740   125079407.97008  23801761.100    97464593.40046
  20679192.240   108669929.34309  20679188.020    84677867.43249
  21143038.740   111107534.66809  21143033.960    86577325.41048
  20363420.380   107010558.63309  20363420.280    83384868.95849
  21825872.960   114695858.37309  21825872.160    89373434.73747
 15 03 26 01 26 30.0000000  0 10G01G04G11G14G16G18G19G22G27G32
  23822987.280   125190661.00708  23822989.400    97551170.98946
  21570203.960   113352243.63909  21570202.660    88326448.54047
  22836339.520   120005799.39209  22836336.640    93511010.58346
  23391336.720   122922361.81108  23391335.400    95783682.29846
  22835023.140   119998872.60109  22835021.280    93505620.66147
  23818289.260   125166249.95608  23818286.640    97532262.46445
  20672914.880   108636942.04909  20672910.720    84652163.05949
  21152690.260   111158254.28909  21152685.620    86616847.19648
  20366664.800   107027608.55109  20366664.740    83398154.61249
  21808357.700   114603815.06509  21808356.900    89301712.74947
 15 03 26 01 27  0.0000000  0 10G01G04G11G14G16G18G19G22G27G32
  23809191.940   125118165.68808  23809193.980    97494681.18346
  21559938.620   113298298.62409  21559937.220    88284413.48447
  22821048.620   119925445.12309  22821045.640    93448396.91046
  23379359.260   122859419.81508  23379358.000    95734636.66346
  22853612.060   120096558.11209  22853610.200    93581739.19747
  23834840.700   125253228.34708  23834838.080    97600037.80946
  20666705.000   108604308.79309  20666700.840    84626734.54849
  21162416.380   111209365.64409  21162411.760    86656674.23148
  20369993.260   107045099.82409  20369993.200    83411784.16549
  21790913.820   114512146.90209  21790913.060    89230283.07647
 15 03 26 01 27 30.0000000  0 10G01G04G11G14G16G18G19G22G27G32
  23795416.320   125045774.26608  23795418.240    97438272.31446
  21549712.800   113244561.74009  21549711.340    88242540.60847
  22805777.780   119845196.73309  22805774.860    93385865.71746
  23367434.180   122796753.35408  23367432.980    95685805.72846
  22872240.320   120194450.11009  22872238.500    93658018.62047
  23851416.620   125340335.56808  23851414.100    97667913.53945
  20660561.860   108572025.81209  20660557.620    84601578.97149
  21172215.660   111260861.54209  21172211.020    86696800.90248
  20373404.900   107063027.89209  20373404.820    83425754.07449
  21773540.760   114420850.95009  21773540.100    89159143.43947
 15 03 26 01 28  0.0000000  0 10G01G04G11G14G16G18G19G22G27G32
  23781660.880   124973488.87808  23781662.760    97381946.08746
  21539527.040   113191035.53609  21539525.600    88200831.90447
  22790527.600   119765057.32908  22790524.940    93323419.46946
  23355562.520   122734367.71708  23355561.360    95637193.61346
  22890907.620   120292547.11409  22890905.880    93734457.79647
  23868017.100   125427571.93708  23868014.660    97735889.89745
  20654486.160   108540097.11309  20654481.800    84576699.46549
  21182088.160   111312742.30509  21182083.520    86737227.46948
  20376900.280   107081395.56809  20376900.100    83440066.54049
  21756239.340   114329931.64009  21756238.720    89088297.29147
 15 03 26 01 28 30.0000000  0 10G01G04G11G14G16G18G19G22G27G32
  23767925.840   124901310.64308  23767927.660    97325703.35146
  21529381.600   113137720.96309  21529380.220    88159288.11147
  22775298.540   119685028.87408  22775296.120    93261059.66546
  23343745.060   122672266.78008  23343743.920    95588803.33146
  22909613.680   120390847.45509  22909612.000    93811055.42147
  23884642.120   125514937.11108  23884639.740    97803966.64045
  20648478.340   108508525.40109  20648473.820    84552098.13749
  21192033.780   111365006.83609  21192029.120    86777953.08348
  20380479.660   107100204.53009  20380479.380    83454722.87749
  21739010.160   114239392.18209  21739009.540    89017747.12747
 15 03 26 01 29  0.0000000  0 10G01G04G11G14G16G18G19G22G27G32
  23754210.580   124829236.49908  23754212.300    97269541.73445
  21519275.880   113084615.12409  21519274.520    88117906.95548
  22760090.200   119605108.89208  22760087.860    93198784.38946
  23331981.800   122610450.16608  23331980.480    95540634.61346
  22928357.300   120489345.14409  22928355.600    93887806.82647
  23901290.740   125602426.11108  23901288.260    97872139.88945
  20642538.200   108477309.25009  20642533.500    84527773.87049
  21202051.580   111417650.18109  21202046.820    86818973.87448
  20384142.480   107119452.39309  20384142.120    83469721.20149
  21721853.060   114149231.88209  21721852.500    88947492.41847
 15 03 26 01 29 30.0000000  0 10G01G04G11G14G16G18G19G22G27G32
  23740515.580   124757269.19008  23740517.200    97213463.35246
  21509210.480   113031720.93809  21509209.080    88076690.72848
  22744903.180   119525300.93408  22744900.900    93136596.40446
  23320273.680   122548923.73208  23320272.220    95492692.00546
  22947138.400   120588040.08109  22947136.660    93964711.92347
  23917963.000   125690039.52308  23917960.480    97940410.07445
  20636666.500   108446452.95609  20636661.720    84503730.01249
  21212141.760   111470673.57009  21212136.840    86860290.80548
  20387889.460   107139142.50909  20387889.040    83485064.13849
  21704769.100   114059455.59209  21704768.540    88877536.93348
 15 03 26 01 30  0.0000000  0 10G01G04G11G14G16G18G19G22G27G32
  23726840.120   124685404.55708  23726841.720    97157464.97845
  21499184.580   112979034.33909  21499183.060    88035636.26047
  22729736.900   119445601.61309  22729734.560    93074493.05446
  23308620.440   122487686.22908  23308618.960    95444974.53946
  22965955.680   120686925.56209  22965954.040    94041765.48947
  23934657.760   125777771.19508  23934655.320    98008772.40145
  20630862.760   108415954.14709  20630858.060    84479964.70649
  21222303.000   111524070.66909  21222297.960    86901898.93548
  20391719.920   107159271.23409  20391719.420    83500748.84749
  21687757.900   113970061.39309  21687757.320    88807879.17347
 15 03 26 01 30 30.0000000  0 10G01G04G11G14G16G18G19G22G27G32
  23713185.120   124613647.20808  23713186.860    97101550.20546
  21489199.080   112926560.10009  21489197.560    87994747.27447
  22714592.360   119366016.48609  22714589.960    93012478.70246
  23297023.560   122426744.77808  23297022.100    95397487.75846
  22984809.440   120786002.76109  22984807.820    94118968.46947
  23951375.620   125865624.12108  23951373.240    98077229.20245
  20625128.280   108385819.09109  20625123.620    84456482.85549
  21232535.860   111577844.33509  21232530.760    86943800.50048
  20395634.740   107179843.78609  20395634.280    83516779.40549
  21670820.700   113881056.01109  21670820.060    88738524.39147
 15 03 26 01 31  0.0000000  0 10G01G04G11G14G16G18G19G22G27G32
  23699549.820   124541993.99808  23699551.600    97045716.58445
  21479253.340   112874294.98909  21479251.840    87954021.23647
  22699469.100   119286543.09309  22699466.680    92950551.40546
  23285483.000   122366099.15908  23285481.580    95350231.49146
  23003698.580   120885265.85609  23003696.960    94196316.28447
  23968115.540   125953592.92108  23968113.100    98145776.30845
  20619462.680   108356045.89909  20619458.020    84433282.96749
  21242839.300   111631989.19409  21242834.260    86985991.29048
  20399633.480   107200857.59309  20399633.060    83533153.79849
  21653957.280   113792438.44609  21653956.540    88669471.80047
 15 03 26 01 31 30.0000000  0 10G01G04G11G14G16G18G19G22G27G32
  23685934.820   124470448.02708  23685936.820    96989966.51645
  21469348.060   112822242.56009  21469346.560    87913460.91347
  22684367.900   119207185.55909  22684365.420    92888714.39246
  23273999.900   122305755.56308  23273998.540    95303210.57746
  23022623.080   120984714.95409  23022621.540    94273809.03646
  23984877.760   126041679.12308  23984875.380    98214414.89345
  20613866.880   108326639.59309  20613862.240    84410368.97049
  21253213.660   111686506.55009  21253208.560    87028472.35048
  20403716.880   107222316.30209  20403716.500    83549874.86649
  21637168.680   113704214.01709  21637167.900    88600725.54947
 15 03 26 01 32  0.0000000  0 10G01G04G11G14G16G18G19G22G27G32
  23672339.520   124399005.08708  23672341.580    96934296.74246
  21459482.440   112770398.48709  21459480.900    87873062.94947
  22669288.100   119127940.35509  22669285.580    92826964.90346
  23262573.940   122245712.31608  23262572.620    95256423.69046
  23041581.580   121084342.71409  23041580.080    94351441.00447
  24001661.220   126129876.82708  24001658.920    98283140.34845
  20608340.320   108297597.40509  20608335.740    84387738.70149
  21263657.700   111741390.09609  21263652.520    87071238.74948
  20407884.220   107244216.22309  20407883.900    83566939.73549
  21620454.480   113616380.58709  21620453.720    88532283.97148
 15 03 26 01 32 30.0000000  0 10G01G04G11G14G16G18G19G22G27G32
  23658764.320   124327667.68908  23658766.480    96878709.21446
  21449657.040   112718765.47709  21449655.420    87832829.45147
  22654230.320   119048810.84509  22654227.720    92765305.56946
  23251206.100   122185974.66508  23251204.940    95209874.94146
  23060574.220   121184149.57709  23060572.740    94429212.53847
  24018465.960   126218186.26608  24018463.720    98351952.88045
  20602883.780   108268923.43009  20602879.220    84365395.34249
  21274171.460   111796640.36509  21274166.280    87114290.89848
  20412136.100   107266560.35309  20412135.880    83584350.74549
  21603815.580   113528942.88209  21603814.820    88464150.75248
 15 03 26 01 33  0.0000000  0 10G01G04G11G14G16G18G19G22G27G32
  23645209.320   124256436.09108  23645211.580    96823204.10746
  21439871.880   112667343.98809  21439870.200    87792760.77548
  22639194.740   118969798.04209  22639191.980    92703737.17046
  23239897.020   122126545.71608  23239895.960    95163566.74146
  23079600.360   121284132.19209  23079598.820    94507121.02847
  24035291.720   126306606.08408  24035289.520    98420851.42346
  20597497.760   108240619.66809  20597493.180    84343340.47449
  21284754.660   111852255.62209  21284749.500    87157627.46448
  20416472.720   107289349.50509  20416472.520    83602108.51249
  21587252.440   113441903.19909  21587251.660    88396327.67548
 15 03 26 01 33 30.0000000  0 10G01G04G11G14G16G18G19G22G27G32
  23631674.260   124185308.42308  23631676.420    96767779.98846
  21430126.600   112616132.35109  21430124.880    87752855.61847
  22624181.080   118890901.01809  22624178.260    92642258.99446
  23228646.920   122067426.65108  23228645.880    95117499.99246
  23098658.980   121384285.82909  23098657.500    94585162.77546
  24052137.740   126395132.44608  24052135.620    98489832.96545
  20592182.100   108212685.73009  20592177.500    84321573.76349
  21295406.660   111908232.25109  21295401.520    87201245.60748
  20420893.840   107312582.26109  20420893.580    83620211.94649
  21570765.120   113355261.80809  21570764.320    88328814.94848
 15 03 26 01 34  0.0000000  0 10G01G04G11G14G16G18G19G22G27G32
  23618159.560   124114287.26508  23618161.540    96712438.87146
  21420421.740   112565133.15409  21420420.020    87713115.99648
  22609189.980   118812123.16508  22609187.220    92580873.68846
  23217456.780   122008622.56808  23217455.760    95071678.68446
  23117750.100   121484610.47909  23117748.640    94663337.76947
  24069004.140   126483765.91608  24069001.980    98558897.97145
  20586937.640   108185125.74909  20586932.960    84300098.45549
  21306127.580   111964570.98209  21306122.460    87245145.91648
  20425399.960   107336261.70909  20425399.660    83638663.45549
  21554354.460   113269023.31809  21554353.660    88261616.18048
 15 03 26 01 34 30.0000000  0 10G01G04G11G14G16G18G19G22G27G32
  23604664.420   124043368.53308  23604666.140    96657177.57946
  21410756.540   112514342.45109  21410754.920    87673538.85547
  22594220.960   118733461.35908  22594218.300    92519578.79746
  23206326.440   121950132.05508  23206325.280    95026101.72046
  23136872.480   121585099.16709  23136871.040    94741640.59547
  24085889.840   126572500.92908  24085887.580    98628042.12346
  20581763.800   108157937.20709  20581759.100    84278912.58949
  21316916.120   112021265.52109  21316911.080    87289323.48148
  20429990.400   107360384.20309  20429990.040    83657460.20449
  21538020.120   113183185.81109  21538019.300    88194729.86848
 15 03 26 01 35  0.0000000  0 10G01G04G11G14G16G18G19G22G27G32
  23591189.380   123972555.89508  23591191.000    96601998.94746
  21401131.780   112463764.20109  21401130.200    87634127.24848
  22579274.840   118654919.88208  22579272.360    92458377.67546
  23195257.040   121891961.74508  23195255.740    94980774.26946
  23156026.260   121685752.56609  23156024.880    94820071.76847
  24102795.140   126661339.05108  24102792.900    98697266.60745
  20576661.640   108131125.44109  20576656.980    84258020.30749
  21327772.600   112078317.33609  21327767.700    87333779.43548
  20434665.900   107384953.83509  20434665.500    83676605.37049
  21521763.100   113097754.88309  21521762.260    88128160.36948
 15 03 26 01 35 30.0000000  0 10G01G04G11G14G16G18G19G22G27G32
  23577734.100   123901847.86108  23577735.740    96546901.83046
  21391547.100   112413396.89009  21391545.580    87594880.01147
  22564351.600   118576498.36009  22564349.300    92397270.02846
  23184248.740   121834112.74308  23184247.420    94935697.18446
  23175210.460   121786566.02609  23175209.060    94898627.65846
  24119719.500   126750277.21808  24119717.400    98766569.03445
  20571631.220   108104690.54209  20571626.620    84237421.68749
  21338696.460   112135723.27009  21338691.680    87378511.33648
  20439426.240   107409969.57209  20439425.800    83696098.14849
  21505583.620   113012731.20809  21505582.680    88061908.20848
 15 03 26 01 36  0.0000000  0 10G01G04G11G14G16G18G19G22G27G32
  23564298.820   123831245.29808  23564300.520    96491886.88747
  21382002.760   112363241.64209  21382001.280    87555798.01447
  22549451.560   118498198.36609  22549449.360    92336257.08146
  23173302.360   121776589.33808  23173301.000    94890873.79946
  23194424.760   121887537.52809  23194423.280    94977306.69746
  24136662.680   126839314.33008  24136660.620    98835948.55645
  20566673.020   108078634.85509  20566668.400    84217118.55449
  21349687.440   112193482.16409  21349682.800    87423518.26248
  20444271.680   107435432.72509  20444271.220    83715939.56249
  21489482.200   112928117.69609  21489481.180    87995975.65248
 15 03 26 01 36 30.0000000  0 10G01G04G11G14G16G18G19G22G27G32
  23550883.480   123760747.32608  23550885.180    96436953.44446
  21372498.700   112313297.74809  21372497.200    87516880.71248
  22534574.740   118420020.14109  22534572.600    92275339.01846
  23162418.160   121719392.41508  23162416.700    94846304.82246
  23213668.440   121988663.67209  23213667.000    95056106.23347
  24153624.300   126928447.86608  24153622.180    98905403.25845
  20561787.180   108052959.28509  20561782.480    84197111.61649
  21360745.040   112251591.01909  21360740.500    87468797.88348
  20449202.180   107461342.77509  20449201.700    83736129.20749
  21473459.020   112843915.40009  21473457.940    87930363.52148
 15 03 26 01 37  0.0000000  0 10G01G04G11G14G16G18G19G22G27G32
  23537487.700   123690352.00408  23537489.400    96382099.98946
  21363034.480   112263563.15909  21363033.000    87478126.50647
  22519720.960   118341962.35409  22519718.720    92214514.78946
  23151596.360   121662523.31208  23151594.800    94801991.28046
  23232940.640   122089939.84308  23232939.280    95135022.67947
  24170603.560   127017673.81508  24170601.120    98974929.97345
  20556973.480   108027663.15209  20556968.740    84177400.34249
  21371868.600   112310045.96309  21371864.140    87514347.18448
  20454217.440   107487698.16309  20454216.980    83756665.86549
  21457514.040   112760124.43809  21457513.060    87865071.91148
 15 03 26 01 37 30.0000000  0 10G01G04G11G14G16G18G19G22G27G32
  23524111.940   123620062.11808  23524113.520    96327328.69846
  21353610.740   112214041.02409  21353609.300    87439537.84648
  22504890.820   118264028.83509  22504888.480    92153787.40546
  23140837.960   121605987.52308  23140836.340    94757937.47346
  23252241.300   122191365.48609  23252240.100    95214055.57946
  24187600.620   127106993.34808  24187597.980    99044529.60144
  20552232.760   108002750.79709  20552228.080    84157988.11949
  21383058.260   112368847.76309  21383053.800    87560166.76848
  20459318.040   107514502.10209  20459317.620    83777552.04149
  21441648.200   112676749.66609  21441647.420    87800104.61048
 15 03 26 01 38  0.0000000  0 10G01G04G11G14G16G18G19G22G27G32
  23510756.340   123549878.63108  23510757.920    96272640.32646
  21344227.620   112164732.22709  21344226.200    87401115.41748
  22490084.640   118186221.19309  22490082.160    92093158.09447
  23130143.580   121549788.43408  23130141.880    94714146.01846
  23271570.080   122292938.69708  23271568.960    95293203.47546
  24204615.260   127196405.27208  24204612.420    99114201.24544
  20547565.560   107978224.79509  20547560.980    84138876.94749
  21394313.760   112427995.31309  21394309.220    87606255.76048
  20464504.260   107541755.82409  20464503.820    83798788.69949
  21425862.120   112593793.90209  21425861.420    87735463.81048
 15 03 26 01 38 30.0000000  0 10G01G04G11G14G16G18G19G22G27G32
  23497420.660   123479799.90108  23497422.380    96218033.55646
  21334884.880   112115635.50809  21334883.460    87362858.25248
  22475302.320   118108539.04109  22475299.740    92032626.57746
  23119513.500   121493927.20508  23119511.780    94670617.83546
  23290926.020   122394654.54908  23290924.960    95372462.51547
  24221646.840   127285906.48808  24221643.820    99183942.45045
  20542971.900   107954085.07809  20542967.360    84120066.78249
  21405634.400   112487484.93709  21405629.720    87652611.31148
  20469775.800   107569458.11209  20469775.360    83820374.88549
  21410155.980   112511257.62709  21410155.200    87671149.88548
 15 03 26 01 39  0.0000000  0 10G01G04G11G14G16G18G19G22G27G32
  23484104.480   123409823.42008  23484106.420    96163506.48646
  21325582.080   112066748.51509  21325580.540    87324764.50348
  22460543.440   118030980.43309  22460540.760    91972191.32547
  23108947.800   121438404.00608  23108946.060    94627353.04946
  23310308.180   122496508.18508  23310307.120    95451828.92546
  24238694.500   127375492.99808  24238691.600    99253750.09145
  20538451.580   107930330.66509  20538447.000    84101556.84949
  21417019.280   112547311.97909  21417014.420    87699229.78548
  20475132.240   107597606.72009  20475131.880    83842308.85749
  21394529.540   112429140.08309  21394528.680    87607162.23548
 15 03 26 01 39 30.0000000  0 10G01G04G11G14G16G18G19G22G27G32
  23470808.420   123339952.93108  23470810.480    96109062.01046
  21316319.940   112018075.14209  21316318.280    87286837.21948
  22445808.960   117953550.18909  22445806.180    91911856.10247
  23098447.700   121383225.42109  23098445.860    94584356.79346
  23329716.820   122598500.67009  23329715.660    95531303.53146
  24255758.720   127465166.31008  24255755.900    99323625.39044
  20534005.640   107906966.89809  20534001.000    84083351.32949
  21428468.760   112607478.60309  21428463.720    87746112.86948
  20480574.380   107626205.74709  20480574.080    83864593.81049
  21378983.920   112347447.15209  21378983.060    87543505.45948
 15 03 26 01 40  0.0000000  0 10G01G04G11G14G16G18G19G22G27G32
  23457532.420   123270187.62408  23457534.520    96054699.48446
  21307098.280   111969614.55509  21307096.500    87249075.74648
  22431098.900   117876248.35709  22431096.080    91851620.92946
  23088013.480   121328393.07809  23088011.640    94541630.33746
  23349151.100   122700627.87209  23349149.760    95610883.10846
  24272839.000   127554923.94208  24272836.220    99393566.41045
  20529634.140   107883994.35809  20529629.480    84065450.64449
  21439982.200   112667981.70009  21439977.040    87793258.13348
  20486102.160   107655254.61909  20486101.880    83887229.28449
  21363519.240   112266179.78609  21363518.420    87480180.28648
 15 03 26 01 40 30.0000000  0 10G01G04G11G14G16G18G19G22G27G32
  23444275.980   123200525.33708  23444278.060    96000417.22646
  21297916.680   111921364.98209  21297914.880    87211478.69448
  22416412.960   117799073.50009  22416410.160    91791484.69946
  23077645.220   121273907.66708  23077643.360    94499174.21146
  23368610.060   122802884.84009  23368608.540    95690563.80546
  24289934.460   127644761.74508  24289931.960    99463569.85045
  20525336.860   107861412.32709  20525332.240    84047854.25549
  21451558.820   112728817.18809  21451553.580    87840662.40848
  20491715.220   107684751.49609  20491714.980    83910213.85549
  21348135.500   112185337.83109  21348134.660    87417186.59848
 15 03 26 01 41  0.0000000  0 10G01G04G11G14G16G18G19G22G27G32
  23431039.660   123130968.51308  23431041.700    95946217.14246
  21288775.640   111873328.82109  21288773.880    87174047.94048
  22401751.760   117722029.13309  22401749.040    91731450.15746
  23067343.820   121219774.22208  23067342.100    94456992.34946
  23388093.500   122905270.43609  23388091.940    95770344.72946
  24307045.280   127734680.36008  24307043.080    99533636.26845
  20521114.640   107839224.81609  20521110.040    84030565.28549
  21463198.660   112789985.09409  21463193.400    87888325.71348
  20497414.100   107714699.09709  20497413.820    83933549.63849
  21332833.460   112104925.58809  21332832.580    87354527.75648
 15 03 26 01 41 30.0000000  0 10G01G04G11G14G16G18G19G22G27G32
  23417823.060   123061514.77408  23417824.880    95892097.39346
  21279674.820   111825503.86509  21279673.080    87136781.75948
  22387115.120   117645113.93509  22387112.480    91671516.26546
  23057109.520   121165993.13808  23057107.940    94415085.05646
  23407600.620   123007780.78609  23407599.120    95850222.86446
  24324170.840   127824676.00408  24324168.820    99603762.70345
  20516967.400   107817431.01209  20516962.740    84013583.10649
  21474900.960   112851481.17709  21474895.800    87936244.74348
  20503198.320   107745095.26209  20503198.060    83957234.95749
  21317613.060   112024942.54309  21317612.200    87292203.36147
 15 03 26 01 42  0.0000000  0 10G01G04G11G14G16G18G19G22G27G32
  23404626.400   122992165.54508  23404628.040    95838059.07746
  21270614.440   111777891.62209  21270612.720    87099681.32748
  22372503.560   117568330.16809  22372500.920    91611684.78546
  23046943.020   121112568.17209  23046941.500    94373455.26846
  23427130.980   123110413.76708  23427129.620    95930196.54746
  24341310.980   127914748.28408  24341309.060    99673948.84846
  20512895.640   107796033.66409  20512890.880    83996909.84849
  21486665.660   112913305.14609  21486660.540    87984419.26248
  20509068.180   107775941.60909  20509068.060    83981271.06349
  21302474.920   111945391.87409  21302474.120    87230215.87548
 15 03 26 01 42 30.0000000  0 10G01G04G11G14G16G18G19G22G27G32
  23391449.580   122922920.29708  23391450.980    95784101.77246
  21261594.520   111730491.79409  21261592.800    87062746.41648
  22357917.060   117491678.18509  22357914.560    91551955.99346
  23036844.760   121059501.64908  23036843.240    94332104.76746
  23446683.960   123213165.59708  23446682.740    96010262.83546
  24358465.380   128004894.74908  24358463.420    99744192.82245
  20508899.520   107775033.67209  20508894.660    83980546.22549
  21498492.140   112975454.14309  21498487.100    88032847.04848
  20515023.640   107807237.87009  20515023.620    84005657.74849
  21287419.480   111866275.14209  21287418.620    87168566.51348
 15 03 26 01 43  0.0000000  0 10G01G04G11G14G16G18G19G22G27G32
  23378292.320   122853777.66708  23378293.600    95730224.43746
  21252614.860   111683303.34909  21252613.120    87025976.22148
  22343355.540   117415157.59009  22343353.220    91492329.59046
  23026814.900   121006794.64708  23026813.380    94291034.41746
  23466258.840   123316032.44808  23466257.740    96090418.75046
  24375633.380   128095112.41808  24375631.280    99814492.27245
  20504979.060   107754431.24009  20504974.200    83964492.38149
  21510379.820   113037924.63309  21510374.860    88081525.34448
  20521064.480   107838982.85909  20521064.500    84030394.09349
  21272446.740   111787592.59909  21272445.740    87107255.48248
 15 03 26 01 43 30.0000000  0 10G01G04G11G14G16G18G19G22G27G32
  23365155.540   122784742.91008  23365156.800    95676431.14246
  21243676.440   111636331.48009  21243674.640    86989374.77948
  22328820.300   117338774.69309  22328818.000    91432810.47346
  23016854.920   120954455.11908  23016853.480    94250250.41046
  23485856.060   123419016.70808  23485855.040    96170666.15346
  24392815.680   128185404.97108  24392813.320    99884850.08245
  20501135.520   107734233.02509  20501130.740    83948753.50849
  21522329.380   113100720.03409  21522324.480    88130456.82348
  20527191.760   107871182.01409  20527191.800    84055484.33749
  21257558.000   111709351.53509  21257556.920    87046288.45948
 15 03 26 01 44  0.0000000  0 10G01G04G11G14G16G18G19G22G27G32
  23352037.780   122715808.46608  23352039.060    95622716.04546
  21234777.860   111589568.89009  21234776.020    86952936.41448
  22314309.960   117262522.55709  22314307.680    91373393.25247
  23006963.980   120902478.06008  23006962.540    94209748.85746
  23505473.660   123522107.75508  23505472.680    96250996.77046
  24410010.400   128275762.95908  24410007.720    99955258.89645
  20497367.720   107714432.97109  20497363.000    83933324.90349
  21534338.920   113163830.87709  21534334.120    88179634.09548
  20533404.020   107903827.96809  20533404.120    84080922.73349
  21242752.140   111631545.97609  21242750.960    86985660.78848
 15 03 26 01 44 30.0000000  0 10G01G04G11G14G16G18G19G22G27G32
  23338940.240   122646980.58708  23338941.560    95569083.97047
  21225920.260   111543021.85909  21225918.380    86916666.01648
  22299825.960   117186408.63709  22299823.560    91314083.72847
  22997143.740   120850872.38008  22997142.160    94169536.68746
  23525112.220   123625308.98508  23525111.240    96331413.24146
  24427218.280   128366190.55308  24427215.520   100025721.97144
  20493677.200   107695038.75309  20493672.440    83918212.53149
  21546409.240   113227261.01809  21546404.480    88229060.17748
  20539702.580   107936927.10609  20539702.680    84106714.26749
  21228030.680   111554184.05609  21228029.480    86925378.81548
 15 03 26 01 45  0.0000000  0 10G01G04G11G14G16G18G19G22G27G32
  23325862.240   122578255.52708  23325863.540    95515532.01446
  21217102.980   111496687.00509  21217101.140    86880560.94248
  22285367.740   117110430.15409  22285365.220    91254879.73947
  22987393.840   120799636.51208  22987392.180    94129612.67146
  23544770.560   123728613.93808  23544769.620    96411910.53346
  24444438.360   128456682.59208  24444435.500   100096235.24244
  20490063.480   107676048.04009  20490058.620    83903414.57549
  21558539.260   113291004.54309  21558534.500    88278730.44448
  20546086.720   107970475.79109  20546086.800    84132856.08549
  21213393.260   111477263.81309  21213392.040    86865440.99948
 15 03 26 01 45 30.0000000  0 10G01G04G11G14G16G18G19G22G27G32
  23312803.740   122509633.23808  23312805.080    95462060.13346
  21208326.080   111450564.25709  21208324.260    86844621.15748
  22270935.540   117034588.12909  22270932.840    91195782.07946
  22977714.860   120748773.08908  22977713.180    94089978.88746
  23564447.920   123832018.62408  23564446.900    96492485.53146
  24461670.360   128547237.34808  24461667.420   100166797.40644
  20486526.720   107657462.13109  20486521.760    83888932.05549
  21570728.620   113355059.71309  21570723.740    88328643.55548
  20552556.480   108004474.14409  20552556.540    84159348.29249
  21198840.260   111400786.87709  21198838.940    86805848.60848
 15 03 26 01 46  0.0000000  0 10G01G04G11G14G16G18G19G22G27G32
  23299765.340   122441116.89508  23299766.720    95408670.82046
  21199590.200   111404656.92209  21199588.480    86808849.23048
  22256530.120   116958886.48709  22256527.260    91136793.80147
  22968107.840   120698288.09508  22968106.120    94050639.97346
  23584144.520   123935524.74508  23584143.520    96573139.57246
  24478914.500   128637856.28007  24478911.640   100237409.54044
  20483067.820   107639285.73309  20483062.900    83874768.63249
  21582977.460   113419427.42809  21582972.460    88378800.21248
  20559112.480   108038925.35809  20559112.420    84186193.38549
  21184372.520   111324758.23809  21184371.180    86746605.55348
 15 03 26 01 46 30.0000000  0 10G01G04G11G14G16G18G19G22G27G32
  23286746.800   122372704.62808  23286748.200    95355362.58746
  21190894.940   111358963.38709  21190893.400    86773243.89248
  22242151.220   116883324.33709  22242148.320    91077914.22647
  22958572.900   120648181.87508  22958571.100    94011596.20946
  23603859.600   124039127.70108  23603858.540    96653869.06846
  24496170.120   128728535.46507  24496167.180   100308068.62944
  20479686.700   107621518.21909  20479681.860    83860923.81449
  21595285.040   113484103.88509  21595279.900    88429197.44548
  20565754.240   108073827.71409  20565754.100    84213390.01249
  21169990.020   111249177.68809  21169988.660    86687711.65948
 15 03 26 01 47  0.0000000  0 10G01G04G11G14G16G18G19G22G27G32
  23273747.880   122304394.98508  23273749.260    95302134.33046
  21182240.160   111313482.44309  21182238.680    86737804.20848
  22227798.780   116807901.42209  22227795.760    91019143.15047
  22949110.240   120598455.55008  22949108.480    93972848.47246
  23623592.200   124142822.53908  23623591.100    96734670.16546
  24513436.680   128819272.26507  24513433.900   100378772.61344
  20476383.420   107604159.76509  20476378.660    83847397.75249
  21607650.660   113549085.29409  21607645.440    88479832.30348
  20572481.580   108109179.77709  20572481.340    84240937.07649
  21155692.800   111174045.52109  21155691.440    86629167.15648
 15 03 26 01 47 30.0000000  0 10G01G04G11G14G16G18G19G22G27G32
  23260768.480   122236187.89508  23260769.780    95248985.98346
  21173625.840   111268214.02209  21173624.340    86702530.13048
  22213472.960   116732618.54909  22213469.900    90960481.19647
  22939720.360   120549111.47408  22939718.640    93934398.58846
  23643341.720   124246606.13408  23643340.560    96815540.42146
  24530713.900   128910064.67908  24530711.340   100449519.91444
  20473158.240   107587211.63409  20473153.560    83834191.42249
  21620073.960   113614369.79009  21620068.680    88530703.33948
  20579294.380   108144981.53809  20579294.180    84268834.53849
  21141481.220   111099363.28509  21141479.760    86570973.24548
 15 03 26 01 48  0.0000000  0 10G01G04G11G14G16G18G19G22G27G32
  23247808.960   122168085.33708  23247810.300    95195919.10046
  21165052.400   111223160.17809  21165050.780    86667423.25748
  22199174.260   116657478.36309  22199171.220    90901930.43047
  22930404.040   120500154.11308  22930402.300    93896250.04446
  23663107.940   124350477.52508  23663106.720    96896479.08746
  24548001.840   129000913.16008  24547999.260   100520310.94845
  20470011.760   107570676.83109  20470007.120    83821307.15849
  21632554.900   113679957.38109  21632549.640    88581810.53848
  20586193.120   108181234.98709  20586192.960    84297083.96849
  21127355.880   111025134.59209  21127354.460    86513132.74848
 15 03 26 01 48 30.0000000  0 10G01G04G11G14G16G18G19G22G27G32
  23234869.500   122100088.53608  23234871.020    95142934.61647
  21156520.100   111178322.61009  21156518.380    86632484.90448
  22184903.160   116582483.30509  22184900.100    90843492.75347
  22921162.060   120451587.23608  22921160.300    93858405.75746
  23682890.560   124454435.24908  23682889.380    96977485.01546
  24565300.260   129091816.89708  24565297.680   100591145.00445
  20466944.560   107554558.22609  20466939.840    83808747.21049
  21645093.340   113745847.03809  21645088.100    88633153.12648
  20593178.140   108217941.41009  20593177.960    84325686.36649
  21113317.440   110951362.42109  21113316.060    86455647.98248
 15 03 26 01 49  0.0000000  0 10G01G04G11G14G16G18G19G22G27G32
  23221949.820   122032195.34808  23221951.400    95090030.87546
  21148028.540   111133699.32909  21148026.840    86597713.53548
  22170659.480   116507632.26409  22170656.420    90785167.29347
  22911994.420   120403411.08308  22911992.680    93820865.94746
  23702688.600   124558474.58008  23702687.620    97058554.50646
  24582608.420   129182772.13108  24582605.900   100662019.20245
  20463956.420   107538855.06109  20463951.620    83796510.98849
  21657688.300   113812034.07409  21657683.100    88684727.43748
  20600249.020   108255098.63309  20600248.760    84354640.03849
  21099365.660   110878046.14209  21099364.400    86398518.45148
 15 03 26 01 49 30.0000000  0 10G01G04G11G14G16G18G19G22G27G32
  23209049.620   121964404.45008  23209051.160    95037206.83946
  21139577.460   111089288.76409  21139575.820    86563107.91948
  22156443.200   116432925.10809  22156440.240    90726953.95047
  22902901.340   120355626.71708  22902899.540    93783631.41146
  23722501.240   124662590.56708  23722500.500    97139683.72346
  24599925.880   129273776.05008  24599923.420   100732931.31245
  20461047.240   107523567.10109  20461042.420    83784598.29249
  21670339.280   113878515.74309  21670334.140    88736531.33348
  20607405.400   108292705.27509  20607405.100    84383943.91149
  21085500.680   110805186.10509  21085499.540    86341744.43748
 15 03 26 01 50  0.0000000  0 10G01G04G11G14G16G18G19G22G27G32
  23196169.220   121896717.59408  23196170.780    94984463.86746
  21131167.240   111045093.04609  21131165.660    86528669.70948
  22142254.760   116358364.31109  22142251.900    90668854.65647
  22893883.620   120308238.54708  22893881.800    93746705.60046
  23742328.420   124766782.73308  23742327.720    97220872.31646
  24617252.660   129364828.83508  24617250.300   100803881.50845
  20458217.660   107508697.67109  20458212.920    83773011.72349
  21683046.120   113945291.24209  21683041.080    88788564.18048
  20614647.580   108330763.09809  20614647.240    84413599.34949
  21071723.240   110732785.68409  21071722.140    86285328.56248
 15 03 26 01 50 30.0000000  0 10G01G04G11G14G16G18G19G22G27G32
  23183308.760   121829135.80908  23183310.380    94931802.77546
  21122798.140   111001113.51509  21122796.640    86494399.96748
  22128094.500   116283951.92609  22128091.620    90610870.99847
  22884941.860   120261249.58108  22884940.060    93710090.86846
  23762169.820   124871049.26908  23762169.040    97302118.86046
  24634588.600   129455929.62008  24634586.320   100874869.11845
  20455468.180   107494249.16609  20455463.440    83761753.14449
  21695808.660   114012359.81709  21695803.820    88840825.39348
  20621975.800   108369273.01809  20621975.440    84443607.06649
  21058033.720   110660847.43309  21058032.700    86229272.81948
 15 03 26 01 51  0.0000000  0 10G01G04G11G14G16G18G19G22G27G32
  23170467.660   121761655.88608  23170469.340    94879221.04746
  21114469.580   110957346.88109  21114468.080    86460296.11548
  22113962.020   116209685.68409  22113959.100    90553001.21747
  22876075.940   120214659.07709  22876074.160    93673786.61946
  23782024.280   124975384.19308  23782023.360    97383418.70546
  24651932.760   129547073.59708  24651930.500   100945890.38845
  20452798.440   107480219.39809  20452793.640    83750820.86149
  21708626.080   114079716.20009  21708621.340    88893310.89248
  20629389.460   108408231.81409  20629389.060    84473964.56449
  21044431.940   110589369.66509  21044430.880    86173575.90048
 15 03 26 01 51 30.0000000  0 10G01G04G11G14G16G18G19G22G27G32
  23157646.160   121694278.57208  23157647.760    94826719.28346
  21106181.800   110913794.41909  21106180.280    86426359.15248
  22099857.620   116135567.47309  22099854.760    90495246.79647
  22867286.500   120168470.33408  22867284.680    93637795.43447
  23801891.300   125079785.12108  23801890.260    97464769.97546
  24669284.920   129638259.79208  24669282.720   101016944.54845
  20450208.820   107466610.51209  20450203.960    83740216.54649
  21721497.920   114147358.84109  21721493.400    88946019.43348
  20636888.600   108447640.08709  20636888.180    84504672.31149
  21030918.320   110518354.75009  21030917.200    86118239.64948
 15 03 26 01 52  0.0000000  0 10G01G04G11G14G16G18G19G22G27G32
  23144845.020   121627008.09308  23144846.440    94774300.76346
  21097935.520   110870460.10909  21097934.040    86392592.16948
  22085782.320   116061602.34709  22085779.600    90437611.65347
  22858574.740   120122689.89009  22858572.880    93602122.38446
  23821771.060   125184253.35008  23821770.020    97546173.68845
  24686645.500   129729490.85708  24686643.340   101088033.66745
  20447700.360   107453428.19009  20447695.460    83729944.60949
  21734424.700   114215289.86709  21734420.280    88998952.69048
  20644474.020   108487501.99609  20644473.620    84535733.52449
  21017493.880   110447808.39809  21017492.700    86063268.49248
 15 03 26 01 52 30.0000000  0 10G01G04G11G14G16G18G19G22G27G32
  23132063.000   121559838.01208  23132064.280    94721960.48146
  21089729.640   110827337.85809  21089728.240    86358990.43848
  22071735.180   115987785.13509  22071732.620    90380091.77847
  22849939.960   120077313.54609  22849937.980    93566764.23847
  23841661.780   125288779.63108  23841660.840    97627622.64046
  24704013.060   129820758.50007  24704011.020   101159151.29544
  20445272.040   107440667.09009  20445267.140    83720000.89749
  21747404.840   114283500.87909  21747400.400    89052104.12848
  20652144.460   108527810.94509  20652144.100    84567143.08749
  21004157.600   110377725.69209  21004156.460    86008658.63048
 15 03 26 01 53  0.0000000  0 10G01G04G11G14G16G18G19G22G27G32
  23119301.000   121492772.93608  23119302.140    94669702.01146
  21081565.040   110784432.46209  21081563.660    86325557.67448
  22057717.320   115914121.35609  22057714.860    90322691.45647
  22841383.380   120032348.20709  22841381.240    93531726.35046
  23861563.860   125393365.55008  23861562.980    97709118.05046
  24721388.280   129912065.92407  24721386.160   101230299.92444
  20442924.920   107428332.85709  20442920.040    83710389.80449
  21760438.720   114351994.28109  21760434.200    89105475.60048
  20659900.880   108568571.41709  20659900.540    84598904.48449
  20990910.640   110308112.70209  20990909.560    85954414.77548
 15 03 26 01 53 30.0000000  0 10G01G04G11G14G16G18G19G22G27G32
  23106558.480   121425810.20508  23106559.460    94617523.28446
  21073441.260   110741741.34209  21073439.760    86292291.87448
  22043728.440   115840609.20909  22043725.960    90265409.27747
  22832904.920   119987793.62008  22832902.760    93497008.51746
  23881476.320   125498005.90008  23881475.460    97790655.88546
  24738770.320   130003408.76107  24738768.120   101301476.11044
  20440658.760   107416424.23709  20440653.920    83701110.36349
  21773525.520   114420765.25409  21773520.780    89159063.36548
  20667742.700   108609780.56709  20667742.380    84631015.49849
  20977752.860   110238968.19909  20977751.740    85900535.97248
 15 03 26 01 54  0.0000000  0 10G01G04G11G14G16G18G19G22G27G32
  23093835.760   121358951.35308  23093836.700    94565425.51746
  21065358.580   110699266.19109  21065357.000    86259194.37648
  22029769.000   115767251.41209  22029766.400    90208247.38347
  22824505.280   119943653.64308  22824503.260    93462613.77046
  23901398.900   125602699.38308  23901398.060    97872235.10446
  24756159.100   130094786.94407  24756156.520   101372679.89944
  20438474.160   107404944.18409  20438469.320    83692164.86649
  21786665.120   114489813.28809  21786660.300    89212867.03048
  20675670.180   108651439.73809  20675669.920    84663477.18549
  20964684.800   110170295.11909  20964683.600    85847024.52048
 15 03 26 01 54 30.0000000  0 10G01G04G11G14G16G18G19G22G27G32
  23081132.840   121292196.97408  23081133.800    94513409.15247
  21057317.140   110657008.08309  21057315.520    86226265.99748
  22015839.420   115694049.89309  22015836.620    90151207.24647
  22816185.040   119899930.86208  22816183.160    93428544.10246
  23921331.160   125707443.50408  23921330.340    97953853.77246
  24773554.360   130186199.47408  24773551.680   101443910.46843
  20436371.500   107393894.54209  20436366.580    83683554.75449
  21799857.000   114559136.53809  21799852.040    89266885.13948
  20683683.380   108693549.35409  20683683.140    84696289.86449
  20951706.900   110102095.61609  20951705.640    85793882.09148
 15 03 26 01 55  0.0000000  0 10G01G04G11G14G16G18G19G22G27G32
  23068449.520   121225545.72808  23068450.640    94461473.15147
  21049316.740   110614965.40609  21049315.000    86193505.48848
  22001939.420   115621004.07509  22001936.360    90094288.45547
  22807944.420   119856626.22209  22807942.580    93394800.26547
  23941272.280   125812234.27708  23941271.480    98035508.80946
  24790955.660   130277643.25008  24790953.020   101515165.38744
  20434350.720   107383275.07209  20434345.700    83675279.84249
  21813100.660   114628732.19209  21813095.680    89321115.51248
  20691781.940   108736107.85709  20691781.800    84729452.32449
  20938819.140   110034369.67009  20938817.800    85741108.66448
 15 03 26 01 55 30.0000000  0 11G01G03G04G11G14G16G18G19G22G27G32
  23055785.700   121158997.22808  23055786.920    94409617.21146
  24633786.420                                                  
  21041357.340   110573138.36609  21041355.540    86160913.00848
  21988069.160   115548114.58309  21988065.940    90037491.46347
  22799783.800   119813741.97408  22799781.960    93361383.99147
  23961221.640   125917068.37508  23961220.960    98117197.57746
  24808362.500   130369116.50408  24808360.020   101586443.24144
  20432411.900   107373086.51409  20432406.860    83667340.70249
  21826395.580   114698597.46509  21826390.620    89375555.97148
  20699965.800   108779114.61309  20699965.720    84762964.06849
  20926021.660   109967118.25909  20926020.280    85688705.00248
 15 03 26 01 56  0.0000000  0 11G01G03G04G11G14G16G18G19G22G27G32
  23043142.060   121092555.07408  23043143.420    94357844.14746
  24614122.000   129348089.86807  24614124.820   100790726.16945
  21033439.600   110531530.41409  21033437.720    86128491.24348
  21974229.460   115475385.85709  21974226.160    89980819.74747
  22791704.160   119771283.41109  22791702.300    93328299.43547
  23981179.240   126021946.07308  23981178.660    98198920.34746
  24825775.300   130460621.06508  24825773.020   101657745.49744
  20430555.960   107363333.52309  20430550.940    83659740.97549
  21839742.040   114768733.89909  21839737.220    89430207.73148
  20708235.600   108822572.97409  20708235.520    84796827.72549
  20913315.380   109900346.36409  20913313.980    85636674.98548
 15 03 26 01 56 30.0000000  0 11G01G03G04G11G14G16G18G19G22G27G32
  23030517.940   121026215.75808  23030519.460    94306151.20147
  24594482.600   129244884.95507  24594485.760   100710307.14745
  21025562.920   110490138.47509  21025561.000    86096237.80748
  21960419.860   115402815.91909  21960416.620    89924271.76247
  22783705.380   119729249.57209  22783703.520    93295545.81946
  24001144.140   126126862.14208  24001143.640    98280673.01745
  24843193.040   130552151.70708  24843190.840   101729068.06245
  20428782.420   107354013.82009  20428777.460    83652478.86749
  21853139.060   114839135.84809  21853134.260    89485066.38848
  20716590.680   108866479.12109  20716590.560    84831040.29749
  20900699.840   109834051.80309  20900698.500    85585016.92048
 15 03 26 01 57  0.0000000  0 11G01G03G04G11G14G16G18G19G22G27G32
  23017913.140   120959977.71808  23017914.700    94254537.17447
  24574868.040   129141811.33107  24574871.540   100629990.46845
  21017727.020   110448960.76109  21017725.100    86064151.29548
  21946640.260   115330403.89209  21946637.040    89867846.82247
  22775787.480   119687641.06909  22775785.780    93263123.64147
  24021115.320   126231811.39108  24021114.900    98362451.54045
  24860615.200   130643705.54708  24860612.980   101800408.71545
  20427091.280   107345127.21909  20427086.360    83645554.23649
  21866585.880   114909799.49009  21866581.100    89540128.95648
  20725030.600   108910831.25209  20725030.520    84865600.38749
  20888175.080   109768234.37109  20888173.740    85533730.64048
 15 03 26 01 57 30.0000000  0 11G01G03G04G11G14G16G18G19G22G27G32
  23005328.200   120893843.78208  23005329.740    94203004.27447
  24555279.340   129038873.61007  24555282.860   100549779.62345
  21009932.580   110408000.45509  21009930.620    86032234.19448
  21932891.340   115258153.79209  21932888.280    89811548.06147
  22767951.480   119646462.81608  22767949.820    93231036.72347
  24041092.900   126336794.23508  24041092.520    98444256.23946
  24878041.980   130735283.52308  24878039.620   101871768.17545
  20425483.360   107336677.60009  20425478.380    83638970.11549
  21880082.680   114980725.62709  21880077.820    89595396.07248
  20733555.840   108955631.85609  20733555.820    84900509.93749
  20875741.940   109702898.20209  20875740.560    85482819.37048
 15 03 26 01 58  0.0000000  0 11G01G03G04G11G14G16G18G19G22G27G32
  22992763.220   120827814.73208  22992764.760    94151553.10147
  24535716.880   128936074.05207  24535720.400   100469676.47045
  21002179.680   110367258.59609  21002177.720    86000487.31448
  21919173.540   115186067.51409  21919170.700    89755376.95247
  22760197.840   119605717.60609  22760196.200    93199287.24047
  24061076.280   126441807.55008  24061075.840    98526084.69645
  24895473.220   130826884.98708  24895470.840   101943145.93545
  20423958.940   107328666.73509  20423953.920    83632727.88949
  21893629.080   115051912.73309  21893624.220    89650866.54048
  20742166.540   109000881.37709  20742166.540    84935769.29549
  20863400.800   109638045.34409  20863399.340    85432284.70848
 15 03 26 01 58 30.0000000  0 10G01G03G04G11G14G16G19G22G27G32
  22980218.320   120761891.35008  22980219.880    94100184.26047
  24516181.360   128833415.19708  24516184.660   100389682.87345
  20994468.520   110326736.06909  20994466.540    85968911.34148
  21905487.300   115114146.68609  21905484.580    89699334.76547
  22752527.280   119565408.57809  22752525.600    93167877.63547
  24081065.240   126546850.55708  24081064.900    98607936.25845
  20422518.380   107321096.58309  20422513.400    83626829.07349
  21907224.980   115123359.58609  21907220.100    89706539.40448
  20750862.860   109046580.30809  20750862.800    84971378.84649
  20851152.080   109573677.84909  20851150.560    85382128.24848
 15 03 26 01 59  0.0000000  0 10G01G03G04G11G14G16G19G22G27G32
  22967692.400   120696067.43008  22967693.980    94048892.93547
  24496671.760   128730892.35608  24496675.040   100309795.27845
  20986797.800   110286426.67909  20986795.920    85937501.44948
  21891831.760   115042386.43909  21891828.940    89643417.70247
  22744938.860   119525531.23309  22744937.160    93136804.41146
  24101058.220   126651913.74008  24101057.800    98689803.55345
  20421160.720   107313962.13409  20421155.800    83621269.75849
  21920868.820   115195058.13909  21920863.860    89762408.40548
  20759643.420   109092722.01309  20759643.300    85007333.40949
  20838994.780   109509790.68609  20838993.240    85332346.07748
 15 03 26 01 59 30.0000000  0 10G01G03G04G11G14G16G19G22G27G32
  22955186.080   120630346.32208  22955187.600    93997681.71547
  24477188.940   128628510.46008  24477192.200   100230017.47945
  20979168.340   110246334.16909  20979166.560    85906260.55248
  21878207.660   114970791.11609  21878204.760    89587629.15947
  22737433.620   119486091.41908  22737431.960    93106072.11647
  24121055.120   126756997.08708  24121054.480    98771686.58045
  20419886.820   107307267.79409  20419881.940    83616053.39049
  21934560.640   115267009.24409  21934555.720    89818474.18848
  20768508.820   109139309.46909  20768508.600    85043635.31249
  20826929.840   109446388.54609  20826928.240    85282941.83948
 15 03 26 02 00  0.0000000  0 10G01G03G04G11G14G16G19G22G27G32
  22942700.000   120564731.06108  22942701.380    93946552.97947
  24457733.740   128526274.16308  24457736.900   100150353.10245
  20971580.780   110206461.80009  20971579.080    85875191.18848
  21864615.740   114899364.89209  21864612.840    89531972.38347
  22730012.580   119447094.01409  22730010.980    93075684.55247
  24141056.080   126862101.66608  24141055.340    98853586.16045
  20418697.440   107301017.61809  20418692.560    83611183.12249
  21948300.720   115339213.94409  21948295.820    89874737.59148
  20777459.460   109186345.31509  20777459.260    85080286.61349
  20814957.940   109383475.53009  20814956.280    85233918.73648
 15 03 26 02 00 30.0000000  0 10G01G03G04G11G14G16G19G22G27G32
  22930234.020   120499221.32408  22930235.240    93895506.45947
  24438306.420   128424184.66708  24438309.580   100070803.10645
  20964035.100   110166809.25209  20964033.460    85844293.11548
  21851056.060   114828108.32209  21851053.140    89476447.79347
  22722676.200   119408540.63309  22722674.440    93045642.97647
  24161060.440   126967224.22908  24161059.620    98935499.73545
  20417592.680   107295212.32009  20417587.860    83606659.50949
  21962088.640   115411670.25709  21962083.740    89931197.05448
  20786495.280   109233828.81009  20786495.020    85117286.72449
  20803079.260   109321052.59809  20803077.580    85185277.52348
 15 03 26 02 01  0.0000000  0 10G01G03G04G11G14G16G19G22G27G32
  22917787.040   120433811.49008  22917788.100    93844537.78647
  24418906.240   128322237.98008  24418909.660    99991364.38546
  20956530.280   110127371.15109  20956528.680    85813562.14648
  21837527.820   114757016.85109  21837524.820    89421051.85647
  22715423.660   119370427.89709  22715421.800    93015944.76547
  24181066.540   127072356.09008  24181065.640    99017420.56745
  20416571.720   107289847.29409  20416566.920    83602478.97249
  21975922.860   115484369.87109  21975918.100    89987846.09948
  20795615.200   109281753.90309  20795614.840    85154630.94249
  20791292.980   109259115.24409  20791291.280    85137014.68948
 15 03 26 02 01 30.0000000  0 10G01G03G04G11G14G16G19G22G27G32
  22905360.040   120368507.46608  22905361.140    93793651.57747
  24399534.700   128220441.57207  24399538.240    99912042.71545
  20949067.360   110088153.59409  20949065.820    85783003.02148
  21824032.340   114686097.68609  21824029.320    89365790.19347
  22708256.400   119332763.68309  22708254.480    92986596.05447
  24201074.840   127177499.87708  24201074.100    99099350.69945
  20415635.900   107284929.47109  20415631.120    83598646.90649
  21989804.160   115557316.48409  21989799.360    90044687.62648
  20804820.240   109330126.02909  20804819.780    85192323.50049
  20779600.480   109197670.52109  20779598.780    85089135.71548
 15 03 26 02 02  0.0000000  0 10G01G03G04G11G14G16G19G22G27G32
  22892952.980   120303308.12808  22892954.160    93742846.93347
  24380191.820   128118795.83507  24380195.380    99832838.47846
  20941646.200   110049155.58709  20941644.660    85752614.99048
  21810569.580   114615350.56209  21810566.580    89310662.59747
  22701174.600   119295548.68908  22701172.620    92957597.38047
  24221084.680   127282652.07308  24221084.060    99181287.36046
  20414785.200   107280458.72609  20414780.420    83595163.20949
  22003731.800   115630507.04209  22003727.160    90101719.21348
  20814109.980   109378943.57409  20814109.540    85230363.13549
  20768001.680   109136718.39209  20767999.980    85041640.58848
 15 03 26 02 02 30.0000000  0 10G01G03G04G11G14G16G19G22G27G32
  22880565.380   120238210.90108  22880566.440    93692121.85347
  24360877.460   128017299.84607  24360881.200    99753750.93246
  20934266.400   110010374.72609  20934264.840    85722396.15848
  21797139.240   114544774.19009  21797136.340    89255668.05347
  22694178.180   119258782.64209  22694176.200    92928948.53747
  24241094.980   127387806.91208  24241094.520    99263226.07545
  20414019.300   107276433.68709  20414014.520    83592026.81549
  22017704.980   115703937.09509  22017700.400    90158937.43248
  20823483.820   109428203.48809  20823483.460    85268747.47449
  20756496.260   109076257.44109  20756494.620    84994528.18348
 15 03 26 02 03  0.0000000  0 10G01G03G04G11G14G16G19G22G27G32
  22868197.060   120173215.10308  22868198.020    93641475.80847
  24341591.980   127915954.42207  24341595.720    99674780.65845
  20926927.840   109971810.48209  20926926.280    85692346.11948
  21783741.440   114474368.77509  21783738.620    89200806.71147
  22687267.400   119222466.75609  22687265.460    92900650.46647
  24261105.320   127492961.60608  24261104.940    99345164.67946
  20413338.220   107272854.60309  20413333.400    83589237.92049
  22031723.200   115777603.41409  22031718.760    90216339.75548
  20832941.520   109477904.56809  20832941.300    85307475.57549
  20745084.300   109016287.91909  20745082.780    84947798.71248
 15 03 26 02 03 30.0000000  0 10G01G03G04G11G14G16G19G22G27G32
  22855849.260   120108326.73708  22855850.180    93590913.47647
  24322336.620   127814767.04308  24322340.200    99595933.53645
  20919631.700   109933468.71409  20919630.060    85662469.43048
  21770377.620   114404141.45609  21770374.780    89146084.13947
  22680443.820   119186608.96608  22680441.880    92872709.35147
  24281116.280   127598119.49608  24281116.000    99427105.77546
  20412743.340   107269728.19909  20412738.480    83586801.76149
  22045787.200   115851510.09109  22045782.800    90273929.35948
  20842484.220   109528052.26309  20842484.100    85346551.68149
  20733767.220   108956816.85409  20733765.780    84901457.65148
 15 03 26 02 04  0.0000000  0 10G01G03G04G11G14G16G19G22G27G32
  22843520.280   120043537.37308  22843521.200    93540428.28847
  24303110.160   127713730.87208  24303113.480    99517204.22246
  20912376.480   109895341.73409  20912374.700    85632760.11248
  21757046.340   114334085.00409  21757043.500    89091494.72547
  22673706.140   119151202.55009  22673704.320    92845119.96747
  24301125.540   127703268.62208  24301125.420    99509040.03746
  20412233.200   107267047.01909  20412228.240    83584712.52849
  22059894.820   115925646.47409  22059890.520    90331697.95548
  20852110.240   109578637.60209  20852110.200    85385968.81649
  20722543.600   108897837.06809  20722542.240    84855499.40748
 15 03 26 02 04 30.0000000  0 10G01G03G04G11G14G16G19G22G27G32
  22831211.520   119978854.62608  22831212.500    93490026.18647
  24283914.160   127612855.05708  24283917.180    99438599.86246
  20905163.580   109857437.22909  20905161.720    85603224.15448
  21743749.200   114264207.90409  21743746.360    89037045.06347
  22667056.300   119116256.95509  22667054.400    92817889.66047
  24321134.040   127808413.74508  24321133.840    99590971.19245
  20411809.460   107264819.82509  20411804.400    83582977.05649
  22074047.320   116000018.33209  22074042.980    90389650.05248
  20861820.920   109629667.68809  20861820.880    85425732.50949
  20711415.060   108839357.04709  20711413.760    84809930.58848
 15 03 26 02 05  0.0000000  0 10G01G03G04G11G14G16G19G22G27G32
  22818922.380   119914274.62608  22818923.380    93439704.13647
  24264748.260   127512137.19908  24264750.960    99360118.55445
  20897992.120   109819751.26209  20897990.300    85573858.49048
  21730485.700   114194507.49209  21730482.700    88982733.07247
  22660493.700   119081770.03109  22660491.680    92791016.75247
  24341140.540   127913548.47508  24341140.400    99672894.24045
  20411471.460   107263043.63109  20411466.420    83581593.01149
  22088243.520   116074619.48009  22088239.120    90447780.81048
  20871615.380   109681137.95409  20871615.320    85465839.20249
  20700381.140   108781373.92909  20700379.840    84764748.96048
 15 03 26 02 05 30.0000000  0 10G01G03G04G11G14G16G19G22G27G32
  22806653.020   119849798.79808  22806654.140    93389463.26147
  24245612.940   127411580.29808  24245615.380    99281762.65645
  20890862.540   109782285.53409  20890860.800    85544664.42948
  21717256.300   114124986.56009  21717253.240    88928560.93747
  22654019.080   119047745.55009  22654016.960    92764504.17847
  24361144.860   128018671.55308  24361144.780    99754808.19945
  20411219.660   107261720.82309  20411214.720    83580562.24749
  22102483.180   116149449.12009  22102478.660    90506089.61048
  20881493.780   109733049.29709  20881493.700    85506289.58449
  20689442.280   108723890.09409  20689440.920    84719956.39148
 15 03 26 02 06  0.0000000  0 10G01G03G04G11G14G16G19G22G27G32
  22794403.620   119785428.06108  22794404.940    93339304.27347
  24226508.600   127311186.49008  24226510.880    99203533.85645
  20883775.020   109745040.96409  20883773.320    85515642.70448
  21704061.380   114055646.90809  21704058.300    88874530.05447
  22647632.900   119014186.02109  22647630.820    92738353.91647
  24381146.560   128123780.65708  24381146.260    99836711.29745
  20411054.460   107260853.11409  20411049.560    83579886.10649
  22116766.120   116224506.02409  22116761.500    90564575.49648
  20891456.100   109785401.98809  20891456.060    85547083.87549
  20678598.880   108666907.47709  20678597.440    84675554.38248
 15 03 26 02 06 30.0000000  0 10G01G03G04G11G14G16G19G22G27G32
  22782173.980   119721161.19208  22782175.320    93289226.22747
  24207435.320   127210956.42108  24207437.640    99125432.63945
  20876729.440   109708016.70409  20876727.720    85486792.64048
  21690900.960   113986488.31609  21690897.760    88820640.26447
  22641335.220   118981091.80408  22641333.240    92712566.23547
  24401144.960   128228872.40108  24401144.580    99918600.84745
  20410975.800   107260440.04409  20410970.880    83579564.23649
  22131091.740   116299786.74309  22131086.940    90623235.79848
  20901502.020   109838194.11109  20901502.060    85588220.57849
  20667850.820   108610425.53909  20667849.260    84631542.50348
 15 03 26 02 07  0.0000000  0 10G01G03G04G11G14G16G19G22G27G32
  22769964.140   119656998.59408  22769965.480    93239229.43447
  24188393.400   127110891.79807  24188395.760    99047460.33346
  20869725.920   109671213.35209  20869724.260    85458114.71948
  21677775.280   113917512.31809  21677772.040    88766892.75247
  22635126.540   118948465.47308  22635124.620    92687143.15347
  24421139.460   128333943.56708  24421139.020   100000474.38945
  20410983.880   107260482.96509  20410979.000    83579597.68549
  22145459.560   116375289.74509  22145454.660    90682069.30048
  20911631.560   109891425.45809  20911631.620    85629699.53749
  20657198.240   108554445.72209  20657196.680    84587921.89248
 15 03 26 02 07 30.0000000  0 10G01G03G04G11G14G16G19G22G27G32
  22757774.280   119592941.03308  22757775.620    93189314.47847
  24169383.240   127010994.87208  24169385.960    98969618.76045
  20862764.620   109634631.65509  20862763.060    85429609.50148
  21664684.740   113848721.05509  21664681.600    88713289.19147
  22629007.320   118916309.39008  22629005.540    92662086.49247
  24441129.800   128438992.65608  24441129.420   100082330.70145
  20411079.000   107260983.37009  20411074.200    83579987.60949
  22159869.380   116451013.73109  22159864.460    90741074.99948
  20921844.680   109945096.07609  20921844.760    85671520.79449
  20646641.480   108498969.66009  20646639.920    84544693.82148
 15 03 26 02 08  0.0000000  0 10G01G03G04G11G14G16G19G22G27G32
  22745604.620   119528989.65308  22745605.920    93139482.27747
  24150405.480   126911268.24307  24150408.520    98891909.84446
  20855845.780   109598273.04509  20855844.240    85401278.13348
  21651629.740   113780116.53009  21651626.620    88659831.13447
  22622978.180   118884626.46308  22622976.480    92637398.51747
  24461115.620   128544018.12908  24461115.340   100164168.60145
  20411261.640   107261943.50509  20411256.960    83580735.76649
  22174321.040   116526957.48809  22174316.000    90800251.95148
  20932141.580   109999206.42509  20932141.620    85713684.69249
  20636180.920   108443999.35909  20636179.400    84501859.84348
 15 03 26 02 08 30.0000000  0 10G01G03G04G11G14G16G19G22G27G32
  22733454.380   119465140.24208  22733455.660    93089729.51747
  24131459.740   126811709.11908  24131462.880    98814331.47546
  20848968.640   109562133.35409  20848967.020    85373117.33948
  21638609.640   113711695.56409  21638606.560    88606516.10647
  22617038.660   118853414.34109  22617036.980    92613077.39147
  24481095.640   128649013.09108  24481095.340   100245982.72245
  20411531.100   107263359.46609  20411526.480    83581839.10449
  22188813.320   116603115.06809  22188808.340    90859595.50748
  20942521.240   110053751.50709  20942521.200    85756187.33749
  20625815.980   108389531.36109  20625814.500    84459417.26748
 15 03 26 02 09  0.0000000  0 10G01G03G04G11G14G16G19G22G27G32
  22721323.860   119401394.44408  22721325.200    93040057.50047
  24112546.680   126712320.59608  24112549.740    98736886.02346
  20842133.640   109526214.67909  20842131.900    85345128.76748
  21625625.020   113643461.13009  21625622.000    88553346.44247
  22611189.240   118822675.83608  22611187.580    92589125.34047
  24501069.500   128753975.88208  24501069.240   100327771.78545
  20411887.820   107265233.69309  20411883.140    83583299.53849
  22203346.100   116679485.71009  22203341.140    90919105.10148
  20952983.760   110108732.25809  20952983.720    85799029.47649
  20615547.200   108335568.12709  20615545.640    84417368.02248
 15 03 26 02 09 30.0000000  0 10G01G03G04G11G14G16G19G22G27G32
  22709213.240   119337753.20808  22709214.600    92990466.95747
  24093666.600   126613105.03008  24093669.580    98659575.37846
  20835340.820   109490517.87509  20835339.020    85317313.08048
  21612676.360   113575415.33409  21612673.280    88500323.75847
  22605430.560   118792413.95209  22605428.960    92565544.66547
  24521036.800   128858904.42108  24521036.680   100409534.12145
  20412332.180   107267568.61009  20412327.480    83585118.95549
  22217919.200   116756068.05409  22217914.400    90978779.64648
  20963529.220   110164148.89309  20963529.180    85842211.26449
  20605374.780   108282111.35709  20605373.120    84375713.42648
 15 03 26 02 10  0.0000000  0 10G01G03G04G11G14G16G19G22G27G32
  22697122.540   119274216.33008  22697123.920    92940957.73247
  24074819.740   126514063.67608  24074822.520    98582400.43246
  20828590.260   109455043.08309  20828588.380    85289670.40548
  21599763.720   113507559.01109  21599760.580    88447448.71747
  22599762.940   118762630.12709  22599761.240    92542336.51447
  24540997.100   128963796.71508  24540997.240   100491268.21345
  20412864.200   107270364.46009  20412859.540    83587297.54349
  22232532.100   116832859.70609  22232527.320    91038617.28748
  20974157.420   110220000.40609  20974157.380    85885731.91749
  20595298.820   108229161.78509  20595297.120    84334454.05048
 15 03 26 02 10 30.0000000  0 10G01G03G04G11G14G16G19G22G27G32
  22685051.760   119210783.81308  22685053.200    92891529.82747
  24056006.280   126415197.94508  24056008.820    98505362.35646
  20821881.940   109419790.33909  20821880.020    85262200.73748
  21586887.280   113439893.04609  21586884.100    88394721.99947
  22594186.600   118733325.85809  22594184.800    92519502.04247
  24560949.920   129068649.13208  24560950.140   100572971.26645
  20413484.040   107273621.81509  20413479.380    83589835.73749
  22247184.560   116909859.05809  22247179.900    91098616.76147
  20984868.240   110276286.01009  20984868.160    85929590.81949
  20585319.460   108176719.92309  20585317.700    84293590.28048
 15 03 26 02 11  0.0000000  0 10G01G03G04G11G14G16G19G22G27G32
  22673000.760   119147455.25708  22673002.140    92842182.92747
  24037226.360   126316508.74708  24037228.660    98428461.84645
  20815215.880   109384759.47409  20815213.900    85234903.96548
  21574047.240   113372418.54009  21574044.160    88342144.49147
  22588701.860   118704502.55809  22588699.860    92497042.34247
  24580894.680   129173459.24108  24580894.980   100654641.33745
  20414191.680   107277341.07709  20414187.080    83592733.86149
  22261876.100   116987063.34609  22261871.300    91158775.94547
  20995661.320   110333004.47009  20995661.360    85973787.00549
  20575436.740   108124786.12109  20575435.040    84253122.39648
 15 03 26 02 11 30.0000000  0 10G01G03G04G11G14G16G19G22G27G32
  22660969.720   119084231.31608  22660970.960    92792917.54947
  24018480.420   126217998.21708  24018482.560    98351700.53846
  20808592.160   109349951.34109  20808590.160    85207780.75248
  21561243.960   113305137.30109  21561240.960    88289717.57647
  22583309.000   118676162.22509  22583306.880    92474958.99147
  24600830.860   129278224.14808  24600831.200   100736276.19045
  20414987.520   107281523.68509  20414982.920    83595993.02949
  22276606.320   117064471.04809  22276601.540    91219093.62148
  21006536.800   110390155.59309  21006536.880    86018320.33149
  20565650.980   108073361.82309  20565649.320    84213051.52348
 15 03 26 02 12  0.0000000  0 10G01G03G04G11G14G16G19G22G27G32
  22648959.000   119021113.94708  22648960.100    92743735.20847
  23999769.100   126119669.63308  23999771.040    98275080.98846
  20802011.200   109315367.89209  20802009.120    85180832.61548
  21548478.040   113238052.15209  21548475.060    88237443.45447
  22578008.640   118648308.38609  22578006.440    92453254.71847
  24620758.300   129382943.13708  24620758.720   100817875.26945
  20415872.040   107286171.96409  20415867.420    83599615.06049
  22291375.180   117142081.78709  22291370.340    91279569.51948
  21017494.860   110447740.48109  21017494.960    86063191.66749
  20555962.640   108022449.45509  20555961.040    84173379.56848
 15 03 26 02 12 30.0000000  0 10G01G03G04G11G14G16G19G22G27G32
  22636968.120   118958101.09208  22636969.100    92694634.31847
  23981092.240   126021522.33408  23981094.060    98198602.73346
  20795472.580   109281007.35709  20795470.520    85154058.18448
  21535749.280   113171162.18509  21535746.380    88185321.42048
  22572800.740   118620940.67809  22572798.560    92431929.25047
  24640676.320   129487612.22108  24640676.720   100899435.46844
  20416845.040   107291284.63809  20416840.360    83603598.95849
  22306181.960   117219891.67609  22306177.100    91340200.58748
  21028534.900   110505756.18309  21028535.040    86108398.69549
  20546371.520   107972047.77909  20546369.940    84134105.55848
 15 03 26 02 13  0.0000000  0 10G01G03G04G11G14G16G19G22G27G32
  22624997.020   118895192.33008  22624997.860    92645614.53947
  23962449.940   125923557.26608  23962451.840    98122266.45846
  20788976.220   109246869.43509  20788974.320    85127457.21648
  21523057.880   113104468.01209  21523054.900    88133351.94847
  22567685.520   118594060.18109  22567683.360    92410983.43147
  24660584.140   129592227.42908  24660584.320   100980953.68245
  20417906.540   107296862.04109  20417901.720    83607944.98249
  22321026.140   117297898.17909  22321021.180    91400984.87148
  21039656.640   110564201.41609  21039656.840    86153940.42349
  20536877.600   107922156.95909  20536876.020    84095229.62048
 15 03 26 02 13 30.0000000  0 10G01G03G04G11G14G16G19G22G27G32
  22613046.320   118832390.80908  22613047.080    92596678.31447
  23943843.060   125825778.84708  23943845.140    98046075.62646
  20782522.800   109212957.44609  20782521.100    85101032.29748
  21510404.640   113037974.25909  21510401.520    88081538.64447
  22562663.880   118567671.41409  22562661.740    92390420.77647
  24680481.680   129696788.71908  24680481.880   101062429.88544
  20419057.180   107302907.99109  20419052.180    83612656.11249
  22335907.920   117376102.10609  22335902.920    91461923.00048
  21050860.480   110623078.38709  21050860.820    86199818.56349
  20527481.540   107872780.65909  20527480.000    84056754.60148
 15 03 26 02 14  0.0000000  0 10G01G03G04G11G14G16G19G22G27G32
  22601115.520   118769693.80909  22601116.220    92547823.53747
  23925271.400   125728185.74108  23925273.680    97970029.18346
  20776111.900   109179268.81409  20776110.320    85074781.43048
  21497789.040   112971678.99209  21497785.900    88029880.00247
  22557735.600   118541773.25409  22557733.420    92370240.41247
  24700368.100   129801291.94908  24700368.180   101143860.84145
  20420296.460   107309420.32209  20420291.420    83617730.65449
  22350826.280   117454498.83809  22350821.360    91523011.34648
  21062145.860   110682383.38809  21062146.200    86246030.23849
  20518182.940   107823916.73509  20518181.460    84018678.83948
 15 03 26 02 14 30.0000000  0 10G01G03G04G11G14G16G19G22G27G32
  22589205.080   118707103.89509  22589205.780    92499052.19047
  23906735.760   125630781.81208  23906738.180    97894130.15846
  20769744.140   109145806.37709  20769742.500    85048706.80448
  21485211.900   112905586.15609  21485208.880    87978379.09147
  22552901.360   118516369.42209  22552899.200    92350445.23047
  24720243.300   129905736.16008  24720243.440   101225245.79744
  20421624.980   107316402.02809  20421620.040    83623170.92849
  22365781.380   117533088.64209  22365776.560    91584250.13648
  21073513.060   110742118.09109  21073513.300    86292576.73749
  20508982.440   107775568.25109  20508981.000    83981004.71748
 15 03 26 02 15  0.0000000  0 10G01G03G04G11G14G16G19G22G27G32
  22577314.080   118644616.45009  22577314.800    92450360.71147
  23888235.680   125533563.86308  23888238.020    97818376.02546
  20763418.640   109112565.63209  20763416.960    85022804.93948
  21472672.620   112839692.12809  21472669.740    87927033.11447
  22548160.520   118491456.45509  22548158.380    92331032.54947
  24740105.800   130010113.65808  24740106.020   101306578.78144
  20423042.120   107323849.38609  20423037.280    83628974.05949
  22380772.060   117611864.93909  22380767.200    91645634.27248
  21084960.940   110802276.88809  21084961.100    86339453.71849
  20499879.280   107727731.24809  20499877.860    83943729.16348
 15 03 26 02 15 30.0000000  0 10G01G03G04G11G14G16G19G22G27G32
  22565443.200   118582235.18508  22565444.080    92401751.96247
  23869772.000   125436536.85108  23869774.280    97742770.69246
  20757136.080   109079550.47709  20757134.440    84997078.85248
  21460172.100   112774001.90109  21460169.400    87875845.93247
  22543514.220   118467040.04709  22543512.060    92312006.79747
  24759955.860   130114425.66808  24759956.120   101387860.74445
  20424548.640   107331766.40209  20424543.880    83635143.16049
  22395798.460   117690829.08909  22395793.680    91707164.76648
  21096490.020   110862862.52609  21096490.180    86386663.29649
  20490874.240   107680409.79309  20490872.900    83906855.32648
 15 03 26 02 16  0.0000000  0 10G01G03G04G11G14G16G19G22G27G32
  22553593.040   118519962.76809  22553594.060    92353228.02947
  23851345.380   125339704.71408  23851347.660    97667317.19646
  20750897.000   109046763.54909  20750895.320    84971530.59748
  21447711.060   112708519.03609  21447708.360    87824820.33947
  22538963.200   118443124.27209  22538961.080    92293371.14747
  24779793.280   130218671.91208  24779793.800   101469091.44045
  20426145.200   107340156.54409  20426140.460    83641680.93049
  22410860.660   117769981.54509  22410855.960    91768841.99448
  21108100.640   110923876.63009  21108100.800    86434206.74849
  20481967.940   107633607.08909  20481966.640    83870385.70548
 15 03 26 02 16 30.0000000  0 10G01G03G04G11G14G16G19G22G27G32
  22541762.700   118457794.32708  22541763.720    92304785.11547
  23832955.220   125243063.90808  23832957.500    97592012.79046
  20744700.500   109014200.33009  20744698.780    84946156.67648
  21435288.720   112643239.70009  21435286.040    87773953.34947
  22534506.680   118419705.50909  22534504.680    92275122.78047
  24799616.740   130322844.96808  24799617.440   101550265.10545
  20427830.880   107349014.75509  20427826.100    83648583.43849
  22425957.420   117849315.43009  22425952.760    91830660.59648
  21119791.660   110985313.27909  21119791.860    86482079.44849
  20473159.520   107587318.61609  20473158.200    83834316.78848
 15 03 26 02 17  0.0000000  0 10G01G03G04G11G14G16G19G22G27G32
  22529952.540   118395731.75908  22529953.480    92256424.69547
  23814602.100   125146617.56608  23814604.360    97516859.89947
  20738546.940   108981862.83909  20738545.200    84920958.63548
  21422905.780   112578167.14509  21422903.140    87723247.48047
  22530145.360   118396786.83809  22530143.360    92257264.10147
  24819426.220   130426944.39307  24819427.020   101631381.38845
  20429606.260   107358344.14009  20429601.420    83655853.08549
  22441088.560   117928830.50409  22441083.980    91892620.38148
  21131563.320   111047173.31809  21131563.520    86530282.06249
  20464449.360   107541546.74509  20464448.060    83798650.41148
 15 03 26 02 17 30.0000000  0 10G01G03G04G11G14G16G19G22G27G32
  22518162.400   118333774.32608  22518163.360    92208146.19647
  23796286.120   125050366.20308  23796288.220    97441858.95147
  20732436.160   108949750.43609  20732434.360    84895935.99248
  21410562.300   112513301.86209  21410559.620    87672703.11847
  22525879.300   118374368.69208  22525877.280    92239795.43747
  24839221.000   130530966.64308  24839222.040   101712437.50345
  20431471.180   107368144.14309  20431466.340    83663489.44049
  22456253.620   118008524.04509  22456249.100    91954719.22848
  21143415.200   111109454.91809  21143415.360    86578813.16549
  20455837.420   107496291.11009  20455836.140    83763386.29848
 15 03 26 02 18  0.0000000  0 10G01G03G04G11G14G16G19G22G27G32
  22506393.320   118271927.66908  22506394.380    92159954.01447
  23778008.520   124954316.76908  23778010.540    97367015.35447
  20726369.300   108917869.00309  20726367.500    84871093.32748
  21398259.600   112448650.39609  21398256.800    87622325.37547
  22521709.720   118352458.05808  22521707.760    92222722.24147
  24859001.540   130634913.91508  24859002.660   101793435.20445
  20433426.880   107378421.13209  20433422.020    83671497.48149
  22471453.380   118088399.52009  22471448.800    92016959.85347
  21155348.180   111172162.70509  21155348.240    86627676.36149
  20447324.900   107451557.76509  20447323.580    83728529.16948
 15 03 26 02 18 30.0000000  0 10G01G03G04G11G14G16G19G22G27G32
  22494643.840   118210184.01008  22494644.960    92111842.09547
  23759768.060   124858462.69108  23759770.040    97292323.98347
  20720344.960   108886210.79609  20720343.140    84846424.60548
  21385996.400   112384206.36109  21385993.360    87572109.26448
  22517635.440   118331048.57308  22517633.620    92206039.54847
  24878765.940   130738775.88108  24878767.180   101874366.45944
  20435471.880   107389167.49009  20435466.980    83679871.26549
  22486685.860   118168446.99509  22486681.260    92079334.50147
  21167360.580   111235287.73309  21167360.520    86676864.68049
  20438910.420   107407339.25109  20438909.040    83694073.20848
 15 03 26 02 19  0.0000000  0 10G01G03G04G11G14G16G19G22G27G32
  22482914.680   118148547.21308  22482915.880    92063813.44947
  23741565.680   124762809.03008  23741567.640    97217788.78447
  20714363.900   108854780.04809  20714362.080    84821933.12148
  21373773.640   112319974.73309  21373770.480    87522058.66147
  22513657.500   118310144.96709  22513655.740    92189751.03647
  24898514.440   130842553.74508  24898515.600   101955232.16644
  20437606.900   107400387.60909  20437602.100    83688614.21249
  22501951.480   118248668.22209  22501946.860    92141844.53847
  21179452.840   111298832.72809  21179452.720    86726380.24849
  20430594.760   107363639.70309  20430593.280    83660021.62648
 15 03 26 02 19 30.0000000  0 10G01G03G04G11G14G16G19G22G27G32
  22471205.700   118087016.56508  22471207.000    92015867.51647
  23723401.440   124667356.32708  23723403.440    97143410.19147
  20708425.980   108823576.04209  20708424.160    84797618.31748
  21361591.340   112255955.86709  21361588.060    87472173.84347
  22509776.080   118289747.95108  22509774.260    92173857.27847
  24918246.400   130946244.73108  24918247.360   102036030.20444
  20439832.000   107412081.23409  20439827.340    83697726.12449
  22517249.600   118329060.15109  22517244.920    92204487.58447
  21191624.620   111362795.82209  21191624.460    86776221.61249
  20422377.800   107320458.82109  20422376.140    83626374.20748
 15 03 26 02 20  0.0000000  0 10G01G03G04G11G14G16G19G22G27G32
  22459516.880   118025591.72708  22459518.200    91968004.02647
  23705275.560   124572105.47708  23705277.600    97069188.89346
  20702531.100   108792598.59809  20702529.360    84773480.06348
  21349449.520   112192150.46709  21349446.200    87422455.37047
  22505991.260   118269858.37209  22505989.440    92158358.93847
  24937961.120   131049845.17208  24937962.000   102116757.63244
  20442147.320   107424248.10509  20442142.660    83707206.80149
  22532579.760   118409620.79409  22532575.140    92267262.09847
  21203875.600   111427175.55309  21203875.480    86826387.63249
  20414259.500   107277796.48309  20414257.760    83593130.84948
 15 03 26 02 20 30.0000000  0 11G01G03G04G11G14G16G19G22G27G28G32
  22447849.340   117964278.48308  22447850.640    91920227.49147
  23687189.440   124477063.38408  23687191.480    96995130.23446
  20696680.380   108761853.59309  20696678.780    84749522.92248
  21337349.560   112128565.54709  21337346.420    87372908.70647
  22502304.280   118250483.05408  22502302.480    92143261.30147
  24957659.180   131153358.08608  24957659.860   102197416.92644
  20444553.940   107436894.55309  20444549.200    83717061.17449
  22547942.680   118490353.51709  22547938.100    92330170.70147
  21216206.640   111491976.45909  21216206.660    86876881.82449
  25078067.860                                                  
  20406240.980   107235658.66909  20406239.220    83560296.20548
 15 03 26 02 21  0.0000000  0 10G01G03G04G11G14G19G22G27G28G32
  22436202.580   117903074.37208  22436203.960    91872535.99647
  23669142.800   124382228.82008  23669144.880    96921233.28546
  20690873.560   108731338.92909  20690872.060    84725745.27448
  21325291.320   112065199.63509  21325288.280    87323532.68347
  22498714.920   118231620.58209  22498713.060    92128563.29047
  20447051.380   107450018.40709  20447046.520    83727287.54649
  22563337.400   118571253.49009  22563332.900    92393209.62148
  21228617.180   111557194.93409  21228617.380    86927701.40049
  25065927.380   131722335.19308  25065925.080   102640769.71444
  20398321.820   107194043.12609  20398320.060    83527868.52548
 15 03 26 02 21 30.0000000  0 10G01G03G04G11G14G19G22G27G28G32
  22424575.360   117841973.13208  22424576.780    91824924.65247
  23651134.740   124287596.70908  23651136.840    96847494.07446
  20685109.520   108701048.35809  20685107.920    84702142.23848
  21313273.900   112002047.94609  21313270.940    87274323.58447
  22495222.220   118213265.97309  22495220.300    92114261.00747
  20449638.540   107463613.80209  20449633.600    83737881.34749
  22578762.440   118652312.78609  22578758.000    92456372.68647
  21241105.800   111622823.46609  21241106.160    86978840.49649
  25053857.480   131658907.54308  25053854.860   102591345.55344
  20390500.920   107152943.84309  20390499.140    83495843.12548
 15 03 26 02 22  0.0000000  0 10G01G03G04G11G14G19G22G27G28G32
  22412968.540   117780978.73109  22412969.840    91777396.56847
  23633166.240   124193172.10308  23633168.280    96773916.56646
  20679388.900   108670985.88409  20679387.220    84678716.94648
  21301298.180   111939115.40109  21301295.340    87225285.25448
  22491827.040   118195424.18409  22491825.140    92100358.32947
  20452316.220   107477684.95809  20452311.280    83748845.88449
  22594218.200   118733533.19209  22594213.760    92519661.29847
  21253673.040   111688864.73409  21253673.440    87030301.20649
  25041859.060   131595855.68307  25041856.420   102542214.26444
  20382779.040   107112364.88509  20382777.260    83464223.17348
 15 03 26 02 22 30.0000000  0 10G01G03G04G11G14G19G22G27G28G32
  22401382.460   117720093.13909  22401383.580    91729953.27047
  23615237.880   124098958.17508  23615239.900    96700503.21546
  20673712.100   108641153.69109  20673710.360    84655471.09448
  21289364.760   111876405.07709  21289361.900    87176420.08747
  22488530.000   118178098.10409  22488528.080    92086857.51047
  20455084.820   107492234.23009  20455079.940    83760182.98049
  22609704.520   118814914.19809  22609700.080    92583075.05047
  21266319.040   111755319.48209  21266319.340    87082084.11849
  25029932.860   131533183.21308  25029930.240   102493378.57744
  20375156.560   107072308.42709  20375154.800    83433010.36548
 15 03 26 02 23  0.0000000  0 10G01G03G04G11G14G19G22G27G28G32
  22389816.360   117659312.37109  22389817.360    91682591.65347
  23597349.100   124004952.03508  23597351.100    96627251.76446
  20668078.380   108611547.99409  20668076.580    84632401.73448
  21277473.200   111813914.17109  21277470.260    87127725.88548
  22485330.480   118161284.67309  22485328.560    92073756.15747
  20457943.620   107507257.71709  20457938.860    83771889.58749
  22625220.340   118896449.98609  22625215.760    92646609.42647
  21279042.640   111822182.41209  21279042.980    87134185.08849
  25018078.400   131470887.70507  25018075.780   102444836.64244
  20367632.740   107032770.54909  20367630.980    83402201.64648
 15 03 26 02 23 30.0000000  0 10G01G03G04G11G14G19G22G27G28G32
  22378271.120   117598641.42309  22378272.060    91635315.60948
  23579501.080   123911159.87108  23579503.000    96554167.05347
  20662488.720   108582173.94309  20662486.880    84609512.86948
  21265624.600   111751648.96309  21265621.540    87079207.55248
  22482229.700   118144990.12208  22482227.760    92061059.12147
  20460893.700   107522760.78909  20460889.040    83783969.89749
  22640766.280   118978143.40109  22640761.480    92710266.62247
  21291844.700   111889457.23909  21291844.980    87186607.02249
  25006296.840   131408975.80707  25006294.460   102396593.60444
  20360208.580   106993756.37709  20360206.840    83371801.00748
 15 03 26 02 24  0.0000000  0 10G01G03G04G11G14G19G22G27G28G32
  22366746.760   117538080.45509  22366747.760    91588125.26547
  23561693.980   123817582.88908  23561695.840    96481250.03147
  20656943.220   108553031.74909  20656941.300    84586804.67948
  21253819.160   111689610.45809  21253816.040    87030865.86748
  22479227.840   118129215.16709  22479225.860    92048766.96947
  20463935.180   107538743.60909  20463930.500    83796424.03849
  22656341.740   119059992.53609  22656336.840    92774045.15747
  21304724.940   111957142.80609  21304725.140    87239349.00949
  24994588.740   131347449.51508  24994586.400   102348651.06043
  20352884.120   106955266.17209  20352882.420    83341808.66048
 15 03 26 02 24 30.0000000  0 10G01G03G04G11G14G19G22G27G28G32
  22355242.780   117477626.93409  22355243.800    91541018.64547
  23543927.560   123724219.70608  23543929.380    96408499.59347
  20651441.380   108524119.02509  20651439.340    84564275.29848
  21242056.620   111627797.49109  21242053.500    86982699.93348
  22476324.580   118113958.57008  22476322.580    92036878.73447
  20467067.620   107555203.96509  20467062.880    83809250.28549
  22671945.940   119141992.70609  22671940.980    92837941.37747
  21317682.640   112025235.19809  21317682.680    87292408.00649
  24982953.720   131286307.41407  24982951.480   102301007.83543
  20345658.800   106917297.40309  20345657.200    83312222.62948
 15 03 26 02 25  0.0000000  0 10G01G03G04G11G14G19G22G27G28G32
  22343759.640   117417282.90509  22343760.520    91493997.33647
  23526202.420   123631073.57208  23526204.160    96335918.24746
  20645983.560   108495438.00809  20645981.480    84541926.46448
  21230337.600   111566213.13409  21230334.320    86934712.12948
  22473520.500   118099223.22208  22473518.480    92025396.65347
  20470291.320   107572144.10709  20470286.540    83822450.38849
  22687578.800   119224143.66409  22687573.780    92901955.09047
  21330717.880   112093735.17209  21330717.820    87345784.59649
  24971392.440   131225553.02207  24971390.160   102253666.74844
  20338533.140   106879852.09909  20338531.520    83283044.48648
 15 03 26 02 25 30.0000000  0 10G01G03G04G11G14G19G22G27G28G32
  22332297.180   117357047.57109  22332298.040    91447060.73647
  23508518.500   123538144.41308  23508520.320    96263506.00547
  20640569.680   108466988.15009  20640567.680    84519757.74748
  21218662.060   111504857.60509  21218658.780    86886902.63848
  22470815.580   118085009.22108  22470813.640    92014320.82247
  20473606.060   107589563.25509  20473601.320    83836023.74149
  22703239.860   119306442.58209  22703234.880    92966084.10547
  21343830.180   112162640.44009  21343830.120    87399476.99649
  24959905.140   131165187.17107  24959903.060   102206628.42745
  20331506.980   106842929.42309  20331505.320    83254273.57648
 15 03 26 02 26  0.0000000  0 10G01G03G04G11G14G19G22G27G28G32
  22320855.460   117296921.18109  22320856.400    91400209.03547
  23490876.180   123445433.77408  23490878.040    96191264.04946
  20635199.800   108438769.53509  20635197.880    84497769.22448
  21207030.280   111443732.41409  21207027.000    86839272.62548
  22468210.080   118071317.53008  22468208.140    92003651.99547
  20477012.020   107607462.04209  20477007.380    83849970.83849
  22718928.660   119388887.80609  22718923.720    93030327.10647
  21357019.420   112231949.94309  21357019.260    87453484.39249
  24948492.180   131105211.64807  24948490.180   102159894.27645
  20324580.360   106806529.67109  20324578.660    83225910.15348
 15 03 26 02 26 30.0000000  0 10G01G03G04G11G14G19G22G27G28G32
  22309434.620   117236904.41409  22309435.660    91353442.75447
  23473275.660   123352943.40008  23473277.560    96119193.69346
  20629874.120   108410783.20209  20629872.200    84475961.69448
  21195442.700   111382839.51509  21195439.480    86791823.62948
  22465704.300   118058149.74108  22465702.320    91993391.38847
  20480509.400   107625841.30809  20480504.820    83864292.33849
  22734645.040   119471477.63609  22734640.020    93094682.81747
  21370285.460   112301662.91809  21370285.180    87507806.18049
  24937153.920   131045628.73408  24937152.020   102113466.06644
  20317753.380   106770653.56009  20317751.640    83197954.75648
 15 03 26 02 27  0.0000000  0 10G01G03G04G11G14G19G22G27G28G32
  22298034.520   117176996.38209  22298035.520    91306761.20147
  23455717.100   123260673.36908  23455719.080    96047295.04647
  20624592.560   108383028.43509  20624590.560    84454334.61348
  21183899.380   111322178.96109  21183896.160    86744555.68248
  22463298.220   118045505.63208  22463296.180    91983538.85047
  20484098.000   107644699.79909  20484093.400    83878987.26249
  22750388.300   119554209.34109  22750383.420    93159149.05847
  21383627.820   112371777.04909  21383627.440    87562440.55349
  24925890.600   130986439.17608  24925888.540   102067344.32645
  20311025.740   106735299.99909  20311024.100    83170406.54548
 15 03 26 02 27 30.0000000  0 10G01G03G04G11G14G19G22G27G28G32
  22286655.480   117117198.85809  22286656.340    91260165.74247
  23438201.020   123168626.48608  23438203.040    95975570.28447
  20619355.400   108355507.00509  20619353.420    84432889.35548
  21172400.860   111261753.66609  21172397.560    86697471.04248
  22460992.320   118033387.80909  22460990.300    91974096.41147
  20487778.240   107664039.54609  20487773.560    83894057.18649
  22766158.480   119637082.34109  22766153.620    93223725.42047
  21397046.560   112442292.60709  21397046.160    87617387.72349
  24914702.760   130927645.84408  24914700.500   102021531.34644
  20304397.840   106700470.53809  20304396.260    83143266.72848
 15 03 26 02 28  0.0000000  0 10G01G03G04G11G14G19G22G27G28G32
  22275297.440   117057511.97308  22275298.300    91213656.51248
  23420727.640   123076803.95808  23420729.640    95904020.33847
  20614162.720   108328219.35909  20614160.760    84411626.26448
  21160947.280   111201565.06909  21160943.980    86650570.85148
  22458786.660   118021797.11908  22458784.780    91965064.71847
  20491550.200   107683860.80909  20491545.400    83909502.32449
  22781955.200   119720094.83309  22781950.520    93288410.44647
  21410541.360   112513208.31509  21410541.020    87672646.70249
  24903590.620   130869250.53408  24903588.120   101976028.50344
  20297869.740   106666165.33309  20297868.180    83116535.42248
 15 03 26 02 28 30.0000000  0 10G01G03G04G11G14G19G22G27G28G32
  22263960.140   116997934.35109  22263961.080    91167232.41547
  23403296.980   122985205.34508  23403298.880    95832644.86546
  20609014.260   108301164.03209  20609012.340    84390544.20248
  21149538.660   111141612.96609  21149535.400    86603854.93148
  22456681.080   118010732.90208  22456679.320    91956443.25947
  20495413.420   107704162.08109  20495408.620    83925321.48749
  22797777.840   119803243.26509  22797773.060    93353201.41347
  21424111.720   112584521.27209  21424111.440    87728215.22349
  24892554.200   130811253.03808  24892551.340   101930835.62545
  20291441.100   106632382.78809  20291439.560    83090211.37548
 15 03 26 02 29  0.0000000  0 10G01G03G04G11G14G19G22G27G28G32
  22252643.520   116938465.64808  22252644.580    91120893.19947
  23385909.120   122893831.33808  23385910.880    95761444.40946
  20603910.040   108274341.04909  20603908.080    84369643.19448
  21138175.160   111081897.70709  21138172.040    86557323.57648
  22454675.780   118000195.42109  22454674.120    91948232.25547
  20499367.920   107724943.19209  20499363.120    83941514.55049
  22813625.860   119886525.05109  22813621.100    93418096.28747
  21437757.300   112656229.59109  21437757.060    87784091.83449
  24881593.680   130753654.48408  24881590.860   101885953.62645
  20285111.860   106599122.38409  20285110.340    83064294.19448
 15 03 26 02 29 30.0000000  0 10G01G03G04G11G14G19G22G27G28G32
  22241348.220   116879109.18409  22241349.420    91074641.41347
  23368564.820   122802686.21008  23368566.500    95690422.29446
  20598850.640   108247753.62309  20598848.620    84348925.71948
  21126857.780   111022424.23409  21126854.620    86510980.60948
  22452771.560   117990188.49009  22452769.880    91940434.66147
  20503414.420   107746207.49109  20503409.620    83958084.12549
  22829499.600   119969941.62909  22829494.780    93483096.19347
  21451478.320   112728335.10209  21451478.240    87840277.93049
  24870709.820   130696459.73908  24870707.260   101841386.33845
  20278882.620   106566387.19409  20278881.060    83038786.26648
 15 03 26 02 30  0.0000000  0 10G01G03G04G11G14G19G22G27G28G32
  22230074.180   116819864.36609  22230075.480    91028476.64847
  23351264.160   122711770.29008  23351265.740    95619578.79147
  20593835.940   108221401.33309  20593834.020    84328391.47448
  21115586.460   110963192.84509  21115583.240    86464826.29048
  22450968.380   117980712.41909  22450966.620    91933050.72647
  20507552.720   107767954.19109  20507547.900    83975029.60049
  22845398.440   120053490.29509  22845393.560    93548199.03647
  21465274.500   112800835.61609  21465274.600    87896771.82249
  24859903.000   130639669.46208  24859900.380   101797134.16145
  20272753.180   106534176.44109  20272751.560    83013686.99448
 15 03 26 02 30 30.0000000  0 10G01G03G04G11G14G19G22G27G28G32
  22218821.100   116760729.37309  22218822.400    90982397.45147
  23334006.960   122621082.76008  23334008.380    95548913.24947
  20588865.640   108195282.59009  20588863.880    84308039.21548
  21104361.020   110904203.00409  21104357.780    86418860.20148
  22449265.960   117971765.84409  22449264.060    91926079.38147
  20511782.420   107790181.39109  20511777.560    83992349.49449
  22861321.600   120137166.86909  22861316.720    93613401.55247
  21479145.240   112873727.79709  21479145.540    87953570.91549
  24849173.020   130583283.00508  24849170.420   101753196.67645
  20266723.080   106502488.11509  20266721.460    82988994.81048
 15 03 26 02 31  0.0000000  0 10G01G03G04G11G14G19G22G27G28G32
  22207589.520   116701707.18709  22207590.760    90936406.16547
  23316793.940   122530627.53308  23316795.260    95478428.71347
  20583940.360   108169400.37109  20583938.660    84287871.26048
  21093182.240   110845458.70809  21093179.080    86373085.44048
  22447664.940   117963352.38009  22447662.920    91919523.45847
  20516104.000   107812891.89409  20516099.180    84010045.98849
  22877269.160   120220972.46109  22877264.360    93678704.59147
  21493090.920   112947013.02409  21493091.280    88010676.27049
  24838520.620   130527304.60408  24838517.980   101709577.16445
  20260792.780   106471324.73509  20260791.300    82964711.68448
 15 03 26 02 31 30.0000000  0 10G01G03G04G11G14G19G22G27G28G32
  22196378.980   116642795.23409  22196380.140    90890500.76147
  23299624.720   122440402.88308  23299625.980    95408123.86347
  20579059.640   108143752.30609  20579058.000    84267885.76548
  21082049.960   110786958.40509  21082046.780    86327500.79548
  22446164.940   117955469.79809  22446162.880    91913381.19847
  20520517.120   107836083.35609  20520512.380    84028117.24549
  22893240.460   120304902.42709  22893235.620    93744104.54647
  21507110.660   113020687.06609  21507110.980    88068084.59849
  24827945.700   130471733.36608  24827943.160   101666274.90044
  20254961.820   106440683.49809  20254960.460    82940835.41248
 15 03 26 02 32  0.0000000  0 10G01G03G04G11G14G19G22G27G28G32
  22185190.640   116584000.15509  22185191.820    90844686.43047
  23282500.720   122350416.43608  23282502.000    95338004.61947
  20574224.780   108118345.02109  20574223.120    84248087.88548
  21070965.640   110728709.91509  21070962.440    86282112.37048
  22444767.400   117948125.66209  22444765.340    91907658.51047
  20525022.980   107859761.88909  20525018.320    84046568.04649
  22909236.260   120388961.15209  22909231.400    93809604.83347
  21521205.440   113094754.98609  21521205.640    88125799.84648
  24817449.680   130416577.34908  24817447.260   101623296.19244
  20249231.440   106410570.73609  20249230.100    82917370.93948
 15 03 26 02 32 30.0000000  0 10G01G03G04G11G14G19G22G27G28G32
  22174022.900   116525313.22509  22174024.000    90798956.37747
  23265420.480   122260660.33608  23265422.000    95268064.87847
  20569434.160   108093169.97009  20569432.380    84228470.96848
  21059927.900   110670705.86609  21059924.700    86236914.41448
  22443470.780   117941311.53909  22443468.620    91902348.82047
  20529619.900   107883918.83809  20529615.300    84065391.63449
  22925254.660   120473137.96009  22925249.780    93875197.14347
  21535373.200   113169206.42309  21535373.320    88183813.93849
  24807031.160   130361828.51108  24807028.860   101580634.73544
  20243599.940   106380977.28809  20243598.580    82894311.12748
 15 03 26 02 33  0.0000000  0 10G01G03G04G11G14G19G22G27G28G32
  22162876.920   116466740.62609  22162877.940    90753315.40747
  23248385.440   122171141.65808  23248387.080    95198310.13646
  20564688.960   108068233.47609  20564686.960    84209039.94048
  21048937.980   110612953.24509  21048934.880    86191912.37748
  22442276.180   117935033.79809  22442274.040    91897457.08747
  20534309.060   107908560.09309  20534304.340    84084592.60449
  22941296.160   120557436.88809  22941291.360    93940884.58847
  21549614.800   113244045.84609  21549614.820    88242130.35749
  24796691.700   130307494.58108  24796689.560   101538296.60644
  20238068.440   106351908.99909  20238067.020    82871660.52648
 15 03 26 02 33 30.0000000  0 10G01G03G04G11G14G19G22G27G28G32
  22151752.640   116408281.78509  22151753.620    90707763.07248
  23231395.580   122081860.67608  23231397.360    95128740.63047
  20559989.040   108043535.07009  20559986.900    84189794.44148
  21037996.040   110555452.84609  21037993.020    86147106.88248
  22441183.680   117929292.52509  22441181.600    91892983.38247
  20539090.260   107933684.93309  20539085.420    84104170.39549
  22957360.560   120641855.31709  22957355.760    94006665.17247
  21563929.720   113319271.06309  21563929.720    88300747.39849
  24786431.400   130253576.24908  24786429.260   101496282.29745
  20232636.760   106323364.82609  20232635.260    82849418.33048
 15 03 26 02 34  0.0000000  0 10G01G03G04G11G14G19G22G27G28G32
  22140649.740   116349935.36509  22140650.700    90662298.34548
  23214450.940   121992816.90308  23214452.860    95059355.95647
  20555334.160   108019073.61309  20555332.000    84170733.56548
  21027102.080   110498204.21909  21027099.040    86102497.56248
  22440193.000   117924086.67408  22440190.940    91888926.88747
  20543963.140   107959291.94809  20543958.280    84124123.91149
  22973447.000   120726389.89309  22973442.260    94072536.24047
  21578317.400   113394878.99509  21578317.380    88359662.64849
  24776250.200   130200073.32408  24776247.980   101454591.69644
  20227304.520   106295343.02709  20227302.900    82827583.17748
 15 03 26 02 34 30.0000000  0 10G01G03G04G11G14G19G22G27G28G32
  22129568.020   116291700.14709  22129568.900    90616920.26248
  23197551.520   121904009.94608  23197553.400    94990155.81047
  20550724.160   107994847.84909  20550721.980    84151856.35548
  21016256.000   110441207.18209  21016252.860    86058084.29748
  22439304.060   117919415.46508  22439301.940    91885286.99947
  20548927.460   107985379.51009  20548922.600    84144451.87149
  22989554.820   120811036.99809  22989550.040    94138495.01147
  21592777.400   113470866.70309  21592777.320    88418873.84149
  24766148.060   130146985.74708  24766145.820   101413224.72845
  20222071.360   106267841.91609  20222069.620    82806153.75348
 15 03 26 02 35  0.0000000  0 10G01G03G04G11G14G19G22G27G28G32
  22118508.360   116233580.95509  22118509.180    90571632.59848
  23180698.320   121815445.51208  23180700.040    94921144.62847
  20546159.980   107970862.77709  20546157.820    84133166.69248
  21005458.920   110384467.95509  21005455.700    86013871.93048
  22438517.880   117915284.10608  22438515.700    91882067.77047
  20553984.200   108011952.51109  20553979.260    84165158.10449
  23005684.540   120895799.51408  23005679.880    94204543.69447
  21607310.240   113547237.29509  21607310.180    88478383.38349
  24756126.040   130094319.37508  24756123.780   101372185.98444
  20216938.040   106240865.78809  20216936.220    82785133.41448
 15 03 26 02 35 30.0000000  0 10G01G03G04G11G14G19G22G27G28G32
  22107470.500   116175575.97409  22107471.200    90526433.92348
  23163891.040   121727122.49408  23163892.560    94852321.57847
  20541641.280   107947116.54609  20541639.060    84114663.15048
  20994710.640   110327985.60909  20994707.380    85969859.72748
  22437834.080   117911690.85909  22437831.840    91879267.84847
  20559132.800   108039008.38509  20559127.740    84186240.60149
  23021835.460   120980673.50609  23021830.860    94270679.25147
  21621915.220   113623987.17209  21621915.180    88538188.46649
  24746183.920   130042073.59907  24746181.820   101331474.99844
  20211904.160   106214412.34909  20211902.300    82764520.36648
 15 03 26 02 36  0.0000000  0 10G01G03G04G11G14G19G22G27G28G32
  22096454.460   116117685.57809  22096455.140    90481324.53048
  23147129.900   121639042.17708  23147131.320    94783687.63547
  20537168.120   107923609.74509  20537165.820    84096346.15648
  20984011.580   110271761.97409  20984008.300    85926049.10848
  22437252.860   117908636.69308  22437250.600    91876887.99347
  20564373.200   108066547.20409  20564368.140    84207699.41449
  23038007.380   121065657.56109  23038002.800    94336900.57847
  21636592.100   113701114.96309  21636592.140    88598288.02949
  24736322.200   129990250.20508  24736319.960   101291093.11044
  20206969.700   106188481.42409  20206967.760    82744314.46448
 15 03 26 02 36 30.0000000  0 10G01G03G04G11G14G19G22G27G28G32
  22085459.820   116059907.91609  22085460.420    90436302.99048
  23130414.760   121551203.44708  23130416.060    94715241.92947
  20532740.140   107900340.69209  20532737.820    84078214.42748
  20973361.560   110215796.24309  20973358.340    85882439.45848
  22436773.940   117906119.78309  22436771.740    91874926.77147
  20569705.060   108094566.85309  20569700.100    84229532.90349
  23054199.440   121150747.36609  23054195.000    94403204.27947
  21651340.260   113778616.99809  21651340.280    88658679.21348
  24726540.720   129938848.28808  24726538.320   101251039.64844
  20202134.180   106163070.60509  20202132.140    82724513.83548
 15 03 26 02 37  0.0000000  0 10G01G03G04G11G14G19G22G27G28G32
  22074486.820   116002244.62709  22074487.400    90391370.56748
  23113746.040   121463608.66408  23113747.320    94646986.31747
  20528357.640   107877310.96709  20528355.480    84060269.18848
  20962761.140   110160090.91209  20962757.920    85839032.70948
  22436397.620   117904142.00109  22436395.440    91873385.65447
  20575128.680   108123068.64409  20575123.860    84251742.08549
  23070411.580   121235942.53909  23070407.100    94469590.11747
  21666159.620   113856493.12909  21666159.620    88719361.90648
  24716840.040   129887870.56108  24716837.560   101211316.70144
  20197397.760   106138180.85709  20197395.760    82705119.24448
 15 03 26 02 37 30.0000000  0 10G01G03G04G11G14G19G22G27G28G32
  22063536.180   115944699.70609  22063536.880    90346530.36948
  23097124.640   121376262.61709  23097125.840    94578924.51247
  20524021.480   107854524.90409  20524019.440    84042513.81548
  20952211.220   110104650.98409  20952208.000    85795832.76948
  22436124.560   117902707.41809  22436122.440    91872267.80347
  20580644.800   108152056.19209  20580640.060    84274329.77349
  23086644.240   121321245.06309  23086639.720    94536059.59147
  21681050.540   113934745.53109  21681050.600    88780337.77748
  24707221.020   129837321.98608  24707218.540   101171928.18944
  20192761.160   106113815.63609  20192759.180    82686133.37448
 15 03 26 02 38  0.0000000  0 10G01G03G04G11G14G19G22G27G28G32
  22052607.460   115887270.06109  22052608.280    90301780.01148
  23080550.140   121289162.98708  23080551.280    94511054.74047
  20519731.000   107831979.12109  20519729.140    84024945.68048
  20941711.480   110049474.64109  20941708.280    85752838.22848
  22435954.360   117901813.32109  22435952.260    91871571.11947
  20586252.760   108181526.20509  20586248.060    84297293.41749
  23102896.360   121406649.80509  23102891.680    94602608.73447
  21696012.120   114013369.23609  21696012.260    88841602.98548
  24697683.240   129787200.51108  24697680.820   101132872.48244
  20188223.660   106089971.19609  20188221.700    82667553.31448
 15 03 26 02 38 30.0000000  0 10G01G03G04G11G14G19G22G27G28G32
  22041700.620   115829955.00809  22041701.480    90257118.94448
  23064022.460   121202309.75808  23064023.520    94443376.96647
  20515486.220   107809673.30009  20515484.480    84007564.53648
  20931261.980   109994562.33209  20931258.880    85710049.42448
  22435887.000   117901459.15009  22435884.800    91871295.14747
  20591952.260   108211477.40309  20591947.600    84320632.00749
  23119167.360   121492154.09309  23119162.520    94669235.43647
  21711043.940   114092361.72609  21711044.080    88903155.56048
  24688226.800   129737506.65508  24688224.500   101094149.98244
  20183785.020   106066646.08009  20183782.960    82649377.91948
 15 03 26 02 39  0.0000000  0 10G01G03G04G11G14G19G22G27G28G32
  22030816.120   115772756.77409  22030817.000    90212548.90448
  23047542.100   121115705.89608  23047543.240    94375893.50147
  20511287.580   107787609.69809  20511285.940    83990372.12448
  20920863.320   109939917.35709  20920860.340    85667468.94048
  22435922.840   117901647.19409  22435920.620    91871441.68747
  20597743.600   108241911.43709  20597739.020    84344346.82849
  23135457.160   121577757.77209  23135452.400    94735939.56647
  21726145.980   114171723.30009  21726146.100    88964995.73249
  24678852.340   129688243.51408  24678850.240   101055763.13545
  20179445.520   106043841.91909  20179443.380    82631608.45548
 15 03 26 02 39 30.0000000  0 10G01G03G04G11G14G19G22G27G28G32
  22019954.140   115715676.57909  22019955.020    90168070.83848
  23031109.560   121029353.34308  23031110.820    94308605.85947
  20507135.360   107765789.62409  20507133.780    83973369.46948
  20910516.040   109885542.09709  20910513.100    85625098.61648
  22436062.000   117902378.57409  22436059.880    91872011.60247
  20603627.040   108272829.21209  20603622.500    84368438.58649
  23151765.860   121663460.20109  23151761.000    94802720.67847
  21741318.100   114251453.32409  21741318.260    89027122.99848
  24669560.320   129639413.24108  24669558.100   101017713.55145
  20175205.300   106021559.19209  20175203.100    82614245.29748
 15 03 26 02 40  0.0000000  0 10G01G03G04G11G14G19G22G27G28G32
  22009114.620   115658714.33509  22009115.500    90123684.68548
  23014725.120   120943252.66609  23014726.380    94241514.48247
  20503029.480   107744212.97409  20503027.960    83956556.49548
  20900220.360   109831437.58909  20900217.380    85582939.25948
  22436304.540   117903653.30609  22436302.460    91873004.91047
  20609602.420   108304230.01909  20609597.900    84392906.74849
  23168092.820   121749259.37008  23168087.980    94869577.15147
  21756559.980   114331549.76509  21756560.200    89089535.79549
  24660350.860   129591016.87908  24660348.520   100980002.08045
  20171064.120   105999797.09209  20171061.900    82597287.82948
 15 03 26 02 40 30.0000000  0 10G01G03G04G11G14G19G22G27G28G32
  21998296.980   115601866.94109  21998297.800    90079388.01448
  22998388.300   120857401.43808  22998389.420    94174617.46647
  20498969.400   107722876.71009  20498967.880    83939930.83348
  20889975.780   109777601.52409  20889972.740    85540989.08148
  22436649.920   117905468.46408  22436647.860    91874419.32547
  20615669.040   108336110.37809  20615664.520    84417748.57649
  23184437.100   121835149.71109  23184432.340    94936504.66147
  21771870.620   114412007.59809  21771870.920    89152230.20048
  24651223.520   129543052.03108  24651221.020   100942626.86044
  20167021.240   105978551.68809  20167019.040    82580732.97948
 15 03 26 02 41  0.0000000  0 10G01G03G04G11G14G19G22G27G28G32
  21987502.560   115545141.61309  21987503.360    90035186.47848
  22982100.460   120771807.54609  22982101.440    94107920.99047
  20494956.560   107701788.41809  20494954.960    83923498.40048
  20879783.820   109724042.25209  20879780.760    85499254.58448
  22437099.420   117907831.25908  22437097.500    91876260.48047
  20621828.220   108368477.15809  20621823.700    84442969.43349
  23200799.760   121921136.72908  23200795.060    95003507.51647
  21787251.000   114492832.08509  21787251.420    89215210.31249
  24642179.840   129495527.14808  24642177.400   100905594.49844
  20163077.900   105957829.44609  20163075.720    82564585.80248
 15 03 26 02 41 30.0000000  0 10G01G03G04G11G14G19G22G27G28G32
  21976729.680   115488529.70409  21976730.500    89991073.32148
  22965860.040   120686463.01108  22965860.960    94041418.80747
  20490989.220   107680939.30609  20490987.500    83907252.35148
  20869643.080   109670752.33009  20869640.020    85457729.98548
  22437651.460   117910732.73808  22437649.660    91878521.38147
  20628078.160   108401320.83309  20628073.680    84468561.90349
  23217178.860   122007209.59409  23217174.240    95070577.26047
  21802699.160   114574012.62209  21802699.640    89278467.85748
  24633218.340   129448434.19008  24633215.960   100868898.68645
  20159232.320   105937620.86509  20159230.140    82548838.87248
 15 03 26 02 42  0.0000000  0 10G01G03G04G11G14G19G22G27G28G32
  21965980.460   115432042.44809  21965981.380    89947057.29148
  22949669.220   120601379.59108  22949670.220    93975120.09547
  20487069.460   107660340.59209  20487067.680    83891201.40548
  20859555.880   109617743.94709  20859552.800    85416424.74548
  22438308.260   117914184.10608  22438306.520    91881210.77547
  20634420.920   108434652.08309  20634416.380    84494534.29149
  23233576.060   122093377.33308  23233571.480    95137720.93847
  21818216.800   114655558.43109  21818217.300    89342010.02348
  24624341.360   129401785.25108  24624338.980   100832548.87745
  20155486.460   105917936.28609  20155484.300    82533500.24948
 15 03 26 02 42 30.0000000  0 10G01G03G04G11G14G19G22G27G28G32
  21955252.700   115375667.96409  21955253.680    89903129.13548
  22933525.840   120516546.09608  22933526.960    93909016.13047
  20483195.020   107639980.60609  20483193.260    83875336.48148
  20849520.260   109565006.46309  20849517.120    85375330.61048
  22439067.540   117918173.66009  22439065.620    91884319.53147
  20640854.080   108468458.33109  20640849.500    84520876.82849
  23249988.760   122179626.14109  23249984.260    95204927.77747
  21833801.320   114737455.63309  21833801.800    89405826.01348
  24615546.780   129355569.36008  24615544.360   100796536.50445
  20151837.880   105898763.03109  20151835.800    82518560.06748
 15 03 26 02 43  0.0000000  0 10G01G03G04G11G14G19G22G27G28G32
  21944548.280   115319415.91009  21944549.160    89859296.37348
  22917432.000   120431972.75808  22917433.100    93843114.86947
  20479367.780   107619868.87609  20479366.120    83859665.00348
  20839538.200   109512550.40209  20839534.980    85334455.76448
  22439931.020   117922710.70009  22439928.860    91887854.89547
  20647379.320   108502748.69609  20647374.780    84547596.57949
  23266418.320   122265963.43109  23266413.900    95272203.55347
  21849454.180   114819711.86009  21849454.600    89469921.75848
  24606836.660   129309797.11308  24606834.140   100760869.81845
  20148288.180   105880109.85709  20148286.240    82504025.14548
 15 03 26 02 43 30.0000000  0 10G01G03G04G11G14G19G22G27G28G32
  21933866.540   115263283.32409  21933867.420    89815556.70648
  22901387.240   120347657.20908  22901388.260    93777414.48647
  20475587.260   107600002.61609  20475585.640    83844184.80448
  20829609.360   109460374.00909  20829606.060    85293798.83048
  22440898.040   117927792.10908  22440895.860    91891814.44147
  20653996.000   108537519.57109  20653991.460    84574690.75349
  23282863.780   122352384.42309  23282859.260    95339544.56347
  21865174.340   114902322.09209  21865174.780    89534293.34348
  24598210.540   129264466.18908  24598207.880   100725547.01445
  20144836.700   105861972.75409  20144834.940    82489892.34748
 15 03 26 02 44  0.0000000  0 10G01G03G04G11G14G19G22G27G28G32
  21923207.640   115207271.14409  21923208.580    89771910.86648
  22885391.800   120263600.95708  22885392.760    93711916.16347
  20471853.740   107580382.97009  20471852.100    83828896.77348
  20819734.100   109408479.21209  20819730.760    85253361.33248
  22441968.700   117933418.69708  22441966.540    91896198.80747
  20660704.100   108572771.17609  20660699.640    84602159.52649
  23299324.900   122438887.90309  23299320.300    95406949.84847
  21880961.700   114985285.26809  21880962.140    89598939.95548
  24589668.720   129219578.62008  24589666.040   100690569.70145
  20141483.540   105844351.90809  20141481.840    82476161.83448
 15 03 26 02 44 30.0000000  0 10G01G03G04G11G14G19G22G27G28G32
  21912571.920   115151380.26309  21912572.840    89728359.53648
  22869445.920   120179805.40908  22869446.980    93646620.97647
  20468167.420   107561010.83409  20468165.720    83813801.60548
  20809912.740   109356867.71909  20809909.400    85213144.59748
  22443143.100   117939590.58608  22443141.000    91901008.07747
  20667503.680   108608503.63609  20667499.300    84630002.99149
  23315801.440   122525472.68209  23315796.900    95474418.48447
  21896816.040   115068600.11209  21896816.480    89663860.59849
  24581211.540   129175135.81808  24581208.820   100655938.95845
  20138228.700   105827247.19309  20138226.840    82462833.49748
 15 03 26 02 45  0.0000000  0 10G01G03G04G11G14G19G22G27G28G32
  21901959.200   115095609.73309  21901960.000    89684901.99048
  22853549.600   120096270.20908  22853550.740    93581528.65947
  20464527.980   107541885.02209  20464526.240    83798898.37548
  20800145.360   109305540.00109  20800142.080    85173148.97248
  22444421.260   117946307.39409  22444419.140    91906241.96447
  20674394.540   108644715.47609  20674390.200    84658220.00149
  23332292.980   122612135.92609  23332288.320    95541948.26247
  21912736.740   115152263.67109  21912737.160    89729052.95948
  24572838.960   129131137.54508  24572836.360   100621654.61045
  20135071.580   105810656.54209  20135069.660    82449905.72748
 15 03 26 02 45 30.0000000  0 10G01G03G04G11G14G19G22G27G28G32
  21891370.180   115039963.28509  21891370.860    89641541.11748
  22837703.560   120012999.54008  22837704.800    93516642.46947
  20460936.200   107523009.62309  20460934.380    83784190.27648
  20790432.860   109254500.56909  20790429.580    85133377.98648
  22445803.720   117953572.43109  22445801.580    91911903.03947
  20681377.220   108681409.52809  20681372.820    84686812.76149
  23348799.640   122698879.05709  23348794.940    95609540.30046
  21928724.040   115236277.50509  21928724.380    89794518.26648
  24564551.720   129087587.99108  24564549.100   100587719.90145
  20132012.760   105794582.67609  20132010.820    82437380.65348
 15 03 26 02 46  0.0000000  0 10G01G03G04G11G14G19G22G27G28G32
  21880804.260   114984438.10709  21880804.900    89598274.75148
  22821907.480   119929991.14908  22821908.700    93451960.64547
  20457391.500   107504381.84109  20457389.620    83769675.12248
  20780774.960   109203747.97209  20780771.740    85093830.51048
  22447289.860   117961382.33809  22447287.680    91917988.69047
  20688451.040   108718582.30609  20688446.560    84715778.54749
  23365320.600   122785697.32508  23365315.760    95677190.88347
  21944777.060   115320636.69709  21944777.360    89860252.67648
  24556349.460   129044485.44708  24556346.860   100554133.49344
  20129051.600   105779021.85309  20129049.680    82425255.34848
 15 03 26 02 46 30.0000000  0 10G01G03G04G11G14G19G22G27G28G32
  21870261.220   114929033.39009  21870261.800    89555102.25948
  22806161.340   119847244.70408  22806162.500    93387482.93847
  20453893.680   107486000.66009  20453891.860    83755352.12748
  20771171.640   109153282.24809  20771168.440    85054506.57348
  22448879.580   117969736.08409  22448877.320    91924498.11947
  20695615.600   108756232.05509  20695611.080    84745116.00449
  23381855.260   122872587.68908  23381850.400    95744897.64846
  21960895.280   115405338.27609  21960895.480    89926253.89648
  24548232.280   129001829.64808  24548229.700   100520895.23144
  20126187.780   105763972.13609  20126185.860    82413528.30548
 15 03 26 02 47  0.0000000  0 10G01G03G04G11G14G19G22G27G28G32
  21859742.020   114873754.48509  21859742.560    89512027.79348
  22790466.220   119764766.04009  22790467.280    93323213.89047
  20450443.940   107467871.81509  20450442.080    83741225.75748
  20761624.100   109103109.97809  20761620.960    85015411.30448
  22450573.700   117978638.54209  22450571.360    91931435.10147
  20702871.800   108794363.30509  20702867.200    84774828.65149
  23398404.140   122959553.70408  23398399.480    95812663.34047
  21977079.260   115490385.47009  21977079.380    89992524.42148
  24540201.280   128959626.52208  24540198.600   100488009.67045
  20123422.040   105749437.76409  20123420.120    82402202.83348
 15 03 26 02 47 30.0000000  0 10G01G03G04G11G14G19G22G27G28G32
  21849245.560   114818595.06809  21849246.060    89469046.44448
  22774820.940   119682549.29109  22774821.940    93259148.93247
  20447041.000   107449988.74809  20447039.020    83727290.90648
  20752131.340   109053225.67909  20752128.320    84976540.42848
  22452370.880   117988082.92108  22452368.640    91938794.36847
  20710218.300   108832969.01309  20710213.620    84804911.01349
  23414965.840   123046586.94208  23414961.440    95880481.42346
  21993327.380   115575769.76209  21993327.500    90059057.61748
  24532255.380   128917870.33608  24532252.600   100455472.39245
  20120752.920   105735411.36809  20120751.020    82391273.19048
 15 03 26 02 48  0.0000000  0 10G01G03G04G11G14G19G22G27G28G32
  21838773.220   114763562.28709  21838773.680    89426163.76848
  22759226.900   119600602.04009  22759227.940    93195293.96847
  20443686.200   107432358.64809  20443684.100    83713553.16348
  20742694.940   109003637.25709  20742692.000    84937900.10148
  22454272.440   117998075.88109  22454270.340    91946581.09147
  20717656.200   108872055.37809  20717651.560    84835367.90949
  23431541.420   123133692.42908  23431537.100    95948355.80846
  22009640.620   115661496.06709  22009640.760    90125857.31548
  24524396.060   128876568.98908  24524393.240   100423289.51644
  20118181.560   105721898.80909  20118179.660    82380743.92548
 15 03 26 02 48 30.0000000  0 10G01G03G04G11G14G19G22G27G28G32
  21828324.020   114708651.05209  21828324.440    89383375.80548
  22743683.220   119518919.66808  22743684.300    93131645.41347
  20440378.560   107414976.64309  20440376.380    83700008.75248
  20733314.200   108954340.85709  20733311.220    84899487.32848
  22456277.520   118008612.12409  22456275.320    91954791.16247
  20725184.460   108911616.76209  20725179.900    84866194.95149
  23448129.520   123220863.03309  23448125.220    96016280.94046
  22026017.620   115747557.15009  22026017.700    90192917.88148
  24516622.340   128835717.91208  24516619.580   100391457.50845
  20115706.780   105708893.87309  20115704.920    82370610.22148
 15 03 26 02 49  0.0000000  0 10G01G03G04G11G14G19G22G27G28G32
  21817898.840   114653866.52209  21817899.320    89340686.57748
  22728190.980   119437507.71009  22728191.980    93068207.56347
  20437119.060   107397847.75309  20437116.840    83686661.57348
  20723990.240   108905342.63009  20723987.180    84861306.90448
  22458386.820   118019696.05109  22458384.500    91963428.00147
  20732803.900   108951656.81109  20732799.280    84897394.98349
  23464730.620   123308101.85909  23464726.360    96084259.21647
  22042458.820   115833955.90509  22042458.880    90260241.56448
  24508935.280   128795322.55408  24508932.560   100359980.61845
  20113329.300   105696400.53809  20113327.480    82360875.16548
 15 03 26 02 49 30.0000000  0 10G01G03G04G11G14G19G22G27G28G32
  21807497.520   114599207.94709  21807498.160    89298095.48448
  22712750.080   119356365.84508  22712751.080    93004980.18147
  20433907.640   107380971.39809  20433905.360    83673511.16748
  20714723.100   108856642.94209  20714719.960    84823359.09748
  22460600.060   118031326.60809  22460597.700    91972490.77647
  20740514.140   108992174.13809  20740509.460    84928966.91649
  23481344.200   123395406.20909  23481339.840    96152288.55647
  22058963.720   115920689.34909  22058963.720    90327826.04248
  24501334.920   128755382.93108  24501332.480   100328858.84045
  20111048.800   105684416.88409  20111047.040    82351537.26848
 15 03 26 02 50  0.0000000  0 10G01G03G04G11G14G19G22G27G28G32
  21797119.860   114544673.84509  21797120.600    89255601.38348
  22697360.380   119275492.93309  22697361.460    92941962.36647
  20430743.900   107364345.79309  20430741.580    83660556.15248
  20705512.640   108808241.45409  20705509.500    84785643.66048
  22462916.900   118043501.88709  22462914.560    91981978.01447
  20748314.740   109033166.25809  20748310.020    84960908.81349
  23497969.600   123482772.33809  23497965.080    96220366.04647
  22075531.560   116007753.70409  22075531.560    90395668.37348
  24493821.080   128715898.16808  24493818.640   100298091.47644
  20108864.760   105672940.10009  20108863.020    82342594.32748
 15 03 26 02 50 30.0000000  0 10G01G03G04G11G14G19G22G27G28G32
  21786766.320   114490266.21609  21786767.160    89213205.84048
  22682022.300   119194891.36209  22682023.460    92879155.98647
  20427628.220   107347973.25909  20427625.940    83647798.33348
  20696359.400   108760140.67209  20696356.160    84748162.53548
  22465337.600   118056222.80609  22465335.260    91991890.42547
  20756205.840   109074634.32809  20756201.180    84993221.58749
  23514606.720   123570200.42308  23514602.140    96288491.80346
  22092162.240   116095148.71709  22092162.300    90463768.35448
  24486394.260   128676870.79608  24486392.000   100267680.55344
  20106777.360   105661971.03009  20106775.640    82334047.01248
 15 03 26 02 51  0.0000000  0 10G01G03G04G11G14G19G22G27G28G32
  21776437.120   114435986.43009  21776437.940    89170909.91948
  22666736.200   119114562.83209  22666737.420    92816562.36747
  20424560.900   107331855.08809  20424558.660    83635238.72648
  20687263.920   108712343.36009  20687260.540    84710917.87948
  22467862.380   118069490.37609  22467860.040    92002228.80747
  20764187.480   109116578.43209  20764182.940    85025905.29649
  23531255.440   123657689.88809  23531250.700    96356665.38946
  22108855.620   116182873.45809  22108855.840    90532125.27448
  24479054.860   128638302.15208  24479052.700   100237627.06245
  20104786.660   105651509.68409  20104784.880    82325895.32248
 15 03 26 02 51 30.0000000  0 10G01G03G04G11G14G19G22G27G28G32
  21766131.980   114381832.70609  21766132.800    89128712.23048
  22651501.840   119034505.95308  22651503.080    92754180.42047
  20421541.720   107315989.59209  20421539.520    83622876.01248
  20678226.080   108664848.73809  20678222.520    84673909.09548
  22470490.740   118083302.54509  22470488.460    92012991.54547
  20772259.120   109158995.69909  20772254.700    85058957.70449
  23547915.060   123745236.77908  23547910.200    96424883.74246
  22125610.920   116270923.84709  22125611.300    90600735.95348
  24471802.680   128600191.23408  24471800.440   100207930.23945
  20102892.060   105641553.03409  20102890.180    82318136.90848
 15 03 26 02 52  0.0000000  0 10G01G03G04G11G14G19G22G27G28G32
  21755851.240   114327807.00309  21755852.020    89086614.29048
  22636319.600   118954722.96609  22636320.900    92692011.89047
  20418571.020   107300378.43709  20418568.860    83610711.48248
  20669246.400   108617659.78909  20669242.800    84637138.48348
  22473222.940   118097660.26109  22473220.680    92024179.38647
  20780421.120   109201887.33509  20780416.700    85092379.74849
  23564585.540   123832840.81908  23564580.740    96493146.58346
  22142428.200   116359299.49209  22142428.660    90669600.06548
  24464638.060   128562540.38208  24464635.700   100178591.89844
  20101093.600   105632101.61909  20101091.640    82310772.17748
 15 03 26 02 52 30.0000000  0 10G01G03G04G11G14G19G22G27G28G32
  21745594.680   114273908.30009  21745595.440    89044615.32248
  22621189.400   118875213.17609  22621190.680    92630056.24047
  20415648.600   107285020.94009  20415646.500    83598744.60748
  20660324.780   108570776.16209  20660321.140    84600605.79748
  22476058.520   118112561.67909  22476056.340    92035790.88847
  20788672.900   109245251.03909  20788668.500    85126169.64149
  23581266.460   123920499.24808  23581261.680    96561451.83046
  22159306.780   116447997.06209  22159307.260    90738715.03348
  24457560.840   128525348.88208  24457558.300   100149611.50745
  20099390.820   105623153.14809  20099388.860    82303799.34848
 15 03 26 02 53  0.0000000  0 10G01G03G04G11G14G19G22G27G28G32
  21735362.580   114220138.01309  21735363.280    89002716.41748
  22606111.480   118795978.31109  22606112.740    92568314.82247
  20412774.620   107269918.41509  20412772.660    83586976.41248
  20651461.580   108524199.99509  20651458.040    84564312.68748
  22478997.640   118128007.63609  22478995.620    92047826.70347
  20797014.540   109289087.01309  20797010.160    85160327.53449
  23597957.540   124008211.33508  23597952.740    96629798.88146
  22176246.440   116537015.61309  22176246.920    90808080.11148
  24450571.440   128488618.71208  24450568.760   100120990.58944
  20097783.700   105614707.53309  20097781.700    82297218.35848
 15 03 26 02 53 30.0000000  0 10G01G03G04G11G14G19G22G27G28G32
  21725155.100   114166497.46209  21725155.840    88960918.58948
  22591086.180   118717019.91309  22591087.400    92506788.83247
  20409949.420   107255072.16009  20409947.520    83575407.90748
  20642657.380   108477934.02709  20642653.980    84528261.29448
  22482040.540   118143998.59609  22482038.520    92060287.20047
  20805446.240   109333395.81409  20805441.860    85194853.85749
  23614658.640   124095976.47008  23614653.980    96698187.26447
  22193247.080   116626353.99909  22193247.420    90877694.41548
  24443670.120   128452351.20008  24443667.200   100092730.17044
  20096272.320   105606764.81209  20096270.260    82291029.22748
 15 03 26 02 54  0.0000000  0 10G01G03G04G11G14G19G22G27G28G32
  21714972.260   114112986.63909  21714973.080    88919221.85248
  22576113.600   118638338.28309  22576114.760    92445478.51448
  20407172.900   107240482.06109  20407171.140    83564039.01148
  20633912.340   108431979.08809  20633909.100    84492452.25948
  22485187.060   118160533.71309  22485184.980    92073171.71047
  20813967.700   109378176.22809  20813963.300    85229747.67849
  23631369.440   124183792.41908  23631364.840    96766615.24446
  22210308.140   116716009.95409  22210308.380    90947556.17548
  24436856.920   128416546.80208  24436853.680   100064830.61444
  20094856.400   105599323.45409  20094854.200    82285230.77648
 15 03 26 02 54 30.0000000  0 10G01G03G04G11G14G19G22G27G28G32
  21704814.400   114059606.69009  21704815.260    88877627.09948
  22561193.980   118559934.78509  22561195.020    92384384.91047
  20404445.340   107226149.25609  20404443.700    83552870.60048
  20625226.940   108386337.60009  20625223.840    84456887.46948
  22488437.320   118177613.67409  22488435.180    92086480.77147
  20822578.920   109423428.08809  20822574.500    85265008.85049
  23648089.800   124271658.45208  23648085.260    96835082.24546
  22227429.380   116805982.09909  22227429.580    91017664.31648
  24430131.900   128381206.61708  24430128.740   100037292.79144
  20093535.800   105592383.19109  20093533.460    82279822.78648
 15 03 26 02 55  0.0000000  0 10G01G03G04G11G14G19G22G27G28G32
  21694681.420   114006357.39509  21694682.260    88836134.15648
  22546327.300   118481809.46309  22546328.220    92323508.06848
  20401766.820   107212073.82509  20401765.200    83541902.73048
  20616601.280   108341009.89209  20616598.180    84421567.18348
  22491790.980   118195237.05808  22491788.780    92100213.29047
  20831279.600   109469149.99909  20831275.120    85300636.30649
  23664819.300   124359572.25508  23664814.740    96903586.48946
  22244610.280   116896267.91509  22244610.420    91088016.87748
  24423495.300   128346331.17508  24423492.380   100010117.12445
  20092310.160   105585942.23609  20092307.760    82274803.86648
 15 03 26 02 55 30.0000000  0 10G01G03G04G11G14G19G22G27G28G32
  21684573.420   113953239.60409  21684574.280    88794743.68648
  22531513.660   118403963.31709  22531514.560    92262848.77347
  20399137.440   107198256.22209  20399135.820    83531135.77848
  20608035.720   108295997.75409  20608032.600    84386492.80548
  22495248.020   118213404.06208  22495245.800    92114369.40647
  20840069.540   109515341.43309  20840064.980    85336629.62849
  23681557.620   124447532.63608  23681553.100    96972127.01946
  22261850.500   116986865.70909  22261850.580    91158612.54348
  24416947.320   128311921.47308  24416944.480    99983304.34945
  20091179.360   105580000.00009  20091177.000    82270173.56648
 15 03 26 02 56  0.0000000  0 10G01G03G04G11G14G19G22G27G28G32
  21674490.680   113900255.13609  21674491.660    88753457.10448
  22516753.480   118326398.39709  22516754.440    92202408.60848
  20396557.540   107184698.32709  20396555.840    83520571.19148
  20599530.740   108251304.07209  20599527.640    84351666.56548
  22498808.680   118232115.43809  22498806.460    92128949.70747
  20848948.860   109562003.10809  20848944.380    85372989.36949
  23698304.780   124535539.61608  23698300.180    97040703.85646
  22279149.900   117077774.88309  22279150.020    91229450.83748
  24410488.320   128277979.39608  24410485.640    99956855.99845
  20090143.480   105574556.81009  20090141.220    82265932.12048
 15 03 26 02 56 30.0000000  0 10G01G03G04G11G14G19G22G27G28G32
  21664432.940   113847401.60809  21664433.960    88712272.54548
  22502046.420   118249112.48809  22502047.460    92142185.85748
  20394026.600   107171397.81209  20394024.820    83510207.15548
  20591086.120   108206927.34109  20591082.960    84317087.29848
  22502472.320   118251367.84409  22502470.020    92143951.58647
  20857916.920   109609130.96509  20857912.520    85409712.36649
  23715059.880   124623588.56108  23715055.300    97109313.40646
  22296507.560   117168990.56109  22296507.820    91300527.95848
  24404117.960   128244502.90508  24404115.320    99930770.41645
  20089201.860   105569608.69009  20089199.640    82262076.45248
 15 03 26 02 57  0.0000000  0 10G01G03G04G11G14G19G22G27G28G32
  21654400.800   113794682.47509  21654401.900    88671192.72348
  22487393.180   118172109.26009  22487394.260    92082183.37547
  20391545.240   107158357.97209  20391543.400    83500046.23948
  20582702.600   108162871.81709  20582699.440    84282758.33548
  22506239.440   118271163.91009  22506237.040    92159377.10547
  20866974.220   109656727.81009  20866969.940    85446800.81349
  23731823.320   124711681.01708  23731818.760    97177956.86846
  22313923.760   117260513.75909  22313924.200    91371844.71248
  24397836.840   128211495.51808  24397834.240    99905050.37045
  20088354.840   105565157.65109  20088352.700    82258608.11448
 15 03 26 02 57 30.0000000  0 10G01G03G04G11G14G19G22G27G28G32
  21644393.900   113742095.45509  21644395.000    88630215.83748
  22472793.300   118095386.57009  22472794.360    92022399.48947
  20389113.020   107145576.61409  20389111.140    83490086.73748
  20574379.940   108119136.39609  20574376.840    84248678.79248
  22510109.320   118291500.20109  22510106.880    92175223.57047
  20876120.060   109704789.83909  20876115.880    85484251.73649
  23748594.240   124799812.65708  23748589.840    97246630.83946
  22331397.660   117352339.70309  22331398.160    91443397.36848
  24391644.460   128178954.91908  24391641.960    99879694.06344
  20087601.600   105561199.70309  20087599.540    82255524.00748
 15 03 26 02 58  0.0000000  0 10G01G03G04G11G14G19G22G27G28G32
  21634412.820   113689643.95609  21634413.760    88589344.55748
  22458247.460   118018947.88809  22458248.500    91962836.91248
  20386730.580   107133056.92809  20386728.700    83480331.14248
  20566119.000   108075725.05709  20566115.920    84214851.78748
  22514082.420   118312379.15309  22514080.040    92191492.89847
  20885354.860   109753319.15309  20885350.760    85522066.77049
  23765372.860   124887984.69208  23765368.420    97315336.30146
  22348929.420   117444469.20809  22348929.880    91515186.56948
  24385541.580   128146884.72808  24385539.240    99854704.32245
  20086942.420   105557736.55309  20086940.520    82252825.45948
 15 03 26 02 58 30.0000000  0 10G01G03G04G11G14G19G22G27G28G32
  21624456.960   113637325.21709  21624457.720    88548576.72548
  22443755.220   117942790.66409  22443756.200    91903493.66148
  20384397.440   107120796.22409  20384395.580    83470777.34948
  20557919.480   108032636.17909  20557916.400    84181276.04848
  22518158.120   118333797.11409  22518155.720    92208182.23047
  20894677.800   109802311.51009  20894673.740    85560242.62549
  23782158.280   124976192.62308  23782153.820    97384069.72846
  22366518.000   117536897.07109  22366518.380    91587208.25748
  24379527.860   128115282.41608  24379525.500    99830079.14245
  20086376.600   105554764.00809  20086374.840    82250509.20448
 15 03 26 02 59  0.0000000  0 10G01G03G04G11G14G19G22G27G28G32
  21614527.100   113585143.30309  21614527.720    88507915.50848
  22429317.360   117866919.03409  22429318.240    91844372.94648
  20382114.360   107108798.59209  20382112.480    83461428.54448
  20549782.240   107989874.48609  20549779.120    84147955.25548
  22522336.940   118355756.96709  22522334.480    92225293.81447
  20904089.340   109851769.56809  20904085.340    85598781.35549
  23798950.920   125064438.30808  23798946.440    97452832.57546
  22384163.620   117629624.75209  22384163.920    91659463.56548
  24373603.940   128084151.88808  24373601.540    99805821.58845
  20085904.620   105552284.34909  20085902.920    82248577.00648
 15 03 26 02 59 30.0000000  0 10G01G03G04G11G14G19G22G27G28G32
  21604622.880   113533096.00509  21604623.380    88467359.17848
  22414933.480   117791330.86209  22414934.280    91785473.10248
  20379880.820   107097061.57209  20379878.940    83452282.81548
  20541707.140   107947439.09709  20541703.920    84114888.72448
  22526618.200   118378255.27409  22526615.720    92242824.95847
  20913588.800   109901689.72209  20913584.860    85637680.15849
  23815750.020   125152717.70908  23815745.500    97521621.70746
  22401865.320   117722647.49309  22401865.620    91731948.77848
  24367769.360   128053491.00808  24367766.820    99781929.99345
  20085525.740   105550293.66809  20085524.080    82247025.83048
 15 03 26 03 00  0.0000000  0 10G01G03G04G11G14G19G22G27G28G32
  21594745.100   113481187.81609  21594745.520    88426911.25148
  22400604.380   117716030.67009  22400605.080    91726797.65748
  20377697.720   107085589.84009  20377695.900    83443343.80748
  20533695.140   107905335.05409  20533691.820    84082080.37948
  22531002.600   118401295.38309  22531000.140    92260778.29247
  20923176.840   109952075.10509  20923172.920    85676941.47649
  23832555.940   125241033.15708  23832551.440    97590438.91746
  22419623.520   117815967.20609  22419623.780    91804665.41148
  24362024.880   128023304.08708  24362022.540    99758407.72145
  20085240.460   105548794.79509  20085238.840    82245857.88848
 15 03 26 03 00 30.0000000  0 10G01G03G04G11G14G19G22G27G28G32
  21584893.480   113429417.46109  21584893.860    88386570.73348
  22386329.820   117641017.31709  22386330.440    91668345.73848
  20375564.820   107074381.87709  20375563.080    83434610.34248
  20525746.080   107863561.84709  20525742.720    84049529.83848
  22535489.720   118424874.99809  22535487.260    92279152.04147
  20932852.920   110002922.98609  20932848.980    85716563.19849
  23849368.000   125329381.64408  23849363.660    97659281.86946
  22437437.440   117909580.07709  22437437.680    91877610.48148
  24356370.400   127993590.12508  24356368.160    99735253.99345
  20085048.240   105547784.75409  20085046.640    82245070.85248
 15 03 26 03 01  0.0000000  0 10G01G03G04G11G14G19G22G27G28G32
  21575067.820   113377783.81009  21575068.220    88346336.73048
  22372109.640   117566289.65609  22372110.080    91610116.42148
  20373481.980   107063436.49209  20373480.320    83426081.46448
  20517859.980   107822119.35809  20517856.560    84017236.99148
  22540079.000   118448991.66409  22540076.500    92297944.26047
  20942616.580   110054230.72409  20942612.480    85756543.24549
  23866185.680   125417759.93908  23866181.480    97728148.03646
  22455306.420   118003482.29809  22455306.680    91950781.01848
  24350805.760   127964347.86808  24350803.620    99712467.82445
  20084948.580   105547260.63509  20084946.900    82244662.45848
 15 03 26 03 01 30.0000000  0 10G01G03G04G11G14G19G22G27G28G32
  21565268.460   113326288.99309  21565269.100    88306210.91248
  22357944.240   117491849.89809  22357944.580    91552111.43148
  20371449.540   107052755.89509  20371447.940    83417758.91148
  20510037.300   107781010.69209  20510033.880    83985204.26748
  22544770.540   118473646.27209  22544768.100    92317155.63847
  20952467.860   110105998.98809  20952463.660    85796882.13849
  23883009.060   125506167.86008  23883005.040    97797037.29046
  22473230.360   118097673.43609  22473230.680    92024176.67748
  24345331.320   127935579.36808  24345329.160    99690050.80145
  20084941.460   105547222.80609  20084939.660    82244632.98248
 15 03 26 03 02  0.0000000  0 10G01G03G04G11G14G19G22G27G28G32
  21555495.360   113274932.08309  21555496.180    88266192.54548
  22343833.360   117417697.03909  22343833.700    91494330.01548
  20369467.280   107042338.86709  20369465.700    83409641.74248
  20502278.020   107740235.57609  20502274.640    83953431.45248
  22549564.100   118498836.99409  22549561.740    92336784.77847
  20962406.240   110158225.06209  20962401.940    85837577.77649
  23899837.620   125594602.57208  23899833.720    97865947.42046
  22491208.580   118192149.87909  22491208.900    92097794.66348
  24339946.800   127907283.46608  24339944.680    99668002.05545
  20085026.360   105547668.55709  20085024.440    82244980.32648
 15 03 26 03 02 30.0000000  0 10G01G03G04G11G14G19G22G27G28G32
  21545749.280   113223716.88309  21545750.260    88226284.60948
  22329777.800   117343834.95109  22329778.280    91436775.17248
  20367535.980   107032189.30809  20367534.360    83401732.99048
  20494583.100   107699798.93009  20494579.760    83921922.36848
  22554460.080   118524565.84209  22554457.780    92356833.23747
  20972432.220   110210911.49109  20972427.820    85878632.12449
  23916671.700   125683066.17508  23916667.860    97934880.06146
  22509241.300   118286912.84909  22509241.660    92171635.90348
  24334652.940   127879463.92108  24334650.820    99646324.48545
  20085203.640   105548599.87509  20085201.640    82245706.02948
 15 03 26 03 03  0.0000000  0 10G01G03G04G11G14G19G22G27G28G32
  21536029.520   113172639.59909  21536030.600    88186484.14848
  22315776.900   117270259.76709  22315777.500    91379443.89648
  20365654.820   107022303.07809  20365653.060    83394029.44148
  20486951.960   107659697.45509  20486948.700    83890674.46948
  22559457.580   118550827.96908  22559455.200    92377297.24247
  20982544.700   110264052.85009  20982540.340    85920040.96549
  23933510.180   125771552.70108  23933506.340    98003830.57846
  22527327.360   118381955.82809  22527327.740    92245695.33648
  24329449.000   127852116.65308  24329446.620    99625014.91245
  20085472.240   105550011.14909  20085470.220    82246805.73948
 15 03 26 03 03 30.0000000  0 10G01G03G04G11G14G19G22G27G28G32
  21526337.000   113121705.16509  21526338.140    88146794.99348
  22301831.520   117196976.35009  22301832.180    91322339.96848
  20363824.700   107012685.29909  20363822.840    83386535.06548
  20479385.660   107619936.67109  20479382.420    83859692.04348
  22564557.220   118577626.93109  22564554.880    92398179.55847
  20992744.360   110317652.38109  20992739.980    85961806.82349
  23950353.620   125860065.05008  23950349.680    98072801.20546
  22545467.160   118477281.07309  22545467.540    92319974.72748
  24324335.840   127825246.60608  24324333.460    99604077.21745
  20085832.700   105551905.39009  20085830.700    82248281.78148
 15 03 26 03 04  0.0000000  0 10G01G03G04G11G14G19G22G27G28G32
  21516671.320   113070911.36609  21516672.400    88107215.41648
  22287941.180   117123982.51209  22287941.860    91265461.67348
  20362045.180   107003333.59009  20362043.280    83379248.01348
  20471884.100   107580515.90209  20471880.860    83828974.56048
  22569758.320   118604959.10408  22569756.040    92419477.35947
  21003030.580   110371706.53509  21003026.080    86003926.92649
  23967201.220   125948599.00509  23967197.160    98141788.67646
  22563659.760   118572883.66509  22563660.120    92394470.21348
  24319313.080   127798851.56108  24319310.620    99583509.61045
  20086284.260   105554278.55909  20086282.320    82250131.00348
 15 03 26 03 04 30.0000000  0 10G01G03G04G11G14G19G22G27G28G32
  21507032.900   113020260.60409  21507033.900    88067747.29448
  22274106.280   117051280.52108  22274107.080    91208810.80148
  20360316.680   106994250.07209  20360314.720    83372169.93748
  20464447.820   107541437.84209  20464444.500    83798524.12048
  22575061.080   118632825.46108  22575058.900    92441191.39847
  21013403.400   110426215.78309  21013398.840    86046401.64449
  23984053.100   126037155.11309  23984048.860    98210793.44845
  22581905.120   118668763.38809  22581905.420    92469181.65448
  24314380.900   127772933.25308  24314378.640    99563313.53645
  20086827.080   105557131.15709  20086825.080    82252353.80548
 15 03 26 03 05  0.0000000  0 10G01G03G04G11G14G19G22G27G28G32
  21497421.920   112969754.09009  21497422.880    88028391.59048
  22260327.080   116978871.52909  22260328.060    91152388.25748
  20358639.420   106985436.13509  20358637.440    83365301.93048
  20457077.100   107502704.64409  20457073.820    83768342.42048
  22580465.460   118661225.81709  22580463.340    92463321.54546
  21023862.740   110481179.73609  21023858.180    86089230.69349
  24000908.920   126125732.42508  24000904.440    98279814.74645
  22600202.980   118764918.67909  22600203.200    92544107.83548
  24309539.620   127747492.67508  24309537.520    99543489.69945
  20087461.000   105560462.47909  20087458.940    82254949.65748
 15 03 26 03 05 30.0000000  0 10G01G03G04G11G14G19G22G27G28G32
  21487838.280   112919391.19909  21487839.140    87989147.78548
  22246603.520   116906754.75109  22246604.680    91096193.39448
  20357013.280   106976890.87209  20357011.320    83358643.28148
  20449772.060   107464316.47109  20449768.780    83738429.55348
  22585971.140   118690158.10909  22585968.960    92485866.19847
  21034408.140   110536596.03209  21034403.600    86132412.21249
  24017768.200   126214328.35008  24017763.660    98348850.51446
  22618552.560   118861346.16809  22618552.760    92619246.10948
  24304789.100   127722529.19408  24304787.080    99524037.62645
  20088185.580   105564269.91609  20088183.400    82257916.50148
 15 03 26 03 06  0.0000000  0 10G01G03G04G11G14G19G22G27G28G32
  21478281.960   112869171.85509  21478282.680    87950015.83648
  22232935.660   116834930.05909  22232936.880    91040226.13048
  20355438.160   106968613.98809  20355436.320    83352193.76448
  20442532.820   107426273.96109  20442529.560    83708786.04748
  22591577.740   118719620.91208  22591575.440    92508824.23547
  21045039.340   110592463.08609  21045034.800    86175944.97549
  24034630.640   126302941.28008  24034626.180    98417899.52846
  22636953.420   118958043.08209  22636953.620    92694594.31748
  24300129.360   127698042.29808  24300127.380    99504956.92345
  20089000.440   105568551.53409  20088998.160    82261252.83548
 15 03 26 03 06 30.0000000  0 10G01G03G04G11G14G19G22G27G28G32
  21468752.920   112819096.08609  21468753.580    87910995.76448
  22219323.440   116763397.30209  22219324.600    90984486.35348
  20353914.120   106960605.43809  20353912.360    83345953.33748
  20435359.520   107388578.24309  20435356.340    83679412.76148
  22597284.940   118749612.50008  22597282.580    92532194.30847
  21055755.920   110648779.14909  21055751.380    86219827.61249
  24051495.840   126391568.89108  24051491.460    98486959.97546
  22655405.020   119055006.62109  22655405.180    92770150.29748
  24295560.300   127674031.35008  24295558.260    99486247.07945
  20089905.040   105573305.21909  20089902.760    82264957.01348
 15 03 26 03 07  0.0000000  0 10G01G03G04G11G14G19G22G27G28G32
  21459251.960   112769167.81009  21459252.520    87872090.61848
  22205767.620   116692160.24909  22205768.580    90928976.98948
  20352441.900   106952869.19809  20352440.180    83339925.10048
  20428253.000   107351233.75909  20428249.940    83650313.16748
  22603093.200   118780135.21708  22603090.820    92555978.23947
  21066558.320   110705546.38409  21066553.780    86264061.81049
  24068364.140   126480212.96008  24068359.740    98556033.23946
  22673907.520   119152237.98609  22673907.780    92845914.95248
  24291082.580   127650500.06808  24291080.420    99467911.00945
  20090899.800   105578533.07009  20090897.560    82269030.67348
 15 03 26 03 07 30.0000000  0 10G01G03G04G11G14G19G22G27G28G32
  21449778.580   112719384.87509  21449779.180    87833298.73448
  22192267.600   116621216.57409  22192268.380    90873696.22648
  20351021.100   106945402.85409  20351019.300    83334107.17448
  20421213.040   107314239.00309  20421210.020    83621486.08848
  22609001.900   118811185.52209  22608999.440    92580173.28846
  21077445.760   110762760.54809  21077441.220    86308644.26648
  24085234.820   126568869.55208  24085230.560    98625116.26145
  22692460.040   119249732.21309  22692460.360    92921884.43848
  24286695.720   127627446.20408  24286693.420    99449946.93945
  20091983.980   105584230.94209  20091981.840    82273470.58248
 15 03 26 03 08  0.0000000  0 10G01G03G04G11G14G19G22G27G28G32
  21440333.340   112669749.88009  21440333.960    87794622.11648
  22178823.860   116550568.73309  22178824.560    90818645.98148
  20349652.120   106938208.81309  20349650.280    83328501.41748
  20414240.340   107277597.48309  20414237.360    83592934.25448
  22615011.160   118842764.44608  22615008.740    92604780.24047
  21088418.440   110820422.87309  21088414.000    86353575.93148
  24102108.140   126657539.54708  24102104.000    98694209.71046
  22711062.620   119347489.10509  22711062.980    92998058.60748
  24282400.000   127604871.87508  24282397.760    99432356.54045
  20093157.720   105590399.24709  20093155.680    82278277.05848
 15 03 26 03 08 30.0000000  0 10G01G03G04G11G14G19G22G27G28G32
  21430915.820   112620260.22109  21430916.300    87756058.75148
  22165435.840   116480213.84309  22165436.480    90763824.02348
  20348334.420   106931284.28709  20348332.600    83323105.69148
  20407334.540   107241307.11709  20407331.560    83564656.05948
  22621120.200   118874867.76508  22621117.820    92629795.82546
  21099475.500   110878528.66209  21099471.200    86398853.16548
  24118983.180   126746217.83408  24118978.960    98763309.64346
  22729714.200   119445503.22509  22729714.520    93074433.21448
  24278194.920   127582773.82008  24278192.600    99415137.28545
  20094420.140   105597033.36209  20094418.120    82283446.50848
 15 03 26 03 09  0.0000000  0 10G01G03G04G11G14G19G22G27G28G32
  21421527.000   112570921.95709  21421527.560    87717613.35748
  22152104.600   116410157.76209  22152105.200    90709234.88848
  20347069.140   106924635.28509  20347067.400    83317924.64448
  20400496.960   107205374.82709  20400493.880    83536656.87648
  22627329.860   118907499.75409  22627327.540    92655223.35346
  21110617.740   110937082.01109  21110613.600    86444479.13748
  24135860.680   126834908.58408  24135856.340    98832419.29646
  22748415.300   119543777.78809  22748415.580    93151010.75648
  24274081.580   127561157.68108  24274079.060    99398293.51645
  20095771.940   105604137.26309  20095769.980    82288982.02048
 15 03 26 03 09 30.0000000  0 10G01G03G04G11G14G19G22G27G28G32
  21412166.560   112521733.19109  21412167.300    87679284.46248
  22138829.820   116340398.43809  22138830.440    90654877.00648
  20345855.960   106918259.97109  20345854.280    83312956.87948
  20393727.380   107169799.58209  20393724.060    83508935.91448
  22633639.480   118940656.86009  22633637.100    92681060.05746
  21121844.540   110996079.55409  21121840.500    86490451.24048
  24152739.820   126923608.19908  24152735.360    98901535.86546
  22767165.040   119642308.12409  22767165.280    93227787.61948
  24270059.400   127540020.95308  24270056.880    99381823.35145
  20097212.380   105611707.01609  20097210.420    82294880.54048
 15 03 26 03 10  0.0000000  0 10G01G03G04G11G14G19G22G27G28G32
  21402834.960   112472695.42809  21402835.720    87641073.22148
  22125611.760   116270937.02909  22125612.360    90600751.25148
  20344694.980   106912159.36009  20344693.400    83308203.15948
  20387026.080   107134583.26909  20387022.560    83481494.62648
  22640048.960   118974338.78208  22640046.580    92707305.70847
  21133155.800   111055520.73909  21133151.800    86536769.03349
  24169620.500   127012316.07708  24169615.960    98970658.85646
  22785963.120   119741092.82209  22785963.420    93304762.66548
  24266128.640   127519364.83308  24266126.080    99365727.65445
  20098741.400   105619741.96209  20098739.380    82301141.54648
 15 03 26 03 10 30.0000000  0 10G01G03G04G11G14G19G22G27G28G32
  21393532.000   112423807.76209  21393532.660    87602978.93848
  22112450.160   116201772.43109  22112450.720    90546856.77148
  20343586.100   106906332.54009  20343584.560    83303662.78248
  20380393.060   107099725.97009  20380389.460    83454333.09448
  22646557.840   119008543.14808  22646555.480    92733958.46547
  21144550.960   111115402.52509  21144547.000    86583430.14449
  24186502.120   127101029.40008  24186497.560    99039786.08846
  22804808.840   119840128.12509  22804809.260    93381932.99448
  24262289.020   127499187.69108  24262286.400    99350005.21045
  20100358.380   105628239.01809  20100356.320    82307762.63548
 15 03 26 03 11  0.0000000  0 10G01G03G04G11G14G19G22G27G28G32
  21384258.200   112375073.57709  21384258.800    87565004.25648
  22099345.600   116132907.69009  22099346.140    90493195.95448
  20342529.980   106900782.74209  20342528.440    83299338.26648
  20373829.100   107065231.72509  20373825.500    83427454.46448
  22653166.500   119043271.50709  22653164.080    92761019.53447
  21156030.440   111175726.85609  21156026.360    86630436.11449
  24203385.060   127189749.64408  24203380.420    99108918.71846
  22823702.360   119939414.54509  22823702.980    93459298.99148
  24258541.100   127479492.37008  24258538.480    99334658.20645
  20102063.580   105637199.48709  20102061.440    82314744.83248
 15 03 26 03 11 30.0000000  0 10G01G03G04G11G14G19G22G27G28G32
  21375012.800   112326488.82709  21375013.380    87527146.01448
  22086297.280   116064338.48609  22086297.840    90439765.43548
  20341525.740   106895505.63009  20341524.260    83295226.22848
  20367333.480   107031097.09809  20367329.900    83400856.05348
  22659873.760   119078518.03609  22659871.340    92788484.36247
  21167592.820   111236487.44409  21167588.740    86677782.01148
  24220268.120   127278470.70408  24220263.400    99178052.00645
  22842642.380   120038945.13709  22842643.140    93536855.24748
  24254884.000   127460274.18508  24254881.420    99319682.99345
  20103855.700   105646617.04409  20103853.580    82322083.19048
 15 03 26 03 12  0.0000000  0 10G01G03G04G11G14G19G22G27G28G32
  21365796.520   112278057.04109  21365797.140    87489406.97048
  22073305.820   115996068.00809  22073306.360    90386567.67948
  20340574.000   106890504.49709  20340572.620    83291329.24248
  20360907.080   106997326.22009  20360903.460    83374541.08748
  22666679.860   119114284.18109  22666677.380    92816354.08847
  21179238.400   111297685.69809  21179234.380    86725468.94549
  24237151.660   127367194.23508  24237146.920    99247187.19845
  22861629.040   120138720.52809  22861629.820    93614602.26248
  24251318.320   127441536.15808  24251315.780    99305081.93545
  20105735.040   105656493.10009  20105732.920    82329778.81548
 15 03 26 03 12 30.0000000  0 10G01G03G04G11G14G19G22G27G28G32
  21356609.660   112229779.67409  21356610.340    87451788.25248
  22060371.360   115928097.43809  22060371.980    90333603.62848
  20339675.200   106885780.91409  20339673.760    83287648.52748
  20354550.280   106963921.08909  20354546.600    83348511.12148
  22673584.860   119150569.87509  22673582.320    92844628.65847
  21190967.240   111359321.20509  21190963.160    86773496.60349
  24254035.560   127455919.54408  24254030.700    99316323.79145
  22880662.080   120238739.28709  22880662.760    93692538.92448
  24247844.160   127423278.90108  24247841.540    99290855.50145
  20107701.500   105666826.94109  20107699.400    82337831.16448
 15 03 26 03 13  0.0000000  0 10G01G03G04G11G14G19G22G27G28G32
  21347452.440   112181658.01409  21347453.200    87414290.86348
  22047494.120   115860427.68109  22047494.820    90280873.97748
  20338829.500   106881335.75309  20338827.860    83284184.76448
  20348263.600   106930884.11609  20348259.840    83322768.02348
  22680588.560   119187374.38309  22680585.960    92873307.49247
  21202779.180   111421393.24809  21202775.080    86821864.41449
  24270919.620   127544646.02008  24270914.680    99385461.28845
  22899741.120   120338999.75409  22899741.720    93770663.92348
  24244461.640   127405503.22008  24244458.900    99277004.32445
  20109754.860   105677617.57309  20109752.800    82346239.45748
 15 03 26 03 13 30.0000000  0 10G01G03G04G11G14G19G22G27G28G32
  21338324.680   112133691.28509  21338325.460    87376914.19748
  22034674.000   115793057.59909  22034674.720    90228377.82948
  20338036.500   106877167.90009  20338034.700    83280937.08648
  20342046.820   106898214.71709  20342043.100    83297311.35248
  22687690.560   119224695.47109  22687687.920    92902388.85747
  21214673.660   111483899.11509  21214669.580    86870570.27048
  24287803.300   127633370.99108  24287798.340    99454597.62945
  22918865.380   120439498.16909  22918866.000    93848974.33548
  24241170.420   127388207.52708  24241167.760    99263527.16445
  20111894.560   105688862.02709  20111892.500    82355001.37348
 15 03 26 03 14  0.0000000  0 10G01G03G04G11G14G19G22G27G28G32
  21329227.040   112085882.84809  21329227.720    87339660.88048
  22021911.440   115725990.18209  22021912.200    90176117.52948
  20337296.820   106873280.70009  20337295.000    83277908.10148
  20335900.720   106865917.08209  20335897.100    83272144.36648
  22694890.940   119262533.75009  22694888.160    92931873.23247
  21226650.980   111546840.06809  21226646.880    86919615.15448
  24304686.940   127722095.90608  24304682.240    99523733.86945
  22938034.960   120540234.99909  22938035.560    93927470.52048
  24237970.980   127371394.44608  24237968.200    99250426.04745
  20114120.840   105700561.32009  20114118.780    82364117.71048
 15 03 26 03 14 30.0000000  0 10G01G03G04G11G14G19G22G27G28G32
  21320158.880   112038229.24309  21320159.440    87302528.21348
  22009205.720   115659221.52009  22009206.560    90124090.03448
  20336609.840   106869670.63309  20336608.020    83275095.06648
  20329824.700   106833988.14609  20329821.260    83247264.68248
  22702188.740   119300884.08709  22702186.060    92961756.62646
  21238710.020   111610210.49809  21238705.900    86968994.70048
  24321569.600   127810815.39308  24321565.100    99592865.89845
  22957248.700   120641203.77709  22957249.320    94006147.45448
  24234862.500   127355059.59108  24234859.860    99237697.60145
  20116432.560   105712709.68009  20116430.540    82373583.97548
 15 03 26 03 15  0.0000000  0 10G01G03G04G11G14G19G22G27G28G32
  21311120.660   111990732.95309  21311121.200    87265518.12948
  21996557.160   115592753.77609  21996558.080    90072297.01448
  20335976.020   106866339.63209  20335974.160    83272499.48748
  20323819.400   106802431.28009  20323816.200    83222674.92048
  22709584.040   119339747.29208  22709581.460    92992039.64947
  21250850.820   111674010.69609  21250846.680    87018709.13448
  24338451.440   127899529.86908  24338447.040    99661994.01845
  22976506.520   120742404.03109  22976507.160    94085004.74848
  24231845.420   127339204.74908  24231842.920    99225343.18045
  20118829.780   105725307.39509  20118827.820    82383400.37848
 15 03 26 03 15 30.0000000  0 10G01G03G04G11G14G19G22G27G28G32
  21302112.920   111943397.02809  21302113.480    87228632.99748
  21983966.380   115526589.53509  21983967.380    90020740.49348
  20335395.880   106863290.85409  20335394.020    83270123.81648
  20317885.720   106771250.28009  20317882.620    83198378.04148
  22717077.080   119379124.29208  22717074.580    93022723.03047
  21263073.520   111738241.43409  21263069.400    87068759.04548
  24355332.620   127988240.32808  24355328.100    99731119.02646
  22995808.400   120843835.82109  22995809.020    94164042.45848
  24228920.120   127323832.07908  24228917.640    99213364.47545
  20121312.660   105738355.10709  20121310.700    82393567.43248
 15 03 26 03 16  0.0000000  0 10G01G03G04G11G14G19G22G27G28G32
  21293135.000   111896218.19209  21293135.640    87191870.27648
  21971432.760   115460725.04409  21971433.780    89969417.54248
  20334868.680   106860520.59409  20334866.840    83267965.17048
  20312023.060   106740442.13809  20312019.980    83174371.69548
  22724666.800   119419009.48308  22724664.400    93053802.40846
  21275377.160   111802897.81609  21275373.100    87119140.62748
  24372212.100   128076941.86408  24372207.460    99800237.07146
  23015153.120   120945492.84009  23015153.700    94243255.67648
  24226085.800   127308937.41408  24226083.200    99201758.23845
  20123880.100   105751847.15809  20123878.080    82404080.72748
 15 03 26 03 16 30.0000000  0 10G01G03G04G11G14G19G22G27G28G32
  21284187.940   111849201.39809  21284188.600    87155233.83148
  21958957.080   115395164.86309  21958958.120    89918331.71748
  20334395.380   106858033.69609  20334393.560    83266027.33348
  20306232.560   106710012.64209  20306229.400    83150660.40748
  22732353.980   119459406.45708  22732351.660    93085280.57947
  21287762.280   111867982.58409  21287758.300    87169856.02348
  24389090.420   128165637.36908  24389085.740    99869350.44846
  23034541.120   121047377.09209  23034541.700    94322645.95348
  24223343.220   127294524.82208  24223340.640    99190527.64845
  20126532.620   105765786.35809  20126530.580    82414942.45048
 15 03 26 03 17  0.0000000  0 10G01G03G04G11G14G19G22G27G28G32
  21275271.520   111802345.48309  21275272.320    87118722.73348
  21946539.000   115329907.29909  21946540.020    89867481.69248
  20333975.740   106855828.60409  20333973.920    83264309.07448
  20300513.980   106679960.89409  20300510.660    83127243.45748
  22740137.980   119500311.61108  22740135.740    93117154.71947
  21300228.200   111933491.93509  21300224.320    87220902.25449
  24405966.860   128254323.73908  24405962.300    99938456.68146
  23053971.540   121149484.32109  23053972.120    94402209.97448
  24220692.000   127280592.44608  24220689.340    99179671.24045
  20129269.520   105780169.03609  20129267.500    82426149.73348
 15 03 26 03 17 30.0000000  0 10G01G03G04G11G14G19G22G27G28G32
  21266386.300   111755653.23509  21266387.100    87082339.16948
  21934178.980   115264954.66409  21934179.940    89816869.27048
  20333610.220   106853908.00409  20333608.440    83262812.50848
  20294867.940   106650290.47509  20294864.600    83104123.65448
  22748018.840   119541725.51308  22748016.600    93149425.28847
  21312775.120   111999426.67309  21312771.340    87272279.95448
  24422841.620   128343001.73708  24422837.260   100007556.38446
  23073444.360   121251814.29409  23073444.940    94481947.56748
  24218132.500   127267141.86708  24218129.800    99169190.27445
  20132090.980   105794995.64309  20132088.900    82437702.93948
 15 03 26 03 18  0.0000000  0 10G01G03G04G11G14G19G22G27G28G32
  21257531.880   111709122.97809  21257532.660    87046081.84648
  21921876.580   115200304.78009  21921877.400    89766492.76748
  20333298.520   106852269.94409  20333296.760    83261536.10248
  20289294.160   106620999.94809  20289290.860    83081299.88148
  22755995.800   119583644.48708  22755993.560    93182089.44046
  21325402.320   112065782.85009  21325398.560    87323986.05948
  24439714.080   128431667.73308  24439710.020   100076646.73346
  23092958.660   121354362.31009  23092959.240    94561855.06648
  24215664.160   127254170.56908  24215661.440    99159082.77945
  20134996.120   105810262.04309  20134994.040    82449598.84448
 15 03 26 03 18 30.0000000  0 10G01G03G04G11G14G19G22G27G28G32
  21248708.360   111662754.92309  21248709.140    87009950.90548
  21909631.780   115135957.37009  21909632.400    89716351.94648
  20333040.660   106850914.31309  20333038.820    83260479.76448
  20283792.880   106592090.24009  20283789.540    83058772.83648
  22764068.460   119626066.54408  22764066.120    93215145.59446
  21338109.360   112132558.51709  21338105.560    87376019.02848
  24456583.980   128520320.09708  24456580.060   100145726.44846
  23112513.940   121457125.54009  23112514.480    94641930.25348
  24213286.860   127241677.94108  24213284.160    99149348.24645
  20137984.520   105825966.02109  20137982.420    82461835.71448
 15 03 26 03 19  0.0000000  0 10G01G03G04G11G14G19G22G27G28G32
  21239916.140   111616551.64409  21239916.940    86973948.36148
  21897444.840   115071914.42309  21897445.360    89666448.38748
  20332837.020   106849843.52909  20332835.060    83259645.38248
  20278364.680   106563564.57009  20278361.300    83036545.04548
  22772236.980   119668992.10408  22772234.640    93248594.07546
  21350896.400   112199753.87509  21350892.440    87428379.03349
  24473451.540   128608959.53408  24473447.640   100214796.10046
  23132110.100   121560103.43009  23132110.600    94722172.71647
  24211000.920   127229665.25408  24210998.180    99139987.69545
  20141056.160   105842107.71909  20141054.100    82474413.66848
 15 03 26 03 19 30.0000000  0 10G01G03G04G11G14G19G22G27G28G32
  21231155.680   111570514.99809  21231156.460    86938075.65548
  21885316.080   115008177.23309  21885316.580    89616783.07048
  20332687.840   106849059.04109  20332685.760    83259034.10048
  20273009.840   106535425.02209  20273006.500    83014618.13548
  22780501.200   119712420.70708  22780498.800    93282434.55146
  21363763.280   112267368.67209  21363759.160    87481065.87349
  24490316.640   128697585.76508  24490312.640   100283855.46446
  23151746.860   121663294.76709  23151747.260    94802581.50547
  24208806.520   127218133.42808  24208803.740    99131001.83945
  20144210.980   105858686.59409  20144208.960    82487332.28248
 15 03 26 03 20  0.0000000  0 10G01G03G04G11G14G19G22G27G28G32
  21222426.580   111524642.81609  21222427.180    86902331.10848
  21873244.980   114944743.11909  21873245.480    89567353.91148
  20332592.640   106848558.60409  20332590.520    83258644.14748
  20267728.260   106507670.25209  20267724.920    82992991.04648
  22788860.340   119756348.15808  22788858.000    93316663.72846
  21376709.100   112335398.44309  21376704.820    87534076.07648
  24507178.480   128786194.87208  24507174.340   100352901.48545
  23171423.180   121766694.35909  23171423.580    94883152.55647
  24206703.020   127207079.26608  24206700.160    99122388.20245
  20147448.160   105875698.00309  20147446.080    82500587.93248
 15 03 26 03 20 30.0000000  0 10G01G03G04G11G14G19G22G27G28G32
  21213729.540   111478939.35009  21213730.060    86866718.03648
  21861232.220   114881615.70809  21861232.700    89518163.74348
  20332552.180   106848346.09609  20332550.080    83258478.56048
  20262520.880   106480304.97809  20262517.540    82971667.46048
  22797314.700   119800776.30708  22797312.360    93351283.08446
  21389734.080   112403844.84409  21389729.740    87587410.92449
  24524037.460   128874789.20508  24524033.240   100421935.98145
  23191139.320   121870303.29209  23191139.740    94963886.73848
  24204691.040   127196506.01708  24204688.180    99114149.29845
  20150768.040   105893143.64609  20150765.880    82514181.95448
 15 03 26 03 21  0.0000000  0 10G01G03G04G11G14G19G22G27G28G32
  21205064.400   111433403.50309  21205064.820    86831235.56048
  21849277.420   114818793.29009  21849277.940    89469211.23048
  20332566.160   106848419.95009  20332564.200    83258536.09848
  20257387.440   106453328.40909  20257384.100    82950646.75248
  22805863.660   119845701.77608  22805861.400    93386289.92946
  21402837.680   112472704.60109  21402833.300    87641067.85948
  24540893.060   128963365.53208  24540888.700   100490956.45045
  23210894.500   121974117.35109  23210894.940    95044780.74748
  24202770.080   127186411.28308  24202767.320    99106283.25544
  20154169.880   105911019.90509  20154167.660    82528111.50248
 15 03 26 03 21 30.0000000  0 10G01G03G04G11G14G19G22G27G28G32
  21196431.340   111388036.38509  21196431.740    86795884.56348
  21837380.760   114756276.40609  21837381.320    89420496.80248
  20332634.900   106848781.25509  20332632.940    83258817.63548
  20252328.280   106426742.17509  20252324.900    82929930.21148
  22814507.160   119891123.56408  22814504.760    93421683.54546
  21416019.600   112541976.36509  21416015.260    87695045.84948
  24557745.040   129051923.17708  24557740.540   100559962.37344
  23230688.320   122078134.57209  23230688.860    95125833.06547
  24200940.180   127176795.07508  24200937.360    99098790.10845
  20157653.400   105929325.55309  20157651.140    82542375.64848
 15 03 26 03 22  0.0000000  0 10G01G03G04G11G14G19G22G27G28G32
  21187830.720   111342840.00109  21187831.100    86760666.60948
  21825542.520   114694066.40609  21825543.120    89372021.50948
  20332758.600   106849431.56509  20332756.640    83259324.37248
  20247343.840   106400548.73009  20247340.400    82909519.73948
  22823244.980   119937041.18208  22823242.540    93457463.50446
  21429279.780   112611659.77509  21429275.560    87749344.59948
  24574593.480   129140462.28208  24574588.900   100628953.85944
  23250520.560   122182353.77508  23250521.180    95207042.77948
  24199201.460   127167658.16008  24199198.580    99091670.44345
  20161218.440   105948059.85709  20161216.180    82556973.82148
 15 03 26 03 22 30.0000000  0 10G01G03G04G11G14G19G22G27G28G32
  21179262.120   111297812.42109  21179262.560    86725580.19248
  21813762.220   114632160.73209  21813762.900    89323783.33948
  20332936.860   106850368.82209  20332935.000    83260054.70248
  20242433.860   106374746.68709  20242430.360    82889414.25448
  22832076.320   119983450.48108  22832073.840    93493626.58246
  21442617.520   112681750.61809  21442613.420    87803960.82748
  24591437.700   129228978.96108  24591433.180   100697927.88245
  23270390.240   122286769.96309  23270390.920    95288405.97547
  24197553.400   127158997.51008  24197550.460    99084921.86645
  20164864.200   105967218.46309  20164861.960    82571902.61148
 15 03 26 03 23  0.0000000  0 10G01G03G04G11G14G19G22G27G28G32
  21170726.040   111252955.85109  21170726.680    86690627.04148
  21802040.160   114570560.89409  21802040.840    89275783.48748
  20333170.080   106851594.55909  20333168.240    83261009.82248
  20237598.900   106349338.59809  20237595.300    82869615.74348
  22841001.280   120030351.18408  22840998.740    93530172.58746
  21456032.720   112752248.54809  21456028.760    87858894.26648
  24608277.820   129317473.66608  24608273.260   100766884.79145
  23290297.300   122391382.08108  23290297.900    95369921.85947
  24195996.200   127150814.15608  24195993.240    99078545.22445
  20168590.680   105986800.92709  20168588.360    82587161.68048
