     2.11           OBSERVATION DATA    G                   RINEX VERSION / TYPE
SPIDER V4,0,0,3554                      2015 04 16 13:10    PGM / RUN BY / DATE 
CABS                                                        MARKER NAME         
CABS                                                        MARKER NUMBER       
                                                            OBSERVER / AGENCY   
462287              LEICA GRX1200PRO    8.10/2.127          REC # / TYPE / VERS 
103298              LEIAT504                                ANT # / TYPE        
  5116912.3402   671231.6412  3737143.4301                  APPROX POSITION XYZ 
        0.0600        0.0000        0.0000                  ANTENNA: DELTA H/E/N
     1     1                                                WAVELENGTH FACT L1/2
     4    C1    L1    P2    L2                              # / TYPES OF OBSERV 
    30.000                                                  INTERVAL            
  2015    02    20    00    00    0.0000000     GPS         TIME OF FIRST OBS   
  2015    02    20    23    59   30.0000000     GPS         TIME OF LAST OBS    
    16                                                      LEAP SECONDS        
    29                                                      # OF SATELLITES     
   G 1   804   804   804   804                              PRN / # OF OBS      
   G 2   942   942   942   942                              PRN / # OF OBS      
   G 3   847   847   847   847                              PRN / # OF OBS      
   G 4   831   831   831   831                              PRN / # OF OBS      
   G 5   652   652   652   652                              PRN / # OF OBS      
   G 6   838   838   838   838                              PRN / # OF OBS      
   G 7   673   673   673   673                              PRN / # OF OBS      
   G 9   808   808   808   808                              PRN / # OF OBS      
   G10   752   752   752   752                              PRN / # OF OBS      
   G12   830   830   830   830                              PRN / # OF OBS      
   G13   792   792   792   792                              PRN / # OF OBS      
   G14   941   941   941   941                              PRN / # OF OBS      
   G15   701   701   701   701                              PRN / # OF OBS      
   G16   664   664   664   664                              PRN / # OF OBS      
   G17   941   941   941   941                              PRN / # OF OBS      
   G18   904   904   904   904                              PRN / # OF OBS      
   G19   750   750   750   750                              PRN / # OF OBS      
   G20   784   784   784   784                              PRN / # OF OBS      
   G21   741   741   741   741                              PRN / # OF OBS      
   G22   658   658   657   657                              PRN / # OF OBS      
   G23   756   756   756   756                              PRN / # OF OBS      
   G24   816   816   816   816                              PRN / # OF OBS      
   G25   855   855   855   855                              PRN / # OF OBS      
   G27   801   801   801   801                              PRN / # OF OBS      
   G28   877   877   877   877                              PRN / # OF OBS      
   G29   782   782   782   782                              PRN / # OF OBS      
   G30   719   719   719   719                              PRN / # OF OBS      
   G31   871   871   871   871                              PRN / # OF OBS      
   G32   769   769   769   769                              PRN / # OF OBS      
BIT 2 OF LLI FLAGS DATA COLLECTED UNDER A/S CONDITION       COMMENT             
SNR is mapped to RINEX snr flag value [2-9]                 COMMENT             
Lx:     = 25dBHz -> 1; 26-27dBHz -> 2; 28-31dBHz -> 3       COMMENT             
       32-35dBHz -> 4; 36-38dBHz -> 5; 39-41dBHz -> 6       COMMENT             
       42-44dBHz -> 7; 45-48dBHz -> 8; >=49dBHz -> 9        COMMENT             
                                                            END OF HEADER       
 15 02 20 00 00  0.0000000  0  7G16G18G21G25G27G29G31
  22725565.700   119423660.71807  22725567.100    93057397.91947
  23333499.240   122618456.72206  23333501.180    95546898.41145
  20918485.100   109927602.68608  20918485.960    85657987.38049
  23707233.500   124582537.42706  23707238.100    97077411.73344
  23955171.160   125885283.06106  23955175.800    98092447.62846
  22792841.660   119777655.24907  22792843.880    93333458.73447
  22097794.200   116124699.51908  22097795.700    90486792.42048
 15 02 20 00 00 30.0000000  0  7G16G18G21G25G27G29G31
  22709299.360   119338181.08107  22709300.860    92990790.42646
  23318899.700   122541736.35206  23318901.620    95487116.33345
  20920443.540   109937894.62808  20920444.460    85666007.07949
  23725025.600   124676035.48006  23725030.100    97150267.33044
  23941135.640   125811525.85305  23941140.160    98034974.52046
  22806083.980   119847243.80007  22806086.180    93387683.56247
  22111893.560   116198791.63008  22111894.860    90544526.50848
 15 02 20 00 01  0.0000000  0  7G16G18G21G25G27G29G31
  22693060.560   119252846.03407  22693062.140    92924295.59546
  23304326.200   122465153.24107  23304328.300    95427441.21645
  20922480.740   109948600.22308  20922481.660    85674349.10349
  23742857.020   124769739.72606  23742861.460    97223283.60745
  23927116.160   125737853.23305  23927120.600    97977567.32646
  22819337.100   119916889.29207  22819339.320    93441952.76147
  22126058.920   116273230.97808  22126060.060    90602531.16948
 15 02 20 00 01 30.0000000  0  7G16G18G21G25G27G29G31
  22676849.580   119167656.74907  22676851.200    92857914.34846
  23289779.200   122388709.45906  23289781.460    95367874.66445
  20924596.280   109959717.48508  20924597.200    85683011.90649
  23760727.320   124863648.08706  23760731.580    97296458.92545
  23913112.660   125664264.40205  23913117.040    97920225.39045
  22832600.880   119986590.68507  22832603.100    93496265.50347
  22140289.600   116348013.75608  22140290.680    90660803.43748
 15 02 20 00 02  0.0000000  0  7G16G18G21G25G27G29G31
  22660667.120   119082617.09507  22660668.700    92791649.68947
  23275259.720   122312410.08606  23275262.140    95308420.64345
  20926790.400   109971247.50008  20926791.240    85691996.33649
  23778636.560   124957761.29806  23778640.980    97369793.87045
  23899125.360   125590761.20905  23899129.780    97862950.21646
  22845875.640   120056349.39207  22845877.780    93550622.91347
  22154585.560   116423139.56008  22154586.680    90719342.99148
 15 02 20 00 02 30.0000000  0  7G16G18G21G25G27G29G31
  22644513.600   118997729.44907  22644515.100    92725503.47747
  23260768.280   122236257.42007  23260770.820    95249080.93445
  20929062.880   109983189.35508  20929063.700    85701301.68249
  23796584.500   125052078.29606  23796589.240    97443287.60445
  23885154.380   125517343.78905  23885158.880    97805741.84945
  22859161.160   120126164.95307  22859163.240    93605024.60747
  22168946.280   116498605.30808  22168947.460    90778147.44648
 15 02 20 00 03  0.0000000  0  7G16G18G21G25G27G29G31
  22628389.020   118912994.07007  22628390.500    92659475.90747
  23246304.960   122160252.08107  23246307.540    95189856.03645
  20931413.080   109995539.82408  20931413.920    85710925.41949
  23814570.660   125146596.02906  23814575.620    97516937.76745
  23871199.440   125444010.51005  23871204.060    97748599.06046
  22872457.060   120196035.46007  22872459.180    93659469.12647
  22183370.920   116574406.90408  22183372.200    90837213.59748
 15 02 20 00 03 30.0000000  0  7G16G18G21G25G27G29G31
  22612293.800   118828413.43607  22612295.360    92593568.92347
  23231870.480   122084397.44407  23231872.940    95130748.57045
  20933840.980   110008298.49008  20933841.800    85720867.24049
  23832595.000   125241313.81306  23832600.060    97590743.79146
  23857260.540   125370761.66105  23857265.300    97691522.06046
  22885763.500   120265961.41307  22885765.720    93713956.85947
  22197858.980   116650542.03108  22197860.400    90896539.63848
 15 02 20 00 04  0.0000000  0  7G16G18G21G25G27G29G31
  22596228.500   118743989.68607  22596230.100    92527784.19147
  23217465.360   122008696.97607  23217467.620    95071761.21345
  20936346.340   110021464.15708  20936347.120    85731126.20449
  23850657.260   125336230.47606  23850662.280    97664704.80146
  23843337.800   125297597.50005  23843342.700    97634511.04747
  22899080.340   120335942.32107  22899082.680    93768487.40647
  22212410.000   116727008.20708  22212411.540    90956123.64048
 15 02 20 00 04 30.0000000  0  7G16G18G21G25G27G29G31
  22580193.180   118659723.46008  22580194.760    92462122.19547
  23203089.740   121933151.76407  23203091.900    95012894.82446
  20938928.680   110035034.43208  20938929.420    85741700.44549
  23868756.860   125431343.54906  23868761.860    97738818.85946
  23829431.100   125224516.69105  23829435.900    97577564.98346
  22912407.300   120405976.70507  22912409.860    93823059.62246
  22227023.160   116803801.21008  22227024.840    91015962.31748
 15 02 20 00 05  0.0000000  0  7G16G18G21G25G27G29G31
  22564188.800   118575619.63708  22564190.320    92396586.75247
  23188744.480   121857766.75107  23188746.760    94954153.29645
  20941588.340   110049011.03408  20941589.060    85752591.29849
  23886893.940   125526654.33506  23886898.960    97813086.96145
  23815540.740   125151521.72306  23815545.380    97520685.82046
  22925745.000   120476066.62807  22925747.660    93877675.12147
  22241698.540   116880920.97308  22241700.260    91076055.61048
 15 02 20 00 05 30.0000000  0  7G16G18G21G25G27G29G31
  22548215.520   118491679.34208  22548217.000    92331178.72247
  23174429.980   121782543.93707  23174432.420    94895538.14345
  20944325.000   110063392.22208  20944325.700    85763797.41849
  23905068.220   125622161.02306  23905073.220    97887507.72745
  23801666.700   125078612.16306  23801671.120    97463873.20746
  22939093.100   120546211.19107  22939095.800    93932333.20147
  22256435.460   116958364.12308  22256437.160    91136400.88348
 15 02 20 00 06  0.0000000  0  7G16G18G21G25G27G29G31
  22532273.700   118407904.62008  22532275.220    92265899.72447
  23160146.860   121707486.38607  23160149.400    94837051.76946
  20947138.360   110078176.72508  20947139.100    85775317.81449
  23923279.420   125717862.25006  23923284.340    97962080.07044
  23787808.880   125005787.86306  23787813.100    97407127.03046
  22952451.600   120616410.52507  22952454.320    93987033.95247
  22271233.460   117036127.98808  22271235.080    91196996.07048
 15 02 20 00 06 30.0000000  0  7G16G18G21G25G27G29G31
  22516363.800   118324297.40208  22516365.320    92200751.24747
  23145895.700   121632596.39207  23145898.260    94778695.96045
  20950028.160   110093362.79008  20950028.900    85787151.10949
  23941527.200   125813756.46105  23941532.240    98036802.82645
  23773967.180   124933048.59206  23773971.220    97350447.12646
  22965820.340   120686663.65907  22965823.060    94041776.61947
  22286091.940   117114209.44908  22286093.500    91257838.73248
 15 02 20 00 07  0.0000000  0  7G16G18G21G25G27G29G31
  22500486.020   118240859.10508  22500487.540    92135734.40347
  23131676.780   121557875.72607  23131679.220    94720472.09745
  20952994.020   110108948.53108  20952994.800    85799295.84549
  23959811.400   125909841.55006  23959816.480    98111674.29544
  23760141.320   124860393.42606  23760145.260    97293832.73746
  22979199.220   120756969.47807  22979201.800    94096560.35247
  22301010.120   117192604.83008  22301011.700    91318926.01048
 15 02 20 00 07 30.0000000  0  7G16G18G21G25G27G29G31
  22484640.840   118157592.00208  22484642.320    92070850.94747
  23117490.680   121483327.29607  23117492.860    94662382.43845
  20956035.860   110124933.35608  20956036.640    85811751.55149
  23978131.980   126006116.66106  23978136.820    98186693.82145
  23746331.560   124787822.87806  23746335.380    97237284.28745
  22992588.140   120827328.19207  22992590.580    94151385.29046
  22315987.600   117271311.80608  22315989.200    91380256.09648
 15 02 20 00 08  0.0000000  0  7G16G18G21G25G27G29G31
  22468828.760   118074498.86108  22468830.180    92006103.04547
  23103338.060   121408954.49507  23103339.920    94604429.64145
  20959153.500   110141316.71008  20959154.280    85824517.80449
  23996488.760   126102581.09506  23996493.380    98261860.89845
  23732537.880   124715337.43106  23732541.720    97180802.13445
  23005987.140   120897740.41207  23005989.500    94206251.91146
  22331024.000   117350328.21208  22331025.600    91441827.29248
 15 02 20 00 08 30.0000000  0  7G16G18G21G25G27G29G31
  22453049.780   117991580.05308  22453051.180    91941490.99947
  23089219.080   121334758.85407  23089220.780    94546614.89545
  20962346.480   110158095.91408  20962347.280    85837592.51149
  24014881.140   126199232.12606  24014885.480    98337173.36145
  23718760.140   124642935.80905  23718764.080    97124385.31346
  23019395.960   120968204.01307  23019398.240    94261158.57446
  22346118.440   117429649.82708  22346120.040    91503636.31747
 15 02 20 00 09  0.0000000  0  7G16G18G21G25G27G29G31
  22437304.780   117908839.84508  22437306.140    91877018.11447
  23075134.600   121260744.54407  23075136.240    94488941.42645
  20965614.880   110175271.42208  20965615.660    85850976.02049
  24033309.160   126296070.22406  24033313.300    98412631.59345
  23704998.700   124570619.79206  23705002.740    97068035.21545
  23032814.820   121038720.57507  23032817.100    94316106.51547
  22361270.780   117509275.77408  22361272.320    91565682.46647
 15 02 20 00 09 30.0000000  0  7G16G18G21G25G27G29G31
  22421593.840   117826278.32408  22421595.100    91812684.46847
  23061084.780   121186912.31507  23061086.480    94431409.85845
  20968958.080   110192840.05208  20968958.840    85864665.86349
  24051772.120   126393092.33106  24051776.260    98488233.17345
  23691253.220   124498387.49605  23691257.320    97011750.33546
  23046243.480   121109288.38107  23046245.720    94371094.36946
  22376480.180   117589201.29108  22376481.600    91627962.05947
 15 02 20 00 10  0.0000000  0  7G16G18G21G25G27G29G31
  22405917.760   117743899.85508  22405918.920    91748493.45347
  23047070.520   121113266.93907  23047072.340    94374023.87245
  20972376.240   110210802.52708  20972376.980    85878662.59349
  24070270.020   126490299.10206  24070274.400    98563978.69545
  23677524.060   124426240.99006  23677528.220    96955532.31445
  23059682.240   121179909.04007  23059684.400    94426123.42746
  22391746.380   117669425.55508  22391747.700    91690474.43247
 15 02 20 00 10 30.0000000  0  7G16G18G21G25G27G29G31
  22390276.800   117661705.87408  22390277.960    91684446.20747
  23033092.280   121039810.66407  23033094.220    94316785.23646
  20975869.100   110229157.51208  20975869.840    85892965.17949
  24088802.500   126587688.55106  24088807.240    98639866.53845
  23663811.220   124354179.66406  23663815.380    96899380.69046
  23073130.900   121250581.96707  23073133.120    94481193.21446
  22407068.760   117749945.29008  22407070.100    91753217.03747
 15 02 20 00 11  0.0000000  0  7G16G18G21G25G27G29G31
  22374671.140   117579697.52708  22374672.340    91620543.61247
  23019150.340   120966545.18207  23019152.420    94259695.27346
  20979436.160   110247902.67108  20979436.940    85907571.79849
  24107369.280   126685258.48206  24107374.340    98715895.02544
  23650114.520   124282202.54906  23650118.640    96843294.65546
  23086589.220   121321305.77207  23086591.500    94536302.62547
  22422446.660   117830756.56808  22422448.000    91816186.82647
 15 02 20 00 11 30.0000000  0  7G16G18G21G25G27G29G31
  22359101.360   117497877.96508  22359102.640    91556788.12147
  23005245.420   120893474.08807  23005247.580    94202756.78645
  20983077.440   110267037.86808  20983078.260    85922482.33949
  24125970.180   126783008.68405  24125975.700    98792063.97345
  23636434.120   124210310.88606  23636438.160    96787275.20546
  23100057.320   121392081.23307  23100059.560    94591452.29746
  22437879.740   117911857.72508  22437881.120    91879382.49747
 15 02 20 00 12  0.0000000  0  7G16G18G21G25G27G29G31
  22343567.820   117416248.66708  22343569.120    91493180.89447
  22991377.880   120820599.44707  22991380.080    94145971.36745
  20986792.440   110286560.56908  20986793.300    85937694.83149
  24144604.980   126880937.11705  24144610.940    98868371.79545
  23622769.780   124138503.98806  23622773.860    96731321.81846
  23113535.100   121462907.31907  23113537.300    94646641.43046
  22453367.300   117993245.28708  22453368.780    91942801.34648
 15 02 20 00 12 30.0000000  0  7G16G18G21G25G27G29G31
  22328070.720   117334810.87008  22328072.040    91429722.88347
  22977547.940   120747922.76407  22977550.180    94089340.22246
  20990580.800   110306468.48508  20990581.660    85953207.48949
  24163273.420   126979041.54505  24163279.500    98944816.77645
  23609121.240   124066780.87506  23609125.500    96675433.70346
  23127022.360   121533783.10207  23127024.540    94701869.26746
  22468908.660   118074915.53208  22468910.220    92006440.46347
 15 02 20 00 13  0.0000000  0  7G16G18G21G25G27G29G31
  22312610.560   117253567.24608  22312611.860    91366416.17547
  22963756.280   120675447.43207  22963758.500    94032865.95245
  20994442.380   110326761.39308  20994443.300    85969020.13749
  24181975.380   127077320.98205  24181981.420    99021398.09845
  23595488.800   123995142.09306  23595493.080    96619611.31246
  23140519.200   121604708.90707  23140521.300    94757136.08846
  22484503.360   118156866.10308  22484505.000    92070298.00847
 15 02 20 00 13 30.0000000  0  7G16G18G21G25G27G29G31
  22297187.760   117172520.06908  22297189.120    91303262.54747
  22950003.380   120603175.99407  22950005.560    93976550.57446
  20998377.060   110347438.37908  20998378.040    85985132.07149
  24200710.540   127175774.31305  24200716.260    99098114.91645
  23581872.360   123923587.66706  23581876.720    96563854.63947
  23154025.540   121675684.78507  23154027.600    94812441.90946
  22500150.800   118239094.12308  22500152.520    92134371.74947
 15 02 20 00 14  0.0000000  0  7G16G18G21G25G27G29G31
  22281802.780   117091671.60608  22281804.180    91240263.76347
  22936289.820   120531111.44607  22936291.980    93920396.41746
  21002384.460   110368497.48708  21002385.460    86001541.76249
  24219478.720   127274400.12005  24219483.900    99174966.14943
  23568272.060   123852117.84506  23568276.440    96508163.87246
  23167541.220   121746710.26007  23167543.380    94867786.38846
  22515850.580   118321596.97908  22515852.280    92198659.64647
 15 02 20 00 14 30.0000000  0  7G16G18G21G25G27G29G31
  22266456.040   117011024.08008  22266457.480    91177421.54547
  22922616.120   120459256.38507  22922618.240    93864405.47745
  21006464.340   110389937.48808  21006465.360    86018248.25449
  24238279.480   127373197.25106  24238284.200    99251950.87745
  23554687.820   123780732.72506  23554692.240    96452539.12947
  23181066.380   121817785.52407  23181068.520    94923169.67446
  22531602.140   118404371.96408  22531603.740    92263159.58747
 15 02 20 00 15  0.0000000  0  7G16G18G21G25G27G29G31
  22251148.080   116930579.95508  22251149.460    91114737.81347
  22908982.840   120387613.67207  22908984.920    93808580.01745
  21010616.600   110411757.68008  21010617.600    86035251.00149
  24257112.660   127472164.46206  24257116.820    99329068.18644
  23541119.780   123709432.48306  23541124.120    96396980.50946
  23194600.980   121888910.39307  23194603.100    94978591.60746
  22547404.900   118487416.06308  22547406.440    92327869.23547
 15 02 20 00 15 30.0000000  0  8G16G18G21G22G25G27G29G31
  22235880.840   116850349.92508  22235882.160    91052220.91347
  22895392.160   120316194.48407  22895394.160    93752928.72746
  21014842.580   110433965.24908  21014843.540    86052555.60349
  24559009.060   129058456.26305                                
  24275979.420   127571308.87206  24275983.240    99406323.52845
  23527569.620   123638225.67006  23527573.800    96341494.70546
  23208146.600   121960093.17207  23208148.720    95034058.67946
  22563260.040   118570735.31008  22563261.500    92392793.27547
 15 02 20 00 16  0.0000000  0  8G16G18G21G22G25G27G29G31
  22220648.180   116770302.02208  22220649.460    90989845.92847
  22881838.040   120244967.12407  22881840.020    93697426.93046
  21019135.500   110456524.56808  21019136.400    86070134.29449
  24540910.380   128963348.24005  24540917.180   100490949.94444
  24294873.000   127670594.95605  24294876.920    99483689.25844
  23514030.740   123567078.15506  23514034.760    96286055.12346
  23221696.720   122031299.52007  23221698.840    95089544.09346
  22579160.460   118654292.49908  22579161.940    92457902.72847
 15 02 20 00 16 30.0000000  0  8G16G18G21G22G25G27G29G31
  22205459.120   116690483.12508  22205460.320    90927649.39546
  22868329.580   120173979.24607  22868331.480    93642111.72146
  21023503.680   110479479.38208  21023504.520    86088021.15949
  24522801.440   128868185.76505  24522808.300   100416797.96745
  24313801.620   127770066.15905  24313805.940    99561199.20445
  23500511.660   123496034.79706  23500515.600    96230696.69546
  23235259.860   122102574.43807  23235262.040    95145082.96446
  22595114.200   118738129.76708  22595115.680    92523230.42647
 15 02 20 00 17  0.0000000  0  8G16G18G21G22G25G27G29G31
  22190310.020   116610874.08008  22190311.160    90865616.37347
  22854863.100   120103211.90607  22854864.920    93586968.36845
  21027942.680   110502806.31108  21027943.460    86106197.98549
  24504678.100   128772949.72106  24504685.460   100342588.69645
  24332761.100   127869699.59505  24332765.720    99638835.59746
  23487008.280   123425074.16606  23487012.200    96175402.71646
  23248831.940   122173896.20807  23248834.260    95200658.33246
  22611116.520   118822222.23908  22611118.060    92588756.98547
 15 02 20 00 17 30.0000000  0  8G16G18G21G22G25G27G29G31
  22175202.000   116531480.70508  22175203.060    90803751.41447
  22841439.800   120032671.31607  22841441.620    93532001.69345
  21032452.900   110526507.66708  21032453.660    86124666.57749
  24486541.920   128677646.27606  24486549.440   100268326.89444
  24351751.840   127969497.49805  24351756.880    99716600.14845
  23473521.380   123354199.95006  23473525.260    96120176.07845
  23262413.600   122245268.10507  23262416.080    95256272.76746
  22627167.620   118906571.11108  22627169.200    92654483.32947
 15 02 20 00 18  0.0000000  0  8G16G18G21G22G25G27G29G31
  22160135.000   116452303.04608  22160136.100    90742054.53947
  22828059.780   119962358.03507  22828061.660    93477212.12846
  21037033.740   110550580.18608  21037034.520    86143424.38249
  24468392.900   128582275.56006  24468400.740   100194012.67445
  24370773.320   128069456.32305  24370778.680    99794490.04545
  23460050.560   123283409.98906  23460054.420    96065015.10746
  23276004.240   122316687.69507  23276006.880    95311924.38346
  22643266.640   118991171.59608  22643268.220    92720405.74247
 15 02 20 00 18 30.0000000  0  8G16G18G21G22G25G27G29G31
  22145109.580   116373344.33108  22145110.820    90680528.26947
  22814723.620   119892275.80707  22814725.600    93422602.61645
  21041685.200   110575023.81008  21041686.000    86162471.36649
  24450231.700   128486841.61706  24450239.780   100119649.23645
  24389825.480   128169575.78405  24389831.120    99872505.16744
  23446595.980   123212705.52606  23446599.800    96009920.73546
  23289604.220   122388156.51607  23289607.040    95367614.32346
  22659413.180   119076021.57408  22659414.700    92786522.56347
 15 02 20 00 19  0.0000000  0  8G16G18G21G22G25G27G29G31
  22130126.000   116294605.40408  22130127.320    90619173.26747
  22801431.600   119822425.88607  22801433.720    93368174.12746
  21046406.660   110599835.36508  21046407.500    86181805.04849
  24432058.760   128391345.07806  24432067.000   100045236.96444
  24408907.680   128269852.84405  24408913.340    99950643.05145
  23433157.320   123142084.99606  23433161.120    95954891.78146
  23303213.240   122459672.52007  23303216.160    95423341.04446
  22675606.380   119161116.65508  22675607.800    92852830.37347
 15 02 20 00 19 30.0000000  0  8G16G18G21G22G25G27G29G31
  22115184.840   116216089.31808  22115186.200    90557991.90547
  22788184.260   119752811.34407  22788186.480    93313929.03246
  21051198.020   110625014.30008  21051198.900    86201424.99749
  24413874.540   128295789.51305  24413882.860    99970778.73745
  24428019.780   128370287.16105  24428025.500   100028903.49445
  23419734.760   123071549.52206  23419738.640    95899929.07446
  23316831.400   122531236.64706  23316834.380    95479105.24546
  22691845.760   119246454.76308  22691847.120    92919327.55147
 15 02 20 00 20  0.0000000  0  8G16G18G21G22G25G27G29G31
  22100286.580   116137798.60108  22100287.980    90496986.15647
  22774982.240   119683435.43207  22774984.520    93259869.90546
  21056059.060   110650559.22408  21056059.940    86221330.13149
  24395679.640   128200177.73405  24395688.040    99896276.73446
  24447161.520   128470877.50706  24447167.360   100107285.51545
  23406328.460   123001099.40806  23406332.400    95845032.89346
  23330458.560   122602848.79606  23330461.660    95534906.89446
  22708130.880   119332033.56708  22708132.220    92986012.28047
 15 02 20 00 20 30.0000000  0  8G16G18G21G22G25G27G29G31
  22085431.500   116059734.57108  22085432.900    90436157.04847
  22761826.040   119614299.68407  22761828.180    93205997.92046
  21060989.380   110676468.34108  21060990.260    86241519.05149
  24377474.420   128104511.02806  24377482.560    99821731.93245
  24466332.500   128571621.30605  24466338.300   100185787.15844
  23392938.220   122930733.47606  23392942.200    95790202.30546
  23344094.640   122674507.77106  23344097.860    95590745.01946
  22724460.900   119417848.80608  22724462.380    93052881.24047
 15 02 20 00 21  0.0000000  0  8G16G18G21G22G25G27G29G31
  22070620.200   115981900.50408  22070621.580    90375507.13647
  22748716.220   119545407.37508  22748718.140    93152315.63846
  21065988.840   110702740.76808  21065989.740    86261991.06549
  24359259.300   128008792.80305  24359267.340    99747146.99045
  24485532.680   128672518.10505  24485538.280   100264408.00845
  23379564.240   122860452.79006  23379568.240    95735438.13246
  23357739.860   122746214.62706  23357743.180    95646620.44046
  22740835.440   119503898.50608  22740837.140    93119932.91047
 15 02 20 00 21 30.0000000  0  8G16G18G21G22G25G27G29G31
  22055852.780   115904296.81208  22055854.160    90315036.73747
  22735652.900   119476758.96508  22735654.540    93098823.41245
  21071056.860   110729373.42108  21071057.760    86282743.78549
  24341034.640   127913023.97506  24341042.480    99672522.63044
  24504761.360   128773564.81505  24504766.760   100343145.62245
  23366206.200   122790255.77606  23366210.200    95680739.16546
  23371393.900   122817967.49606  23371397.240    95702531.72246
  22757253.880   119590178.42208  22757255.740    93187163.96247
 15 02 20 00 22  0.0000000  0  8G16G18G21G22G25G27G29G31
  22041129.820   115826927.29508  22041131.280    90254748.81447
  22722637.120   119408359.81707  22722638.480    93045525.40145
  21076193.500   110756366.69408  21076194.400    86303777.50249
  24322801.100   127817208.64006  24322808.700    99597862.03045
  24524018.660   128874761.77405  24524023.920   100422000.30944
  23352864.460   122720144.32006  23352868.420    95626106.85946
  23385057.240   122889768.06006  23385060.380    95758480.18046
  22773715.980   119676687.29908  22773717.920    93254573.42147
 15 02 20 00 22 30.0000000  0  8G16G18G21G22G25G27G29G31
  22026451.760   115749793.80908  22026453.260    90194644.80947
  22709669.020   119340211.79507  22709670.220    92992423.06545
  21081398.260   110783718.09708  21081399.200    86325090.27949
  24304558.960   127721349.03406  24304566.460    99523166.96645
  24543304.220   128976106.94605  24543309.080   100500970.50544
  23339538.880   122650117.89606  23339542.800    95571540.81846
  23398729.580   122961615.61207  23398732.580    95814465.25946
  22790221.120   119763421.69608  22790222.960    93322158.61747
 15 02 20 00 23  0.0000000  0  8G16G18G21G22G25G27G29G31
  22011819.160   115672899.05808  22011820.640    90134726.83447
  22696749.000   119272316.80207  22696750.160    92939517.88245
  21086671.160   110811427.27108  21086672.080    86346681.84349
  24286308.900   127625448.09006  24286316.480    99448439.69245
  24562617.700   129077599.27005  24562622.320   100580055.33044
  23326229.540   122580176.87607  23326233.460    95517041.33946
  23412411.020   123033510.62407  23412413.940    95870487.31646
  22806768.720   119850378.84908  22806770.360    93389917.38447
 15 02 20 00 23 30.0000000  0  8G16G18G21G22G25G27G29G31
  21997232.120   115596243.47208  21997233.520    90074995.21847
  22683877.420   119204676.73907  22683878.720    92886811.35246
  21092011.480   110839490.81308  21092012.400    86368549.53249
  24268050.940   127529506.20006  24268058.420    99373680.48945
  24581958.600   129179235.47905  24581962.940   100659252.29744
  23312936.140   122510319.66107  23312940.040    95462607.17246
  23426101.200   123105451.03507  23426103.940    95926544.76646
  22823357.880   119937554.34108  22823359.380    93457846.27747
 15 02 20 00 24  0.0000000  0  8G16G18G21G22G25G27G29G31
  21982691.560   115519832.14508  21982692.880    90015453.92947
  22671055.240   119137296.47207  22671056.860    92834307.25446
  21097419.460   110867909.79308  21097420.360    86390694.19449
  24249786.240   127433528.78906  24249794.080    99298893.68645
  24601327.020   129281016.65006  24601331.300   100738562.19244
  23299659.160   122440548.84707  23299663.120    95408240.32046
  23439800.500   123177439.40607  23439803.020    95982639.59346
  22839988.420   120024947.65708  22839989.860    93525944.90147
 15 02 20 00 24 30.0000000  0  8G16G18G21G22G25G27G29G31
  21968197.780   115443666.80208  21968199.080    89956104.31947
  22658282.960   119070178.12907  22658284.900    92782007.25246
  21102894.720   110896682.22608  21102895.580    86413114.27249
  24231515.200   127337517.97006  24231523.100    99224080.79045
  24620722.560   129382941.02705  24620727.060   100817983.72744
  23286398.580   122370864.20207  23286402.600    95353940.63646
  23453508.660   123249475.08807  23453511.020    96038771.28146
  22856659.700   120112555.71108  22856661.160    93594210.86846
 15 02 20 00 25  0.0000000  0  8G16G18G21G22G25G27G29G31
  21953751.180   115367749.59308  21953752.480    89896948.05247
  22645561.040   119003324.04608  22645563.200    92729913.18046
  21108436.960   110925806.61008  21108437.780    86435808.60349
  24213238.400   127241476.25605  24213246.360    99149243.85645
  24640144.920   129485006.93205  24640149.700   100897515.49544
  23273154.380   122301265.58207  23273158.420    95299707.97146
  23467225.700   123321558.10807  23467228.080    96094939.84146
  22873371.140   120200375.11008  22873372.680    93662641.51247
 15 02 20 00 25 30.0000000  0  8G16G18G21G22G25G27G29G31
  21939351.980   115292081.46708  21939353.280    89837985.89747
  22632889.760   118936735.55008  22632891.840    92678026.06346
  21114045.660   110955280.33908  21114046.460    86458775.14149
  24194956.200   127145405.06606  24194963.840    99074383.89745
  24659593.720   129587211.54705  24659598.720   100977155.34444
  23259926.340   122231751.79207  23259930.440    95245541.41046
  23480951.400   123393687.18207  23480953.840    96151144.30845
  22890121.920   120288401.75507  22890123.660    93731233.64747
 15 02 20 00 26  0.0000000  0  8G16G18G21G22G25G27G29G31
  21925000.960   115216666.41408  21925002.220    89779220.92247
  22620269.920   118870417.12108  22620271.740    92626349.38946
  21119720.740   110985102.89908  21119721.540    86482013.50349
  24176669.100   127049308.04606  24176676.520    98999503.83745
  24679068.960   129689555.19205  24679074.280   101056903.54044
  23246714.780   122162324.72007  23246719.000    95191442.42246
  23494685.980   123465863.40707  23494688.300    96207385.49445
  22906912.080   120376634.76008  22906913.880    93799986.58047
 15 02 20 00 26 30.0000000  0  8G16G18G21G22G25G27G29G31
  21910698.240   115141505.32908  21910699.520    89720653.85547
  22607701.560   118804369.38908  22607703.180    92574883.64846
  21125461.780   111015272.26008  21125462.560    86505522.09449
  24158377.540   126953186.72606  24158384.580    98924604.81845
  24698569.960   129792034.71005  24698575.560   101136757.61645
  23233519.420   122092982.80307  23233523.720    95137409.77647
  23508429.300   123538085.77706  23508431.480    96263662.66146
  22923740.640   120465069.24708  22923742.460    93868896.49947
 15 02 20 00 27  0.0000000  0  8G16G18G21G22G25G27G29G31
  21896444.080   115066599.12508  21896445.340    89662285.38747
  22595184.880   118738593.77008  22595186.360    92523629.95046
  21131268.240   111045785.57108  21131269.040    86529298.70049
  24140081.680   126857042.47806  24140088.280    98849687.89245
  24718096.280   129894647.64605  24718102.300   101216715.62545
  23220340.080   122023725.11706  23220344.460    95083442.76847
  23522181.240   123610352.98306  23522183.260    96319974.76146
  22940606.920   120553701.59808  22940608.640    93937960.60146
 15 02 20 00 27 30.0000000  0  8G16G18G21G22G25G27G29G31
  21882238.900   114991950.63708  21882240.240    89604117.74447
  22582720.480   118673093.35808  22582722.000    92472590.69746
  21137139.900   111076641.38608  21137140.680    86553342.18749
  24121782.000   126760878.27406  24121788.140    98774755.44045
  24737647.960   129997392.68905  24737654.100   101296776.56645
  23207176.840   121954552.05707  23207181.240    95029541.69947
  23535941.880   123682665.11907  23535943.680    96376321.85845
  22957510.260   120642528.79508  22957511.860    94007176.53146
 15 02 20 00 28  0.0000000  0  8G16G18G21G22G25G27G29G31
  21868083.460   114917563.14308  21868084.800    89546153.46347
  22570309.100   118607871.78408  22570310.720    92421768.71346
  21143076.680   111107839.38908  21143077.440    86577652.31949
  24103479.100   126664697.73006  24103485.000    98699810.22145
  24757224.980   130100269.47804  24757230.960   101376940.18546
  23194029.880   121885464.80507  23194034.360    94975707.48946
  23549711.320   123755023.43907  23549712.900    96432704.93445
  22974450.340   120731549.17707  22974451.840    94076542.98946
 15 02 20 00 28 30.0000000  0  8G16G18G21G22G25G27G29G31
  21853978.140   114843439.19408  21853979.500    89488394.54647
  22557951.280   118542931.59508  22557953.020    92371165.97946
  21149078.320   111139378.18308  21149079.040    86602228.00049
  24085173.420   126568503.38406  24085179.040    98624854.22445
  24776826.860   130203276.71205  24776832.580   101457205.42844
  23180899.320   121816463.66707  23180903.800    94921940.37446
  23563489.560   123827427.95907  23563490.980    96489124.02246
  22991426.660   120820760.03808  22991428.100    94146057.87446
 15 02 20 00 29  0.0000000  0  8G16G18G21G22G25G27G29G31
  21839923.480   114769581.25508  21839924.780    89430842.90547
  22545647.580   118478275.46208  22545649.440    92320784.58946
  21155144.600   111171256.84908  21155145.360    86627068.51749
  24066865.640   126472298.54806  24066871.300    98549890.06044
  24796453.420   130306413.13405  24796458.820   101537571.37044
  23167785.260   121747549.03707  23167789.660    94868240.68346
  23577276.500   123899878.72606  23577278.060    96545579.12846
  23008438.700   120910158.74607  23008440.180    94215719.13146
 15 02 20 00 29 30.0000000  0  8G16G18G21G22G25G27G29G31
  21825919.800   114695991.47708  21825921.120    89373500.22147
  22533398.340   118413905.25608  22533400.280    92270625.99546
  21161275.180   111203473.29608  21161275.960    86652172.23648
  24048556.200   126376085.00806  24048561.800    98474919.03745
  24816104.300   130409676.95905  24816109.640   101618036.51743
  23154687.640   121678720.72707  23154692.000    94814608.24646
  23591072.080   123972375.75306  23591074.040    96602070.27946
  23025485.840   120999742.05107  23025487.420    94285524.23246
 15 02 20 00 30  0.0000000  0  7G16G18G21G22G27G29G31
  21811967.720   114622672.87108  21811969.060    89316368.84547
  22521204.260   118349824.44108  22521206.240    92220692.90146
  21167469.900   111236026.54108  21167470.680    86677538.39748
  24030245.960   126279866.31206  24030251.240    98399944.01346
  23141606.560   121609979.31607  23141610.820    94761043.53146
  23604876.500   124044919.30706  23604878.800    96658597.70146
  23042567.680   121089507.58707  23042569.380    94355471.31747
 15 02 20 00 30 30.0000000  0  7G16G18G21G22G27G29G31
  21798067.580   114549627.04508  21798068.940    89259450.02648
  22509065.660   118286034.93208  22509067.520    92170986.80846
  21173728.380   111268914.92608  21173729.140    86703165.70749
  24011935.160   126183644.89206  24011940.280    98324966.87746
  23128542.100   121541324.76907  23128546.180    94707546.49946
  23618689.680   124117509.04406  23618692.320    96715161.09546
  23059683.680   121179452.11408  23059685.460    94425557.88046
 15 02 20 00 31  0.0000000  0  7G16G18G21G22G27G29G31
  21784219.200   114476853.13308  21784220.520    89202743.09248
  22496982.380   118222536.48608  22496984.100    92121507.50646
  21180049.540   111302132.98208  21180050.320    86729049.90349
  23993623.820   126087419.66906  23993628.560    98249986.71245
  23115493.560   121472753.66307  23115497.480    94654114.49646
  23632511.060   124190141.72706  23632514.060    96771757.97546
  23076832.520   121269569.13307  23076834.360    94495778.86447
 15 02 20 00 31 30.0000000  0  7G16G18G21G22G27G29G31
  21770423.420   114404355.72708  21770424.700    89146251.61348
  22484955.220   118159333.40008  22484956.840    92072258.37246
  21186433.680   111335682.08808  21186434.500    86755192.05748
  23975312.700   125991195.40806  23975317.040    98175007.30945
  23102461.340   121404268.39107  23102465.140    94600749.38947
  23646341.160   124262819.56906  23646344.300    96828390.03146
  23094014.080   121359858.09707  23094015.920    94566133.81046
 15 02 20 00 32  0.0000000  0  7G16G18G21G22G27G29G31
  21756680.740   114332137.50708  21756682.020    89089977.68348
  22472984.700   118096428.61208  22472986.340    92023241.68346
  21192880.520   111369560.57908  21192881.340    86781590.87948
  23957002.420   125894975.24406  23957006.220    98100031.04146
  23089445.520   121335869.41207  23089449.260    94547451.51246
  23660179.980   124335542.61506  23660183.160    96885057.31746
  23111227.860   121450316.48807  23111229.660    94636620.76846
 15 02 20 00 32 30.0000000  0  7G16G18G21G22G27G29G31
  21742991.720   114260201.37308  21742993.000    89033923.55748
  22461071.460   118033824.89708  22461073.120    91974459.58846
  21199390.040   111403768.20608  21199390.800    86808246.17548
  23938693.480   125798762.78606  23938696.880    98025060.79646
  23076446.260   121267557.70507  23076449.960    94494221.64646
  23674027.680   124408311.89907  23674030.720    96941760.62946
  23128473.440   121540942.14707  23128475.180    94707238.07846
 15 02 20 00 33  0.0000000  0  7G16G18G21G22G27G29G31
  21729356.720   114188548.94608  21729357.980    88978090.50648
  22449215.840   117971523.98608  22449217.520    91925913.44446
  21205961.580   111438301.75308  21205962.300    86835155.43148
  23920386.240   125702559.55806  23920389.360    97950097.72345
  23063463.420   121199332.42307  23063467.100    94441059.12547
  23687884.060   124481126.38306  23687886.860    96998499.14946
  23145750.060   121631731.04007  23145751.700    94777982.56846
 15 02 20 00 33 30.0000000  0  7G16G18G21G22G27G29G31
  21715776.340   114117183.57308  21715777.620    88922481.13048
  22437418.580   117909529.47908  22437420.340    91877606.05046
  21212595.140   111473161.16208  21212595.800    86862318.61148
  23902081.380   125606369.40806  23902084.360    97875144.80046
  23050497.200   121131194.86107  23050500.880    94387964.94946
  23701749.200   124553987.10007  23701751.860    97055273.68946
  23163057.400   121722681.42107  23163058.980    94848852.89946
 15 02 20 00 34  0.0000000  0  7G16G18G21G22G27G29G31
  21702251.260   114046108.76908  21702252.520    88867098.17848
  22425680.360   117847844.68808  22425682.200    91829539.99446
  21219290.600   111508345.88408  21219291.240    86889735.28448
  23883779.480   125510195.75606  23883782.420    97800204.72145
  23037547.880   121063146.12407  23037551.600    94334939.98247
  23715623.200   124626894.95807  23715625.800    97112084.96346
  23180395.060   121813791.50207  23180396.700    94919847.65546
 15 02 20 00 34 30.0000000  0  7G16G18G21G22G27G29G31
  21688781.460   113975324.45308  21688782.680    88811941.57848
  22414001.220   117786469.91208  22414003.120    91781715.51147
  21226047.240   111543852.10408  21226047.860    86917402.47048
  23865480.700   125414038.88006  23865483.780    97725277.66545
  23024615.040   120995183.93807  23024618.760    94281982.46647
  23729505.760   124699847.92507  23729508.180    97168931.37445
  23197762.020   121905055.80907  23197763.840    94990962.60047
 15 02 20 00 35  0.0000000  0  7G16G18G21G22G27G29G31
  21675367.580   113904833.97208  21675368.740    88757013.93748
  22402381.800   117725408.84108  22402383.740    91734135.47446
  21232865.040   111579679.80108  21232865.680    86945320.16048
  23847185.900   125317903.21706  23847189.040    97650367.13545
  23011698.960   120927310.08107  23011702.740    94229093.75647
  23743397.040   124772847.41706  23743399.520    97225814.09746
  23215158.140   121996473.00707  23215160.140    95062196.67046
 15 02 20 00 35 30.0000000  0  7G16G18G21G22G27G29G31
  21662009.840   113834638.57408  21662011.000    88702316.23148
  22390822.280   117664662.64308  22390824.220    91686800.80246
  21239743.460   111615825.99508  21239744.100    86973486.02348
  23828895.520   125221790.31506  23828898.880    97575474.34244
  22998799.500   120859523.44007  22998803.300    94176273.00946
  23757296.780   124845892.15506  23757299.560    97282732.03246
  23232582.580   122088039.01507  23232584.760    95133546.70046
 15 02 20 00 36  0.0000000  0  7G16G18G21G22G27G29G31
  21648708.500   113764739.60308  21648709.640    88647849.51048
  22379322.880   117604232.54408  22379324.720    91639712.42147
  21246681.880   111652287.77208  21246682.560    87001897.79448
  23810609.920   125125700.95106  23810613.280    97500599.85545
  22985916.420   120791822.65507  22985920.260    94123519.17547
  23771204.740   124918980.66006  23771207.920    97339684.09146
  23250034.520   122179749.29007  23250036.820    95205009.13746
 15 02 20 00 36 30.0000000  0  7G16G18G21G22G27G29G31
  21635463.800   113695138.57108  21635465.000    88593614.95648
  22367883.820   117544119.84908  22367885.540    91592871.36846
  21253679.840   111689062.30808  21253680.560    87030553.27448
  23792329.380   125029637.08206  23792332.700    97425745.24445
  22973049.640   120724207.25607  22973053.500    94070831.87447
  23785121.080   124992112.30806  23785124.360    97396669.73845
  23267513.260   122271600.19207  23267515.700    95276581.15046
 15 02 20 00 37  0.0000000  0  7G16G18G21G22G27G29G31
  21622276.040   113625836.53508  21622277.280    88539613.38248
  22356505.440   117484326.42208  22356507.080    91546279.10146
  21260736.820   111726147.07008  21260737.580    87059450.48748
  23774054.360   124933601.04906  23774057.340    97350912.28445
  22960199.020   120656676.56707  22960202.940    94018210.56147
  23799045.780   125065286.36506  23799048.940    97453688.51646
  23285018.100   122363587.92707  23285020.620    95348259.79446
 15 02 20 00 37 30.0000000  0  7G16G18G21G22G27G29G31
  21609146.180   113556838.72308  21609147.460    88485848.86848
  22345188.840   117424857.45808  22345190.320    91499939.66346
  21267853.300   111763544.38508  21267854.040    87088591.25048
  23755785.700   124837598.19606  23755788.300    97276105.16545
  22947365.060   120589233.56007  22947369.020    93965657.58147
  23812979.220   125138505.49706  23812982.160    97510742.32645
  23302549.040   122455712.76907  23302551.540    95420045.25446
 15 02 20 00 38  0.0000000  0  7G16G18G21G22G27G29G31
  21596075.180   113488150.22008  21596076.480    88432325.36348
  22333934.820   117365716.95508  22333936.120    91453856.16946
  21275029.320   111801254.76708  21275030.100    87117975.96348
  23737524.260   124741633.27406  23737526.560    97201327.58845
  22934548.200   120521880.54007  22934552.220    93913174.72547
  23826921.640   125211771.58007  23826924.360    97567832.73945
  23320105.880   122547973.77207  23320108.340    95491936.81746
 15 02 20 00 38 30.0000000  0  7G16G18G21G22G27G29G31
  21583062.800   113419769.79108  21583064.100    88379041.92648
  22322743.200   117306904.05408  22322744.380    91408027.95746
  21282263.860   111839272.63908  21282264.660    87147600.27748
  23719269.880   124645705.73306  23719272.000    97126579.13845
  22921747.900   120454614.55907  22921751.940    93860759.69447
  23840872.540   125285081.90207  23840874.900    97624957.63745
  23337687.420   122640364.70707  23337689.820    95563929.61546
 15 02 20 00 39  0.0000000  0  7G16G18G21G22G27G29G31
  21570110.020   113351702.79608  21570111.400    88326002.72948
  22311615.080   117248424.84508  22311616.180    91362459.75446
  21289557.280   111877599.96408  21289558.100    87177465.72348
  23701023.580   124549821.33407  23701025.740    97051864.29445
  22908964.760   120387438.66807  22908968.780    93808414.85047
  23854832.340   125358439.55907  23854834.460    97682119.38845
  23355293.600   122732885.57907  23355295.940    95636023.64946
 15 02 20 00 39 30.0000000  0  7G16G18G21G22G27G29G31
  21557217.400   113283951.72608  21557218.760    88273209.69848
  22300550.760   117190281.49808  22300551.920    91317153.27546
  21296909.320   111916235.10608  21296910.120    87207571.02448
  23682785.980   124453982.98706  23682788.220    96977185.31146
  22896198.860   120320353.44007  22896202.860    93756140.66247
  23868800.820   125431844.65406  23868803.020    97739318.09746
  23372923.980   122825533.82807  23372926.300    95708216.94246
 15 02 20 00 40  0.0000000  0  7G16G18G21G22G27G29G31
  21544385.000   113216517.11108  21544386.320    88220663.25748
  22289550.300   117132474.27608  22289551.660    91272108.70747
  21304319.200   111955174.26908  21304319.980    87237913.23048
  23664557.300   124358191.40006  23664559.640    96902542.74946
  22883449.860   120253357.04507  22883453.800    93703935.69247
  23882777.660   125505294.70206  23882780.220    97796551.91446
  23390577.800   122918304.71007  23390580.000    95780505.78846
 15 02 20 00 40 30.0000000  0  7G16G18G21G22G27G29G31
  21531613.000   113149399.75908  21531614.280    88168364.03448
  22278613.880   117075004.09208  22278615.500    91227326.75947
  21311786.300   111994414.04808  21311787.080    87268489.67848
  23646337.760   124262447.92206  23646340.160    96827937.67346
  22870717.540   120186448.25707  22870721.420    93651798.97847
  23896762.720   125578788.95606  23896765.720    97853820.10245
  23408254.080   123011193.63707  23408256.260    95852886.62546
 15 02 20 00 41  0.0000000  0  7G16G18G21G22G27G29G31
  21518902.040   113082603.21308  21518903.260    88116314.79048
  22267742.220   117017874.23108  22267744.100    91182809.99747
  21319310.800   112033955.53308  21319311.600    87299301.21948
  23628128.120   124166756.33806  23628130.540    96753373.04645
  22858002.180   120119628.51107  22858006.020    93599731.64547
  23910756.520   125652328.78706  23910759.760    97911123.85246
  23425952.500   123104199.09407  23425954.740    95925358.23746
 15 02 20 00 41 30.0000000  0  7G16G18G21G22G27G29G31
  21506252.040   113016126.78008  21506253.220    88064514.98048
  22256935.240   116961084.12208  22256937.280    91138557.98246
  21326891.640   112073793.11608  21326892.440    87330343.48148
  23609928.340   124071116.26607  23609930.640    96678848.55645
  22845303.180   120052894.81807  22845306.980    93547731.37347
  23924758.680   125725910.86806  23924761.880    97968460.49846
  23443671.880   123197314.80407  23443674.280    95997915.75846
 15 02 20 00 42  0.0000000  0  7G16G18G21G22G27G29G31
  21493663.660   112949974.26008  21493664.840    88012967.57748
  22246193.720   116904637.30008  22246195.680    91094573.46046
  21334528.700   112113926.10808  21334529.520    87361615.93548
  23591739.080   123975531.66907  23591741.200    96604367.26545
  22832620.820   119986248.79507  22832624.660    93495799.41147
  23938769.500   125799536.70507  23938772.540    98025831.23346
  23461412.040   123290539.45907  23461414.600    96070558.16246
 15 02 20 00 42 30.0000000  0  7G16G18G21G22G27G29G31
  21481137.580   112884149.17408  21481138.800    87961675.31148
  22235518.420   116848537.76808  22235520.120    91050859.55346
  21342222.100   112154355.18008  21342222.940    87393119.09948
  23573561.280   123880007.21607  23573563.180    96529932.84946
  22819955.440   119919692.16007  22819959.320    93443937.10647
  23952789.100   125873207.64907  23952791.840    98083237.14546
  23479172.760   123383871.59307  23479175.400    96143284.31346
 15 02 20 00 43  0.0000000  0  7G16G18G21G22G27G29G31
  21468674.700   112818656.41808  21468676.000    87910642.00048
  22224910.140   116792790.35508  22224911.580    91007420.02746
  21349971.960   112195080.85608  21349972.820    87424853.38848
  23555395.780   123784547.84206  23555397.560    96455549.12446
  22807307.600   119853227.71707  22807311.480    93392146.64847
  23966817.720   125946926.76406  23966820.200    98140680.58446
  23496953.940   123477310.94007  23496956.580    96216094.00446
 15 02 20 00 43 30.0000000  0  7G16G18G21G22G27G29G31
  21456275.140   112753496.25609  21456276.440    87859867.85448
  22214368.800   116737394.78208  22214370.080    90964254.65846
  21357777.560   112236099.34008  21357778.380    87456815.83748
  23537242.680   123689153.95006  23537244.380    96381216.40845
  22794676.900   119786853.34007  22794680.800    93340426.36447
  23980854.860   126020691.28906  23980857.120    98198159.36745
  23514754.380   123570851.81107  23514757.000    96288982.78646
 15 02 20 00 44  0.0000000  0  7G16G18G21G22G27G29G31
  21443939.260   112688670.65109  21443940.500    87809354.40548
  22203894.720   116682352.98908  22203895.980    90921364.97147
  21365638.460   112277408.57808  21365639.300    87489004.84748
  23519102.480   123593828.22406  23519104.180    96306936.79946
  22782063.400   119720569.05807  22782067.320    93288776.29047
  23994900.460   126094501.26306  23994902.760    98255673.61045
  23532573.640   123664491.66907  23532576.260    96361948.68146
 15 02 20 00 44 30.0000000  0  7G16G18G21G22G27G29G31
  21431667.600   112624182.65108  21431668.800    87759104.02548
  22193488.380   116627667.66808  22193489.740    90878753.05047
  21373554.620   112319008.31108  21373555.500    87521420.21948
  23500975.860   123498573.96706  23500977.560    96232712.87945
  22769467.260   119654375.82207  22769471.220    93237197.16647
  24008954.600   126168357.51006  24008957.260    98313223.89445
  23550411.200   123758228.19407  23550413.880    96434989.88146
 15 02 20 00 45  0.0000000  0  7G16G18G21G22G27G29G31
  21419460.260   112560032.61708  21419461.420    87709116.98448
  22183149.920   116573339.09108  22183151.400    90836419.10647
  21381525.140   112360893.82608  21381526.040    87554058.28548
  23482863.000   123403391.61707  23482864.600    96158544.97945
  22756888.140   119588271.63207  22756892.060    93185687.42447
  24023017.140   126242257.79707  24023020.100    98370808.48345
  23568266.160   123852056.16607  23568268.900    96508102.33546
 15 02 20 00 45 30.0000000  0  7G16G18G21G22G27G29G31
  21407317.580   112496222.60509  21407318.740    87659394.89748
  22172879.860   116519369.79508  22172881.420    90794365.12147
  21389549.860   112403064.18708  21389550.760    87586918.30348
  23464764.500   123308284.06106  23464765.820    96084435.35846
  22744326.000   119522256.66307  22744329.860    93134247.20147
  24037088.180   126316202.20206  24037091.160    98428427.53645
  23586137.880   123945972.39206  23586140.640    96581283.48046
 15 02 20 00 46  0.0000000  0  7G16G18G21G22G27G29G31
  21395240.260   112432755.79709  21395241.400    87609940.24248
  22162678.800   116465762.52408  22162680.300    90752593.23447
  21397628.600   112445518.60208  21397629.540    87619999.65948
  23446681.020   123213254.65107  23446681.980    96010386.64346
  22731781.040   119456332.10108  22731784.840    93082877.43747
  24051167.840   126390191.69105  24051170.820    98486081.65445
  23604026.200   124039975.28106  23604028.880    96654532.14345
 15 02 20 00 46 30.0000000  0  7G16G18G21G22G27G29G31
  21383229.280   112369637.67109  21383230.400    87560757.28848
  22152547.640   116412522.31708  22152549.000    90711107.36947
  21405761.580   112488258.05008  21405762.580    87653303.11748
  23428613.660   123118309.49507  23428614.300    95936403.57445
  22719253.880   119390501.09707  22719257.600    93031580.55347
  24065256.540   126464229.22306  24065259.560    98543773.16644
  23621931.140   124134064.75207  23621933.760    96727848.21646
 15 02 20 00 47  0.0000000  0  7G16G18G21G22G27G29G31
  21371284.240   112306865.99709  21371285.320    87511844.29548
  22142485.940   116359647.15708  22142487.140    90669905.95946
  21413947.700   112531276.64808  21413948.720    87686824.09448
  23410561.940   123023446.84507  23410562.380    95862484.78246
  22706743.680   119324759.65507  22706747.420    92980353.45947
  24079353.660   126538310.44906  24079356.840    98601498.79044
  23639851.280   124228233.35306  23639853.800    96801225.83946
 15 02 20 00 47 30.0000000  0  7G16G18G21G22G27G29G31
  21359405.740   112244444.02109  21359406.780    87463203.79548
  22132494.180   116307140.03008  22132495.360    90628991.32747
  21422186.800   112574573.41108  21422187.800    87720561.82348
  23392526.500   122928670.24207  23392526.860    95788633.02646
  22694250.760   119259108.79407  22694254.520    92929196.95047
  24093459.300   126612436.28406  24093462.300    98659259.21845
  23657786.240   124322479.44807  23657788.640    96874663.88646
 15 02 20 00 48  0.0000000  0  7G16G18G21G22G27G29G31
  21347594.160   112182373.83609  21347595.200    87414837.41748
  22122572.780   116255002.98908  22122574.040    90588365.08247
  21430478.560   112618146.67708  21430479.520    87754515.01648
  23374507.800   122833982.29307  23374508.220    95714850.34046
  22681775.060   119193548.80007  22681778.880    92878111.25747
  24107573.540   126686607.09006  24107576.060    98717054.62545
  23675735.360   124416799.91707  23675737.740    96948159.80746
 15 02 20 00 48 30.0000000  0  7G16G18G21G22G27G29G31
  21335850.180   112120658.96209  21335851.280    87366747.90548
  22112722.320   116203238.98208  22112723.720    90548029.49847
  21438822.860   112661996.08908  21438823.780    87788683.38448
  23356506.600   122739386.72307  23356507.220    95641139.65246
  22669316.880   119128080.75607  22669320.700    92827097.20547
  24121696.640   126760823.58507  24121699.060    98774885.57444
  23693698.220   124511193.01607  23693700.780    97021712.57045
 15 02 20 00 49  0.0000000  0  7G16G18G21G22G27G29G31
  21324174.080   112059300.68509  21324175.200    87318936.26248
  22102943.060   116151849.21008  22102944.640    90507985.53247
  21447219.120   112706118.58008  21447220.000    87823064.54648
  23338523.380   122644885.33107  23338524.200    95567502.34746
  22656876.020   119062704.00507  22656879.880    92776154.29747
  24135828.340   126835084.80907  24135830.640    98832751.48144
  23711674.040   124605654.86707  23711676.760    97095318.85546
 15 02 20 00 49 30.0000000  0  7G16G18G21G22G27G29G31
  21312566.660   111998303.30709  21312567.800    87271405.83648
  22093235.900   116100837.97108  22093237.560    90468236.53147
  21455667.620   112750515.61108  21455668.480    87857659.63148
  23320559.040   122550482.99107  23320560.000    95493942.21146
  22644452.980   118997420.90507  22644456.840    92725284.35447
  24149968.940   126909392.94407  24149971.140    98890653.93445
  23729662.720   124700184.68106  23729665.660    97168978.11446
 15 02 20 00 50  0.0000000  0  7G16G18G21G22G27G29G31
  21301028.100   111937667.81009  21301029.260    87224157.40048
  22083600.980   116050205.92008  22083602.600    90428782.99547
  21464167.640   112795183.36208  21464168.480    87892465.66748
  23302613.840   122456180.98507  23302614.860    95420460.24146
  22632047.600   118932230.40807  22632051.420    92674486.58547
  24164118.200   126983747.01706  24164120.440    98948592.17945
  23747663.400   124794777.80706  23747666.500    97242686.62846
 15 02 20 00 50 30.0000000  0  7G16G18G21G22G27G29G31
  21289559.180   111877398.56209  21289560.380    87177194.35048
  22074038.860   115999956.49008  22074040.380    90389627.61647
  21472719.180   112840121.91908  21472720.060    87927482.71648
  23284688.660   122361983.88807  23284689.680    95347060.02046
  22619660.260   118867134.58107  22619664.020    92623762.57047
  24178276.240   127058148.77106  24178278.900    99006567.51445
  23765675.980   124889433.27706  23765679.200    97316443.63646
 15 02 20 00 51  0.0000000  0  7G16G18G21G22G27G29G31
  21278159.600   111817493.76409  21278160.880    87130515.28748
  22064549.360   115950088.77908  22064550.800    90350769.67747
  21481321.360   112885326.46208  21481322.220    87962707.03548
  23266783.300   122267891.12207  23266784.440    95273741.09946
  22607290.340   118802130.23407  22607294.080    92573109.84947
  24192442.580   127132594.63006  24192445.720    99064577.19946
  23783699.360   124984145.31206  23783702.740    97390244.77946
 15 02 20 00 51 30.0000000  0  7G16G18G21G22G27G29G31
  21266829.940   111757956.17009  21266831.240    87084122.35248
  22055132.880   115900604.89508  22055134.280    90312210.82747
  21489973.800   112930795.32508  21489974.660    87998137.31448
  23248898.280   122173905.22007  23248899.440    95200505.43545
  22594937.920   118737217.67408  22594941.640    92522528.64547
  24206617.560   127207084.84206  24206620.840    99122621.51146
  23801732.840   125078910.77506  23801736.340    97464087.59046
 15 02 20 00 52  0.0000000  0  7G16G18G21G22G27G29G31
  21255571.240   111698791.47309  21255572.600    87038019.99148
  22045790.500   115851510.45908  22045791.880    90273955.44347
  21498676.740   112976529.75208  21498677.640    88033774.52648
  23231034.680   122080032.57507  23231036.020    95127358.02846
  22582603.660   118672400.63208  22582607.380    92472021.88647
  24220801.640   127281622.87706  24220805.180    99180703.03046
  23819776.480   125173730.01506  23819780.240    97537972.22346
 15 02 20 00 52 30.0000000  0  7G16G18G21G22G27G29G31
  21244383.140   111639997.63209  21244384.520    86992206.61648
  22036521.700   115802802.82808  22036523.100    90236001.45747
  21507429.300   113022524.92008  21507430.240    88069614.91248
  23213192.380   121986271.91407  23213193.920    95054297.88746
  22570286.840   118607675.30308  22570290.580    92421586.57947
  24234994.100   127356204.46906  24234997.260    99238818.53345
  23837829.100   125268596.20206  23837833.120    97611893.43546
 15 02 20 00 53  0.0000000  0  7G16G18G21G22G27G29G31
  21233266.120   111581577.07609  21233267.460    86946684.10448
  22027326.920   115754484.20908  22027328.380    90198350.60247
  21516231.140   113068778.86508  21516232.060    88105656.94948
  23195371.980   121892625.89707  23195373.640    94981327.08446
  22557987.580   118543042.17908  22557991.320    92371223.11247
  24249195.200   127430830.17905  24249198.040    99296968.42746
  23855890.260   125363506.80306  23855894.480    97685849.32845
 15 02 20 00 53 30.0000000  0  7G16G18G21G22G27G29G31
  21222221.380   111523536.52309  21222222.720    86901457.70348
  22018207.500   115706561.11308  22018208.960    90161007.93547
  21525082.700   113115294.13408  21525083.600    88141902.61048
  23177574.860   121799101.45807  23177576.420    94908450.99046
  22545706.740   118478505.71908  22545710.460    92320934.97647
  24263405.520   127505504.47206  24263408.020    99355156.14145
  23873960.240   125458463.14006  23873964.520    97759840.89846
 15 02 20 00 54  0.0000000  0  7G16G18G21G22G27G29G31
  21211248.940   111465875.79609  21211250.260    86856527.27048
  22009163.280   115659033.05608  22009164.740    90123973.09647
  21533983.280   113162067.22708  21533984.220    88178349.17148
  23159801.080   121705699.02507  23159802.400    94835669.97446
  22533443.900   118414064.00008  22533447.580    92270720.66147
  24277624.400   127580224.74906  24277626.500    99413379.65044
  23892038.080   125553460.36306  23892042.260    97833864.41345
 15 02 20 00 54 30.0000000  0  7G16G18G21G22G27G29G31
  21200348.860   111408595.34509  21200350.200    86811893.15848
  22000194.260   115611900.29108  22000195.680    90087246.27847
  21542932.160   113209094.11108  21542933.140    88214993.49248
  23142050.840   121612419.89107  23142051.800    94762985.02446
  22521198.800   118349715.47008  22521202.440    92220578.95647
  24291851.740   127654989.29505  24291853.680    99471637.78646
  23910122.800   125648493.62506  23910126.840    97907916.08346
 15 02 20 00 55  0.0000000  0  7G16G18G21G22G27G29G31
  21189522.640   111351702.98009  21189523.960    86767561.44648
  21991301.820   115565170.07408  21991303.180    90050833.13147
  21551930.180   113256379.02508  21551931.140    88251838.87048
  23124325.560   121519272.20107  23124326.300    94690402.50346
  22508972.540   118285466.05408  22508976.160    92170514.48847
  24306088.740   127729803.93406  24306090.560    99529934.84444
  23928214.740   125743565.25706  23928218.680    97981997.57146
 15 02 20 00 55 30.0000000  0  7G16G18G21G22G27G29G31
  21178770.000   111295197.43409  21178771.280    86723531.15048
  21982485.720   115518841.19308  21982487.040    90014732.71047
  21560976.280   113303916.65108  21560977.260    88288881.16848
  23106625.120   121426255.24907  23106625.620    94617921.85546
  22496764.480   118221312.66208  22496768.140    92120524.83447
  24320334.200   127804665.44607  24320335.840    99588268.51945
  23946312.740   125838669.13906  23946316.620    98056104.14845
 15 02 20 00 56  0.0000000  0  7G16G18G21G22G27G29G31
  21168091.020   111239079.11808  21168092.280    86679802.59248
  21973745.900   115472913.42808  21973747.260    89978944.85647
  21570069.820   113351703.52408  21570070.820    88326117.68248
  23088949.560   121333369.72007  23088949.960    94545543.61346
  22484574.360   118157253.62208  22484578.100    92070608.70548
  24334588.060   127879571.93006  24334590.220    99646637.03845
  23964415.900   125933800.65206  23964419.920    98130232.22146
 15 02 20 00 56 30.0000000  0  7G16G18G21G22G27G29G31
  21157486.500   111183352.11808  21157487.740    86636378.95748
  21965083.080   115427390.47808  21965084.500    89943472.44347
  21579210.800   113399739.54808  21579211.800    88363548.34848
  23071299.820   121240620.44107  23071300.240    94473271.53946
  22472402.620   118093290.99108  22472406.440    92020767.70447
  24348850.960   127954524.86406  24348853.520    99705041.92344
  23982523.900   126028958.42406  23982528.200    98204380.76846
 15 02 20 00 57  0.0000000  0  7G16G18G21G22G27G29G31
  21146956.520   111128016.77809  21146957.780    86593260.51748
  21956497.320   115382272.54008  21956498.820    89908315.63347
  21588398.620   113448021.43208  21588399.560    88401170.58748
  23053676.040   121148008.06807  23053676.560    94401106.14846
  22460249.020   118029423.30508  22460252.840    91971000.69347
  24363122.460   128029522.78306  24363125.180    99763481.80344
  24000636.060   126124137.96006  24000640.620    98278546.24146
 15 02 20 00 57 30.0000000  0  7G16G18G21G22G27G29G31
  21136501.200   111073073.70909  21136502.500    86550447.74248
  21947988.740   115337559.74508  21947990.200    89873474.51147
  21597632.560   113496545.92208  21597633.460    88438981.87048
  23036078.600   121055533.85107  23036079.120    94329048.39046
  22448113.300   117965649.43008  22448117.100    91921306.77847
  24377402.680   128104563.96706  24377404.980    99821955.57145
  24018751.600   126219334.86406  24018756.440    98352725.21946
 15 02 20 00 58  0.0000000  0  7G16G18G21G22G27G29G31
  21126122.220   111018531.57209  21126123.500    86507947.37348
  21939558.860   115293260.45308  21939560.240    89838955.59447
  21606913.620   113545318.13008  21606914.500    88476986.18548
  23018509.300   120963207.13707  23018509.720    94257105.55146
  22435996.760   117901976.21708  22436000.480    91871691.29848
  24391692.280   128179655.62806  24391694.540    99880468.41745
  24036871.200   126314552.80906  24036876.260    98426920.60646
 15 02 20 00 58 30.0000000  0  7G16G18G21G22G27G29G31
  21115818.960   110964387.54409  21115820.220    86465757.22248
  21931207.080   115249371.36608  21931208.420    89804756.32047
  21616240.560   113594331.27608  21616241.380    88515178.24148
  23000967.680   120871025.77707  23000968.020    94185276.00246
  22423898.480   117838399.05808  22423902.100    91822150.66947
  24405990.380   128254792.29605  24405992.840    99939016.45344
  24054993.400   126409784.34406  24054998.620    98501126.61047
 15 02 20 00 59  0.0000000  0  7G16G18G21G22G27G29G31
  21105592.680   110910648.09309  21105593.920    86423882.32948
  21922934.520   115205898.68308  21922935.880    89770881.51547
  21625613.800   113643587.83708  21625614.600    88553559.97348
  22983455.040   120778996.34307  22983455.220    94113564.83346
  22411819.240   117774922.31008  22411822.820    91772688.28247
  24420297.860   128329978.13306  24420300.520    99997602.77044
  24073118.360   126505030.01206  24073123.680    98575343.50246
 15 02 20 00 59 30.0000000  0  7G16G18G21G22G27G29G31
  21095442.600   110857309.29309  21095443.880    86382319.63048
  21914740.340   115162838.12708  21914741.740    89737327.84847
  21635031.840   113693079.87708  21635032.640    88592125.19548
  22965970.700   120687115.67407  22965970.860    94041969.57646
  22399757.960   117711540.20008  22399761.540    91723299.63847
  24434613.600   128405207.28706  24434616.200   100056222.86844
  24091244.540   126600281.74206  24091249.960    98649565.10946
 15 02 20 01 00  0.0000000  0  7G16G18G21G22G27G29G31
  21085370.680   110804380.99409  21085371.960    86341076.80448
  21906626.340   115120199.02108  21906627.840    89704102.58247
  21644495.900   113742813.52508  21644496.640    88630878.68048
  22948516.680   120595394.22207  22948516.900    93970498.37447
  22387716.220   117648260.76108  22387719.820    91673990.97947
  24448938.940   128480487.78206  24448941.520   100114882.97245
  24109372.760   126695543.76406  24109378.220    98723794.65445
 15 02 20 01 00 30.0000000  0  7G16G18G21G22G27G29G31
  21075376.180   110751859.69409  21075377.500    86300151.11848
  21898591.800   115077977.58808  21898593.440    89671202.77847
  21654004.500   113792781.43708  21654005.220    88669814.70948
  22931092.300   120503828.71507  22931092.720    93899148.68847
  22375693.020   117585078.72008  22375696.680    91624758.23147
  24463272.640   128555813.91805  24463275.680   100173578.54745
  24127501.360   126790807.56706  24127506.840    98798025.49145
 15 02 20 01 01  0.0000000  0  7G16G18G21G22G27G29G31
  21065459.840   110699749.20209  21065461.200    86259545.54348
  21890637.380   115036177.13408  21890639.100    89638631.00647
  21663557.700   113842983.83308  21663558.440    88708933.44848
  22913698.440   120412423.80007  22913699.120    93827924.14047
  22363688.780   117521996.27408  22363692.480    91575603.09247
  24477615.540   128631187.13605  24477618.800   100232310.93746
  24145630.320   126886072.46906  24145635.740    98872257.25546
 15 02 20 01 01 30.0000000  0  7G16G18G21G22G27G29G31
  21055621.620   110648048.98609  21055622.960    86219259.66748
  21882762.920   114994796.72008  21882764.700    89606386.54647
  21673154.660   113893416.23808  21673155.420    88748231.41748
  22896335.160   120321179.73107  22896336.100    93756824.91947
  22351703.040   117459010.95008  22351706.780    91526523.62548
  24491966.880   128706605.18705  24491970.420   100291078.12545
  24163758.520   126981332.98706  24163763.860    98946485.60045
 15 02 20 01 02  0.0000000  0  7G16G18G21G22G27G29G31
  21045862.500   110596764.46709  21045863.860    86179297.70648
  21874969.360   114953841.38008  21874971.160    89574473.30647
  21682795.640   113944080.11908  21682796.480    88787709.76048
  22879003.660   120230102.28607  22879004.700    93685855.55747
  22339736.480   117396126.48208  22339740.260    91477522.73648
  24506327.680   128782071.07305  24506331.140   100349882.75845
  24181885.720   127076589.19206  24181891.080    99020710.50146
 15 02 20 01 02 30.0000000  0  7G16G18G21G22G27G29G31
  21036182.600   110545896.03609  21036183.940    86139659.96648
  21867256.740   114913311.20708  21867258.480    89542891.37047
  21692480.040   113994972.09008  21692480.920    88827365.83348
  22861704.120   120139192.63207  22861705.100    93615016.93346
  22327788.900   117333341.57008  22327792.700    91428599.44548
  24520697.200   128857583.45705  24520700.660   100408723.50445
  24200011.320   127171837.47406  24200016.780    99094929.33446
 15 02 20 01 03  0.0000000  0  8G16G18G19G21G22G27G29G31
  21026582.840   110495448.77809  21026584.140    86100350.40848
  21859625.900   114873210.75708  21859627.580    89511644.28447
  24537132.600   128943501.55005  24537133.060   100475463.66745
  21702208.200   114046093.96508  21702209.140    88867201.04948
  22844437.580   120048456.34907  22844438.340    93544313.38746
  22315860.900   117270659.44908  22315864.680    91379756.23848
  24535076.340   128933145.51006  24535079.700   100467602.99045
  24218135.320   127267077.54806  24218140.880    99169141.88145
 15 02 20 01 03 30.0000000  0  8G16G18G19G21G22G27G29G31
  21017061.620   110445414.39809  21017062.860    86061362.57748
  21852075.060   114833531.00108  21852076.720    89480725.00847
  24521806.640   128862962.10405  24521806.960   100412705.67145
  21711977.740   114097433.35808  21711978.720    88907205.75948
  22827202.500   119957885.73707  22827203.000    93473738.94646
  22303950.560   117208070.15608  22303954.320    91330985.36448
  24549463.000   129008746.58406  24549466.200   100526512.86145
  24236255.080   127362295.95106  24236260.820    99243337.41345
 15 02 20 01 04  0.0000000  0  7G16G18G19G21G22G27G31
  21007617.800   110395786.82309  21007619.000    86022691.74148
  21844603.080   114794265.79108  21844604.720    89450128.75947
  24506486.700   128782455.08405  24506486.880   100349972.96546
  21721786.740   114148980.27908  21721787.800    88947372.18648
  22809997.880   119867475.63907  22809998.200    93403289.57846
  22292056.440   117145566.03808  22292060.200    91282280.84548
  24254368.600   127457481.71706  24254374.540    99317507.49045
 15 02 20 01 04 30.0000000  0  7G16G18G19G21G22G27G31
  20998260.940   110346616.27809  20998262.140    85984377.03548
  21837219.340   114755464.23308  21837221.000    89419893.79147
  24491182.000   128702028.40105  24491182.060   100287302.87145
  21731644.100   114200781.39408  21731645.240    88987736.68148
  22792833.380   119777276.40807  22792833.520    93333004.51046
  22280187.700   117083195.28908  22280191.460    91233680.26748
  24272484.560   127552680.00006  24272490.700    99391687.26546
 15 02 20 01 05  0.0000000  0  7G16G18G19G21G22G27G31
  20988983.980   110297865.29909  20988985.160    85946389.25948
  21829916.800   114717089.08408  21829918.460    89389991.09047
  24475885.000   128621642.50206  24475885.180   100224664.53544
  21741541.960   114252795.24208  21741543.140    89028266.93948
  22775701.980   119687251.24507  22775702.080    93262855.08146
  22268336.880   117020918.78608  22268340.680    91185153.12448
  24290595.020   127647848.72106  24290601.340    99465844.05246
 15 02 20 01 05 30.0000000  0  7G16G18G19G21G22G27G31
  20979788.780   110249544.11809  20979790.020    85908736.39348
  21822697.220   114679149.64608  21822698.880    89360427.91047
  24460597.300   128541305.61606  24460597.620   100162064.37745
  21751481.540   114305027.97408  21751482.700    89068967.75348
  22758605.780   119597410.97407  22758605.940    93192849.73746
  22256505.640   116958745.02708  22256509.420    91136706.04348
  24308700.920   127742992.87306  24308707.460    99539981.55245
 15 02 20 01 06  0.0000000  0  7G16G18G19G21G22G27G31
  20970675.200   110201651.87109  20970676.460    85871417.76548
  21815560.380   114641644.78408  21815562.000    89331203.35647
  24445318.560   128461015.52206  24445319.060   100099500.71444
  21761462.040   114357475.64308  21761463.180    89109836.05448
  22741544.840   119507755.65207  22741545.140    93122988.49547
  22244693.480   116896671.71208  22244697.240    91088337.23448
  24326801.320   127838107.53506  24326807.960    99614096.11845
 15 02 20 01 06 30.0000000  0  7G16G18G19G21G22G27G31
  20961644.760   110154196.46509  20961645.980    85834439.53148
  21808507.620   114604582.08508  21808509.240    89302323.35247
  24430049.760   128380777.94006  24430050.300   100036977.98545
  21771484.280   114410142.55708  21771485.380    89150875.19848
  22724520.900   119418293.91608  22724521.220    93053278.08947
  22232901.620   116834705.13808  22232905.400    91040051.60948
  24344896.600   127933195.35006  24344903.340    99688189.71445
 15 02 20 01 07  0.0000000  0  7G16G18G19G21G22G27G31
  20952697.140   110107176.33109  20952698.280    85797800.46548
  21801538.500   114567959.17808  21801540.140    89273786.03247
  24414790.260   128300589.04706  24414790.960    99974493.13945
  21781547.200   114463023.21908  21781548.280    89192080.90548
  22707533.680   119329024.58408  22707533.980    92983717.61847
  22221129.460   116772842.07508  22221133.240    90991846.62648
  24362985.620   128028249.83506  24362992.500    99762257.23145
 15 02 20 01 07 30.0000000  0  7G16G18G19G21G22G27G31
  20943832.780   110060593.63909  20943833.880    85761502.26248
  21794653.240   114531777.41308  21794654.980    89245592.45947
  24399540.240   128220449.56206  24399540.880    99912046.84845
  21791650.480   114516116.20908  21791651.540    89233452.05348
  22690583.620   119239950.64008  22690583.880    92914309.38547
  22209377.140   116711083.07408  22209380.920    90943722.73448
  24381067.940   128123269.39406  24381075.060    99836297.84846
 15 02 20 01 08  0.0000000  0  7G16G18G19G21G22G27G31
  20935052.240   110014451.58809  20935053.360    85725547.41849
  21787852.440   114496039.87108  21787854.340    89217745.03847
  24384299.860   128140360.53306  24384300.280    99849639.82145
  21801793.880   114569420.06508  21801794.940    89274987.51948
  22673671.380   119151075.82408  22673671.660    92845056.31747
  22197644.900   116649429.53508  22197648.660    90895681.02348
  24399143.120   128218251.57506  24399150.420    99910309.37045
 15 02 20 01 08 30.0000000  0  7G16G18G19G21G22G27G31
  20926355.300   109968748.84909  20926356.440    85689934.89749
  21781135.920   114460744.87508  21781137.860    89190242.45847
  24369068.540   128060318.93006  24369068.680    99787269.77845
  21811976.740   114622931.25508  21811977.800    89316684.54348
  22656796.840   119062399.83908  22656797.280    92775958.18747
  22185932.200   116587878.67608  22185935.920    90847719.31748
  24417210.080   128313190.80906  24417217.480    99984287.58045
 15 02 20 01 09  0.0000000  0  7G16G18G19G21G22G27G31
  20917742.780   109923490.00009  20917743.960    85654668.26649
  21774504.440   114425896.24408  21774506.320    89163087.69547
  24353846.700   127980327.48706  24353846.700    99724938.77745
  21822199.160   114676650.32708  21822200.200    89358543.55148
  22639961.040   118973927.65408  22639961.600    92707018.86947
  22174239.620   116526433.61108  22174243.340    90799840.04848
  24435268.720   128408086.39206  24435276.120   100058231.74045
 15 02 20 01 09 30.0000000  0  7G16G18G19G21G22G27G31
  20909215.060   109878676.83709  20909216.280    85619748.92049
  21767958.280   114391495.32908  21767959.960    89136281.80547
  24338634.360   127900386.23206  24338634.340    99662646.93545
  21832460.760   114730575.19408  21832461.760    89400562.92248
  22623164.520   118885661.88707  22623165.120    92638240.38647
  22162567.180   116465094.58308  22162570.920    90752043.40648
  24453318.420   128502935.80706  24453325.900   100132139.98146
 15 02 20 01 10  0.0000000  0  7G16G18G19G21G22G27G31
  20900772.760   109834312.56409  20900774.020    85585179.35849
  21761497.740   114357544.23108  21761499.240    89109826.42348
  24323431.740   127820495.92506  24323431.760    99600394.78745
  21842761.260   114784704.66608  21842762.260    89442741.72548
  22606407.940   118797605.90308  22606408.520    92569625.37147
  22150915.180   116403862.78408  22150918.920    90704330.32248
  24471358.720   128597736.54706  24471366.380   100206010.24845
 15 02 20 01 10 30.0000000  0  7G16G18G19G21G22G27G31
  20892416.620   109790400.69909  20892417.860    85550962.32149
  21755123.400   114324046.25208  21755124.740    89083724.12047
  24308239.200   127740659.00106  24308239.400    99538184.20745
  21853100.980   114839040.02808  21853101.940    89485080.96448
  22589692.260   118709764.66408  22589692.720    92501177.69347
  22139284.060   116342740.85108  22139287.800    90656702.84248
  24489389.640   128692488.63506  24489397.600   100279842.62046
 15 02 20 01 11  0.0000000  0  7G16G18G19G21G22G27G31
  20884146.160   109746939.09909  20884147.400    85517096.13949
  21748834.720   114290998.94708  21748836.040    89057972.99247
  24293056.060   127660871.31406  24293056.400    99476012.02246
  21863478.640   114893574.94908  21863479.600    89527575.70848
  22573017.140   118622136.71708  22573017.460    92432896.20646
  22127673.080   116281724.87908  22127676.840    90609157.93348
  24507409.800   128787184.72106  24507418.180   100353631.36345
 15 02 20 01 11 30.0000000  0  7G16G18G19G21G22G27G31
  20875962.340   109703932.92909  20875963.580    85483584.83249
  21742632.600   114258406.96508  21742633.960    89032576.65047
  24277882.900   127581136.66406  24277883.440    99413881.13645
  21873894.560   114948310.79408  21873895.480    89570227.00548
  22556383.740   118534727.78308  22556383.920    92364785.38647
  22116083.020   116220818.77108  22116086.740    90561698.64248
  24525419.320   128881825.50106  24525428.100   100427376.97645
 15 02 20 01 12  0.0000000  0  7G16G18G19G21G22G27G31
  20867865.380   109661383.17209  20867866.600    85450429.17549
  21736517.020   114226269.85408  21736518.440    89007534.75348
  24262719.500   127501453.26006  24262720.260    99351790.18446
  21884348.300   115003245.47408  21884349.180    89613033.23748
  22539792.340   118447539.21908  22539792.380    92296846.26847
  22104513.660   116160021.64908  22104517.400    90514324.27048
  24543417.480   128976406.94606  24543426.680   100501076.41845
 15 02 20 01 12 30.0000000  0  7G16G18G19G21G22G27G31
  20859855.400   109619290.42009  20859856.640    85417629.62749
  21730488.200   114194588.52708  21730489.700    88982848.01347
  24247565.740   127421820.11606  24247566.620    99289738.39246
  21894839.220   115058375.46508  21894840.080    89655991.65848
  22523243.180   118360572.60008  22523243.180    92229080.11247
  22092964.860   116099332.62708  22092968.640    90467034.13148
  24561403.660   129070925.09106  24561413.180   100574726.49146
 15 02 20 01 13  0.0000000  0  7G16G18G19G21G22G27G31
  20851932.520   109577655.53609  20851933.820    85385186.85649
  21724546.180   114163363.21708  21724547.780    88958516.61347
  24232421.520   127342236.56906  24232422.360    99227725.24046
  21905366.880   115113698.71808  21905367.740    89699100.67848
  22506736.580   118273829.49208  22506736.580    92161488.11547
  22081436.620   116038751.36108  22081440.380    90419827.95048
  24579377.320   129165376.28406  24579386.920   100648324.31845
 15 02 20 01 13 30.0000000  0  7G16G18G19G21G22G27G31
  20844097.460   109536482.07509  20844098.800    85353103.63849
  21718691.420   114132596.25608  21718693.040    88934542.36847
  24217287.220   127262704.82806  24217287.960    99165752.45546
  21915931.300   115169215.14408  21915932.140    89742360.21848
  22490273.340   118187314.36908  22490273.400    92094073.76847
  22069929.280   115978280.03408  22069933.080    90372707.43948
  24597338.280   129259759.68006  24597347.740   100721869.32845
 15 02 20 01 14  0.0000000  0  7G16G18G19G21G22G27G31
  20836350.820   109495773.19909  20836352.160    85321382.43749
  21712924.400   114102290.35608  21712926.040    88910927.39748
  24202163.000   127183226.03206  24202163.580    99103820.96745
  21926532.320   115224924.01108  21926533.160    89785769.72148
  22473854.140   118101031.02808  22473854.340    92026840.02847
  22058443.260   115917920.43408  22058447.020    90325673.98948
  24615286.140   129354073.99505  24615295.460   100795360.54545
 15 02 20 01 14 30.0000000  0  7G16G18G19G21G22G27G31
  20828692.800   109455529.79109  20828694.060    85290023.92649
  21707245.240   114072446.25308  21707246.920    88887672.26448
  24187048.660   127103799.36906  24187049.080    99041930.07146
  21937169.300   115280821.93108  21937170.160    89829326.53348
  22457479.280   118014981.16408  22457479.660    91959788.21947
  22046978.360   115857671.75408  22046982.040    90278726.97648
  24633220.220   129448314.83806  24633229.180   100868794.39544
 15 02 20 01 15  0.0000000  0  7G16G18G19G21G22G27G31
  20821123.520   109415752.84809  20821124.740    85259028.89849
  21701653.900   114043063.83608  21701655.680    88864776.89548
  24171944.080   127024424.15206  24171944.400    98980079.29545
  21947842.100   115336908.07108  21947843.000    89873030.01948
  22441149.200   117929166.80608  22441149.760    91892919.91247
  22035534.540   115797533.96708  22035538.160    90231866.36248
  24651139.880   129542479.47106  24651148.520   100942168.91245
 15 02 20 01 15 30.0000000  0  7G16G18G19G21G22G27G31
  20813643.420   109376444.63109  20813644.660    85228399.11649
  21696150.800   114014145.12108  21696152.640    88842242.84848
  24156849.420   126945101.08606  24156849.700    98918269.14945
  21958550.440   115393180.90308  21958551.360    89916878.97348
  22424864.580   117843591.12508  22424865.200    91826237.58547
  22024111.980   115737508.06108  22024115.600    90185092.94448
  24669044.540   129636565.80206  24669053.000   101015482.69246
 15 02 20 01 16  0.0000000  0  7G16G18G19G21G22G27G31
  20806253.220   109337608.68909  20806254.420    85198137.33949
  21690736.460   113985692.66408  21690738.320    88820072.11548
  24141765.020   126865831.94006  24141765.260    98856500.99745
  21969294.200   115449639.82208  21969295.140    89960872.93048
  22408626.180   117758258.03108  22408626.700    91759744.29147
  22012711.080   115677596.05908  22012714.740    90138408.26648
  24686933.860   129730572.14906  24686942.260   101088733.99045
 15 02 20 01 16 30.0000000  0  6G16G18G19G21G22G27
  20798951.340   109299236.87509  20798952.480    85168237.22049
  21685409.240   113957697.99208  21685411.080    88798258.09548
  24126688.960   126786607.04406  24126689.300    98794767.35145
  21980071.240   115506273.45008  21980072.160    90005003.02348
  22392432.620   117673160.24108  22392432.980    91693434.36147
  22001330.080   115617788.49508  22001333.780    90091804.97648
 15 02 20 01 17  0.0000000  0  6G16G18G19G21G22G27
  20791742.940   109261356.38809  20791744.040    85138719.95349
  21680174.120   113930187.27408  21680175.940    88776821.17648
  24111626.080   126707451.37506  24111626.460    98733087.61945
  21990885.960   115563105.31008  21990886.920    90049287.58448
  22376289.200   117588325.38908  22376289.340    91627329.33747
  21989973.840   115558111.02508  21989977.560    90045303.05348
 15 02 20 01 17 30.0000000  0  6G16G18G19G21G22G27
  20784624.040   109223946.31609  20784625.140    85109569.24049
  21675027.000   113903139.02308  21675028.800    88755744.63148
  24096572.180   126628343.09506  24096572.700    98671444.83145
  22001733.960   115620111.84308  22001734.940    90093708.25048
  22360192.120   117503733.83808  22360191.940    91561413.88247
  21978638.220   115498541.81608  21978641.940    89998885.49848
 15 02 20 01 18  0.0000000  0  6G16G18G19G21G22G27
  20777596.060   109187014.06309  20777597.200    85080790.86349
  21669969.280   113876560.36508  21669971.000    88735033.99848
  24081528.380   126549287.85306  24081528.960    98609843.35545
  22012615.920   115677296.74508  22012616.880    90138267.91248
  22344142.880   117419393.96808  22344142.480    91495694.53847
  21967324.300   115439087.00908  21967328.060    89952557.08248
 15 02 20 01 18 30.0000000  0  6G16G18G19G21G22G27
  20770659.200   109150560.53908  20770660.400    85052385.51849
  21665000.940   113850451.41508  21665002.580    88714689.37248
  24066494.620   126470285.30206  24066495.180    98548282.91046
  22023531.360   115734657.50108  22023532.280    90182964.59548
  22328141.780   117335307.66508  22328141.300    91430172.77247
  21956032.040   115379746.17408  21956035.840    89906317.48648
 15 02 20 01 19  0.0000000  0  6G16G18G19G21G22G27
  20763814.440   109114591.20909  20763815.680    85024357.46649
  21660122.780   113824816.64008  21660124.400    88694714.23947
  24051471.460   126391338.53106  24051472.040    98486765.96645
  22034480.580   115792195.92008  22034481.480    90227799.71448
  22312189.860   117251480.51608  22312189.560    91364852.94447
  21944762.280   115320523.41408  21944766.080    89860169.88148
 15 02 20 01 19 30.0000000  0  6G16G18G19G21G22G27
  20757061.140   109079102.46409  20757062.400    84996703.90149
  21655334.100   113799652.10408  21655335.700    88675105.51647
  24036458.200   126312443.14706  24036458.760    98425289.06746
  22045462.360   115849905.39508  22045463.180    90272768.12448
  22296286.800   117167910.62008  22296286.840    91299733.56547
  21933514.180   115261414.37308  21933517.980    89814110.89248
 15 02 20 01 20  0.0000000  0  6G16G18G19G21G22G27
  20750400.320   109044099.66409  20750401.560    84969428.99349
  21650635.700   113774961.99008  21650637.260    88655866.47847
  24021455.580   126233603.35206  24021455.980    98363855.48046
  22056477.120   115907788.20008  22056477.900    90317871.59448
  22280433.780   117084603.49108  22280434.140    91234818.93147
  21922288.440   115202422.92408  21922292.260    89768143.54248
 15 02 20 01 20 30.0000000  0  6G16G18G19G21G22G27
  20743832.440   109009585.12909  20743833.680    84942534.54749
  21646028.000   113750748.38908  21646029.500    88636998.74448
  24006463.420   126154818.69706  24006463.740    98302464.86846
  22067524.660   115965843.30108  22067525.380    90363109.32348
  22264631.580   117001562.83208  22264632.140    91170111.94747
  21911085.300   115143550.23108  21911089.080    89722268.71048
 15 02 20 01 21  0.0000000  0  6G16G18G19G21G22G27
  20737357.600   108975559.67609  20737358.880    84916021.20649
  21641510.920   113727010.89508  21641512.340    88618502.00947
  23991481.680   126076088.72206  23991481.900    98241116.83846
  22078604.300   116024067.27908  22078605.000    90408478.64848
  22248880.440   116918789.82808  22248881.000    91105613.52947
  21899904.660   115084795.74708  21899908.400    89676486.00148
 15 02 20 01 21 30.0000000  0  6G16G18G19G21G22G27
  20730976.460   108942026.68809  20730977.740    84889891.61349
  21637085.040   113703752.70708  21637086.440    88600378.75447
  23976510.680   125997415.25506  23976510.880    98179812.86846
  22089716.240   116082461.00208  22089717.000    90453980.24448
  22233181.180   116836289.04508  22233181.560    91041327.23747
  21888747.060   115026162.02208  21888750.760    89630797.38248
 15 02 20 01 22  0.0000000  0  6G16G18G19G21G22G27
  20724689.120   108908986.32709  20724690.360    84864145.88449
  21632750.300   113680973.49408  21632751.720    88582628.73348
  23961550.260   125918797.77506  23961550.540    98118552.53346
  22100859.900   116141021.54608  22100860.740    90499611.82947
  22217533.840   116754061.20108  22217533.960    90977253.61947
  21877612.280   114967648.26808  21877615.980    89585202.24548
 15 02 20 01 22 30.0000000  0  6G16G18G19G21G22G27
  20718495.980   108876441.02009  20718497.180    84838785.90549
  21628506.960   113658674.51808  21628508.400    88565252.91847
  23946600.560   125840236.80006  23946600.880    98057336.21946
  22112035.080   116199747.75208  22112036.000    90545372.50348
  22201939.140   116672110.32308  22201939.000    90913395.81947
  21866500.580   114909255.58908  21866504.260    89539701.45848
 15 02 20 01 23  0.0000000  0  6G16G18G19G21G22G27
  20712397.340   108844392.09409  20712398.480    84813812.71749
  21624355.140   113636856.58108  21624356.620    88548251.93548
  23931661.580   125761732.45106  23931662.040    97996164.01146
  22123241.520   116258637.97608  22123242.460    90591260.98348
  22186397.440   116590438.44308  22186397.140    90849755.41747
  21855411.940   114850984.37908  21855415.680    89494295.32748
 15 02 20 01 23 30.0000000  0  6G16G18G19G21G22G27
  20706393.220   108812839.95409  20706394.320    84789226.63949
  21620294.760   113615519.26908  21620296.280    88531625.46948
  23916733.180   125683283.86006  23916733.800    97935035.28046
  22134478.720   116317689.75808  22134479.700    90637275.34248
  22170909.020   116509046.75408  22170908.700    90786333.34847
  21844346.260   114792834.02208  21844350.080    89448983.37048
 15 02 20 01 24  0.0000000  0  6G16G18G19G21G22G27
  20700483.380   108781783.51709  20700484.460    84765026.81349
  21616325.720   113594661.95708  21616327.280    88515373.02248
  23901815.180   125604889.51106  23901815.840    97873948.81246
  22145745.940   116376899.20708  22145746.900    90683412.56347
  22155474.020   116427936.12208  22155473.900    90723130.27747
  21833303.440   114734803.44608  21833307.300    89403764.74248
 15 02 20 01 24 30.0000000  0  6G16G18G19G21G22G27
  20694669.300   108751230.55408  20694670.400    84741219.31249
  21612448.900   113574289.33008  21612450.500    88499498.25448
  23886908.340   125526553.56406  23886908.920    97812907.85146
  22157043.620   116436269.18408  22157044.640    90729674.87047
  22140093.780   116347112.97508  22140093.880    90660151.23047
  21822284.340   114676897.50608  21822288.160    89358643.24248
 15 02 20 01 25  0.0000000  0  6G16G18G19G21G22G27
  20688950.640   108721179.26308  20688951.820    84717802.72249
  21608664.180   113554400.32608  21608665.780    88484000.34348
  23872012.200   125448273.99406  23872012.700    97751910.83046
  22168371.180   116495796.10308  22168372.220    90776059.46448
  22124768.460   116266578.06408  22124768.720    90597396.77947
  21811288.560   114619114.21608  21811292.340    89313617.31248
 15 02 20 01 25 30.0000000  0  6G16G18G19G21G22G27
  20683327.960   108691632.23308  20683329.220    84694779.06349
  21604971.800   113534996.30008  21604973.320    88468880.33148
  23857127.000   125370051.97106  23857127.480    97690958.62946
  22179728.460   116555479.17008  22179729.520    90822565.74247
  22109498.620   116186334.60808  22109499.000    90534869.43947
  21800316.440   114561455.31208  21800320.160    89268688.29048
 15 02 20 01 26  0.0000000  0  6G16G18G19G21G22G27
  20677801.900   108662592.78108  20677803.200    84672150.91949
  21601372.240   113516080.14508  21601373.660    88454140.48248
  23842253.080   125291889.63006  23842253.600    97630052.94446
  22191115.520   116615318.47208  22191116.560    90869193.75447
  22094285.060   116106386.77908  22094285.520    90472572.44847
  21789368.440   114503923.16608  21789372.140    89223858.04448
 15 02 20 01 26 30.0000000  0  6G16G18G19G21G22G27
  20672372.020   108634058.65808  20672373.340    84649916.54049
  21597865.000   113497649.39808  21597866.360    88439778.87248
  23827389.960   125213783.77206  23827390.460    97569191.26346
  22202531.260   116675308.53808  22202532.300    90915939.24447
  22079127.580   116026733.74408  22079128.060    90410505.16647
  21778444.080   114446515.16608  21778447.740    89179124.54848
 15 02 20 01 27  0.0000000  0  6G16G18G19G21G22G27
  20667039.000   108606033.43008  20667040.340    84628078.70049
  21594450.480   113479706.01108  21594451.780    88425797.01848
  23812538.020   125135736.20606  23812538.340    97508375.00446
  22213975.940   116735450.60008  22213976.980    90962803.17548
  22064027.000   115947379.66608  22064027.420    90348670.84847
  21767543.740   114389233.37008  21767547.380    89134489.38848
 15 02 20 01 27 30.0000000  0  6G16G18G19G21G22G27
  20661803.180   108578519.02408  20661804.540    84606638.90249
  21591128.860   113462251.16708  21591130.180    88412195.84647
  23797697.300   125057747.70706  23797697.600    97447604.78646
  22225449.300   116795743.21408  22225450.320    91009784.42247
  22048983.900   115868327.63908  22048984.200    90287071.88547
  21756667.620   114332078.95808  21756671.260    89089953.48348
 15 02 20 01 28  0.0000000  0  6G16G18G19G21G22G27
  20656664.800   108551516.79908  20656666.200    84585598.20649
  21587900.300   113445285.63208  21587901.720    88398975.95348
  23782867.880   124979818.41006  23782868.120    97386880.70446
  22236950.920   116856184.22808  22236951.920    91056881.30447
  22033998.640   115789579.80808  22033998.840    90225709.97347
  21745815.800   114275052.37908  21745819.500    89045517.19248
 15 02 20 01 28 30.0000000  0  6G16G18G19G21G22G27
  20651624.220   108525028.29108  20651625.600    84564957.81049
  21584765.060   113428810.46008  21584766.560    88386138.16148
  23768049.780   124901948.72506  23768050.060    97326203.05446
  22248480.640   116916772.84808  22248481.560    91104093.20748
  22019071.760   115711138.98208  22019071.900    90164587.28247
  21734988.460   114218154.48108  21734992.220    89001181.17448
 15 02 20 01 29  0.0000000  0  6G16G18G19G21G22G27
  20646681.400   108499053.65708  20646682.780    84544717.83149
  21581723.080   113412825.15108  21581724.640    88373682.08348
  23753242.880   124824137.79006  23753243.100    97265571.19546
  22260037.940   116977506.50708  22260038.820    91151418.12647
  22004203.640   115633006.48608  22004203.700    90103704.83547
  21724185.560   114161384.93008  21724189.340    88956945.16248
 15 02 20 01 29 30.0000000  0  6G16G18G19G21G22G27
  20641837.100   108473596.54908  20641838.460    84524881.12049
  21578774.760   113397331.84608  21578776.380    88361609.38548
  23738447.500   124746387.42006  23738447.700    97204986.51246
  22271622.700   117038384.59508  22271623.560    91198855.58547
  21989395.040   115555186.46608  21989395.080    90043065.87848
  21713407.540   114104746.02108  21713411.280    88912810.94348
 15 02 20 01 30  0.0000000  0  6G16G18G19G21G22G27
  20637091.400   108448657.56708  20637092.720    84505448.14549
  21575920.180   113382330.92708  21575921.820    88349920.36848
  23723663.640   124668697.64606  23723663.880    97144449.04846
  22283234.720   117099406.21408  22283235.620    91246404.89447
  21974646.300   115477680.88108  21974646.340    89982671.93248
  21702654.460   114048237.88108  21702658.120    88868778.62648
 15 02 20 01 30 30.0000000  0  6G16G18G19G21G22G27
  20632444.560   108424238.16608  20632445.860    84486420.04449
  21573159.400   113367822.91208  21573161.040    88338615.43348
  23708891.300   124591068.88006  23708891.640    97083959.10946
  22294873.720   117160569.40408  22294874.640    91294064.51347
  21959957.840   115400492.02908  21959957.920    89922524.79848
  21691926.360   113991861.30108  21691929.980    88824848.81948
 15 02 20 01 31  0.0000000  0  6G16G18G19G21G22G27
  20627896.620   108400338.72508  20627897.940    84467797.09949
  21570492.320   113353807.24108  21570493.940    88327694.14148
  23694130.420   124513500.20506  23694130.800    97023516.02446
  22306539.060   117221871.34508  22306540.020    91341832.25347
  21945330.000   115323621.64608  21945330.040    89862625.81448
  21681223.240   113935616.09908  21681226.840    88781021.39148
 15 02 20 01 31 30.0000000  0  6G16G18G19G21G22G27
  20623448.120   108376961.79908  20623449.500    84449581.31749
  21567919.380   113340286.15308  21567920.940    88317158.23948
  23679381.240   124435993.06706  23679381.680    96963120.88446
  22318230.780   117283311.90808  22318231.820    91389708.00847
  21930763.360   115247073.24208  21930763.360    89802977.72848
  21670545.420   113879504.00208  21670549.060    88737297.68348
 15 02 20 01 32  0.0000000  0  6G16G18G19G21G22G27
  20619099.520   108354109.63908  20619100.860    84431774.44149
  21565440.800   113327261.01908  21565442.320    88307008.79848
  23664643.980   124358548.83706  23664644.500    96902774.76246
  22329948.920   117344891.08408  22329949.980    91437691.76747
  21916258.620   115170850.46108  21916258.600    89743583.36748
  21659893.220   113823526.59408  21659896.900    88693678.92448
 15 02 20 01 32 30.0000000  0  6G16G18G19G21G22G27
  20614850.800   108331782.22808  20614852.080    84414376.45249
  21563056.420   113314730.81808  21563057.920    88297245.00748
  23649918.540   124281166.51906  23649919.100    96842476.90346
  22341692.800   117406605.66408  22341693.840    91485781.03347
  21901815.940   115094954.02208  21901815.840    89684443.30347
  21649266.600   113767683.39508  21649270.260    88650164.75148
 15 02 20 01 33  0.0000000  0  6G16G18G19G21G22G27
  20610702.080   108309980.22608  20610703.260    84397387.87549
  21560766.240   113302695.84308  21560767.740    88287867.11548
  23635204.860   124203845.79006  23635205.400    96782227.00546
  22353462.060   117468453.65508  22353463.120    91533974.26247
  21887435.700   115019385.84008  21887435.520    89625559.02447
  21638665.520   113711974.39408  21638669.200    88606755.13848
 15 02 20 01 33 30.0000000  0  6G16G18G19G21G22G27
  20606653.480   108288704.49008  20606654.600    84380809.37949
  21558570.220   113291155.79108  21558571.760    88278874.87748
  23620502.940   124126586.70006  23620503.420    96722025.14746
  22365256.280   117530432.78908  22365257.320    91582269.67847
  21873118.360   114944147.95708  21873118.120    89566932.12948
  21628090.060   113656400.03908  21628093.760    88563450.45448
 15 02 20 01 34  0.0000000  0  6G16G18G19G21G22G27
  20602705.800   108267959.20808  20602706.900    84364644.22249
  21556469.020   113280113.94408  21556470.580    88270270.85348
  23605813.200   124049391.65506  23605813.660    96661873.19346
  22377075.800   117592544.87508  22377076.800    91630668.69847
  21858864.840   114869245.26208  21858864.580    89508566.41548
  21617540.880   113600963.78508  21617544.600    88520253.37348
 15 02 20 01 34 30.0000000  0  6G16G18G19G21G22G27
  20598859.160   108247744.98308  20598860.260    84348892.87449
  21554462.600   113269569.97808  21554464.160    88262054.77748
  23591135.580   123972260.42806  23591135.960    96601770.95046
  22388920.120   117654787.33108  22388921.140    91679169.30547
  21844675.440   114794679.46208  21844675.180    89450463.21048
  21607017.920   113545665.43508  21607021.680    88477163.75648
 15 02 20 01 35  0.0000000  0  6G16G18G19G21G22G27
  20595113.660   108228062.27908  20595114.760    84333555.70149
  21552550.920   113259524.07408  21552552.500    88254226.80848
  23576470.100   123895193.13106  23576470.520    96541718.53046
  22400788.920   117717158.35108  22400789.960    91727770.08947
  21830550.540   114720452.71408  21830550.340    89392624.20448
  21596521.300   113490505.38308  21596525.100    88434181.90348
 15 02 20 01 35 30.0000000  0  6G16G18G19G21G22G27
  20591469.340   108208911.38508  20591470.500    84318632.92649
  21550733.820   113249975.28608  21550735.440    88246786.20048
  23561816.760   123818189.31006  23561817.220    96481715.58145
  22412681.800   117779655.81308  22412682.840    91776469.39847
  21816490.360   114646566.30808  21816490.280    89335050.39648
  21586050.960   113435483.25108  21586054.780    88391307.51948
 15 02 20 01 36  0.0000000  0  6G16G18G19G21G22G27
  20587926.500   108190293.84608  20587927.740    84304125.75049
  21549011.580   113240924.97508  21549013.240    88239734.02448
  23547175.600   123741249.32906  23547176.100    96421762.39246
  22424598.480   117842278.32008  22424599.540    91825266.14947
  21802495.480   114573023.04608  21802495.500    89277743.96648
  21575607.100   113380600.25408  21575610.920    88348541.56048
 15 02 20 01 36 30.0000000  0  6G16G18G19G21G22G27
  20584485.440   108172211.02708  20584486.720    84290035.24049
  21547384.340   113232373.60308  21547385.940    88233070.62348
  23532546.740   123664374.01406  23532547.120    96361859.54746
  22436538.800   117905025.00708  22436539.880    91874159.66347
  21788566.320   114499825.36508  21788566.480    89220706.82448
  21565189.960   113325857.58808  21565193.760    88305884.94548
 15 02 20 01 37  0.0000000  0  6G16G18G19G21G22G27
  20581146.920   108154667.03608  20581148.220    84276364.59149
  21545852.460   113224323.53508  21545854.040    88226797.84548
  23517930.660   123587565.96707  23517931.000    96302009.14946
  22448503.000   117967897.00308  22448504.020    91923150.82247
  21774703.780   114426977.82008  21774704.020    89163942.52048
  21554800.060   113271258.32908  21554803.820    88263340.07448
 15 02 20 01 37 30.0000000  0  6G16G18G19G21G22G27
  20577910.600   108137659.83908  20577911.840    84263112.22449
  21544415.540   113216772.46408  21544417.100    88220913.90248
  23503326.940   123510822.57907  23503327.180    96242209.15046
  22460490.020   118030889.25808  22460491.040    91972235.69447
  21760907.920   114354480.32808  21760908.100    89107450.98647
  21544437.080   113216800.45208  21544440.800    88220905.37248
 15 02 20 01 38  0.0000000  0  6G16G18G19G21G22G27
  20574776.780   108121191.28508  20574777.960    84250279.58149
  21543073.820   113209721.73808  21543075.420    88215419.83248
  23488735.800   123434145.34807  23488735.960    96182460.67646
  22472499.940   118094001.92908  22472500.960    92021414.38747
  21747179.340   114282335.81908  21747179.300    89051234.51448
  21534101.260   113162485.54108  21534105.020    88178582.07748
 15 02 20 01 38 30.0000000  0  6G16G18G19G21G22G27
  20571745.480   108105261.47308  20571746.600    84237866.73649
  21541827.220   113203170.78408  21541828.820    88210315.20748
  23474157.120   123357533.59207  23474157.140    96122763.22946
  22484532.220   118157232.21008  22484533.220    92070684.73447
  21733518.300   114210546.12508  21733518.020    88995294.52248
  21523792.640   113108313.59808  21523796.440    88136370.18448
 15 02 20 01 39  0.0000000  0  6G16G18G19G21G22G27
  20568817.600   108089875.30208  20568818.720    84225877.51049
  21540676.380   113197123.15608  21540677.980    88205602.77548
  23459591.540   123280990.99207  23459591.500    96063119.66546
  22496587.240   118220582.03108  22496588.260    92120048.21847
  21719925.800   114139116.43308  21719925.320    88939635.04448
  21513511.980   113054288.60408  21513515.800    88094272.79848
 15 02 20 01 39 30.0000000  0  6G16G18G19G21G22G27
  20565992.740   108075030.59908  20565993.880    84214310.20749
  21539620.800   113191576.09508  21539622.380    88201280.39548
  23445038.580   123204514.91807  23445038.600    96003527.95346
  22508664.340   118284047.73808  22508665.360    92169502.01447
  21706401.680   114068046.15608  21706401.060    88884255.63048
  21503258.880   113000408.27008  21503262.700    88052288.12548
 15 02 20 01 40  0.0000000  0  6G16G18G19G21G22G27
  20563271.540   108060730.84108  20563272.740    84203167.53849
  21538660.960   113186532.11508  21538662.520    88197350.02548
  23430498.800   123128108.06807  23430498.900    95943990.17746
  22520763.560   118347629.57108  22520764.600    92219046.29347
  21692946.700   113997339.72808  21692946.120    88829159.73448
  21493033.960   112946675.89008  21493037.720    88010418.73648
 15 02 20 01 40 30.0000000  0  6G16G18G19G21G22G27
  20560653.660   108046973.96508  20560654.900    84192447.88449
  21537796.340   113181988.41208  21537797.860    88193809.47948
  23415971.760   123051768.19707  23415971.900    95884504.57146
  22532884.180   118411323.89608  22532885.280    92268678.22447
  21679560.800   113926996.70308  21679560.360    88774346.99448
  21482836.800   112893089.44208  21482840.540    87968663.07448
 15 02 20 01 41  0.0000000  0  6G16G18G19G21G22G27
  20558139.920   108033764.25908  20558141.180    84182154.60949
  21537027.600   113177948.54508  21537029.080    88190661.53548
  23401458.060   122975498.57707  23401458.240    95825073.72846
  22545026.460   118475131.94508  22545027.620    92318398.77447
  21666245.080   113857022.51608  21666244.780    88719821.66048
  21472668.160   112839652.85208  21472671.900    87927024.17948
 15 02 20 01 41 30.0000000  0  6G16G18G19G21G22G27
  20555729.860   108021099.49708  20555731.160    84172285.96549
  21536354.120   113174409.29008  21536355.600    88187903.67948
  23386957.240   122899296.44607  23386957.400    95765695.45846
  22557189.520   118539048.96708  22557190.660    92368204.24047
  21652999.340   113787415.94808  21652999.120    88665582.78848
  21462527.580   112786363.66608  21462531.300    87885500.14448
 15 02 20 01 42  0.0000000  0  6G16G18G19G21G22G27
  20553424.120   108008982.94108  20553425.440    84162844.49149
  21535776.440   113171373.43508  21535777.920    88185538.08648
  23372469.760   122823164.38007  23372469.880    95706371.78646
  22569373.560   118603076.30408  22569374.660    92418095.65847
  21639824.480   113718181.58608  21639824.320    88611633.94948
  21452415.660   112733225.12808  21452419.360    87844093.49148
 15 02 20 01 42 30.0000000  0  6G16G18G19G21G22G27
  20551222.860   107997415.25708  20551224.180    84153830.70749
  21535294.560   113168840.93108  21535296.000    88183564.70648
  23357995.720   122747102.95406  23357995.740    95647103.13146
  22581578.360   118667212.43008  22581579.320    92468071.85247
  21626720.920   113649321.84008  21626720.760    88557977.02448
  21442332.500   112680238.01708  21442336.220    87802804.83748
 15 02 20 01 43  0.0000000  0  6G16G18G19G21G22G27
  20549126.240   107986397.32908  20549127.520    84145245.30949
  21534908.420   113166811.54408  21534909.820    88181983.36648
  23343535.120   122671112.33807  23343535.080    95587889.67646
  22593803.700   118731456.71808  22593804.640    92518132.33247
  21613689.060   113580838.98308  21613688.860    88504613.78348
  21432278.300   112627402.98608  21432282.040    87761634.68748
 15 02 20 01 43 30.0000000  0  6G16G18G19G21G22G27
  20547134.680   107975931.37108  20547135.920    84137090.01349
  21534618.120   113165286.07008  21534619.500    88180794.68348
  23329088.220   122595193.75207  23329088.180    95528732.35146
  22606049.360   118795807.72208  22606050.240    92568275.97247
  21600729.420   113512735.97208  21600729.200    88451546.51448
  21422253.400   112574721.75008  21422257.160    87720584.37948
 15 02 20 01 44  0.0000000  0  6G16G18G19G21G22G27
  20545247.660   107966014.90108  20545248.860    84129362.88949
  21534423.260   113164262.40508  21534424.660    88179997.02448
  23314654.620   122519344.99007  23314654.640    95469629.43146
  22618314.440   118860261.01908  22618315.340    92618499.31647
  21587841.940   113445012.25708  21587841.760    88398774.80748
  21412257.420   112522192.48308  21412261.180    87679652.49249
 15 02 20 01 44 30.0000000  0  6G16G18G19G21G22G27
  20543465.880   107956651.54808  20543467.080    84122066.77049
  21534324.400   113163743.11008  21534325.820    88179592.38948
  23300234.920   122443569.17607  23300235.000    95410583.35146
  22630599.260   118924818.17008  22630600.160    92668803.58647
  21575027.500   113377672.24908  21575027.400    88346302.09348
  21402291.040   112469818.73508  21402294.760    87638841.78349
 15 02 20 01 45  0.0000000  0  6G16G18G19G21G22G27
  20541789.120   107947840.26908  20541790.360    84115200.84349
  21534321.040   113163725.65508  21534322.520    88179578.79648
  23285828.720   122367863.99707  23285828.780    95351592.32346
  22642903.220   118989476.42607  22642904.240    92719186.63447
  21562286.160   113310715.89508  21562286.060    88294128.31948
  21392353.920   112417598.68308  21392357.580    87598150.84148
 15 02 20 01 45 30.0000000  0  6G16G18G19G21G22G27
  20540217.920   107939583.75708  20540219.220    84108767.19749
  21534413.600   113164212.24308  21534415.120    88179957.96348
  23271436.560   122292232.37607  23271436.580    95292658.61446
  22655226.420   119054235.97807  22655227.540    92769648.61347
  21549618.700   113244147.70408  21549618.560    88242257.01448
  21382446.700   112365535.64308  21382450.280    87557582.24149
 15 02 20 01 46  0.0000000  0  6G16G18G19G21G22G27
  20538752.000   107931880.55808  20538753.380    84102764.70449
  21534601.720   113165200.88308  21534603.260    88180728.33948
  23257058.080   122216672.41507  23257058.060    95233780.72946
  22667568.240   119119093.21607  22667569.480    92820186.71447
  21537025.140   113177967.58408  21537024.900    88190688.10248
  21372569.080   112313628.43408  21372572.660    87517135.05949
 15 02 20 01 46 30.0000000  0  6G16G18G19G21G22G27
  20537392.200   107924734.78708  20537393.580    84097196.56949
  21534885.980   113166694.76608  21534887.520    88181892.41248
  23242694.000   122141188.35507  23242693.960    95174961.99546
  22679929.160   119184050.67007  22679930.500    92870802.89547
  21524506.440   113112180.94908  21524506.140    88139425.80348
  21362721.900   112261881.31108  21362725.500    87476812.62449
 15 02 20 01 47  0.0000000  0  6G16G18G19G21G22G27
  20536138.500   107918146.31008  20536139.840    84092062.68749
  21535266.180   113168692.54908  21535267.700    88183449.13248
  23228344.160   122065779.15007  23228344.120    95116201.60146
  22692308.580   119249105.22107  22692309.980    92921494.74147
  21512062.740   113046788.70408  21512062.400    88088470.82748
  21352905.080   112210293.85308  21352908.740    87436614.60448
 15 02 20 01 47 30.0000000  0  6G16G18G19G21G22G27
  20534990.800   107912114.85108  20534992.100    84087362.84449
  21535742.160   113171193.77508  21535743.700    88185398.14548
  23214008.520   121990444.67007  23214008.480    95057499.44546
  22704706.200   119314254.91508  22704707.540    92972260.72647
  21499694.340   112981792.42608  21499693.980    88037824.38748
  21343118.760   112158866.41208  21343122.400    87396541.27249
 15 02 20 01 48  0.0000000  0  6G16G18G19G21G22G27
  20533949.500   107906642.49108  20533950.740    84083098.66549
  21536314.100   113174199.38008  21536315.680    88187740.18548
  23199687.320   121915186.33707  23199687.240    94998856.60146
  22717122.020   119379499.80408  22717123.240    93023100.89947
  21487401.900   112917195.53008  21487401.560    87987489.16248
  21333363.280   112107601.04508  21333366.920    87356594.22849
 15 02 20 01 48 30.0000000  0  6G16G18G19G21G22G27
  20533014.560   107901729.22808  20533015.800    84079270.14449
  21536981.900   113177708.70308  21536983.480    88190474.72748
  23185380.620   121840004.15307  23185380.520    94940273.09246
  22729555.740   119444838.77108  22729556.880    93074014.36147
  21475185.700   112852999.35508  21475185.360    87937466.18348
  21323638.700   112056497.85909  21323642.320    87316773.56648
 15 02 20 01 49  0.0000000  0  6G16G18G19G21G22G27
  20532186.200   107897376.15308  20532187.440    84075878.13449
  21537745.580   113181721.86608  21537747.140    88193601.87548
  23171088.480   121764898.85707  23171088.400    94881749.48447
  22742007.060   119510270.20008  22742008.160    93124999.88747
  21463046.160   112789206.24008  21463045.920    87887757.27548
  21313945.260   112005558.31708  21313948.860    87277080.41649
 15 02 20 01 49 30.0000000  0  6G16G18G19G21G22G27
  20531464.580   107893584.13308  20531465.820    84072923.30349
  21538605.140   113186238.93908  21538606.660    88197121.67648
  23156811.120   121689871.30207  23156811.160    94823286.45646
  22754475.640   119575792.54908  22754476.700    93176056.24047
  21450983.760   112725818.45208  21450983.620    87838364.20148
  21304283.200   111954783.56009  21304286.760    87237515.66848
 15 02 20 01 50  0.0000000  0  6G16G18G19G21G22G27
  20530849.540   107890352.19708  20530850.800    84070404.91749
  21539560.240   113191258.08708  21539561.740    88201032.70848
  23142548.380   121614920.47607  23142548.440    94764883.22346
  22766961.100   119641403.86108  22766962.160    93227181.91947
  21438998.580   112662836.17408  21438998.520    87789287.11648
  21294652.360   111904172.96008  21294655.860    87198078.83949
 15 02 20 01 50 30.0000000  0  6G16G18G19G21G22G27
  20530341.240   107887681.08008  20530342.500    84068323.52449
  21540610.900   113196779.44708  21540612.380    88205335.07448
  23128300.420   121540047.02307  23128300.460    94706540.28047
  22779463.180   119707102.91908  22779464.280    93278375.96647
  21427091.100   112600262.03708  21427091.080    87740528.06248
  21285052.920   111853727.56708  21285056.400    87158770.74149
 15 02 20 01 51  0.0000000  0  6G16G18G19G21G22G27
  20529940.080   107885572.91008  20529941.340    84066680.78549
  21541757.340   113202804.19108  21541758.800    88210029.68748
  23114067.560   121465252.99907  23114067.580    94648259.23147
  22791981.960   119772889.81708  22791983.140    93329638.47447
  21415261.960   112538099.23108  21415261.880    87692089.52148
  21275485.400   111803449.76608  21275488.880    87119593.24649
 15 02 20 01 51 30.0000000  0  6G16G18G19G21G22G27
  20529645.960   107884027.33808  20529647.240    84065476.44449
  21542999.440   113209331.59108  21543000.920    88215115.97948
  23099849.660   121390537.64307  23099849.720    94590039.46747
  22804517.080   119838762.64907  22804518.280    93380967.93047
  21403511.440   112476349.41708  21403511.240    87643972.79448
  21265949.760   111753339.82108  21265953.320    87080546.54149
 15 02 20 01 52  0.0000000  0  6G16G18G19G21G22G27
  20529459.060   107883045.20908  20529460.340    84064711.14449
  21544337.020   113216360.66308  21544338.480    88220593.18448
  23085646.960   121315901.90607  23085647.040    94531881.75847
  22817068.340   119904720.18007  22817069.560    93432363.39947
  21391839.820   112415014.38008  21391839.520    87596179.27348
  21256446.260   111703398.79608  21256449.880    87041631.46549
 15 02 20 01 52 30.0000000  0  6G16G18G19G21G22G27
  20529379.600   107882627.50208  20529380.840    84064385.65649
  21545770.320   113223892.72708  21545771.800    88226462.33148
  23071459.600   121241346.86007  23071459.740    94473786.91147
  22829635.600   119970761.50407  22829636.800    93483824.15647
  21380247.600   112354096.79208  21380247.240    87548711.03148
  21246975.180   111653628.15808  21246978.820    87002849.16449
 15 02 20 01 53  0.0000000  0  6G16G18G19G21G22G27
  20529407.740   107882775.41808  20529408.980    84064500.90949
  21547299.340   113231927.75708  21547300.840    88232723.39848
  23057287.780   121166873.42007  23057287.940    94415755.66546
  22842218.740   120036886.31407  22842219.920    93535349.96847
  21368735.240   112293599.17108  21368734.860    87501570.04648
  21237536.860   111604029.58308  21237540.500    86964200.93249
 15 02 20 01 53 30.0000000  0  6G16G18G19G21G22G27
  20529543.560   107883489.30908  20529544.840    84065057.18849
  21548923.980   113240465.13508  21548925.420    88239375.90648
  23043131.600   121092482.28407  23043131.800    94357788.56046
  22854817.460   120103093.16307  22854818.620    93586939.70747
  21357303.120   112233523.17208  21357302.720    87454757.59448
  21228131.420   111554603.80708  21228135.080    86925687.34749
 15 02 20 01 54  0.0000000  0  6G16G18G19G21G22G27
  20529787.020   107884768.61608  20529788.300    84066054.05149
  21550644.020   113249503.83108  21550645.400    88246419.04748
  23028991.000   121018173.13907  23028991.260    94299885.33347
  22867431.460   120169380.32007  22867432.640    93638592.02447
  21345951.360   112173869.68008  21345951.000    87408274.36848
  21218758.860   111505351.03208  21218762.560    86887308.56949
 15 02 20 01 54 30.0000000  0  6G16G18G19G21G22G27
  20530138.080   107886613.39408  20530139.360    84067491.53849
  21552459.300   113259043.15708  21552460.660    88253852.29348
  23014866.080   120943946.32307  23014866.380    94242046.25947
  22880060.440   120235746.10507  22880061.620    93690305.60346
  21334680.480   112114640.77008  21334680.100    87362121.98848
  21209419.420   111456272.10908  21209423.140    86849065.26149
 15 02 20 01 55  0.0000000  0  6G16G18G19G21G22G27
  20530596.880   107889024.32308  20530598.140    84069370.18449
  21554369.780   113269082.80008  21554371.180    88261675.39548
  23000756.920   120869802.21307  23000757.280    94184271.63247
  22892704.140   120302189.11807  22892705.320    93742079.36347
  21323490.780   112055838.57508  21323490.420    87316302.10548
  21200113.240   111407367.87908  21200116.940    86810958.06949
 15 02 20 01 55 30.0000000  0  6G16G18G19G21G22G27
  20531163.740   107892003.06308  20531164.960    84071691.28049
  21556375.660   113279623.88108  21556377.140    88269889.23148
  22986663.940   120795742.84007  22986664.360    94126563.03847
  22905362.600   120368709.52007  22905363.780    93793913.42346
  21312382.880   111997466.27708  21312382.580    87270817.21248
  21190840.820   111358640.88608  21190844.460    86772988.99549
 15 02 20 01 56  0.0000000  0  6G16G18G19G21G22G27
  20531838.420   107895548.43308  20531839.620    84074453.90849
  21558476.560   113290664.20308  21558478.100    88278492.08348
  22972586.860   120721767.04407  22972587.340    94068919.56547
  22918035.400   120435305.11307  22918036.500    93845806.07946
  21301356.760   111939523.68308  21301356.480    87225667.15148
  21181601.980   111310090.44908  21181605.620    86735157.49649
 15 02 20 01 56 30.0000000  0  6G16G18G19G21G22G27
  20532621.400   107899662.85608  20532622.580    84077659.95449
  21560672.840   113302205.79808  21560674.400    88287485.53448
  22958526.240   120647877.78207  22958526.700    94011343.53747
  22930722.640   120501976.60707  22930723.620    93897757.87446
  21290413.180   111882015.05308  21290412.940    87180855.24748
  21172397.380   111261719.85209  21172401.000    86697466.12649
 15 02 20 01 57  0.0000000  0  6G16G18G19G21G22G27
  20533512.380   107904344.96908  20533513.600    84081308.35349
  21562964.020   113314246.11408  21562965.600    88296867.59748
  22944481.800   120574073.55507  22944482.220    93953833.77247
  22943423.760   120568721.01007  22943424.640    93949766.49146
  21279552.200   111824940.43608  21279551.980    87136381.53048
  21163226.840   111213528.18108  21163230.400    86659914.18549
 15 02 20 01 57 30.0000000  0  6G16G18G19G21G22G27
  20534511.820   107909597.07208  20534513.080    84085400.89949
  21565350.420   113326786.71308  21565351.960    88306639.49848
  22930454.020   120500357.06007  22930454.380    93896392.36847
  22956138.900   120635539.29507  22956139.700    94001832.67146
  21268774.520   111768303.53208  21268774.280    87092248.89648
  21154090.880   111165518.49808  21154094.460    86622504.04649
 15 02 20 01 58  0.0000000  0  7G04G16G18G19G21G22G27
  24562504.260   129076828.19306  24562510.140   100579368.87345
  20535619.700   107915419.21008  20535621.020    84089937.63049
  21567831.880   113339827.09908  21567833.440    88316800.84448
  22916443.020   120426728.89807  22916443.340    93839019.79447
  22968867.820   120702430.07907  22968868.620    94053955.35646
  21258080.560   111712106.37208  21258080.260    87048458.91948
  21144989.720   111117691.77409  21144993.360    86585236.47549
 15 02 20 01 58 30.0000000  0  7G04G16G18G19G21G22G27
  24544243.060   128980865.50406  24544248.460   100504593.00744
  20536839.120   107921827.54908  20536840.480    84094931.13949
  21570411.420   113353382.73408  21570412.920    88327363.67848
  22902451.960   120353205.56807  22902452.220    93781728.89647
  22981613.340   120769408.08107  22981614.160    94106145.99946
  21247473.680   111656366.64408  21247473.300    87005025.38048
  21135926.640   111070065.08809  21135930.320    86548124.77649
 15 02 20 01 59  0.0000000  0  7G04G16G18G19G21G22G27
  24526005.120   128885024.80806  24526010.340   100429912.21244
  20538163.260   107928786.18108  20538164.660    84100353.44849
  21573081.900   113367416.27708  21573083.360    88338298.90848
  22888473.980   120279751.30407  22888474.260    93724491.84747
  22994368.360   120836435.85407  22994369.200    94158375.42446
  21236947.140   111601049.21608  21236946.720    86961920.90548
  21126894.860   111022602.83709  21126898.560    86511141.20649
 15 02 20 01 59 30.0000000  0  7G04G16G18G19G21G22G27
  24507794.380   128789326.78906  24507799.360   100355342.56744
  20539595.960   107936315.07808  20539597.360    84106220.11949
  21575847.160   113381947.77208  21575848.560    88349622.15548
  22874513.100   120206386.67407  22874513.380    93667324.61047
  23007136.420   120903532.54607  23007137.320    94210658.55546
  21226505.220   111546176.54308  21226504.780    86919162.99048
  21117898.420   110975326.29109  21117902.160    86474302.34549
 15 02 20 02 00  0.0000000  0  7G04G16G18G19G21G22G27
  24489610.840   128693771.67906  24489615.520   100280884.28945
  20541137.140   107944413.84708  20541138.480    84112530.84049
  21578706.900   113396975.80208  21578708.220    88361332.30848
  22860569.280   120133111.62607  22860569.540    93610227.19347
  23019917.180   120970696.10107  23019918.140    94262993.78846
  21216148.080   111491749.33108  21216147.660    86876752.19248
  21108937.360   110928235.74308  21108941.100    86437608.40549
 15 02 20 02 00 30.0000000  0  7G04G16G18G19G21G22G27
  24471454.860   128598361.65406  24471459.340   100206539.05645
  20542787.060   107953083.90108  20542788.300    84119286.72049
  21581661.180   113412500.78208  21581662.500    88373429.70048
  22846642.940   120059928.24907  22846643.180    93553201.19847
  23032710.760   121037926.81707  23032711.740    94315381.35746
  21205876.360   111437771.12108  21205876.000    86834691.26748
  21100012.220   110881333.83909  21100015.940    86401061.46949
 15 02 20 02 01  0.0000000  0  7G04G16G18G19G21G22G27
  24453326.520   128503096.84706  24453330.840   100132306.96945
  20544545.640   107962324.94408  20544546.760    84126487.53549
  21584709.940   113428522.27308  21584711.340    88385913.97948
  22832734.040   119986836.48907  22832734.240    93496246.60047
  23045516.700   121105222.87007  23045517.720    94367819.82846
  21195690.200   111384242.54408  21195689.900    86792980.69848
  21091123.040   110834620.75909  21091126.720    86364661.66949
 15 02 20 02 01 30.0000000  0  7G04G16G18G19G21G22G27
  24435225.700   128407977.08706  24435230.020   100058187.89644
  20546412.680   107972136.07708  20546413.720    84134132.56349
  21587852.900   113445038.69808  21587854.380    88398783.91848
  22818842.520   119913836.21907  22818842.700    93439363.29147
  23058334.700   121172582.55807  23058335.760    94420307.88646
  21185589.760   111331164.65708  21185589.540    86751621.32248
  21082269.860   110788096.90309  21082273.500    86328409.31549
 15 02 20 02 02  0.0000000  0  7G04G16G18G19G21G22G27
  24417152.700   128313003.63206  24417156.980    99984182.81444
  20548388.260   107982517.84408  20548389.300    84142222.24549
  21591089.940   113462049.22908  21591091.460    88412038.87948
  22804968.520   119840928.07807  22804968.740    93382551.78147
  23071164.680   121240005.31507  23071165.900    94472845.07946
  21175575.420   111278539.38708  21175575.260    86710614.62648
  21073452.940   110741763.63409  21073456.560    86292305.46949
 15 02 20 02 02 30.0000000  0  7G04G16G18G19G21G22G27
  24399107.740   128218178.13606  24399112.040    99910293.02544
  20550472.540   107993470.83308  20550473.580    84150757.03849
  21594421.060   113479554.22208  21594422.640    88425679.13848
  22791112.440   119768113.79707  22791112.640    93325813.39847
  23084006.540   121307490.47307  23084007.980    94525430.91646
  21165647.720   111226369.14208  21165647.540    86669962.50648
  21064672.660   110695622.87509  21064676.260    86256351.63949
 15 02 20 02 03  0.0000000  0  7G04G16G18G19G21G22G27
  24381090.880   128123500.61606  24381095.200    99836518.53544
  20552665.360   108004994.33208  20552666.460    84159736.38649
  21597845.940   113497552.05108  21597847.560    88439703.42048
  22777274.240   119695393.28107  22777274.360    93269148.06847
  23096860.060   121375036.40207  23096861.600    94578064.08946
  21155806.880   111174655.05208  21155806.640    86629665.82548
  21055929.100   110649674.95209  21055932.680    86220548.06749
 15 02 20 02 03 30.0000000  0  7G04G16G18G19G21G22G27
  24363102.580   128028973.49306  24363106.980    99762861.18845
  20554967.260   108017090.95108  20554968.420    84169162.31849
  21601364.960   113516044.31108  21601366.520    88454112.97548
  22763454.320   119622769.01907  22763454.420    93212557.75447
  23109725.360   121442643.92607  23109726.840    94630745.26846
  21146053.600   111123400.64208  21146053.240    86589727.33848
  21047222.780   110603922.86609  21047226.380    86184897.09149
 15 02 20 02 04  0.0000000  0  7G04G16G18G19G21G22G27
  24345142.540   127934594.77406  24345147.060    99689319.50945
  20557377.580   108029757.09208  20557378.740    84179032.03449
  21604977.280   113535026.97108  21604978.740    88468904.66248
  22749652.300   119550238.77307  22749652.360    93156040.70647
  23122601.640   121510309.01607  23122603.080    94683471.30446
  21136387.480   111072604.36008  21136387.020    86550145.83448
  21038553.340   110558364.64809  21038556.940    86149397.18349
 15 02 20 02 04 30.0000000  0  7G04G16G18G19G21G22G27
  24327211.260   127840366.39106  24327215.780    99615894.97245
  20559896.460   108042993.80908  20559897.640    84189346.35749
  21608682.980   113554500.62908  21608684.340    88484078.94048
  22735868.540   119477804.42308  22735868.540    93099598.38447
  23135488.920   121578031.76407  23135490.300    94736242.26346
  21126809.000   111022268.77208  21126808.500    86510923.31448
  21029921.220   110513002.71709  21029924.860    86114050.23249
 15 02 20 02 05  0.0000000  0  7G04G16G18G19G21G22G27
  24309308.820   127746289.26406  24309313.280    99542588.28544
  20562524.000   108056801.45408  20562525.140    84200105.56149
  21612481.960   113574464.54608  21612483.240    88499635.24248
  22722103.080   119405466.58208  22722103.100    93043231.25547
  23148387.020   121645811.13507  23148388.300    94789057.33946
  21117318.600   110972396.38608  21117318.120    86472061.72948
  21021326.700   110467838.24409  21021330.340    86078857.13649
 15 02 20 02 05 30.0000000  0  7G04G16G18G19G21G22G27
  24291435.340   127652363.52206  24291439.620    99469399.55144
  20565260.080   108071179.59408  20565261.220    84211309.30049
  21616374.020   113594917.69508  21616375.240    88515572.76248
  22708356.040   119333225.75108  22708356.140    92986939.71147
  23161295.700   121713645.83707  23161296.820    94841915.54046
  21107916.380   110922987.94908  21107916.020    86433561.66248
  21012769.880   110422871.93809  21012773.520    86043818.46449
 15 02 20 02 06  0.0000000  0  7G04G16G18G19G21G22G27
  24273591.160   127558591.19007  24273595.320    99396330.34445
  20568104.780   108086128.88208  20568105.980    84222958.09249
  21620359.300   113615860.54608  21620360.460    88531891.86648
  22694627.720   119261083.47808  22694627.900    92930724.96147
  23174214.880   121781535.97107  23174215.840    94894816.92446
  21098602.920   110874046.08708  21098602.680    86395425.15748
  21004251.220   110378106.14009  21004254.880    86008936.02749
 15 02 20 02 06 30.0000000  0  7G04G16G18G19G21G22G27
  24255776.100   127464971.77106  24255780.140    99323380.27745
  20571057.980   108101648.29408  20571059.200    84235051.14549
  21624437.320   113637290.83108  21624438.460    88548590.79348
  22680918.180   119189039.54308  22680918.360    92874586.84447
  23187144.100   121849479.09207  23187145.040    94947759.59846
  21089378.280   110825570.86608  21089378.100    86357652.27148
  20995770.680   110333540.74909  20995774.340    85974209.76249
 15 02 20 02 07  0.0000000  0  7G04G16G18G19G21G22G27
  24237990.640   127371508.32006  24237994.620    99250551.73045
  20574119.960   108117739.54108  20574121.240    84247589.77549
  21628608.420   113659210.10108  21628609.580    88565670.74448
  22667227.920   119117096.77008  22667228.100    92818527.56147
  23200083.640   121917476.58107  23200084.540    95000744.64046
  21080243.260   110777566.30108  21080243.060    86320246.13548
  20987328.920   110289179.02709  20987332.540    85939642.19549
 15 02 20 02 07 30.0000000  0  7G04G16G18G19G21G22G27
  24220234.800   127278201.03406  24220238.880    99177844.89845
  20577290.800   108134402.60708  20577292.100    84260573.98049
  21632872.300   113681616.93608  21632873.540    88583130.61448
  22653556.980   119045255.42508  22653557.160    92762547.30847
  23213033.220   121985527.06507  23213034.140    95053770.98146
  21071198.020   110730033.28008  21071197.780    86283207.43248
  20978926.040   110245021.70009  20978929.660    85905233.89249
 15 02 20 02 08  0.0000000  0  7G04G16G18G19G21G22G27
  24202508.560   127185049.63206  24202512.700    99105259.48245
  20580570.220   108151636.24708  20580571.540    84274002.78649
  21637228.700   113704509.81808  21637230.020    88600969.22348
  22639905.300   118973515.35208  22639905.440    92706645.95747
  23225992.540   122053629.13807  23225993.560    95106837.52246
  21062242.740   110682972.69008  21062242.440    86246536.85948
  20970562.120   110201069.14309  20970565.780    85870985.14249
 15 02 20 02 08 30.0000000  0  7G04G16G18G19G21G22G27
  24184812.460   127092057.20206  24184816.720    99032797.94245
  20583958.640   108169442.29608  20583959.920    84287877.62549
  21641677.840   113727889.99108  21641679.220    88619187.54848
  22626273.480   118901879.66507  22626273.560    92650825.95747
  23238961.740   122121783.16907  23238962.840    95159944.55846
  21053378.100   110636388.56908  21053377.800    86210237.55848
  20962237.780   110157324.68009  20962241.480    85836898.55849
 15 02 20 02 09  0.0000000  0  7G04G16G18G19G21G22G27
  24167146.100   126999221.38306  24167150.520    98960458.44345
  20587455.380   108187817.41508  20587456.600    84302195.89849
  21646219.040   113751753.94008  21646220.440    88637782.83748
  22612661.040   118830346.04107  22612661.080    92595085.46947
  23251940.160   122189985.79207  23251941.380    95213089.44646
  21044603.740   110590278.90208  21044603.420    86174307.96248
  20953952.720   110113786.58809  20953956.480    85802972.78249
 15 02 20 02 09 30.0000000  0  7G04G16G18G19G21G22G27
  24149510.000   126906544.09206  24149514.340    98888242.45245
  20591060.560   108206762.59108  20591061.760    84316958.37349
  21650852.220   113776101.29408  21650853.600    88656754.80348
  22599068.300   118758916.04407  22599068.360    92539425.72947
  23264927.800   122258236.59507  23264929.060    95266271.87246
  21035920.100   110544645.90008  21035919.760    86138749.79348
  20945707.320   110070456.82109  20945711.120    85769209.33749
 15 02 20 02 10  0.0000000  0  7G04G16G18G19G21G22G27
  24131904.060   126814025.16806  24131908.400    98816149.84545
  20594774.000   108226276.78708  20594775.180    84332164.23549
  21655577.080   113800930.58608  21655578.420    88676102.30748
  22585495.420   118687590.35107  22585495.480    92483847.28247
  23277924.320   122326533.99707  23277925.580    95319490.62146
  21027327.340   110499490.61508  21027326.980    86103563.87148
  20937501.720   110027336.04609  20937505.520    85735608.75249
 15 02 20 02 10 30.0000000  0  7G04G16G18G19G21G22G27
  24114328.580   126721665.63606  24114332.740    98744181.43645
  20598595.660   108246359.87908  20598596.860    84347813.39549
  21660393.480   113826241.11208  21660394.780    88695824.79748
  22571942.500   118616369.32607  22571942.560    92428350.38347
  23290929.660   122394877.63307  23290930.880    95372745.38846
  21018825.860   110454814.77609  21018825.440    86068751.54748
  20929336.180   109984425.70509  20929339.940    85702172.13349
 15 02 20 02 11  0.0000000  0  7G04G16G18G19G21G22G27
  24096783.600   126629465.75206  24096787.520    98672337.43944
  20602525.460   108267011.12308  20602526.680    84363905.26949
  21665301.100   113852031.06808  21665302.340    88715920.87748
  22558409.600   118545253.24607  22558409.620    92372935.26647
  23303943.580   122463265.70607  23303944.700    95426034.78746
  21010415.720   110410619.00609  21010415.260    86034313.29748
  20921210.760   109941726.20309  20921214.480    85668899.80649
 15 02 20 02 11 30.0000000  0  7G04G16G18G19G21G22G27
  24079269.580   126537428.67507  24079273.340    98600620.30945
  20606563.780   108288232.54908  20606564.980    84380441.44449
  21670300.360   113878302.43608  21670301.540    88736392.07448
  22544897.300   118474245.41508  22544897.300    92317604.49547
  23316966.400   122531700.18507  23316967.420    95479360.33346
  21002097.660   110366907.21109  21002097.200    86000252.18048
  20913126.180   109899241.45909  20913129.920    85635794.82149
 15 02 20 02 12  0.0000000  0  7G04G16G18G19G21G22G27
  24061786.240   126445552.81107  24061789.840    98529028.80145
  20610710.080   108310021.55208  20610711.300    84397419.88749
  21675390.600   113905051.84808  21675391.700    88757235.77947
  22531405.340   118403344.67308  22531405.360    92262357.15847
  23329997.300   122600177.44907  23329998.220    95532719.22346
  20993871.540   110323678.61908  20993871.060    85966567.58248
  20905082.260   109856970.40609  20905085.980    85602856.35049
 15 02 20 02 12 30.0000000  0  7G04G16G18G19G21G22G27
  24044334.060   126353840.85806  24044337.540    98457565.01145
  20614964.720   108332379.82308  20614965.900    84414841.91649
  21680571.980   113932280.10008  21680573.040    88778452.60648
  22517934.200   118332553.42808  22517934.280    92207195.15947
  23343036.540   122668698.66607  23343037.380    95586112.37745
  20985737.900   110280936.40908  20985737.440    85933261.98248
  20897079.540   109814916.14609  20897083.280    85570086.80349
 15 02 20 02 13  0.0000000  0  7G04G16G18G19G21G22G27
  24026913.220   126262293.86206  24026916.760    98386229.76545
  20619327.700   108355307.12208  20619328.820    84432707.34249
  21685844.460   113959987.09008  21685845.520    88800042.47348
  22504484.160   118261873.20708  22504484.320    92152119.66747
  23356083.980   122737263.42007  23356084.780    95639539.43445
  20977697.140   110238682.45608  20977696.720    85900336.84448
  20889118.440   109773080.43609  20889122.180    85537487.56549
 15 02 20 02 13 30.0000000  0  7G04G16G18G19G21G22G27
  24009525.040   126170918.57506  24009528.660    98315028.31245
  20623800.040   108378809.23308  20623801.120    84451020.67549
  21691208.860   113988177.30008  21691209.980    88822008.88048
  22491056.600   118191310.86308  22491056.780    92097136.03747
  23369140.660   122805876.92107  23369141.500    95693004.49346
  20969750.720   110196924.19709  20969750.360    85867797.96648
  20881200.300   109731470.29809  20881204.000    85505064.09349
 15 02 20 02 14  0.0000000  0  7G04G16G18G19G21G22G27
  23992166.660   126079700.26606  23992170.460    98243949.17245
  20628378.680   108402870.08308  20628379.760    84469769.38349
  21696662.120   114016834.68508  21696663.380    88844339.31648
  22477648.640   118120851.61308  22477648.840    92042232.73847
  23382203.400   122874522.64807  23382204.400    95746494.65646
  20961895.920   110155647.20708  20961895.600    85835634.09448
  20873322.420   109690071.77209  20873326.100    85472805.51449
 15 02 20 02 14 30.0000000  0  7G04G16G18G19G21G22G27
  23974840.020   125988648.93106  23974844.000    98173000.14345
  20633065.340   108427498.77908  20633066.440    84488960.56949
  21702205.760   114045966.93008  21702207.120    88867039.76748
  22464262.260   118050505.75308  22464262.480    91987417.80147
  23395273.960   122943209.35907  23395275.080    95800016.77046
  20954134.840   110114862.27809  20954134.460    85803853.64848
  20865486.780   109648895.26409  20865490.440    85440719.92549
 15 02 20 02 15  0.0000000  0  7G04G16G18G19G21G22G27
  23957544.940   125897763.56006  23957549.120    98102180.43945
  20637859.620   108452692.97508  20637860.760    84508592.41149
  21707839.400   114075572.15508  21707840.860    88890108.77848
  22450897.300   117980272.28308  22450897.440    91932690.43847
  23408351.860   123011934.10607  23408353.000    95853568.50946
  20946467.260   110074568.58909  20946466.800    85772455.98948
  20857693.300   109607940.30509  20857696.960    85408806.97649
 15 02 20 02 15 30.0000000  0  7G04G16G18G19G21G22G27
  23940281.740   125807045.82306  23940286.020    98031491.37145
  20642761.640   108478453.44208  20642762.840    84528665.50349
  21713562.880   114105649.49308  21713564.440    88913545.66648
  22437554.100   117910153.12008  22437554.160    91878052.13947
  23421437.120   123080697.48207  23421438.220    95907150.36346
  20938893.680   110034768.89709  20938893.120    85741443.25448
  20849942.420   109567209.28409  20849946.100    85377068.52949
 15 02 20 02 16  0.0000000  0  7G04G16G18G19G21G22G27
  23923050.440   125716495.17406  23923054.640    97960932.47945
  20647771.020   108504778.11108  20647772.280    84549178.23449
  21719375.780   114136196.68308  21719377.380    88937348.67848
  22424232.580   117840148.02908  22424232.600    91823502.73447
  23434529.180   123149496.91606  23434530.340    95960760.29146
  20931414.060   109995463.22108  20931413.520    85710815.47348
  20842234.180   109526702.16509  20842237.840    85345504.54849
 15 02 20 02 16 30.0000000  0  7G04G16G18G19G21G22G27
  23905851.120   125626111.60706  23905855.140    97890503.80545
  20652887.520   108531665.62708  20652888.820    84570129.54349
  21725277.800   114167211.94208  21725279.320    88961516.41047
  22410932.760   117770257.09208  22410932.760    91769042.28448
  23447627.900   123218331.18607  23447629.060    96014397.39045
  20924028.400   109956651.69208  20924027.940    85680572.73548
  20834568.660   109486419.38109  20834572.280    85314115.35749
 15 02 20 02 17  0.0000000  0  7G04G16G18G19G21G22G27
  23888684.220   125535898.06607  23888687.900    97820207.61745
  20658111.560   108559118.18108  20658112.880    84591521.14049
  21731269.240   114198696.92908  21731270.620    88986050.16747
  22397655.300   117700483.70308  22397655.300    91714673.41447
  23460733.660   123287201.97307  23460734.720    96068062.92245
  20916737.480   109918338.20508  20916737.100    85650718.07548
  20826946.560   109446364.88009  20826950.180    85282904.05849
 15 02 20 02 17 30.0000000  0  7G04G16G18G19G21G22G27
  23871549.460   125445853.23807  23871552.800    97750042.87245
  20663442.480   108587132.37608  20663443.800    84613350.37849
  21737349.500   114230648.68808  21737350.760    89010947.64747
  22384399.900   117630826.47908  22384399.940    91660395.06947
  23473845.760   123356106.36906  23473846.760    96121754.63846
  20909541.200   109880521.76209  20909540.820    85621250.72848
  20819367.720   109406537.65009  20819371.320    85251869.85049
 15 02 20 02 18  0.0000000  0  7G04G16G18G19G21G22G27
  23854447.240   125355979.73507  23854450.380    97680011.65545
  20668880.640   108615710.06008  20668881.940    84635618.69849
  21743518.620   114263067.35408  21743519.800    89036208.95348
  22371167.200   117561288.31008  22371167.300    91606209.49647
  23486964.420   123425045.43406  23486965.500    96175473.38745
  20902440.140   109843205.36609  20902439.720    85592173.02748
  20811832.760   109366941.07309  20811836.320    85221015.37149
 15 02 20 02 18 30.0000000  0  7G04G16G18G19G21G22G27
  23837377.940   125266279.66607  23837380.900    97610115.55744
  20674426.220   108644852.18508  20674427.480    84658326.84349
  21749776.620   114295953.28508  21749777.780    89061834.36247
  22357957.600   117491871.54608  22357957.740    91552118.52547
  23500089.740   123494019.45606  23500090.900    96229219.35646
  20895434.680   109806391.34109  20895434.240    85563486.78548
  20804342.140   109327577.52009  20804345.680    85190342.48149
 15 02 20 02 19  0.0000000  0  7G04G16G18G19G21G22G27
  23820341.320   125176751.92606  23820344.200    97540353.72245
  20680078.740   108674556.26608  20680079.960    84681472.88249
  21756122.940   114329303.83908  21756124.200    89087821.80747
  22344771.000   117422575.62208  22344771.140    91498121.71347
  23513221.360   123563026.31206  23513222.480    96282990.93145
  20888524.800   109770079.60009  20888524.340    85535191.93248
  20796895.840   109288446.95509  20796899.380    85159851.13549
 15 02 20 02 19 30.0000000  0  7G04G16G18G19G21G22G27
  23803337.660   125087397.95406  23803340.600    97470727.33445
  20685838.200   108704822.16708  20685839.340    84705056.70149
  21762557.540   114363118.29708  21762558.900    89114170.74047
  22331607.700   117353402.13908  22331607.840    91444220.30047
  23526359.100   123632065.91206  23526360.280    96336787.98946
  20881710.840   109734271.85409  20881710.380    85507289.80248
  20789494.240   109249551.30009  20789497.820    85129542.83549
 15 02 20 02 20  0.0000000  0  7G04G16G18G19G21G22G27
  23786366.780   124998216.57906  23786369.960    97401235.38645
  20691704.080   108735647.36108  20691705.160    84729076.32949
  21769079.840   114397393.59108  21769081.320    89140878.75947
  22318467.540   117284349.96708  22318467.680    91390413.43748
  23539502.560   123701135.44207  23539503.820    96390608.39845
  20874992.600   109698967.25409  20874992.140    85479779.73748
  20782137.180   109210889.87009  20782140.820    85099417.04849
 15 02 20 02 20 30.0000000  0  7G04G16G18G19G21G22G27
  23769428.880   124909208.60406  23769432.220    97331878.56645
  20697676.140   108767030.72208  20697677.220    84753530.89449
  21775689.680   114432128.74208  21775691.240    89167945.11048
  22305350.680   117215420.40008  22305350.780    91336702.10348
  23552651.800   123770234.84407  23552652.980    96444452.06546
  20868370.300   109664167.03008  20868369.860    85452662.68549
  20774825.040   109172464.28609  20774828.700    85069475.03449
 15 02 20 02 21  0.0000000  0  7G04G16G18G19G21G22G27
  23752524.380   124820375.88606  23752527.840    97262658.30145
  20703754.780   108798974.02508  20703755.840    84778421.77749
  21782387.140   114467324.26108  21782388.720    89195370.19447
  22292257.540   117146615.58708  22292257.640    91283087.97348
  23565806.760   123839364.42307  23565807.940    96498319.26046
  20861844.460   109629873.51709  20861843.980    85425940.48048
  20767558.300   109134277.20709  20767561.940    85039718.86549
 15 02 20 02 21 30.0000000  0  7G04G16G18G19G21G22G27
  23735652.900   124731716.10206  23735656.420    97193572.80646
  20709939.140   108831472.87508  20709940.160    84803745.55449
  21789171.400   114502975.58508  21789172.960    89223150.45147
  22279187.720   117077933.43508  22279187.880    91229569.43248
  23578966.700   123908520.06406  23578967.840    96552206.76645
  20855414.660   109596084.64509  20855414.140    85399611.49548
  20760336.580   109096326.83409  20760340.220    85010147.14749
 15 02 20 02 22  0.0000000  0  7G04G16G18G19G21G22G27
  23718814.880   124643231.58106  23718818.340    97124623.87645
  20716229.380   108864528.17308  20716230.380    84829502.92549
  21796042.440   114539082.79808  21796043.940    89251285.94348
  22266141.720   117009376.47408  22266141.920    91176148.43548
  23592131.800   123977702.88706  23592132.860    96606115.44545
  20849081.420   109562803.20308  20849080.900    85373677.91349
  20753160.440   109058616.07109  20753164.080    84980762.14349
 15 02 20 02 22 30.0000000  0  7G04G16G18G19G21G22G27
  23702010.680   124554924.61207  23702014.020    97055813.30646
  20722625.620   108898140.66708  20722626.640    84855694.47749
  21803000.360   114575646.79808  21803001.840    89279777.37648
  22253120.220   116940948.06308  22253120.400    91122827.60648
  23605302.200   124046913.92506  23605303.280    96660046.10945
  20842845.140   109530031.61908  20842844.700    85348141.62749
  20746030.520   109021148.23909  20746034.200    84951566.43049
 15 02 20 02 23  0.0000000  0  7G04G16G18G19G21G22G27
  23685240.140   124466794.40407  23685243.380    96987140.47245
  20729127.400   108932307.77308  20729128.440    84882318.19349
  21810044.620   114612664.56108  21810046.060    89308622.38647
  22240122.960   116872647.15608  22240123.160    91069606.14248
  23618477.580   124116151.11406  23618478.720    96713997.15445
  20836705.880   109497770.03108  20836705.540    85323002.73149
  20738946.760   108983922.92809  20738950.480    84922559.70549
 15 02 20 02 23 30.0000000  0  7G04G16G18G19G21G22G27
  23668503.640   124378843.32607  23668506.780    96918607.22045
  20735734.980   108967030.87208  20735736.040    84909375.15249
  21817175.220   114650136.04308  21817176.620    89337820.94847
  22227150.480   116804476.35008  22227150.660    91016486.05848
  23631658.060   124185415.37106  23631659.320    96767969.27646
  20830664.100   109466020.55508  20830663.840    85298262.89649
  20731909.820   108946943.34109  20731913.480    84893744.45449
 15 02 20 02 24  0.0000000  0  7G04G16G18G19G21G22G27
  23651801.060   124291070.76806  23651804.260    96850213.04145
  20742447.980   109002308.07508  20742449.120    84936863.87549
  21824391.920   114688059.74808  21824393.220    89367371.88647
  22214202.820   116736435.83008  22214202.960    90963467.48848
  23644843.400   124254704.96406  23644844.760    96821961.14946
  20824719.820   109434783.26308  20824719.600    85273922.16549
  20724919.660   108910209.68409  20724923.280    84865120.83749
 15 02 20 02 24 30.0000000  0  7G04G16G18G19G21G22G27
  23635132.500   124203477.64806  23635135.840    96781958.70345
  20749266.160   109038138.17008  20749267.400    84964783.42849
  21831694.340   114726434.15008  21831695.640    89397274.02448
  22201280.140   116668526.60208  22201280.260    90910551.23948
  23658033.440   124324019.03406  23658034.880    96875972.11946
  20818873.220   109404059.05709  20818873.000    85249981.24049
  20717976.580   108873723.39709  20717980.160    84836689.97749
 15 02 20 02 25  0.0000000  0  7G04G16G18G19G21G22G27
  23618497.960   124116063.65106  23618501.420    96713843.94145
  20756189.200   109074519.59508  20756190.580    84993132.58649
  21839082.060   114765257.06708  21839083.400    89427525.65247
  22188382.520   116600749.03308  22188382.620    90857737.57748
  23671227.920   124393356.32306  23671229.380    96930001.16046
  20813124.360   109373848.36009  20813124.100    85226440.44349
  20711080.620   108837484.99809  20711084.220    84808452.27649
 15 02 20 02 25 30.0000000  0  7G04G16G18G19G21G22G27
  23601897.680   124028829.63706  23601901.160    96645869.42845
  20763217.060   109111451.67408  20763218.540    85021910.82449
  21846554.960   114804527.50108  21846556.340    89458126.00047
  22175510.200   116533104.49308  22175510.320    90805027.57248
  23684426.820   124462716.44906  23684428.280    96984048.00545
  20807473.420   109344152.31209  20807473.100    85203300.67649
  20704232.160   108801496.29009  20704235.800    84780409.13749
 15 02 20 02 26  0.0000000  0  7G04G16G18G19G21G22G27
  23585331.780   123941775.61806  23585335.140    96578035.17845
  20770349.420   109148932.80208  20770350.960    85051116.89749
  21854112.600   114844243.23308  21854114.000    89489073.32847
  22162663.220   116465593.11808  22162663.320    90752421.32348
  23697629.740   124532097.78906  23697631.180    97038111.38045
  20801920.320   109314970.66708  20801919.980    85180561.74149
  20697431.300   108765757.68509  20697434.960    84752560.88749
 15 02 20 02 26 30.0000000  0  7G04G16G18G19G21G22G27
  23568800.420   123854902.24106  23568803.560    96510341.69145
  20777586.200   109186962.28308  20777587.700    85080750.26149
  21861754.760   114884403.16808  21861756.180    89520366.78747
  22149841.800   116398216.22208  22149841.880    90699919.87048
  23710836.600   124601500.16206  23710838.020    97092191.14546
  20796465.300   109286304.56608  20796464.980    85158224.53749
  20690678.340   108730270.87709  20690682.020    84724908.83949
 15 02 20 02 27  0.0000000  0  7G04G16G18G19G21G22G27
  23552303.760   123768210.97407  23552306.720    96442790.09645
  20784927.240   109225539.37508  20784928.640    85110810.32449
  21869481.320   114925006.68008  21869482.740    89552005.89447
  22137046.280   116330975.53608  22137046.340    90647524.55147
  23724047.480   124670923.59706  23724048.860    97146287.30445
  20791108.740   109258155.78209  20791108.420    85136290.43249
  20683973.760   108695038.04509  20683977.400    84697454.69149
 15 02 20 02 27 30.0000000  0  7G04G16G18G19G21G22G27
  23535842.100   123681703.88906  23535844.940    96375382.01045
  20792372.600   109264664.69308  20792373.940    85141297.58549
  21877292.220   114966053.72808  21877293.660    89583990.61147
  22124277.200   116263873.68908  22124277.220    90595237.42448
  23737262.560   124740369.37506  23737263.960    97200400.89145
  20785851.000   109230526.29809  20785850.680    85114760.98249
  20677318.020   108660061.88509  20677321.600    84670200.54449
 15 02 20 02 28  0.0000000  0  7G04G16G18G19G21G22G27
  23519415.080   123595378.97207  23519417.920    96308115.89045
  20799921.600   109304334.67508  20799922.900    85172209.25149
  21885186.780   115007540.20408  21885188.220    89616317.73847
  22111534.180   116196908.72208  22111534.160    90543056.93848
  23750481.180   124809833.46506  23750482.440    97254528.75245
  20780691.760   109203414.18309  20780691.380    85093634.67349
  20670710.840   108625341.02709  20670714.380    84643145.34249
 15 02 20 02 28 30.0000000  0  7G04G16G18G19G21G22G27
  23503023.000   123509237.89206  23503025.880    96240993.00345
  20807574.320   109344549.78208  20807575.580    85203545.69649
  21893165.020   115049466.25908  21893166.440    89648987.40147
  22098817.740   116130083.20508  22098817.620    90490985.12148
  23763703.440   124879316.75306  23763704.500    97308671.56345
  20775631.360   109176821.58809  20775630.960    85072913.18149
  20664152.840   108590878.48309  20664156.360    84616291.41449
 15 02 20 02 29  0.0000000  0  7G04G16G18G19G21G22G27
  23486665.880   123423280.98507  23486668.940    96174013.62845
  20815330.360   109385308.09208  20815331.620    85235305.41649
  21901226.540   115091829.78008  21901228.000    89681997.93747
  22086127.960   116063397.94808  22086127.780    90439022.59248
  23776929.220   124948818.44906  23776930.220    97362828.72345
  20770669.940   109150749.02909  20770669.500    85052596.90949
  20657644.060   108556674.84009  20657647.620    84589639.23349
 15 02 20 02 29 30.0000000  0  7G04G16G18G19G21G22G27
  23470343.980   123337509.23706  23470347.220    96107178.54545
  20823189.660   109426608.99008  20823190.920    85267487.93449
  21909371.200   115134629.81608  21909372.640    89715348.61447
  22073465.220   115996854.92908  22073465.040    90387170.89748
  23790158.480   125018338.30706  23790159.300    97417000.03045
  20765807.720   109125197.82309  20765807.240    85032686.89049
  20651185.000   108522732.15309  20651188.560    84563190.39449
 15 02 20 02 30  0.0000000  0  7G04G16G18G19G21G22G27
  23454057.440   123251923.30706  23454060.820    96040488.24845
  20831152.080   109468451.68108  20831153.320    85300092.62749
  21917598.600   115177864.81608  21917600.020    89749038.23547
  22060829.680   115930454.72908  22060829.520    90335430.48948
  23803390.980   125087875.71106  23803391.760    97471185.01445
  20761044.720   109100168.32008  20761044.260    85013183.39449
  20644775.880   108489051.81109  20644779.400    84536945.97049
 15 02 20 02 30 30.0000000  0  7G04G16G18G19G21G22G27
  23437806.380   123166523.78106  23437809.860    95973943.21245
  20839217.340   109510834.93808  20839218.600    85333118.54149
  21925908.500   115221533.41508  21925909.920    89783065.71847
  22048221.520   115864198.73708  22048221.460    90283802.46048
  23816626.720   125157430.10906  23816627.560    97525383.22645
  20756381.140   109075661.33309  20756380.680    84994087.05949
  20638416.960   108455635.20609  20638420.440    84510907.07149
 15 02 20 02 31  0.0000000  0  7G04G16G18G19G21G22G27
  23421590.720   123081310.25106  23421594.240    95907543.11245
  20847385.020   109553756.44608  20847386.300    85366563.86849
  21934300.440   115265633.48108  21934301.880    89817429.41247
  22035640.820   115798086.95708  22035640.840    90232286.79948
  23829865.380   125227000.23906  23829866.400    97579593.71945
  20751817.020   109051676.81509  20751816.520    84975397.83249
  20632108.300   108422482.91309  20632111.760    84485074.11649
 15 02 20 02 31 30.0000000  0  7G04G16G18G19G21G22G27
  23405410.600   122996283.69806  23405414.120    95841288.68245
  20855655.000   109597215.41908  20855656.240    85400428.00049
  21942774.280   115310163.81808  21942775.640    89852128.38147
  22023087.900   115732120.89808  22023087.920    90180884.68648
  23843106.860   125296585.02506  23843107.940    97633815.60245
  20747352.420   109028215.32808  20747351.900    84957116.16749
  20625850.240   108389596.59409  20625853.700    84459448.41849
 15 02 20 02 32  0.0000000  0  7G04G16G18G19G21G22G27
  23389266.000   122911443.30006  23389269.320    95775179.34545
  20864026.780   109641209.33508  20864027.980    85434708.97249
  21951329.500   115355121.41208  21951330.700    89887160.28047
  22010562.660   115666300.22608  22010562.640    90129595.85948
  23856351.000   125366183.42406  23856352.040    97688048.10645
  20742987.280   109005276.40509  20742986.740    84939241.69149
  20619642.760   108356976.26909  20619646.280    84434029.99649
 15 02 20 02 32 30.0000000  0  7G04G16G18G19G21G22G27
  23373157.140   122826790.91107  23373160.200    95709216.48945
  20872500.340   109685738.30408  20872501.540    85469406.86849
  21959966.000   115400505.96308  21959967.000    89922524.87547
  21998065.560   115600627.45408  21998065.480    90078422.28048
  23869597.800   125435795.91706  23869598.860    97742291.60345
  20738722.000   108982862.17609  20738721.400    84921776.07449
  20613486.400   108324624.66509  20613489.980    84408820.95849
 15 02 20 02 33  0.0000000  0  7G04G16G18G19G21G22G27
  23357084.280   122742327.51707  23357087.160    95643400.91945
  20881075.560   109730801.40308  20881076.740    85504520.96949
  21968683.460   115446316.38808  21968684.340    89958221.31247
  21985596.980   115535104.38208  21985596.800    90027365.35148
  23882847.300   125505422.41806  23882848.360    97796546.00545
  20734556.780   108960973.46109  20734556.080    84904719.94949
  20607381.540   108292543.69609  20607385.200    84383822.81049
 15 02 20 02 33 30.0000000  0  7G04G16G18G19G21G22G27
  23341047.500   122658053.44807  23341050.200    95577732.87345
  20889752.160   109776397.20708  20889753.320    85540050.16249
  21977481.600   115492551.16008  21977482.500    89994248.41547
  21973157.040   115469731.75108  21973156.760    89976425.64948
  23896099.420   125575062.38406  23896100.560    97850810.89746
  20730491.660   108939610.66909  20730490.860    84888073.63049
  20601328.420   108260734.48509  20601332.100    84359036.42249
 15 02 20 02 34  0.0000000  0  7G04G16G18G19G21G22G27
  23325046.700   122573968.62207  23325049.360    95512212.28645
  20898529.760   109822523.70908  20898530.920    85575992.89149
  21986360.020   115539207.84008  21986360.980    90030604.28647
  21960745.860   115404510.17108  21960745.500    89925603.64748
  23909353.820   125644714.50606  23909355.080    97905085.25745
  20726526.520   108918773.42409  20726525.660    84871836.82849
  20595327.180   108229197.83509  20595330.880    84334462.42449
 15 02 20 02 34 30.0000000  0  7G04G16G18G19G21G22G27
  23309082.240   122490074.78707  23309084.960    95446840.52646
  20907408.340   109869180.94808  20907409.500    85612349.18249
  21995318.660   115586286.32508  21995319.720    90067288.82947
  21948363.720   115339441.55008  21948363.360    89874900.84148
  23922610.640   125714379.16806  23922611.840    97959369.39145
  20722661.640   108898463.42409  20722660.820    84856010.86649
  20589378.300   108197936.19409  20589381.980    84310102.71649
 15 02 20 02 35  0.0000000  0  7G04G16G18G19G21G22G27
  23293154.020   122406371.77007  23293156.860    95381617.42945
  20916387.480   109916366.72908  20916388.700    85649117.32549
  22004357.080   115633784.04008  22004358.280    90104300.03747
  21936010.820   115274526.77708  21936010.500    89824317.92648
  23935869.620   125784055.18706  23935870.820    98013662.37245
  20718897.060   108878680.61709  20718896.320    84840595.69849
  20583481.900   108166950.35309  20583485.540    84285957.91049
 15 02 20 02 35 30.0000000  0  7G04G16G18G19G21G22G27
  23277262.340   122322860.91907  23277265.340    95316544.07145
  20925467.120   109964080.72208  20925468.420    85686297.06249
  22013475.180   115681700.32008  22013476.480    90141637.40547
  21923687.600   115209768.06608  21923687.340    89773856.61148
  23949130.760   125853742.95606  23949132.060    98067964.52445
  20715233.080   108859426.54009  20715232.420    84825592.53049
  20577638.460   108136242.77109  20577642.060    84262029.94149
 15 02 20 02 36  0.0000000  0  7G04G16G18G19G21G22G27
  23261406.820   122239540.18207  23261410.000    95251618.85546
  20934646.480   110012318.58208  20934647.800    85723885.00649
  22022672.260   115730031.39108  22022673.620    90179297.98547
  21911393.780   115145163.88708  21911393.560    89723515.70548
  23962393.540   125923439.57706  23962394.920    98122273.56745
  20711669.260   108840698.79209  20711668.660    84810999.48949
  20571847.680   108105812.09809  20571851.280    84238317.73749
 15 02 20 02 36 30.0000000  0  7G04G16G18G19G21G22G27
  23245587.860   122156411.20206  23245591.160    95186843.06545
  20943925.540   110061080.57908  20943926.900    85761881.37048
  22031948.180   115778776.58808  22031949.540    90217281.26647
  21899129.780   115080716.53908  21899129.600    89673296.99748
  23975658.080   125993145.74606  23975659.500    98176590.04645
  20708205.980   108822499.06709  20708205.380    84796817.89449
  20566110.100   108075661.00109  20566113.720    84214823.39049
 15 02 20 02 37  0.0000000  0  7G04G16G18G19G21G22G27
  23229805.580   122073475.01007  23229808.900    95122217.48945
  20953304.120   110110365.42808  20953305.500    85800285.14448
  22041302.660   115827934.40708  22041303.940    90255586.06647
  21886896.040   115016428.18308  21886895.880    89623202.17548
  23988924.480   126062861.42506  23988925.940    98230913.93745
  20704843.320   108804828.25809  20704842.720    84783048.44149
  20560426.040   108045791.22209  20560429.680    84191548.25149
 15 02 20 02 37 30.0000000  0  7G04G16G18G19G21G22G27
  23214060.300   121990733.29207  23214063.640    95057743.46246
  20962782.200   110160173.01708  20962783.560    85839096.25348
  22050735.580   115877504.62908  22050736.780    90294212.21547
  21874692.860   114952300.25408  21874692.740    89573232.37148
  24002192.760   126132586.96206  24002194.260    98285245.50446
  20701581.620   108787688.03309  20701580.960    84769692.43749
  20554796.060   108016205.50109  20554799.700    84168494.44949
 15 02 20 02 38  0.0000000  0  7G04G16G18G19G21G22G27
  23198351.600   121908183.71107  23198354.860    94993419.14846
  20972358.920   110210498.90208  20972360.280    85878311.22648
  22060246.060   115927482.60108  22060247.220    90333156.09847
  21862520.080   114888331.93708  21862519.960    89523386.93548
  24015462.440   126202319.90006  24015464.020    98339582.84446
  20698420.400   108771075.92809  20698419.700    84756747.95049
  20549219.860   107986902.33809  20549223.500    84145660.82649
 15 02 20 02 38 30.0000000  0  7G04G16G18G19G21G22G27
  23182679.820   121825827.89807  23182682.960    94929245.83545
  20982034.020   110261341.88008  20982035.360    85917929.13148
  22069834.060   115977868.22608  22069835.300    90372417.62747
  21850378.080   114824525.14708  21850377.880    89473667.37348
  24028733.600   126272060.02306  24028735.160    98393925.77445
  20695359.960   108754993.39109  20695359.240    84744216.11549
  20543697.900   107957884.32609  20543701.560    84123049.39049
 15 02 20 02 39  0.0000000  0  7G04G16G18G19G21G22G27
  23167044.920   121743665.73707  23167047.840    94865223.41445
  20991807.460   110312701.52008  20991808.760    85957949.62948
  22079499.200   116028659.03708  22079500.500    90411994.89347
  21838266.940   114760880.59508  21838266.680    89424074.22448
  24042005.920   126341806.27706  24042007.320    98448273.48544
  20692400.200   108739440.00209  20692399.520    84732096.60849
  20538230.360   107929152.33809  20538234.040    84100660.83049
 15 02 20 02 39 30.0000000  0  7G04G16G18G19G21G22G27
  23151447.380   121661700.06407  23151450.180    94801354.10345
  21001679.160   110364577.66708  21001680.420    85998372.60548
  22089241.520   116079855.42408  22089242.900    90451888.19047
  21826187.320   114697401.64808  21826187.060    89374610.11348
  24055279.820   126411560.57506  24055281.080    98502627.45845
  20689541.620   108724418.29909  20689541.000    84720391.39349
  20532817.940   107900709.92909  20532821.640    84078497.93049
 15 02 20 02 40  0.0000000  0  7G04G16G18G19G21G22G27
  23135886.860   121579928.80007  23135889.540    94737636.28345
  21011648.420   110416966.41608  21011649.640    86039195.00348
  22099060.340   116131453.41608  22099061.720    90492094.42247
  21814139.020   114634087.35408  21814138.800    89325274.31448
  24068554.640   126481319.99605  24068555.860    98556985.43545
  20686783.780   108709925.98609  20686783.220    84709098.69049
  20527460.460   107872556.11109  20527464.120    84056559.89249
 15 02 20 02 40 30.0000000  0  7G04G16G18G19G21G22G27
  23120363.680   121498354.14707  23120366.420    94674071.65045
  21021715.240   110469867.83008  21021716.400    86080416.88048
  22108955.600   116183452.97208  22108956.940    90532613.55847
  21802122.540   114570940.30408  21802122.320    89276068.83548
  24081830.640   126551085.91006  24081831.900    98611348.46445
  20684127.100   108695965.00209  20684126.580    84698220.00949
  20522158.440   107844693.86609  20522162.080    84034849.05649
 15 02 20 02 41  0.0000000  0  7G04G16G18G19G21G22G27
  23104877.980   121416976.87207  23104880.880    94610660.81846
  21031879.320   110523280.41308  21031880.460    86122037.07248
  22118926.980   116235852.76008  22118928.280    90573444.57047
  21790138.300   114507962.59608  21790138.040    89226995.31548
  24095107.920   126620858.56406  24095109.300    98665716.74945
  20681571.740   108682536.24709  20681571.240    84687756.05449
  20516912.260   107817125.16409  20516915.920    84013366.96149
 15 02 20 02 41 30.0000000  0  7G04G16G18G19G21G22G27
  23089429.680   121335796.27707  23089432.780    94547403.24846
  21042140.220   110577201.91408  21042141.380    86164053.83148
  22128973.920   116288649.92508  22128975.220    90614585.22047
  21778186.180   114445153.84408  21778185.920    89178053.44948
  24108386.100   126690635.76806  24108387.560    98720088.60745
  20679117.400   108669638.42709  20679116.900    84677705.82049
  20511721.960   107789850.10609  20511725.620    83992113.67749
 15 02 20 02 42  0.0000000  0  7G04G16G18G19G21G22G27
  23074018.980   121254813.29607  23074022.240    94484299.63446
  21052497.780   110631631.24409  21052498.980    86206466.29548
  22139096.160   116341842.98608  22139097.480    90656034.35947
  21766266.500   114382515.61108  21766266.260    89129244.43848
  24121665.200   126760417.76506  24121666.740    98774464.17945
  20676764.240   108657272.50409  20676763.760    84668070.04749
  20506587.920   107762870.52809  20506591.560    83971090.63949
 15 02 20 02 42 30.0000000  0  7G04G16G18G19G21G22G27
  23058645.660   121174026.14307  23058648.940    94421348.63946
  21062951.200   110686564.10009  21062952.420    86249271.12048
  22149292.980   116395427.95008  22149294.320    90697788.87647
  21754379.160   114320047.39908  21754378.980    89080567.92948
  24134944.760   126830202.09506  24134946.320    98828841.58145
  20674511.900   108645436.35609  20674511.360    84658847.08749
  20501509.980   107736185.66509  20501513.580    83950297.25049
 15 02 20 02 43  0.0000000  0  7G04G16G18G19G21G22G27
  23043310.040   121093436.81307  23043313.220    94358551.78846
  21073500.360   110742000.31808  21073501.600    86292468.17148
  22159564.440   116449404.83908  22159565.740    90739848.80647
  21742524.680   114257751.90908  21742524.580    89032026.00248
  24148224.900   126899989.59206  24148226.580    98883221.43845
  20672360.720   108634131.77609  20672360.100    84650038.33049
  20496488.700   107709798.55009  20496492.240    83929735.86649
 15 02 20 02 43 30.0000000  0  7G04G16G18G19G21G22G27
  23028012.180   121013045.81407  23028015.240    94295909.49045
  21084144.960   110797938.16608  21084146.260    86336056.10648
  22169910.220   116503772.09608  22169911.460    90782212.90247
  21730703.360   114195630.67408  21730703.280    88983619.85748
  24161505.620   126969780.08406  24161507.480    98937603.67445
  20670310.620   108623358.56209  20670309.940    84641643.62849
  20491524.360   107683710.64709  20491527.840    83909407.63349
 15 02 20 02 44  0.0000000  0  7G04G16G18G19G21G22G27
  23012752.280   120932854.47707  23012755.240    94233422.77345
  21094884.820   110854376.71308  21094886.160    86380034.19348
  22180330.000   116558528.51208  22180331.240    90824880.25447
  21718915.580   114133685.45608  21718915.480    88935350.86448
  24174787.000   127039574.01706  24174788.900    98991988.54345
  20668361.820   108613117.79309  20668361.140    84633663.82049
  20486617.360   107657924.14609  20486620.800    83889314.26049
 15 02 20 02 44 30.0000000  0  7G04G16G18G19G21G22G27
  22997530.500   120852863.27107  22997533.360    94171092.00745
  21105719.780   110911314.89908  21105721.140    86424401.61348
  22190823.540   116613672.47108  22190824.780    90867849.58147
  21707161.520   114071917.58008  21707161.380    88887220.06448
  24188068.840   127109370.77805  24188070.700    99046375.62844
  20666514.380   108603409.81409  20666513.740    84626099.17449
  20481767.960   107632440.46809  20481771.440    83869456.86049
 15 02 20 02 45  0.0000000  0  8G04G16G18G19G21G22G27G32
  22982347.100   120773074.05207  22982349.940    94108918.62945
  21116649.720   110968752.28908  21116651.080    86469158.01948
  22201390.760   116669203.70008  22201392.000    90911120.67047
  21695441.800   114010330.05408  21695441.640    88839229.80648
  24201351.420   127179171.88505  24201353.400    99100766.11745
  20664768.640   108594236.00709  20664768.020    84618950.76149
  20476976.760   107607262.54809  20476980.280    83849837.71149
  24496640.960   128730716.81905  24496645.420   100309662.83545
 15 02 20 02 45 30.0000000  0  8G04G16G18G19G21G22G27G32
  22967201.360   120693483.19007  22967204.200    94046899.79646
  21127673.400   111026682.10308  21127674.720    86514298.13248
  22212030.500   116725116.18908  22212031.700    90954688.84447
  21683755.800   113948919.81008  21683755.680    88791377.68848
  24214633.820   127248972.18605  24214635.920    99155155.96445
  20663123.740   108585592.06209  20663123.140    84612215.22549
  20472243.180   107582387.59309  20472246.720    83830454.64049
  24473944.580   128611447.18406  24473949.260   100216725.85444
 15 02 20 02 46  0.0000000  0  8G04G16G18G19G21G22G27G32
  22952093.740   120614092.70707  22952096.660    93985037.11945
  21138791.120   111085105.84009  21138792.380    86559823.12448
  22222742.780   116781409.64508  22222743.860    90998553.88347
  21672104.100   113887689.90508  21672104.060    88743666.09048
  24227916.420   127318773.50005  24227918.500    99209546.60244
  20661580.120   108577480.11609  20661579.480    84605894.24349
  20467567.860   107557818.77009  20467571.420    83811310.10249
  24451256.340   128492221.03905  24451261.180   100123822.77445
 15 02 20 02 46 30.0000000  0  8G04G16G18G19G21G22G27G32
  22937024.140   120534902.20207  22937027.160    93923330.25045
  21150002.180   111144020.02709  21150003.380    86605730.28048
  22233527.120   116838081.61108  22233528.140    91042713.86046
  21660486.800   113826640.91508  21660486.820    88696095.46548
  24241199.040   127388574.52005  24241201.180    99263937.01645
  20660137.520   108569899.07909  20660136.880    84599986.95149
  20462950.960   107533556.70009  20462954.500    83792404.59349
  24428576.760   128373040.11106  24428581.860   100030954.84646
 15 02 20 02 47  0.0000000  0  8G04G16G18G19G21G22G27G32
  22921992.860   120455912.65607  22921995.980    93861779.99146
  21161306.280   111203423.27408  21161307.440    86652018.52448
  22244383.280   116895131.07808  22244384.340    91087168.00247
  21648904.300   113765774.76608  21648904.320    88648667.32448
  24254481.720   127458375.42205  24254483.820    99318327.32945
  20658796.060   108562849.58809  20658795.400    84594493.84749
  20458392.800   107509603.33909  20458396.320    83773739.63649
  24405906.400   128253907.56906  24405911.540    99938124.59945
 15 02 20 02 47 30.0000000  0  8G04G16G18G19G21G22G27G32
  22906999.940   120377124.16907  22907003.080    93800386.37546
  21172702.900   111263313.12908  21172704.100    86698685.94048
  22255310.800   116952555.40708  22255311.920    91131914.23947
  21637356.780   113705092.30208  21637356.760    88601382.30148
  24267764.320   127528175.31005  24267766.100    99372716.85645
  20657555.600   108556331.05509  20657554.980    84589414.47749
  20453893.500   107485959.55809  20453897.060    83755315.91349
  24383245.780   128134825.74606  24383250.900    99845333.88745
 15 02 20 02 48  0.0000000  0  8G04G16G18G19G21G22G27G32
  22892045.400   120298537.21007  22892048.480    93739149.81946
  21184191.740   111323687.74008  21184192.980    86745731.09348
  22266309.340   117010352.91208  22266310.520    91176951.26047
  21625844.500   113644594.90208  21625844.460    88554241.47648
  24281046.700   127597974.23905  24281048.460    99427105.64644
  20656416.180   108550343.69109  20656415.640    84584749.00749
  20449453.420   107462626.99009  20449457.000    83737134.69549
  24360595.400   128015797.46306  24360600.360    99752584.92845
 15 02 20 02 48 30.0000000  0  8G04G16G18G19G21G22G27G32
  22877129.620   120220153.81807  22877132.620    93678071.88445
  21195772.980   111384548.02908  21195774.260    86793154.69648
  22277378.880   117068523.55308  22277380.080    91222279.04047
  21614368.000   113584285.56308  21614367.940    88507247.19548
  24294329.020   127667773.16705  24294330.580    99481494.40345
  20655378.160   108544888.97709  20655377.640    84580498.58749
  20445073.120   107439608.58709  20445076.740    83719198.28549
  24337955.980   127896826.75306  24337960.760    99659880.82945
 15 02 20 02 49  0.0000000  0  8G04G16G18G19G21G22G27G32
  22862252.560   120141973.90207  22862255.420    93617152.51146
  21207446.080   111445890.63408  21207447.340    86840954.13248
  22288518.960   117127064.92708  22288520.180    91267895.70347
  21602927.480   113524165.20908  21602927.400    88460400.18248
  24307611.240   127737571.44705  24307612.620    99535882.65145
  20654441.380   108539966.31809  20654440.880    84576662.75649
  20440752.860   107416905.46509  20440756.480    83701507.54949
  24315327.940   127777916.01806  24315332.560    99567223.38744
 15 02 20 02 49 30.0000000  0  8G04G16G18G19G21G22G27G32
  22847414.080   120063996.80307  22847416.840    93556391.16946
  21219210.440   111507712.82108  21219211.720    86889127.26248
  22299729.040   117185974.09808  22299730.220    91313798.96247
  21591523.000   113464234.22008  21591522.900    88413700.73248
  24320893.120   127807367.82205  24320894.520    99590269.42044
  20653605.660   108535574.60809  20653605.140    84573240.65149
  20436492.640   107394517.79409  20436496.200    83684062.61349
  24292711.600   127659066.71106  24292716.060    99474613.82745
 15 02 20 02 50  0.0000000  0  8G04G16G18G19G21G22G27G32
  22832614.320   119986223.56007  22832617.020    93495788.67246
  21231065.700   111570012.64308  21231067.020    86937672.57648
  22311008.820   117245249.69208  22311009.940    91359987.74847
  21580154.900   113404494.38008  21580154.780    88367150.22648
  24334174.520   127877162.30206  24334175.980    99644654.70045
  20652871.020   108531714.12809  20652870.460    84570232.49549
  20432292.820   107372447.57809  20432296.360    83666865.05049
  24270107.560   127540282.17906  24270111.860    99382054.70744
 15 02 20 02 50 30.0000000  0  8G04G16G18G19G21G22G27G32
  22817853.480   119908655.01707  22817856.140    93435345.66246
  21243011.840   111632790.09308  21243013.200    86986590.07248
  22322358.100   117304890.69708  22322359.200    91406461.26947
  21568823.520   113344947.59808  21568823.420    88320750.15248
  24347455.700   127946955.38705  24347457.180    99699038.95345
  20652237.600   108528385.44909  20652237.000    84567638.72449
  20428153.780   107350696.85209  20428157.340    83649916.44549
  24247516.460   127421565.73006  24247520.460    99289548.65644
 15 02 20 02 51  0.0000000  0  8G04G16G18G19G21G22G27G32
  22803131.440   119831290.87907  22803134.180    93375061.95345
  21255048.260   111696041.99108  21255049.700    87035877.27348
  22333776.440   117364894.31908  22333777.460    91453217.35047
  21557529.020   113285594.52608  21557528.920    88274501.01448
  24360736.380   128016745.79705  24360737.900    99753421.04045
  20651705.140   108525587.36609  20651704.540    84565458.40549
  20424075.680   107329266.23709  20424079.240    83633217.27549
  24224938.600   127302919.17906  24224942.400    99197097.06844
 15 02 20 02 51 30.0000000  0  8G04G16G18G19G21G22G27G32
  22788448.440   119754131.61107  22788451.200    93314937.86646
  21267174.620   111759766.38208  21267176.060    87085532.63748
  22345263.460   117425258.99508  22345264.480    91500254.76947
  21546271.720   113226436.80008  21546271.560    88228404.09448
  24374016.580   128086533.43805  24374018.020    99807801.02244
  20651273.700   108523320.06309  20651273.080    84563691.68649
  20420058.780   107308157.36709  20420062.360    83616768.80649
  24202374.540   127184345.43106  24202378.280    99104702.17545
 15 02 20 02 52  0.0000000  0  8G04G16G18G19G21G22G27G32
  22773804.520   119677177.56007  22773807.280    93254973.68945
  21279390.340   111823960.17708  21279391.760    87135553.77648
  22356818.740   117485982.54308  22356819.820    91547571.83446
  21535051.740   113167475.47808  21535051.600    88182460.22248
  24387296.200   128156317.80505  24387297.520    99862178.45544
  20650943.160   108521582.90609  20650942.500    84562338.06949
  20416103.320   107287371.35509  20416106.920    83600571.91649
  24179824.740   127065846.83506  24179828.420    99012365.85945
 15 02 20 02 52 30.0000000  0  8G04G16G18G19G21G22G27G32
  22759199.600   119600428.12207  22759202.260    93195168.95446
  21291695.020   111888621.45008  21291696.380    87185939.18348
  22368441.800   117547062.11208  22368442.860    91595166.31546
  21523869.240   113108711.34308  21523869.140    88136670.00148
  24400575.160   128226098.02605  24400576.200    99916552.62844
  20650713.340   108520375.27709  20650712.720    84561397.07049
  20412209.440   107266908.82709  20412213.060    83584627.08749
  24157289.300   126947425.45206  24157293.300    98920089.67545
 15 02 20 02 53  0.0000000  0  8G04G16G18G19G21G22G27G32
  22744633.880   119523884.77807  22744636.520    93135524.80346
  21304088.600   111953749.93108  21304089.920    87236688.64948
  22380132.560   117608497.35208  22380133.540    91643037.94147
  21512724.680   113050146.65608  21512724.640    88091035.19448
  24413853.340   128295874.90505  24413854.040    99970924.21844
  20650584.420   108519697.57809  20650583.800    84560869.00349
  20408377.580   107246772.23609  20408381.200    83568936.24149
  24134769.600   126829084.82006  24134773.600    98827876.40245
 15 02 20 02 53 30.0000000  0  8G04G16G18G19G21G22G27G32
  22730107.480   119447548.02307  22730110.120    93076041.63746
  21316570.540   112019342.95308  21316571.860    87287800.09548
  22391890.500   117670285.70008  22391891.480    91691184.70747
  21501618.360   112991782.70508  21501618.300    88045556.80548
  24427130.740   128365647.91805  24427131.300   100025292.80444
  20650556.320   108519549.69809  20650555.680    84560753.77849
  20404608.000   107226963.00409  20404611.620    83553500.47849
  24112265.900   126710827.72206  24112269.840    98735728.22345
 15 02 20 02 54  0.0000000  0  8G04G16G18G19G21G22G27G32
  22715620.280   119371417.14407  22715622.900    93016718.90646
  21329140.220   112085396.99108  21329141.500    87339270.77648
  22403715.140   117732424.61008  22403716.140    91739604.65246
  21490550.400   112933620.19908  21490550.320    88000235.37848
  24440407.200   128435416.05205  24440407.560   100079657.58244
  20650628.760   108519930.26009  20650628.100    84561050.32849
  20400900.780   107207481.49709  20400904.420    83538320.08349
  24089778.260   126592655.85806  24089782.200    98643646.41745
 15 02 20 02 54 30.0000000  0  8G04G16G18G19G21G22G27G32
  22701172.500   119295493.63707  22701175.160    92957557.75646
  21341797.480   112151911.39908  21341798.760    87391100.18748
  22415606.300   117794913.18808  22415607.320    91788297.06046
  21479521.240   112875661.38508  21479521.080    87955072.67848
  24453682.780   128505179.87005  24453682.900   100134018.97543
  20650801.880   108520839.86509  20650801.200    84561759.11749
  20397256.440   107188330.23209  20397260.060    83523397.02549
  24067307.760   126474573.12206  24067311.440    98551634.09444
 15 02 20 02 55  0.0000000  0  8G04G16G18G19G21G22G27G32
  22686764.020   119219776.63207  22686766.720    92898557.50946
  21354541.740   112218883.22108  21354543.060    87443286.02448
  22427563.400   117857748.26708  22427564.420    91837259.47446
  21468530.880   112817906.65108  21468530.680    87910068.99948
  24466957.360   128574937.88005  24466957.300   100188375.86444
  20651075.440   108522277.28509  20651074.720    84562879.19549
  20393674.940   107169509.34609  20393678.560    83508731.40649
  24044854.340   126356580.74106  24044857.860    98459692.12944
 15 02 20 02 55 30.0000000  0  8G04G16G18G19G21G22G27G32
  22672395.060   119144267.41907  22672397.800    92839719.18146
  21367372.800   112286311.16208  21367374.120    87495827.27748
  22439586.220   117920928.92308  22439587.280    91886491.16446
  21457579.860   112760358.48708  21457579.580    87865226.28648
  24480230.980   128644690.79605  24480230.940   100242728.78644
  20651449.540   108524243.11809  20651448.800    84564411.02149
  20390156.760   107151021.18009  20390160.380    83494325.04549
  24022418.980   126238682.47806  24022422.240    98367823.49244
 15 02 20 02 56  0.0000000  0  8G04G16G18G19G21G22G27G32
  22658065.740   119068966.65707  22658068.560    92781043.27146
  21380290.300   112354193.26908  21380291.640    87548722.42348
  22451674.520   117984453.81508  22451675.640    91935991.08847
  21446668.440   112703018.53808  21446668.160    87820545.82548
  24493503.680   128714438.86106  24493503.540   100297077.90145
  20651924.100   108526737.15709  20651923.380    84566354.43549
  20386702.220   107132867.50509  20386705.840    83480179.32849
  24000002.020   126120881.49406  24000005.240    98276030.67045
 15 02 20 02 56 30.0000000  0  8G04G16G18G19G21G22G27G32
  22643775.940   118993873.72207  22643778.860    92722529.31446
  21393293.600   112422526.16708  21393294.960    87601968.84348
  22463827.740   118048319.62208  22463828.900    91985756.66046
  21435796.660   112645887.11608  21435796.460    87776027.84948
  24506775.180   128784180.85605  24506775.040   100351422.28844
  20652498.860   108529757.76809  20652498.140    84568708.17349
  20383311.380   107115048.62609  20383315.020    83466294.48949
  23977603.780   126003179.24106  23977607.060    98184314.76444
 15 02 20 02 57  0.0000000  0  8G04G16G18G19G21G22G27G32
  22629525.740   118918988.64107  22629528.680    92664177.33046
  21406382.420   112491308.28808  21406383.780    87655565.30348
  22476045.440   118112524.23708  22476046.660    92035786.24546
  21424964.860   112588965.59408  21424964.660    87731673.42448
  24520045.460   128853916.41506  24520045.480   100405761.67644
  20653173.680   108533304.36209  20653173.020    84571471.75949
  20379984.480   107097565.77709  20379988.140    83452671.49649
  23955224.900   125885578.39206  23955228.140    98092677.86845
 15 02 20 02 57 30.0000000  0  8G04G16G18G19G21G22G27G32
  22615315.120   118844311.22407  22615317.960    92605987.15146
  21419556.100   112560536.31708  21419557.460    87709509.22648
  22488327.120   118177065.04008  22488328.360    92086077.78847
  21414173.140   112532254.57308  21414172.860    87687483.02648
  24533314.340   128923644.41405  24533314.420   100460095.16344
  20653948.440   108537376.20009  20653947.860    84574644.62649
  20376721.680   107080419.65809  20376725.320    83439310.89049
  23932865.800   125768081.00906  23932868.940    98001121.55844
 15 02 20 02 58  0.0000000  0  8G04G16G18G19G21G22G27G32
  22601144.540   118769844.24708  22601147.280    92547960.95046
  21432814.680   112630210.33408  21432816.000    87763800.67048
  22500672.900   118241942.71508  22500674.180    92136631.81846
  21403422.220   112475757.98408  21403421.920    87643459.71648
  24546582.040   128993367.08105  24546582.440   100514424.51744
  20654823.500   108541975.05509  20654823.000    84578228.15449
  20373523.680   107063613.96309  20373527.280    83426215.55349
  23910527.360   125650691.96906  23910530.460    97909649.70845
 15 02 20 02 58 30.0000000  0  8G04G16G18G19G21G22G27G32
  22587013.700   118695586.28707  22587016.380    92490097.64746
  21446157.460   112700327.01108  21446158.780    87818437.03748
  22513082.060   118307153.45408  22513083.380    92187445.38547
  21392712.020   112419475.49208  21392711.760    87599603.24348
  24559848.380   129063082.78605  24559849.060   100568748.40044
  20655798.460   108547098.57309  20655797.980    84582220.50949
  20370390.420   107047148.41809  20370393.960    83413385.27149
  23888209.880   125533412.42606  23888212.880    97818263.14744
 15 02 20 02 59  0.0000000  0  8G04G16G18G19G21G22G27G32
  22572922.760   118621537.95807  22572925.400    92432397.67546
  21459584.040   112770883.97608  21459585.320    87873416.49348
  22525554.280   118372695.33808  22525555.600    92238516.97746
  21382042.940   112363409.11408  21382042.720    87555915.17748
  24573113.260   129132791.22005  24573114.380   100623066.66844
  20656873.320   108552746.76409  20656872.780    84586621.70749
  20367322.140   107031024.64509  20367325.700    83400821.29449
  23865913.780   125416245.32806  23865916.680    97726964.18745
 15 02 20 02 59 30.0000000  0  8G04G16G18G19G21G22G27G32
  22558871.820   118547700.01407  22558874.460    92374861.64546
  21473094.020   112841879.39708  21473095.260    87928737.60448
  22538089.200   118438566.86408  22538090.580    92289845.43946
  21371415.260   112307560.37108  21371415.060    87512396.68848
  24586376.840   129202493.07305  24586378.100   100677379.74744
  20658047.940   108558919.11509  20658047.300    84591431.34249
  20364319.240   107015244.37009  20364322.800    83388524.98249
  23843639.680   125299193.72706  23843642.380    97635755.22845
 15 02 20 03 00  0.0000000  0  8G04G16G18G19G21G22G27G32
  22544860.780   118474071.53607  22544863.400    92317488.83246
  21486686.920   112913310.47208  21486688.120    87984398.18248
  22550686.360   118504765.39708  22550687.760    92341428.70946
  21360829.060   112251929.79808  21360828.840    87469048.20448
  24599638.940   129272186.55105  24599640.100   100731686.37243
  20659321.980   108565614.10209  20659321.280    84596648.22549
  20361381.780   106999807.97409  20361385.360    83376496.62149
  23821387.880   125182259.42406  23821390.440    97544637.67545
 15 02 20 03 00 30.0000000  0  8G04G16G18G19G21G22G27G32
  22530889.920   118400654.19508  22530892.560    92260280.52946
  21500362.420   112985175.59408  21500363.580    88040396.97648
  22563345.540   118571289.77908  22563346.960    92393265.89046
  21350284.900   112196520.17108  21350284.680    87425871.88848
  24612899.580   129341873.04805  24612900.980   100785987.49443
  20660695.620   108572832.62309  20660694.900    84602273.05549
  20358510.260   106984717.91309  20358513.820    83364738.13749
  23799159.100   125065446.21806  23799161.520    97453614.45945
 15 02 20 03 01  0.0000000  0  8G04G16G18G19G21G22G27G32
  22516959.240   118327448.10408  22516961.920    92203236.82746
  21514120.060   113057472.38508  21514121.180    88096732.13848
  22576066.280   118638137.73508  22576067.740    92445355.20646
  21339783.080   112141332.88908  21339782.900    87382868.82948
  24626158.660   129411551.72304  24626160.560   100840282.56344
  20662168.740   108580573.96809  20662168.040    84608305.27649
  20355704.880   106969975.46009  20355708.440    83353250.51549
  23776953.880   124948756.57406  23776956.160    97362687.55544
 15 02 20 03 01 30.0000000  0  8G04G16G18G19G21G22G27G32
  22503068.400   118254451.26308  22503071.120    92146356.19246
  21527958.960   113130196.29608  21527960.040    88153400.12448
  22588847.860   118705305.30208  22588849.320    92497693.57246
  21329323.360   112086366.72908  21329323.200    87340038.05948
  24639416.100   129481220.50105  24639418.120   100894569.93643
  20663740.780   108588835.05509  20663740.080    84614742.49749
  20352965.440   106955579.49309  20352968.980    83342032.88549
  23754772.140   124832191.00606  23754774.440    97271857.31545
 15 02 20 03 02  0.0000000  0  8G04G16G18G19G21G22G27G32
  22489218.020   118181666.68508  22489220.680    92089640.97246
  21541879.260   113203348.23908  21541880.400    88210401.64148
  22601690.300   118772792.95808  22601691.780    92550281.36446
  21318906.540   112031625.94208  21318906.340    87297382.91748
  24652672.280   129550881.91305  24652674.320   100948851.53642
  20665412.120   108597618.03009  20665411.420    84621586.37749
  20350292.720   106941534.17809  20350296.260    83331088.48649
  23732615.080   124715754.83006  23732617.300    97181127.88945
 15 02 20 03 02 30.0000000  0  7G04G16G18G19G22G27G32
  22475407.920   118109093.88908  22475410.540    92033090.77846
  21555880.360   113276924.77408  21555881.600    88267734.01048
  22614593.220   118840598.16008  22614594.640    92603116.58746
  21308532.720   111977111.25508  21308532.460    87254903.94648
  20667182.440   108606921.09009  20667181.720    84628835.52349
  20347686.800   106927839.90009  20347690.320    83320417.61549
  23710482.940   124599449.87806  23710485.180    97090500.72545
 15 02 20 03 03  0.0000000  0  8G04G16G18G19G21G22G27G32
  22461637.720   118036730.64208  22461640.260    91976703.85746
  21569961.360   113350920.97508  21569962.640    88325393.39648
  22627555.740   118908716.39508  22627557.020    92656195.73346
  21298201.840   111922822.17708  21298201.560    87212600.77948
  24679180.100   129689966.49505  24679182.200   101057120.72045
  20669051.180   108616741.48509  20669050.460    84636487.78149
  20345147.520   106914495.82809  20345151.020    83310019.63349
  23688375.760   124483276.74606  23688378.160    96999976.26845
 15 02 20 03 03 30.0000000  0  9G04G14G16G18G19G21G22G27G32
  22447908.900   117964585.16908  22447911.420    91920486.62646
  24680408.760   129696429.39504  24680412.400   101062144.60044
  21584123.320   113425342.51708  21584124.620    88383384.20548
  22640578.840   118977153.40708  22640580.100    92709523.27746
  21287915.560   111868767.54508  21287915.320    87170480.29648
  24692431.740   129759605.18505  24692433.840   101111384.63644
  20671019.620   108627085.95409  20671018.920    84644548.41449
  20342676.580   106901510.95309  20342680.060    83299901.54949
  23666295.560   124367245.70806  23666298.200    96909562.52745
 15 02 20 03 04  0.0000000  0  9G04G14G16G18G19G21G22G27G32
  22434219.720   117892648.32108  22434222.200    91864431.97646
  24665769.440   129619497.52905  24665772.100   101002197.69544
  21598364.020   113500177.54308  21598365.240    88441697.21548
  22653660.460   119045897.78508  22653661.680    92763090.32046
  21277672.400   111814939.51208  21277672.200    87128536.39148
  24705681.160   129829230.89705  24705682.540   101165638.43144
  20673086.040   108637945.16609  20673085.340    84653010.14349
  20340272.420   106888877.14109  20340275.920    83290057.01449
  23644241.140   124251350.04606  23644243.980    96819254.26245
 15 02 20 03 04 30.0000000  0  9G04G14G16G18G19G21G22G27G32
  22420570.860   117820923.72408  22420573.380    91808542.71746
  24651133.160   129542582.03905  24651135.860   100942263.56845
  21612683.660   113575427.33108  21612684.760    88500333.41148
  22666800.780   119114950.56708  22666801.980    92816897.68546
  21267473.300   111761342.95608  21267473.100    87086772.85848
  24718928.840   129898846.83005  24718929.840   101219884.60643
  20675250.840   108649321.20409  20675250.100    84661874.60049
  20337935.940   106876599.05609  20337939.480    83280489.67949
  23622213.560   124135595.77006  23622216.640    96729056.18045
 15 02 20 03 05  0.0000000  0  9G04G14G16G18G19G21G22G27G32
  22406962.700   117749412.84408  22406965.200    91752819.97546
  24636500.580   129465686.78905  24636503.000   100882345.20444
  21627081.940   113651090.59608  21627082.960    88559291.79748
  22679999.700   119184311.04408  22680000.860    92870944.81446
  21257318.820   111707980.62508  21257318.540    87045191.82648
  24732174.760   129968453.93905  24732175.520   101274123.85544
  20677514.000   108661214.18009  20677513.220    84671141.86049
  20335667.620   106864679.15909  20335671.180    83271201.45349
  23600213.600   124019986.72106  23600216.980    96638971.25846
 15 02 20 03 05 30.0000000  0  9G04G14G16G18G19G21G22G27G32
  22393395.180   117678115.32708  22393397.680    91697263.50546
  24621872.200   129388814.54905  24621874.600   100822444.74844
  21641558.280   113727164.34908  21641559.260    88618570.04548
  22693256.700   119253976.87308  22693257.860    92925229.88046
  21247209.040   111654853.29608  21247208.720    87003793.92048
  24745418.860   130038051.68105  24745419.160   101328355.85644
  20679875.380   108673623.29409  20679874.580    84680811.31049
  20333467.620   106853118.20709  20333471.200    83262192.92949
  23578241.880   123904525.18606  23578245.400    96549001.27446
 15 02 20 03 06  0.0000000  0  9G04G14G16G18G19G21G22G27G32
  22379868.500   117607032.38308  22379871.060    91641874.23546
  24607248.740   129311968.80905  24607251.500   100762564.97644
  21656112.360   113803646.68008  21656113.360    88678166.66648
  22706571.580   119323946.75108  22706572.660    92979751.87546
  21237144.360   111601963.34008  21237144.120    86962580.98648
  24758661.260   130107640.79805  24758661.440   101382581.12943
  20682334.960   108686548.30409  20682334.100    84690882.75249
  20331336.340   106841918.27309  20331339.920    83253465.71349
  23556299.040   123789214.62306  23556302.480    96459148.93245
 15 02 20 03 06 30.0000000  0  9G04G14G16G18G19G21G22G27G32
  22366382.380   117536162.34408  22366385.020    91586650.84646
  24592630.620   129235150.63204  24592633.440   100702706.68544
  21670743.560   113880534.33108  21670744.600    88738079.12748
  22719943.540   119394216.69908  22719944.580    93034507.68546
  21227124.880   111549310.83308  21227124.680    86921553.07448
  24771901.480   130177219.43805  24771901.980   101436798.22043
  20684892.220   108699986.62209  20684891.300    84701354.17749
  20329273.760   106831079.15509  20329277.300    83245019.65149
  23534385.200   123674056.18606  23534388.480    96369415.14445
 15 02 20 03 07  0.0000000  0  9G04G14G16G18G19G21G22G27G32
  22352936.720   117465504.94208  22352939.420    91531593.14147
  24578017.700   129158354.11405  24578020.140   100642883.46054
  21685451.160   113957823.47708  21685452.240    88798304.44048
  22733372.120   119464784.25308  22733373.100    93089495.38746
  21217150.660   111496896.05308  21217150.420    86880710.38948
  24785139.420   130246786.55604  24785140.240   101491006.33044
  20687546.880   108713936.86509  20687545.960    84712224.50749
  20327279.880   106820601.06709  20327283.380    83236854.90649
  23512500.640   123559051.46106  23512503.740    96279801.13645
 15 02 20 03 07 30.0000000  0  9G04G14G16G18G19G21G22G27G32
  22339531.940   117395062.59207  22339534.740    91476703.02047
  24563412.560   129081600.56905  24563414.640   100583075.50945
  21700235.080   114035513.77908  21700236.200    88858842.34048
  22746857.260   119535649.44908  22746858.240    93144715.03346
  21207222.460   111444723.11208  21207222.240    86840056.16149
  24798375.580   130316344.34504  24798376.740   101545207.21843
  20690299.220   108728400.58109  20690298.320    84723494.94749
  20325355.400   106810487.71709  20325358.880    83228974.38649
  23490646.300   123444205.63806  23490649.140    96190310.92345
 15 02 20 03 08  0.0000000  0  9G04G14G16G18G19G21G22G27G32
  22326168.160   117324835.94307  22326171.060    91421980.96847
  24548814.320   129004885.28605  24548816.100   100523297.39343
  21715094.980   114113603.34908  21715096.160    88919691.35548
  22760398.700   119606810.63308  22760399.720    93200165.30246
  21197340.620   111392793.62708  21197340.420    86799591.65048
  24811610.160   130385893.00505  24811611.420   101599400.92645
  20693149.080   108743376.91909  20693148.240    84735164.82949
  20323500.620   106800740.62409  20323504.080    83221379.25249
  23468822.740   123329521.64106  23468825.340    96100946.80745
 15 02 20 03 08 30.0000000  0  9G04G14G16G18G19G21G22G27G32
  22312844.580   117254820.18307  22312847.440    91367423.24246
  24534223.200   128928206.43605  24534224.480   100463547.56444
  21730029.520   114192085.04608  21730030.740    88980845.92548
  22773995.180   119678260.51508  22773996.180    93255840.54746
  21187504.500   111341104.47008  21187504.300    86759314.40149
  24824842.140   130455427.60304  24824843.660   101653583.74044
  20696095.360   108758860.18309  20696094.600    84747229.71849
  20321714.820   106791356.21109  20321718.300    83214066.72849
  23447029.580   123214997.37606  23447032.060    96011707.14245
 15 02 20 03 09  0.0000000  0  9G04G14G16G18G19G21G22G27G32
  22299562.300   117185021.22808  22299565.040    91313034.44246
  24519640.320   128851571.91504  24519641.300   100403832.47844
  21745039.240   114270961.80508  21745040.540    89042308.34048
  22787647.400   119750002.98408  22787648.380    93311743.77446
  21177715.440   111289662.56508  21177715.200    86719229.80649
  24838072.540   130524953.35105  24838074.140   101707759.60543
  20699139.020   108774855.09409  20699138.320    84759693.29149
  20319999.300   106782341.19009  20320002.780    83207042.03849
  23425268.280   123100640.87006  23425270.720    95922598.22045
 15 02 20 03 09 30.0000000  0  9G04G14G16G18G19G21G22G27G32
  22286320.840   117115436.79408  22286323.420    91258812.83646
  24505066.020   128774982.38505  24505066.580   100344152.27344
  21760123.160   114350228.44408  21760124.480    89104074.55148
  22801354.460   119822033.38008  22801355.320    93367871.36546
  21167973.200   111238466.84308  21167972.960    86679337.06248
  24851300.800   130594467.81704  24851302.380   101761926.72344
  20702279.320   108791357.83709  20702278.700    84772552.58049
  20318353.800   106773694.15209  20318357.280    83200304.09549
  23403538.900   122986452.29406  23403541.220    95833620.15046
 15 02 20 03 10  0.0000000  0  9G04G14G16G18G19G21G22G27G32
  22273120.560   117046068.74208  22273122.980    91204759.82247
  24490500.900   128698442.60905  24490501.540   100284510.90844
  21775281.220   114429884.60608  21775282.560    89166144.29348
  22815116.240   119894351.58608  22815117.040    93424223.21646
  21158278.460   111187520.81608  21158278.240    86639638.87049
  24864527.360   130663972.52904  24864528.740   101816086.19244
  20705516.520   108808369.60109  20705515.900    84785808.50349
  20316778.920   106765418.36009  20316782.420    83193855.43149
  23381842.320   122872436.25907  23381844.580    95744776.52545
 15 02 20 03 10 30.0000000  0  9G04G14G16G18G19G21G22G27G32
  22259961.220   116976915.52308  22259963.440    91150874.21546
  24475945.460   128621953.88405  24475946.380   100224909.26944
  21790512.480   114509925.35108  21790513.820    89228513.70748
  22828931.900   119966953.22408  22828932.680    93480795.92746
  21148631.140   111136823.93108  21148630.920    86600134.81248
  24877751.700   130733465.61205  24877752.860   101870236.63844
  20708850.040   108825887.40609  20708849.420    84799458.74349
  20315274.540   106757513.03409  20315278.060    83187695.44149
  23360178.720   122758593.41807  23360180.940    95656067.86445
 15 02 20 03 11  0.0000000  0  9G04G14G16G18G19G21G22G27G32
  22246843.140   116907979.33208  22246845.200    91097157.73446
  24461400.340   128545520.60405  24461401.840   100165350.89844
  21805816.860   114590350.27708  21805818.180    89291182.48748
  22842801.460   120039838.13608  22842802.220    93537589.37146
  21139031.860   111086379.34808  21139031.600    86560827.35348
  24890974.180   130802948.78405  24890975.280   101924379.38444
  20712280.080   108843912.23309  20712279.400    84813504.06949
  20313841.260   106749981.28809  20313844.780    83181826.55749
  23338549.020   122644928.34307  23338551.180    95567497.68745
 15 02 20 03 11 30.0000000  0  9G04G14G16G18G19G21G22G27G32
  22233766.300   116839259.80608  22233768.260    91043610.07646
  24446866.120   128469145.28205  24446868.200   100105837.61744
  21821193.900   114671156.94408  21821195.140    89354148.72148
  22856724.460   120113004.13408  22856725.220    93594601.84346
  21129480.920   111036188.78308  21129480.640    86521717.82549
  24904194.620   130872421.73505  24904195.560   101978514.07745
  20715806.340   108862442.54109  20715805.600    84827943.27549
  20312479.240   106742823.98009  20312482.780    83176249.44249
  23316953.580   122531443.42207  23316955.640    95479067.90245
 15 02 20 03 12  0.0000000  0  9G04G14G16G18G19G21G22G27G32
  22220730.540   116770756.43008  22220732.480    90990230.83846
  24432343.480   128392830.06205  24432345.880   100046371.21843
  21836642.800   114752341.38008  21836643.980    89417409.31648
  22870700.320   120186447.86108  22870701.060    93651830.72546
  21119978.360   110986252.45908  21119978.040    86482806.42549
  24917412.920   130941883.36705  24917413.480   102032640.02444
  20719428.420   108881476.29809  20719427.580    84842774.78249
  20311188.560   106736041.30609  20311192.080    83170964.23949
  23295392.700   122418140.32707  23295394.800    95390779.79945
 15 02 20 03 12 30.0000000  0  9G04G14G16G18G19G21G22G27G32
  22207735.920   116702469.64008  22207737.940    90937020.37347
  24417833.160   128316578.21505  24417835.800    99986954.22344
  21852163.180   114833901.44408  21852164.300    89480962.61248
  22884728.720   120260167.72108  22884729.480    93709274.77646
  21110524.520   110936572.26808  21110524.220    86444094.60049
  24930629.000   131011333.81305  24930629.360   102086757.20444
  20723146.160   108901012.99609  20723145.300    84857998.18949
  20309969.480   106729634.82109  20309972.960    83165972.16749
  23273866.940   122305022.09406  23273869.200    95302635.73645
 15 02 20 03 13  0.0000000  0  9G04G14G16G18G19G21G22G27G32
  22194782.320   116634398.52308  22194784.460    90883977.96047
  24403335.480   128240391.53106  24403338.040    99927587.94144
  21867754.280   114915833.14608  21867755.380    89544805.49547
  22898809.060   120334160.56808  22898809.840    93766931.54446
  21101119.560   110887148.71408  21101119.240    86405582.75649
  24943842.580   131080771.96304  24943842.900   102140864.82643
  20726959.140   108921050.39109  20726958.260    84873611.75449
  20308822.020   106723604.62609  20308825.460    83161273.31349
  23252376.560   122192090.22606  23252379.000    95214636.90845
 15 02 20 03 13 30.0000000  0  9G04G14G16G18G19G21G22G27G32
  22181870.100   116566544.85308  22181872.360    90831104.98147
  24388851.100   128164274.40505  24388853.620    99868275.89644
  21883415.880   114998135.59308  21883417.020    89608937.28048
  22912941.240   120408425.96607  22912942.060    93824800.69446
  21091764.020   110837984.84108  21091763.680    86367273.24549
  24957053.980   131150199.24705  24957054.360   102194963.97644
  20730867.460   108941589.13009  20730866.640    84889615.97049
  20307746.720   106717953.45009  20307750.120    83156869.80449
  23230922.400   122079348.92106  23230925.080    95126786.55545
 15 02 20 03 14  0.0000000  0  9G04G14G16G18G19G21G22G27G32
  22168999.180   116498907.81208  22169001.520    90778400.80947
  24374380.420   128088228.95705  24374382.680    99809019.68744
  21899147.480   115080805.84108  21899148.700    89673355.65748
  22927124.620   120482960.71707  22927125.580    93882879.72146
  21082457.980   110789081.32608  21082457.640    86329166.60649
  24970263.080   131219614.33205  24970263.700   102249053.63644
  20734870.780   108962627.07809  20734870.020    84906009.18149
  20306743.540   106712681.49109  20306746.920    83152761.78449
  23209504.940   121966799.86607  23209507.680    95039086.01546
 15 02 20 03 14 30.0000000  0  9G04G14G16G18G19G21G22G27G32
  22156169.420   116431486.86008  22156171.780    90725865.03447
  24359923.600   128012257.04305  24359925.680    99749820.82444
  21914948.400   115163840.17508  21914949.680    89738057.74048
  22941358.840   120557762.27908  22941359.860    93941166.64846
  21073201.580   110740438.72408  21073201.240    86291263.28149
  24983469.880   131289016.78405  24983470.800   102303133.46343
  20738968.720   108984162.27208  20738968.060    84922789.85749
  20305812.540   106707789.10209  20305815.940    83148949.53549
  23188124.440   121854444.93007  23188127.260    94951536.73745
 15 02 20 03 15  0.0000000  0  9G04G14G16G18G19G21G22G27G32
  22143381.160   116364283.72208  22143383.460    90673498.96247
  24345481.740   127936363.43205  24345483.520    99690682.95344
  21930818.380   115247237.18608  21930819.680    89803042.43047
  22955643.660   120632829.48907  22955644.680    93999660.58846
  21063995.420   110692060.08708  21063995.080    86253565.64049
  24996674.540   131358407.98805  24996675.420   102357204.50441
  20743161.300   109006194.83508  20743160.760    84939958.09249
  20304954.280   106703278.95009  20304957.700    83145435.13749
  23166781.740   121742288.30807  23166784.580    94864142.01245
 15 02 20 03 15 30.0000000  0  8G04G14G16G18G19G22G27G32
  22130633.940   116297296.29508  22130636.200    90621300.99047
  24331054.760   127860548.75205  24331056.300    99631606.54444
  21946756.440   115330991.93108  21946757.720    89868305.86748
  22969978.240   120708158.22307  22969979.280    94058358.31146
  21054839.360   110643944.69808  21054839.040    86216073.12749
  20747447.920   109028721.40908  20747447.480    84957511.27549
  20304168.520   106699149.84309  20304171.980    83142217.65749
  23145476.900   121630330.23207  23145479.560    94776901.97745
 15 02 20 03 16  0.0000000  0  8G04G14G16G18G19G22G27G32
  22117929.020   116230531.11708  22117931.180    90569276.18647
  24316644.420   127784822.18805  24316645.980    99572598.90244
  21962763.300   115415108.46108  21962764.560    89933851.21647
  22984363.440   120783752.77307  22984364.480    94117263.15545
  21045734.900   110596100.44108  21045734.560    86178791.88749
  20751829.600   109051747.28009  20751829.180    84975453.51649
  20303456.680   106695409.35309  20303460.180    83139302.98949
  23124211.580   121518579.85807  23124214.080    94689823.77445
 15 02 20 03 16 30.0000000  0  8G04G14G16G18G19G22G27G32
  22105265.240   116163982.27808  22105267.360    90517419.93947
  24302250.220   127709180.36105  24302251.660    99513657.19644
  21978837.320   115499578.16708  21978838.520    89999671.76147
  22998797.620   120859604.83007  22998798.620    94176368.65846
  21036681.240   110548523.25408  21036680.920    86141718.76649
  20756305.000   109075265.24809  20756304.500    84993779.21449
  20302817.880   106692052.52809  20302821.380    83136687.28849
  23102985.080   121407033.65907  23102987.420    94602904.67245
 15 02 20 03 17  0.0000000  0  8G04G14G16G18G19G22G27G32
  22092643.680   116097655.44008  22092645.800    90465736.72047
  24287873.680   127633631.89805  24287875.160    99454788.29044
  21994978.940   115584403.33908  21994980.080    90065769.29647
  23013281.360   120935717.53907  23013282.360    94235677.27746
  21027679.580   110501219.30408  21027679.280    86104858.55349
  20760874.800   109099279.44409  20760874.220    85012491.58449
  20302253.340   106689085.83009  20302256.820    83134375.57749
  23081798.940   121295699.74207  23081801.140    94516150.98046
 15 02 20 03 17 30.0000000  0  9G01G04G14G16G18G19G22G27G32
  24574013.060   129137309.37904  24574019.700   100626498.03844
  22080063.800   116031547.95608  22080065.960    90414224.41947
  24273514.920   127558177.13005  24273516.340    99395992.35544
  22011187.300   115669579.14208  22011188.420    90132140.05447
  23027813.820   121012086.49707  23027814.880    94295185.55046
  21018729.740   110454187.72408  21018729.460    86068210.57749
  20765538.240   109123785.83709  20765537.540    85031587.48549
  20301762.700   106686507.69109  20301766.220    83132366.63549
  23060653.120   121184577.96007  23060655.240    94429562.59745
 15 02 20 03 18  0.0000000  0  9G01G04G14G16G18G19G22G27G32
  24558728.820   129056988.72104  24558734.920   100563910.58246
  22067524.520   115965654.16808  22067526.800    90362878.61446
  24259173.360   127482813.04805  24259175.080    99337267.10645
  22027460.760   115755096.90108  22027461.880    90198777.27347
  23042393.480   121088703.49807  23042394.620    94354887.12346
  21009830.940   110407424.31708  21009830.680    86031771.56449
  20770293.900   109148776.87209  20770293.080    85051061.02749
  20301345.120   106684313.38809  20301348.620    83130656.79749
  23039547.020   121073665.07107  23039549.120    94343136.99045
 15 02 20 03 18 30.0000000  0  9G01G04G14G16G18G19G22G27G32
  24543465.200   128976777.20204  24543471.140   100501408.09644
  22055026.740   115899978.32608  22055029.100    90311702.65947
  24244850.540   127407546.85605  24244852.180    99278618.10544
  22043799.600   115840958.14608  22043800.780    90265682.13747
  23057020.800   121165570.85407  23057021.940    94414783.75646
  21000984.320   110360935.02008  21000984.060    85995546.15349
  20775142.560   109174256.74209  20775141.680    85070915.48049
  20301001.600   106682508.32009  20301005.100    83129250.25349
  23018482.000   120962968.12407  23018484.200    94256879.63746
 15 02 20 03 19  0.0000000  0  9G01G04G14G16G18G19G22G27G32
  24528222.500   128896676.18104  24528228.620   100438991.73244
  22042570.920   115834522.69008  22042573.320    90260698.28947
  24230547.280   127332383.03605  24230549.000    99220048.88445
  22060203.520   115927161.19308  22060204.780    90332853.34947
  23071695.720   121242687.94807  23071696.840    94474875.00646
  20992190.440   110314722.81708  20992190.180    85959536.65749
  20780084.200   109200225.24909  20780083.300    85091150.68849
  20300732.640   106681095.09409  20300736.200    83128149.03549
  22997458.800   120852491.13807  22997461.160    94170793.70145
 15 02 20 03 19 30.0000000  0  9G01G04G14G16G18G19G22G27G32
  24513000.660   128816684.58004  24513006.580   100376660.60644
  22030156.700   115769285.63408  22030159.080    90209864.23846
  24216263.840   127257323.08905  24216265.800    99161560.62644
  22076671.780   116013702.21008  22076673.060    90400287.90748
  23086417.520   121320051.20807  23086418.640    94535158.05645
  20983449.340   110268787.91808  20983449.040    85923743.24049
  20785118.280   109226679.44209  20785117.380    85111764.34649
  20300538.200   106680073.35409  20300541.780    83127352.87949
  22976477.740   120742235.42507  22976480.240    94084880.16946
 15 02 20 03 20  0.0000000  0  9G01G04G14G16G18G19G22G27G32
  24497799.420   128736801.09404  24497805.300   100314413.79341
  22017783.860   115704265.92908  22017786.220    90159199.55147
  24202000.640   127182368.46606  24202002.680    99103154.43544
  22093203.680   116100577.84708  22093205.020    90467983.20947
  23101185.580   121397657.37807  23101186.700    94595630.40046
  20974761.000   110223130.34108  20974760.660    85888165.91849
  20790244.300   109253616.81109  20790243.420    85132754.50949
  20300418.180   106679442.79009  20300421.800    83126861.53449
  22955539.100   120632202.16907  22955541.740    93999139.98746
 15 02 20 03 20 30.0000000  0  9G01G04G14G16G18G19G22G27G32
  24482619.440   128657029.76905  24482625.400   100252254.28442
  22005453.180   115639467.76308  22005455.520    90108707.49447
  24187758.880   127107526.26406  24187760.960    99044835.81744
  22109799.420   116187789.03908  22109800.760    90535939.98847
  23116000.080   121475508.04307  23116001.240    94656293.26046
  20966126.440   110177755.58508  20966126.100    85852808.97849
  20795462.700   109281039.73309  20795461.840    85154123.02349
  20300373.580   106679208.46209  20300377.200    83126678.94349
  22934644.140   120522397.98507  22934646.840    93913578.31045
 15 02 20 03 21  0.0000000  0  9G01G04G14G16G18G19G22G27G32
  24467460.340   128577368.47604  24467466.280   100190180.59844
  21993164.240   115574889.00008  21993166.580    90058386.41347
  24173538.660   127032797.23106  24173540.720    98986605.41945
  22126457.980   116275330.32608  22126459.280    90604153.98047
  23130860.220   121553598.86807  23130861.420    94717143.24446
  20957545.520   110132662.85108  20957545.220    85817671.79249
  20800772.840   109308944.85409  20800772.020    85175867.28049
  20300404.140   106679369.10909  20300407.760    83126804.12649
  22913792.920   120412823.07507  22913795.480    93828195.26746
 15 02 20 03 21 30.0000000  0  9G01G04G14G16G18G19G22G27G32
  24452322.100   128497816.48504  24452327.820   100128192.06145
  21980916.840   115510528.91408  21980919.240    90008235.71947
  24159340.360   126958183.14306  24159342.180    98928464.56444
  22143178.740   116363198.61808  22143180.000    90672622.77647
  23145765.540   121631926.91907  23145766.700    94778178.09746
  20949018.460   110087853.05908  20949018.200    85782755.08549
  20806174.300   109337329.93109  20806173.520    85197985.53449
  20300509.920   106679924.93109  20300513.500    83127237.23549
  22892985.680   120303479.38507  22892988.100    93742992.40446
 15 02 20 03 22  0.0000000  0  9G01G04G14G16G18G19G22G27G32
  24437204.980   128418375.51204  24437210.440   100066290.08445
  21968711.360   115446389.31208  21968713.880    89958256.82347
  24145164.700   126883688.72906  24145166.380    98870416.97644
  22159961.480   116451392.42208  22159962.620    90741345.22447
  23160715.980   121710491.75207  23160717.060    94839397.44745
  20940545.840   110043329.11608  20940545.540    85748061.11249
  20811667.180   109366195.31509  20811666.420    85220478.04349
  20300691.440   106680878.64909  20300694.960    83127980.39449
  22872223.200   120194371.03007  22872225.440    93657972.90545
 15 02 20 03 22 30.0000000  0  9G01G04G14G16G18G19G22G27G32
  24422109.040   128339046.03304  24422114.300   100004474.95844
  21956547.960   115382470.89208  21956550.620    89908450.26147
  24131012.340   126809317.62506  24131013.960    98812465.47645
  22176805.740   116539909.37708  22176806.780    90810319.46647
  23175711.200   121789291.72307  23175712.160    94900800.02445
  20932128.000   109999093.17108  20932127.700    85713591.55549
  20817251.240   109395539.93008  20817250.520    85243343.98549
  20300948.900   106682231.62409  20300952.380    83129034.66049
  22851506.020   120085501.00507  22851508.120    93573139.12946
 15 02 20 03 23  0.0000000  0  9G01G04G14G16G18G19G22G27G32
  24407034.140   128259827.16904  24407039.260    99942746.01545
  21944426.460   115318772.61808  21944429.240    89858815.23747
  24116883.660   126735071.52105  24116885.340    98754611.36545
  22193710.840   116628746.14308  22193711.860    90879542.91247
  23190750.520   121868323.52807  23190751.380    94962383.25345
  20923765.080   109955145.83208  20923764.820    85679346.89249
  20822926.020   109425361.26009  20822925.300    85266581.39549
  20301282.340   106683983.86009  20301285.820    83130400.03549
  22830834.400   119976870.79807  22830836.420    93488492.23346
 15 02 20 03 23 30.0000000  0  9G01G04G14G16G18G19G22G27G32
  24391980.340   128180719.71004  24391985.460    99881103.87345
  21932347.140   115255295.56008  21932350.000    89809352.59647
  24102779.380   126660954.21406  24102781.260    98696857.64244
  22210676.340   116717900.59708  22210677.440    90949013.91547
  23205833.640   121947585.68807  23205834.420    95024145.97146
  20915457.500   109911489.35408  20915457.260    85645328.87149
  20828691.400   109455658.78409  20828690.720    85290189.85749
  20301692.080   106686137.13509  20301695.580    83132077.90949
  22810208.960   119868483.92607  22810211.000    93404034.92845
 15 02 20 03 24  0.0000000  0  9G01G04G14G16G18G19G22G27G32
  24376947.720   128101722.87404  24376952.740    99819547.92045
  21920309.740   115192038.64608  21920312.640    89760061.49847
  24088699.980   126586967.54206  24088701.880    98639205.69844
  22227701.520   116807368.64808  22227702.680    91018729.28447
  23220960.020   122027075.38807  23220960.840    95086085.99746
  20907205.400   109868124.37308  20907205.160    85611537.98749
  20834547.000   109486430.13809  20834546.300    85314167.54649
  20302178.180   106688691.49409  20302181.660    83134068.31949
  22789630.100   119760342.05407  22789632.200    93319768.53246
 15 02 20 03 24 30.0000000  0  9G01G04G14G16G18G19G22G27G32
  24361936.160   128022836.65204  24361941.320    99758078.17745
  21908314.380   115129002.23508  21908317.200    89710942.21247
  24074646.060   126513114.56405  24074648.100    98581657.95744
  22244785.800   116897147.71308  22244787.100    91088687.00747
  23236129.260   122106790.54307  23236130.120    95148201.69346
  20899009.120   109825052.49208  20899008.860    85577975.49749
  20840492.460   109517673.64609  20840491.760    85338513.14749
  20302740.800   106691647.98009  20302744.300    83136372.07849
  22769098.300   119652447.65207  22769100.460    93235694.97946
 15 02 20 03 25  0.0000000  0  9G01G04G14G16G18G19G22G27G32
  24346945.960   127944063.00504  24346951.380    99696696.12944
  21896361.340   115066188.10308  21896364.040    89661996.13647
  24060618.480   126439400.03206  24060620.680    98524218.08344
  22261929.240   116987237.43708  22261930.620    91158886.79647
  23251341.320   122186730.76007  23251342.240    95210492.77645
  20890869.280   109782277.04508  20890868.980    85544643.99249
  20846527.880   109549389.95809  20846527.180    85363227.16149
  20303380.440   106695009.32109  20303383.960    83138991.30149
  22748614.480   119544805.06607  22748616.720    93151817.65346
 15 02 20 03 25 30.0000000  0  9G01G04G14G16G18G19G22G27G32
  24331976.820   127865399.74305  24331982.640    99635400.06744
  21884450.260   115003594.13508  21884452.740    89613221.61447
  24046617.440   126365824.73206  24046619.720    98466886.67244
  22279130.820   117077632.30308  22279132.180    91229324.35647
  23266595.320   122266891.63607  23266596.300    95272955.78245
  20882785.680   109739797.20908  20882785.340    85511542.82549
  20852652.580   109581575.31409  20852651.860    85388306.66449
  20304096.880   106698774.26509  20304100.420    83141925.03049
  22728178.740   119437414.79307  22728181.020    93068136.93746
 15 02 20 03 26  0.0000000  0  9G01G04G14G16G18G19G22G27G32
  24317028.680   127786846.54605  24317034.380    99574189.81844
  21872581.060   114941220.23308  21872583.300    89564618.58147
  24032643.420   126292391.14306  24032645.800    98409665.71845
  22296389.820   117168328.62108  22296391.100    91299996.80747
  23281890.940   122347270.88207  23281891.940    95335588.95046
  20874758.520   109697614.14608  20874758.140    85478672.92049
  20858866.160   109614227.77909  20858865.400    85413750.15249
  20304890.200   106702943.34509  20304893.760    83145173.66149
  22707791.440   119330278.92407  22707793.740    92984654.44446
 15 02 20 03 26 30.0000000  0  9G01G04G14G16G18G19G22G27G32
  24302101.740   127708404.19804  24302107.260    99513065.88445
  21860753.860   114879067.38308  21860755.960    89516187.80647
  24018697.100   126219102.83306  24018699.460    98352557.94044
  22313706.000   117259325.13608  22313707.160    91370903.17847
  23297227.880   122427866.96407  23297228.820    95398391.08645
  20866788.220   109655730.20708  20866787.860    85446036.08949
  20865168.360   109647345.96409  20865167.580    85439556.53649
  20305760.720   106707518.19009  20305764.340    83148738.47149
  22687453.180   119223400.62507  22687455.480    92901372.65546
 15 02 20 03 27  0.0000000  0  9G01G04G14G16G18G19G22G27G32
  24287195.940   127630073.52705  24287201.460    99452029.01645
  21848968.740   114817136.13908  21848970.800    89467929.69947
  24004779.380   126145963.68306  24004781.540    98295566.41144
  22331078.760   117350619.43508  22331079.900    91442041.58947
  23312605.880   122508678.42407  23312606.760    95461361.05145
  20858875.260   109614147.68208  20858874.960    85413634.12749
  20871559.160   109680929.86309  20871558.380    85465725.81649
  20306708.820   106712500.49909  20306712.440    83152620.79449
  22667164.540   119116783.22907  22667166.960    92818294.18046
 15 02 20 03 27 30.0000000  0  9G01G04G14G16G18G19G22G27G32
  24272311.460   127551855.33304  24272316.920    99391079.78845
  21837225.920   114755427.56008  21837228.060    89419845.11547
  23990890.800   126072977.41306  23990892.760    98238694.01145
  22348507.600   117442208.75708  22348508.800    91513409.89047
  23328024.620   122589704.06307  23328025.440    95524497.91145
  20851020.160   109572868.99408  20851019.880    85381468.91849
  20878038.400   109714978.77508  20878037.640    85492257.44449
  20307734.760   106717891.99209  20307738.380    83156821.95649
  22646926.260   119010430.17307  22646928.720    92735421.69246
 15 02 20 03 28  0.0000000  0  9G01G04G14G16G18G19G22G27G32
  24257448.140   127473748.39304  24257453.660    99330217.22544
  21825525.200   114693940.39008  21825527.440    89371933.06147
  23977031.580   126000145.41906  23977033.240    98181941.82144
  22365991.880   117534089.91508  22365993.280    91585005.60647
  23343483.380   122670940.42707  23343484.220    95587798.96545
  20843222.960   109531894.36108  20843222.660    85349540.63449
  20884605.560   109749489.70708  20884604.840    85519149.08949
  20308838.500   106723692.17509  20308842.100    83161341.58249
  22626738.500   118904342.46307  22626740.960    92652755.96546
 15 02 20 03 28 30.0000000  0  9G01G04G14G16G18G19G22G27G32
  24242606.320   127395754.43805  24242611.920    99269442.72544
  21813866.940   114632676.28208  21813869.240    89324194.79647
  23963202.500   125927472.39606  23963204.000    98125313.47744
  22383531.540   117626261.82908  22383533.100    91656827.88747
  23358982.080   122752386.92607  23358982.960    95651263.75745
  20835484.200   109491226.81308  20835483.860    85317851.65149
  20891260.620   109784462.59308  20891259.940    85546400.69948
  20310020.540   106729903.75309  20310024.140    83166181.77349
  22606602.080   118798524.52007  22606604.520    92570300.43346
 15 02 20 03 29  0.0000000  0  9G01G04G14G16G18G19G22G27G32
  24227785.620   127317871.27305  24227791.220    99208754.60644
  21802250.820   114571633.25208  21802253.200    89276628.82047
  23949403.700   125854959.30706  23949405.220    98068809.77544
  22401125.580   117718719.10208  22401127.160    91728872.51747
  23374520.000   122834039.33107  23374520.900    95714889.00045
  20827803.720   109450865.59708  20827803.360    85286401.36149
  20898002.880   109819893.66308  20898002.220    85574009.33249
  20311280.580   106736525.23409  20311284.160    83171341.36549
  22586516.920   118692976.43407  22586519.340    92488055.18346
 15 02 20 03 29 30.0000000  0  9G01G04G14G16G18G19G22G27G32
  24212986.580   127240102.19305  24212991.960    99148155.34744
  21790677.420   114510814.72208  21790679.860    89229237.78047
  23935636.200   125782611.98106  23935638.000    98012435.22345
  22418773.960   117811461.74908  22418775.500    91801139.51547
  23390097.420   122915898.87607  23390098.260    95778675.65245
  20820182.480   109410815.79508  20820182.120    85255193.73349
  20904832.600   109855784.36308  20904831.980    85601976.12149
  20312619.440   106743560.87209  20312623.000    83176823.68549
  22566484.160   118587704.05607  22566486.540    92406024.75646
 15 02 20 03 30  0.0000000  0  9G01G04G14G16G18G19G22G27G32
  24198208.600   127162443.73104  24198213.920    99087642.28444
  21779146.120   114450217.23108  21779148.560    89182018.96547
  23921900.080   125710429.99306  23921902.200    97956189.51044
  22436475.560   117904483.90908  22436476.980    91873624.31147
  23405713.160   122997959.92807  23405713.980    95842619.32545
  20812620.060   109371075.19608  20812619.720    85224227.04349
  20911748.900   109892129.85108  20911748.280    85630297.29149
  20314036.600   106751007.98609  20314040.160    83182626.63449
  22546503.680   118482706.46107  22546506.060    92324208.45746
 15 02 20 03 30 30.0000000  0  9G01G04G14G16G18G19G22G27G32
  24183452.180   127084898.46204  24183457.480    99027217.43644
  21767657.400   114389843.37408  21767659.780    89134974.40547
  23908196.400   125638418.77906  23908198.940    97900076.88344
  22454230.280   117997785.22708  22454231.520    91946326.63247
  23421367.240   123080222.77107  23421368.120    95906720.22145
  20805117.320   109331648.18108  20805117.000    85193504.70149
  20918751.940   109928930.96208  20918751.300    85658973.48949
  20315532.640   106758869.86309  20315536.240    83188752.77449
  22526576.520   118377988.53907  22526578.860    92242610.08646
 15 02 20 03 31  0.0000000  0  9G01G04G14G16G18G19G22G27G32
  24168716.820   127007464.01105  24168722.220    98966878.93243
  21756210.840   114329690.97208  21756213.140    89088102.43647
  23894525.500   125566578.84706  23894528.200    97844097.70645
  22472037.040   118091360.49608  22472038.200    92019242.42247
  23437058.780   123162682.99607  23437059.920    95970974.93945
  20797674.080   109292533.53908  20797673.760    85163025.77149
  20925840.920   109966183.61408  20925840.260    85688001.53649
  20317107.340   106767145.02809  20317110.980    83195200.95549
  22506702.700   118273550.41008  22506704.980    92161229.73346
 15 02 20 03 31 30.0000000  0  9G01G04G14G16G18G19G22G27G32
  24154002.680   126930141.08605  24154008.260    98906627.33945
  21744806.500   114269760.63008  21744808.760    89041403.49447
  23880888.180   125494913.91306  23880890.760    97788254.89645
  22489895.360   118185207.28408  22489896.580    92092369.79547
  23452787.620   123245339.19707  23452788.900    96035382.35046
  20790290.780   109253733.72008  20790290.460    85132792.14049
  20933015.700   110003887.03508  20933015.000    85717380.83349
  20318760.980   106775834.98809  20318764.620    83201972.34849
  22486882.820   118169395.26808  22486884.940    92080069.90046
 15 02 20 03 32  0.0000000  0  9G01G04G14G16G18G19G22G27G32
  24139309.880   126852930.59405  24139315.560    98846463.31744
  21733444.620   114210053.40308  21733446.780    88994878.39147
  23867285.040   125423427.69006  23867287.340    97732551.35145
  22507804.920   118279323.41908  22507806.280    92165707.05047
  23468553.540   123328189.96807  23468554.880    96099941.37845
  20782967.760   109215251.09508  20782967.480    85102805.69649
  20940276.000   110042040.11108  20940275.340    85747110.51549
  20320493.880   106784941.38909  20320497.500    83209068.24149
  22467117.480   118065526.52308  22467119.380    91999133.23446
 15 02 20 03 32 30.0000000  0  9G01G04G14G16G18G19G22G27G32
  24124638.260   126775831.23605  24124644.000    98786385.89145
  21722124.920   114150568.13808  21722127.080    88948526.25347
  23853716.280   125352121.86106  23853718.360    97676988.37645
  22525765.160   118373705.12008  22525766.600    92239251.23447
  23484355.920   123411232.12207  23484357.320    96164649.54446
  20775705.100   109177085.90608  20775704.880    85073066.60049
  20947621.260   110080639.95008  20947620.680    85777188.32249
  20322305.940   106794463.74209  20322309.540    83216488.24649
  22447406.780   117961945.31008  22447408.540    91918420.61546
 15 02 20 03 33  0.0000000  0  9G01G04G14G16G18G19G22G27G32
  24109988.440   126698846.12305  24109994.300    98726397.52445
  21710848.020   114091307.77008  21710850.180    88902349.34747
  23840182.900   125281002.30506  23840184.800    97621570.53245
  22543776.100   118468352.45008  22543777.460    92313002.40647
  23500194.840   123494466.49206  23500196.360    96229507.48844
  20768503.680   109139242.58508  20768503.500    85043578.30449
  20955051.840   110119688.17408  20955051.360    85807615.52049
  20324197.900   106804405.94309  20324201.460    83224235.41649
  22427751.720   117858657.08308  22427753.460    91837936.28446
 15 02 20 03 33 30.0000000  0  9G01G04G14G16G18G19G22G27G32
  24095359.940   126621972.30305  24095365.640    98666495.86745
  21699613.400   114032269.71408  21699615.620    88856345.68647
  23826684.860   125210068.97506  23826686.680    97566297.82345
  22561836.540   118563259.60908  22561837.780    92386956.04347
  23516069.420   123577887.87807  23516070.900    96294511.16245
  20761363.360   109101719.95608  20761363.160    85014339.90249
  20962566.880   110159179.92808  20962566.420    85838388.32649
  20326169.320   106814765.76509  20326172.820    83232307.99849
  22408152.100   117755661.42007  22408154.060    91757679.92246
 15 02 20 03 34  0.0000000  0  9G01G04G14G16G18G19G22G27G32
  24080753.000   126545211.61605  24080758.480    98606682.36344
  21688421.440   113973455.83308  21688423.700    88810516.68547
  23813223.020   125139326.80106  23813224.980    97511174.07445
  22579946.160   118658425.64008  22579947.340    92461111.39047
  23531979.600   123661496.25707  23531981.060    96359660.52045
  20754284.700   109064521.11808  20754284.420    84985353.80249
  20970166.400   110199115.48609  20970165.920    85869506.95249
  20328220.720   106825545.80809  20328224.200    83240708.02749
  22388608.900   117652962.66207  22388611.140    91677654.91546
 15 02 20 03 34 30.0000000  0  9G01G04G14G16G18G19G22G27G32
  24066167.600   126468564.09405  24066172.760    98546957.03644
  21677272.080   113914865.84808  21677274.380    88764862.16547
  23799797.980   125068778.54906  23799800.260    97456201.41746
  22598104.220   118753847.26508  22598105.480    92535465.90547
  23547924.940   123745289.41406  23547926.340    96424953.87845
  20747267.940   109027647.64308  20747267.600    84956621.22849
  20977849.980   110239492.69609  20977849.400    85900969.72148
  20330352.220   106836746.73509  20330355.700    83249436.02049
  22369122.660   117550563.10907  22369125.140    91597863.07246
 15 02 20 03 35  0.0000000  0  9G01G04G14G16G18G19G22G27G32
  24051603.340   126392028.07905  24051608.440    98487318.58644
  21666165.140   113856498.59408  21666167.420    88719381.18947
  23786410.140   124998425.57906  23786412.680    97401380.90845
  22616310.000   118849520.27308  22616311.380    92610016.30347
  23563904.740   123829263.68507  23563906.160    96490388.37545
  20740313.040   108991099.39908  20740312.680    84928142.09049
  20985617.000   110280308.39309  20985616.300    85932774.17748
  20332563.660   106848367.79409  20332567.140    83258491.38949
  22349693.640   117448463.63208  22349696.220    91518305.05046
 15 02 20 03 35 30.0000000  0  9G01G04G14G16G18G19G22G27G32
  24037060.660   126315605.50605  24037065.700    98427768.56845
  21655100.960   113798355.95508  21655103.220    88674075.26247
  23773060.340   124928272.64806  23773063.160    97346716.27245
  22634563.320   118945443.54608  22634564.860    92684761.71446
  23579918.920   123913418.58007  23579920.280    96555963.61245
  20733420.620   108954879.85308  20733420.340    84899919.08149
  20993467.520   110321563.03609  20993466.740    85964920.66448
  20334855.500   106860411.52809  20334859.020    83267876.11949
  22330322.680   117346668.47908  22330325.200    91438984.15846
 15 02 20 03 36  0.0000000  0  8G04G14G16G18G19G22G27G32
  21644079.220   113740436.18608  21644081.420    88628942.99347
  23759748.980   124858321.01606  23759751.800    97292208.50145
  22652863.420   119041612.09808  22652865.020    92759698.25547
  23595966.780   123997750.54806  23595968.160    96621676.83244
  20726590.760   108918988.96208  20726590.520    84871952.15949
  21001400.840   110363252.76409  21001399.980    85997406.17948
  20337227.600   106872877.01109  20337231.120    83277589.48549
  22311009.860   117245178.43108  22311012.300    91359901.00846
 15 02 20 03 36 30.0000000  0  9G01G04G14G16G18G19G22G27G32
  24008039.160   126163100.15405  24008044.120    98308928.90544
  21633100.260   113682741.10208  21633102.360    88583985.79547
  23746476.800   124788574.95806  23746479.600    97237860.92745
  22671210.220   119138024.78108  22671211.700    92834825.02146
  23612048.120   124082259.03806  23612049.640    96687527.59145
  20719824.040   108883429.66608  20719823.800    84844243.62749
  21009416.900   110405377.63608  21009416.040    86030230.76748
  20339680.380   106885766.43109  20339683.920    83287633.18249
  22291755.840   117143997.42308  22291758.220    91281058.68347
 15 02 20 03 37  0.0000000  0  9G01G04G14G16G18G19G22G27G32
  23993561.000   126087018.19805  23993566.040    98249644.31544
  21622164.480   113625273.13208  21622166.540    88539205.56947
  23733244.820   124719039.81906  23733247.400    97183677.70845
  22689603.560   119234681.44208  22689604.880    92910141.89747
  23628163.140   124166944.21906  23628164.700    96753516.03945
  20713121.160   108848205.72508  20713120.880    84816796.40349
  21017515.840   110447938.29208  21017515.040    86063394.92648
  20342214.400   106899082.85609  20342217.980    83298009.61749
  22272561.480   117043130.20708  22272563.900    91202460.86046
 15 02 20 03 37 30.0000000  0  9G01G04G14G16G18G19G22G27G32
  23979103.720   126011032.67605  23979108.640    98190442.65743
  21611270.100   113568022.92108  21611272.140    88494595.03347
  23720051.760   124649709.27106  23720054.120    97129653.89744
  22708041.020   119331569.80808  22708042.180    92985639.32347
  23644309.740   124251795.14806  23644311.240    96819633.62845
  20706480.700   108813309.64408  20706480.360    84789604.65349
  21025695.540   110490923.30508  21025694.820    86096889.75048
  20344828.060   106912817.72709  20344831.640    83308712.10849
  22253425.480   116942569.89908  22253427.960    91124102.18446
 15 02 20 03 38  0.0000000  0  9G01G04G14G16G18G19G22G27G32
  23964668.280   125935173.39605  23964672.840    98131331.55044
  21600419.060   113511000.51508  21600421.100    88450161.98447
  23706899.960   124580595.84406  23706902.140    97075799.27045
  22726523.700   119428696.29508  22726524.820    93061322.30247
  23660489.460   124336819.86907  23660490.900    96885886.63745
  20699904.720   108778752.55208  20699904.320    84762677.04949
  21033957.640   110534341.01508  21033956.980    86130721.74448
  20347523.340   106926981.58509  20347526.900    83319748.88649
  22234350.200   116842328.84608  22234352.700    91045992.28646
 15 02 20 03 38 30.0000000  0  9G01G04G14G16G18G19G22G27G32
  23950254.280   125859427.98505  23950258.940    98072309.21346
  21589610.940   113454203.82408  21589613.020    88405904.83447
  23693789.560   124511700.28706  23693791.580    97022114.44145
  22745050.660   119526056.20808  22745051.860    93137187.18046
  23676701.300   124422012.94406  23676702.580    96952270.85945
  20693393.060   108744533.65008  20693392.660    84736012.96549
  21042301.300   110578187.14908  21042300.640    86164887.56948
  20350299.900   106941572.74009  20350303.500    83331118.61149
  22215335.660   116742407.12708  22215338.140    90968131.21646
 15 02 20 03 39  0.0000000  0  9G01G04G14G16G18G19G22G27G32
  23935861.620   125783794.41905  23935866.300    98013373.98645
  21578845.320   113397630.49008  21578847.420    88361821.72147
  23680720.800   124443023.47406  23680722.760    96968600.02545
  22763620.880   119623644.26907  22763622.280    93213229.83147
  23692944.420   124507370.47706  23692945.640    97018783.19845
  20686945.640   108710652.35808  20686945.260    84709611.96949
  21050725.720   110622457.75108  21050725.040    86199384.15348
  20353157.500   106956589.69709  20353161.120    83342820.14349
  22196381.980   116642804.81908  22196384.360    90890519.05247
 15 02 20 03 39 30.0000000  0  9G01G04G14G16G18G19G22G27G32
  23921490.520   125708286.09705  23921495.200    97954535.24746
  21568122.320   113341281.19908  21568124.460    88317913.18547
  23667694.240   124374568.68906  23667696.120    96915258.64844
  22782233.980   119721457.85507  22782235.520    93289448.21246
  23709218.460   124592891.07407  23709219.680    97085422.61445
  20680562.900   108677110.72009  20680562.520    84683475.62749
  21059230.640   110667151.49708  21059229.960    86234210.45848
  20356096.380   106972033.58409  20356099.960    83354854.34549
  22177489.700   116543524.88608  22177491.920    90813158.07847
 15 02 20 03 40  0.0000000  0  9G01G04G14G16G18G19G22G27G32
  23907141.500   125632881.63205  23907146.300    97895778.54646
  21557442.900   113285160.67808  21557445.020    88274182.92547
  23654711.300   124306343.28306  23654713.240    96862096.01545
  22800890.400   119819498.51607  22800891.940    93365843.54046
  23725523.940   124678577.23606  23725525.320    97152191.03844
  20674245.960   108643914.87609  20674245.580    84657608.74449
  21067816.600   110712271.12408  21067815.900    86269368.61548
  20359117.520   106987909.66709  20359121.060    83367225.31849
  22158660.100   116444574.31608  22158662.200    90736053.75047
 15 02 20 03 40 30.0000000  0  9G01G04G14G16G18G19G22G27G32
  23892813.520   125557587.51305  23892818.560    97837107.84646
  21546805.840   113229262.50108  21546807.900    88230625.90647
  23641771.420   124238343.75206  23641773.340    96809109.36145
  22819588.460   119917757.19808  22819589.860    93442408.74747
  23741859.240   124764420.28506  23741860.700    97219081.70244
  20667993.880   108611059.80109  20667993.480    84632007.39149
  21076482.060   110757808.36608  21076481.280    86304852.19548
  20362219.800   107004211.98209  20362223.280    83379928.41949
  22139892.300   116345948.90308  22139894.440    90659202.77947
 15 02 20 03 41  0.0000000  0  9G01G04G14G16G18G19G22G27G32
  23878507.180   125482407.39905  23878512.180    97778526.00945
  21536211.820   113173590.28208  21536213.800    88187244.96847
  23628875.760   124170576.63306  23628877.740    96756303.82445
  22838328.360   120016234.88408  22838329.560    93519144.60247
  23758224.840   124850422.04606  23758226.260    97286096.05245
  20661807.540   108578550.34409  20661807.140    84606675.34849
  21085227.300   110803764.93008  21085226.480    86340662.51548
  20365403.980   107020944.80609  20365407.420    83392966.98149
  22121187.460   116247654.63908  22121189.700    90582609.85647
 15 02 20 03 41 30.0000000  0  9G01G04G14G16G18G19G22G27G32
  23864222.180   125407339.63205  23864227.140    97720031.68846
  21525660.460   113118142.49508  21525662.460    88144038.91147
  23616024.600   124103043.20306  23616026.440    96703680.37044
  22857108.940   120114926.49708  22857110.020    93596047.15746
  23774619.900   124936578.52806  23774621.220    97353230.96545
  20655686.960   108546386.47309  20655686.560    84581612.59949
  21094051.680   110850137.32908  21094050.800    86376796.86048
  20368669.840   107038107.11609  20368673.300    83406340.20749
  22102545.740   116149692.23608  22102548.120    90506275.51847
 15 02 20 03 42  0.0000000  0  9G01G04G14G16G18G19G22G27G32
  23849958.780   125332385.69805  23849963.820    97661626.06645
  21515152.160   113062920.77708  21515154.160    88101009.00347
  23603218.600   124035747.48406  23603220.420    96651242.13945
  22875929.780   120213830.30607  22875930.920    93673115.06646
  23791044.380   125022889.52506  23791045.760    97420486.28344
  20649632.760   108514571.39009  20649632.360    84556821.63949
  21102955.120   110896925.34508  21102954.240    86413255.06448
  20372017.840   107055700.95409  20372021.300    83420049.69749
  22083967.920   116052065.53008  22083970.400    90430202.75847
 15 02 20 03 42 30.0000000  0  9G01G04G14G16G18G19G22G27G32
  23835716.980   125257545.11405  23835722.180    97603308.75345
  21504686.820   113007924.78208  21504688.800    88058155.00347
  23590458.300   123968692.28006  23590460.400    96598991.34945
  22894790.320   120312943.69007  22894791.680    93750346.27547
  23807497.740   125109352.55206  23807499.180    97487860.04545
  20643645.140   108483106.30109  20643644.720    84532303.38549
  21111937.160   110944126.42108  21111936.320    86450035.13148
  20375447.960   107073726.44809  20375451.460    83434095.53749
  22065454.380   115954776.39608  22065456.920    90354393.05647
 15 02 20 03 43  0.0000000  0  9G01G04G14G16G18G19G22G27G32
  23821496.720   125182817.46205  23821502.100    97545079.45245
  21494264.340   112953154.22708  21494266.360    88015476.67347
  23577744.240   123901879.74106  23577746.440    96546929.61445
  22913689.920   120412263.17007  22913691.600    93827738.09246
  23823979.520   125195965.00806  23823980.940    97555350.26744
  20637724.340   108451992.17909  20637723.900    84508058.61749
  21120997.360   110991738.16708  21120996.560    86487135.20548
  20378960.260   107092183.72209  20378963.760    83448477.83749
  22047005.540   115857826.71508  22047007.980    90278847.86646
 15 02 20 03 43 30.0000000  0  9G01G04G14G16G18G19G22G27G32
  23807297.860   125108202.10405  23807303.240    97486937.65645
  21483884.600   112898608.19108  21483886.600    87972973.26447
  23565076.960   123835312.32306  23565079.080    96495058.89245
  22932627.980   120511784.56807  22932629.900    93905287.24846
  23840489.280   125282724.02606  23840490.740    97622954.69245
  20631870.400   108421229.42709  20631869.980    84484087.64649
  21130135.280   111039758.34208  21130134.520    86524553.53448
  20382554.680   107111072.66309  20382558.160    83463196.49449
  22028621.600   115761218.11108  22028623.880    90203568.43847
 15 02 20 03 44  0.0000000  0  9G01G04G14G16G18G19G22G27G32
  23793120.600   125033700.68005  23793125.940    97428884.61345
  21473547.960   112844288.78408  21473549.980    87930646.46647
  23552457.300   123768994.60006  23552459.280    96443382.74945
  22951604.380   120611506.99607  22951606.380    93982993.03646
  23857026.880   125369629.31106  23857028.340    97690673.08444
  20626083.980   108390821.47409  20626083.560    84460393.14449
  21139350.920   111088186.74408  21139350.160    86562289.96148
  20386231.720   107130395.47609  20386235.160    83478253.23649
  22010303.320   115664954.60308  22010305.440    90128557.92347
 15 02 20 03 44 30.0000000  0  9G01G04G14G16G18G19G22G27G32
  23778964.960   124959312.76005  23778970.160    97370920.07844
  21463254.320   112790195.46408  21463256.380    87888495.83548
  23539885.540   123702928.83006  23539887.420    96391902.91245
  22970618.660   120711427.14207  22970620.400    94060852.89346
  23873591.880   125456678.60306  23873593.300    97758503.69945
  20620365.200   108360769.29609  20620364.760    84436975.86749
  21148643.780   111137020.68808  21148642.980    86600342.39548
  20389991.320   107150152.21309  20389994.780    83493648.09849
  21992050.980   115569038.09608  21992053.080    90053817.79547
 15 02 20 03 45  0.0000000  0  9G01G04G14G16G18G19G22G27G32
  23764830.740   124885036.88505  23764835.620    97313042.79745
  21453003.440   112736327.01008  21453005.560    87846520.43347
  23527361.920   123637116.26606  23527363.760    96340620.40345
  22989669.920   120811540.72507  22989671.180    94138863.47846
  23890183.600   125543868.44906  23890184.980    97826443.80045
  20614714.200   108331073.10109  20614713.740    84413835.98549
  21158013.120   111186256.74708  21158012.320    86638708.16048
  20393833.300   107170341.99609  20393836.780    83509380.38649
  21973864.780   115473469.28208  21973866.920    89979348.61547
 15 02 20 03 45 30.0000000  0  9G01G04G14G16G18G19G22G27G32
  23750718.440   124810876.54006  23750723.120    97255255.57245
  21442796.040   112682686.86308  21442798.200    87804722.93247
  23514887.600   123571563.33806  23514889.520    96289540.20545
  23008758.040   120911848.00908  23008758.940    94217024.98846
  23906802.160   125631199.97906  23906803.620    97894494.34344
  20609131.900   108301737.89509  20609131.420    84390977.38649
  21167459.300   111235896.76508  21167458.540    86677388.70248
  20397758.420   107190968.79609  20397761.920    83525453.21349
  21955745.840   115378254.04308  21955748.080    89905154.93647
 15 02 20 03 46  0.0000000  0  9G01G04G14G16G18G19G22G27G32
  23736627.620   124736828.59205  23736632.120    97197555.92445
  21432631.500   112629272.01308  21432633.720    87763100.99047
  23502462.640   123506270.04806  23502464.580    96238662.32146
  23027881.800   121012342.77707  23027882.460    94295332.59546
  23923446.780   125718668.45206  23923448.340    97962651.59445
  20603617.900   108272761.66609  20603617.380    84368398.50449
  21176981.320   111285935.41508  21176980.620    86716379.86848
  20401766.140   107212029.96709  20401769.700    83541864.51349
  21937694.060   115283391.39908  21937696.360    89831235.98147
 15 02 20 03 46 30.0000000  0  9G01G04G14G16G18G19G22G27G32
  23722558.420   124662893.97905  23722562.760    97139944.55045
  21422510.060   112576083.60508  21422512.320    87721655.49547
  23490087.760   123441239.95306  23490089.740    96187989.52245
  23047040.760   121113023.50807  23047041.460    94373785.11046
  23940117.180   125806272.66506  23940118.880    98030914.59944
  20598172.680   108244146.99209  20598172.180    84346101.35749
  21186579.080   111336372.16608  21186578.440    86755681.24048
  20405856.800   107233526.91609  20405860.420    83558615.37849
  21919710.060   115188884.69408  21919712.380    89757594.39647
 15 02 20 03 47  0.0000000  0  9G01G04G14G16G18G19G22G27G32
  23708510.840   124589072.95905  23708515.260    97082421.72445
  21412431.740   112523121.77608  21412434.020    87680386.54648
  23477763.560   123376476.07406  23477765.520    96137524.16345
  23066234.420   121213887.23207  23066235.300    94452380.22446
  23956813.140   125894011.12306  23956815.000    98099282.21945
  20592796.600   108215895.56409  20592796.100    84324087.25349
  21196252.220   111387205.01708  21196251.600    86795291.26548
  20410030.520   107255460.33909  20410034.180    83575706.35749
  21901794.280   115094736.39608  21901796.580    89684232.09447
 15 02 20 03 47 30.0000000  0  9G01G04G14G16G18G19G22G27G32
  23694484.840   124515366.16805  23694489.480    97024987.88945
  21402396.740   112470387.52408  21402399.000    87639294.95248
  23465490.700   123311982.05106  23465492.620    96087269.07445
  23085462.340   121314931.59507  23085463.500    94531116.09846
  23973534.340   125981881.99306  23973536.280    98167752.99644
  20587490.060   108188009.65009  20587489.600    84302357.97249
  21206000.500   111438432.59008  21205999.860    86835208.86848
  20414287.560   107277831.32709  20414291.220    83593138.29849
  21883947.200   115000949.27608  21883949.480    89611151.21947
 15 02 20 03 48  0.0000000  0  9G01G04G14G16G18G19G22G27G32
  23680480.420   124441773.75605  23680485.460    96967643.17546
  21392405.040   112417880.86508  21392407.300    87598380.69248
  23453269.800   123247760.72506  23453271.680    96037226.47045
  23104724.120   121416153.94107  23104725.600    94609990.67246
  23990280.500   126069883.65306  23990282.400    98236325.72644
  20582253.420   108160490.81809  20582252.940    84280914.73349
  21215823.620   111490053.27908  21215822.920    86875432.79248
  20418628.040   107300640.51909  20418631.640    83610911.69449
  21866169.320   114907525.90408  21866171.600    89538353.79947
 15 02 20 03 48 30.0000000  0  9G01G04G14G16G18G19G22G27G32
  23666497.340   124368293.23605  23666502.680    96910385.64946
  21382456.180   112365599.34708  21382458.420    87557641.85848
  23441100.880   123183812.49006  23441102.720    95987396.67345
  23124018.820   121517548.77807  23124020.380    94688999.63246
  24007050.820   126158011.66106  24007052.560    98304996.88144
  20577086.440   108133338.09209  20577085.940    84259756.77049
  21225720.700   111542062.68608  21225719.960    86915959.61748
  20423051.520   107323885.76409  20423055.060    83629024.86649
  21848460.520   114814465.86108  21848462.820    89465839.48647
 15 02 20 03 49  0.0000000  0  9G01G04G14G16G18G19G22G27G32
  23652535.840   124294925.85705  23652541.300    96853216.27845
  21372550.480   112313544.48508  21372552.700    87517079.63948
  23428984.640   123120141.24306  23428986.500    95937782.70145
  23143346.160   121619114.70707  23143347.660    94768141.91746
  24023845.160   126246265.80406  24023846.660    98373766.34144
  20571989.620   108106554.14109  20571989.140    84238886.16149
  21235691.540   111594459.80608  21235690.780    86956788.55248
  20427558.300   107347568.82409  20427561.820    83647479.19249
  21830821.520   114721772.70008  21830823.860    89393611.05147
 15 02 20 03 49 30.0000000  0  9G01G04G14G16G18G19G22G27G32
  23638596.000   124221672.03405  23638601.560    96796135.40545
  21362688.060   112261716.92908  21362690.220    87476694.55548
  23416921.820   123056750.62206  23416923.700    95888387.42545
  23162705.640   121720849.16107  23162706.960    94847415.51446
  24040662.940   126334643.62206  24040664.260    98442632.14244
  20566963.280   108080140.64809  20566962.820    84218304.22149
  21245735.860   111647243.19308  21245735.100    86997918.48448
  20432148.540   107371690.48509  20432152.000    83666275.28849
  21813252.880   114629449.02908  21813255.200    89321670.53247
 15 02 20 03 50  0.0000000  0  9G01G04G14G16G18G19G22G27G32
  23624677.940   124148532.26605  23624683.580    96739143.38546
  21352868.920   112210116.88908  21352871.060    87436486.74147
  23404912.940   122993643.56106  23404914.920    95839213.07545
  23182096.600   121822749.17307  23182097.800    94926818.10946
  24057504.080   126423144.40706  24057505.300    98511593.79344
  20562007.860   108054099.81909  20562007.420    84198012.67049
  21255853.400   111700411.44308  21255852.660    87039348.30148
  20436822.360   107396251.62209  20436825.820    83685413.83449
  21795755.120   114537497.53708  21795757.400    89250020.01347
 15 02 20 03 50 30.0000000  0  9G01G04G14G16G18G19G22G27G32
  23610781.380   124075504.79605  23610786.820    96682238.87746
  21343092.780   112158742.81108  21343094.880    87396454.99847
  23392958.280   122930821.21407  23392960.300    95790260.59745
  23201518.300   121924810.68507  23201519.360    95006346.55546
  24074367.820   126511763.78606  24074368.860    98580647.85445
  20557123.260   108028431.16209  20557122.840    84178011.12149
  21266043.440   111753960.70608  21266042.720    87081075.01648
  20441579.560   107421250.83809  20441583.020    83704893.74049
  21778328.260   114445918.62008  21778330.540    89178659.82447
 15 02 20 03 51  0.0000000  0  9G01G04G14G16G18G19G22G27G32
  23596906.680   124002592.39605  23596911.940    96625424.06245
  21333360.200   112107597.69808  21333362.280    87356601.65248
  23381058.860   122868289.12507  23381060.860    95741534.27745
  23220970.560   122027033.25907  23220971.500    95086000.50946
  24091254.360   126600503.11606  24091255.320    98649795.36844
  20552310.320   108003138.86309  20552309.880    84158302.84649
  21276306.160   111807891.88408  21276305.440    87123099.32348
  20446420.700   107446691.25009  20446424.180    83724717.43449
  21760973.240   114354717.23508  21760975.560    89107593.81047
 15 02 20 03 51 30.0000000  0  9G01G04G14G16G18G19G22G27G32
  23583053.340   123929791.71206  23583058.400    96568696.29645
  21323670.620   112056678.49008  21323672.680    87316924.34848
  23369214.580   122806046.69307  23369216.480    95693033.68346
  23240452.280   122129410.87407  23240453.260    95165775.26246
  24108162.780   126689357.04506  24108163.720    98719032.19144
  20547568.680   107978221.23509  20547568.180    84138886.50649
  21286640.500   111862199.44408  21286639.820    87165416.90748
  20451345.260   107472569.92709  20451348.760    83744882.63749
  21743689.800   114263892.30308  21743692.220    89036821.13947
 15 02 20 03 52  0.0000000  0  9G01G04G14G16G18G19G22G27G32
  23569221.720   123857105.47006  23569226.640    96512057.68246
  21314024.460   112005987.62708  21314026.500    87277424.98447
  23357426.500   122744099.58607  23357428.320    95644763.20446
  23259963.400   122231942.93307  23259964.500    95245670.38346
  24125093.120   126778326.29806  24125094.140    98788358.88044
  20542899.080   107953682.16609  20542898.540    84119765.16049
  21297046.620   111916884.34208  21297046.020    87208028.52548
  20456353.720   107498889.85409  20456357.280    83765391.66049
  21726478.920   114173448.53408  21726481.360    88966345.48347
 15 02 20 03 52 30.0000000  0  9G01G04G14G16G18G19G22G27G32
  23555411.720   123784533.46906  23555416.420    96455508.10445
  21304421.760   111955525.26908  21304423.820    87238103.68247
  23345695.020   122682450.42406  23345696.860    95596724.90845
  23279503.340   122334626.26307  23279504.600    95325683.37245
  24142044.980   126867408.62206  24142046.020    98857773.64344
  20538301.780   107929523.10009  20538301.220    84100939.92049
  21307524.120   111971944.32508  21307523.600    87250932.41948
  20461446.220   107525651.20309  20461449.820    83786244.65849
  21709341.020   114083388.06108  21709343.400    88896168.49647
 15 02 20 03 53  0.0000000  0  9G01G04G14G16G18G19G22G27G32
  23541623.380   123712075.41106  23541628.100    96399047.30646
  21294862.460   111905291.01908  21294864.520    87198960.10448
  23334020.620   122621101.31307  23334022.440    95548920.42145
  23299071.620   122437458.17107  23299073.020    95405812.13546
  24159017.920   126956602.23606  24159019.100    98927275.17344
  20533776.940   107905745.04409  20533776.400    84082411.57149
  21318072.600   112027376.93308  21318072.080    87294126.66548
  20466622.720   107552853.93409  20466626.340    83807441.59149
  21692276.400   113993712.59708  21692278.680    88826291.52547
 15 02 20 03 53 30.0000000  0  9G01G04G14G16G18G19G22G27G32
  23527856.740   123639731.60805  23527861.520    96342675.53845
  21285346.660   111855285.46708  21285348.760    87159994.75048
  23322404.000   122560055.41907  23322405.720    95501352.17545
  23318667.620   122540435.65407  23318669.160    95486054.33446
  24176011.500   127045904.66105  24176012.740    98996861.45245
  20529324.920   107882349.63709  20529324.400    84064181.39249
  21328691.660   112083180.38808  21328691.100    87337609.88948
  20471883.400   107580498.65209  20471886.980    83828982.92249
  21675285.480   113904424.47608  21675287.620    88756716.36847
 15 02 20 03 54  0.0000000  0  9G01G04G14G16G18G19G22G27G32
  23514111.720   123567501.36906  23514116.540    96286392.27445
  21275874.280   111805507.87408  21275876.380    87121207.01348
  23310845.500   122499314.87107  23310847.080    95454021.87246
  23338290.620   122643555.09207  23338292.280    95566407.14945
  24193025.420   127135313.91605  24193026.800    99066530.99345
  20524945.900   107859337.66609  20524945.380    84046249.99249
  21339380.860   112139352.35008  21339380.220    87381380.25748
  20477228.160   107608584.94609  20477231.660    83850868.34849
  21658368.540   113815525.20908  21658370.540    88687444.21647
 15 02 20 03 54 30.0000000  0  9G01G04G14G16G18G19G22G27G32
  23500388.180   123495383.85506  23500393.100    96230196.85246
  21266445.180   111755957.72208  21266447.300    87082596.49548
  23299345.480   122438881.76607  23299346.980    95406931.13445
  23357940.040   122746813.00507  23357941.680    95646867.87046
  24210059.200   127224827.37105  24210060.560    99136281.73045
  20520639.980   107836709.58009  20520639.380    84028617.71749
  21350139.560   112195889.62408  21350138.880    87425435.29048
  20482656.840   107637112.29709  20482660.260    83873097.45749
  21641525.820   113727016.04408  21641527.720    88618476.04247
 15 02 20 03 55  0.0000000  0  9G01G04G14G16G18G19G22G27G32
  23486686.200   123423379.84306  23486691.280    96174089.83346
  21257059.540   111706635.75908  21257061.620    87044163.81248
  23287904.500   122378759.53507  23287906.200    95360082.65445
  23377615.460   122850207.28107  23377616.960    95727434.84546
  24227112.620   127314339.83205  24227113.900    99205980.73244
  20516407.540   107814467.79509  20516406.920    84011286.46249
  21360967.600   112252791.11408  21360966.840    87469774.12248
  20488169.580   107666081.67409  20488172.960    83895671.00149
  21624757.880   113638899.91508  21624759.780    88549814.11647
 15 02 20 03 55 30.0000000  0  9G01G04G14G16G18G19G22G27G32
  23473005.940   123351489.53606  23473011.120    96118071.41646
  21247717.360   111657542.13508  21247719.420    87005909.04748
  23276523.180   122318951.12506  23276525.040    95313478.68746
  23397316.080   122953734.43007  23397317.480    95808105.34946
  24244185.440   127404057.40206  24244186.900    99275890.52944
  20512248.920   107792614.10709  20512248.280    83994257.62149
  21371864.540   112310054.85508  21371863.760    87514395.22548
  20493766.500   107695493.56909  20493769.860    83918589.35649
  21608065.100   113551179.11608  21608067.140    88481460.24747
 15 02 20 03 56  0.0000000  0  9G01G04G14G16G18G19G22G27G32
  23459347.300   123279712.92506  23459352.560    96062141.58146
  21238418.700   111608677.28908  21238420.760    86967832.55848
  23265202.100   122259458.99006  23265204.060    95267121.18345
  23417041.600   123057392.46707  23417042.880    95888877.84746
  24261277.080   127493874.04306  24261278.700    99345877.49744
  20508164.260   107771149.36009  20508163.680    83977531.84849
  21382830.080   112367679.00408  21382829.260    87559297.16948
  20499447.600   107725348.14509  20499451.000    83941852.66149
  21591447.920   113463855.60008  21591450.120    88413415.94747
 15 02 20 03 56 30.0000000  0  9G01G04G14G16G18G19G22G27G32
  23445710.280   123208050.06906  23445715.640    96006300.42546
  21229163.540   111560041.13408  21229165.640    86929934.25148
  23253941.740   122200286.00606  23253943.880    95221012.36845
  23436791.360   123161178.12707  23436792.480    95969749.77145
  24278387.380   127583788.12306  24278388.940    99415940.42744
  20504153.920   107750075.29709  20504153.420    83961110.50449
  21393863.720   112425661.23408  21393862.900    87604478.13648
  20505212.960   107755645.61309  20505216.420    83965461.07149
  21574906.780   113376931.50708  21574909.140    88345682.89148
 15 02 20 03 57  0.0000000  0  9G01G04G14G16G18G19G22G27G32
  23432094.940   123136500.81206  23432100.240    95950547.74746
  21219951.900   111511633.74508  21219954.020    86892214.21148
  23242742.700   122141434.98206  23242745.060    95175154.42445
  23456564.920   123265088.56307  23456565.820    96050718.94245
  24295515.740   127673797.74506  24295517.320    99486077.78244
  20500218.160   107729393.03009  20500217.720    83944994.45849
  21404965.200   112483999.75808  21404964.360    87649936.73048
  20511062.680   107786386.13309  20511066.140    83989414.71749
  21558442.100   113290408.79508  21558444.540    88278262.59747
 15 02 20 03 57 30.0000000  0  9G01G04G14G16G18G19G22G27G32
  23418501.240   123065065.25206  23418506.440    95894883.68946
  21210783.800   111463455.20408  21210785.980    86854672.49548
  23231605.540   122082908.53507  23231607.880    95129549.38646
  23476361.480   123369120.25907  23476362.200    96131782.59145
  24312661.900   127763901.06406  24312663.340    99556288.16744
  20496357.240   107709103.92409  20496356.840    83929184.76949
  21416134.060   112542692.31908  21416133.180    87695671.20548
  20516996.740   107817569.89509  20517000.240    84013713.75049
  21542054.220   113204289.50808  21542056.640    88211156.67347
 15 02 20 03 58  0.0000000  0  9G01G04G14G16G18G19G22G27G32
  23404929.320   122993744.51206  23404934.480    95839309.09946
  21201659.500   111415506.79908  21201661.700    86817310.11248
  23220530.920   122024710.49107  23220533.180    95084200.26745
  23496180.740   123473271.63807  23496181.440    96212939.51646
  24329825.620   127854097.12406  24329827.040    99626570.78443
  20492571.640   107689210.66709  20492571.300    83913683.53649
  21427370.080   112601737.83208  21427369.200    87741680.70848
  20523015.400   107849198.22509  20523018.940    84038359.19649
  21525743.660   113118576.74508  21525746.040    88144367.51547
 15 02 20 03 58 30.0000000  0  9G01G04G14G16G18G19G22G27G32
  23391378.920   122922537.23706  23391384.060    95783822.93546
  21192578.740   111367787.26208  21192580.980    86780126.07648
  23209518.920   121966841.74907  23209521.000    95039107.73446
  23516022.100   123577539.15407  23516022.860    96294186.93145
  24347006.460   127944382.87106  24347007.780    99696923.34644
  20488861.380   107669712.95309  20488861.020    83898490.51649
  21438672.580   112661133.04608  21438671.720    87787962.70448
  20529118.400   107881269.84509  20529121.980    84063350.06549
  21509510.560   113033271.16308  21509512.900    88077895.63547
 15 02 20 03 59  0.0000000  0  9G01G04G14G16G18G19G22G27G32
  23377850.400   122851445.06806  23377855.540    95728426.48046
  21183541.880   111320298.36608  21183544.140    86743121.77248
  23198570.460   121909306.98207  23198572.420    94994275.45745
  23535885.300   123681921.23507  23535886.180    96375523.61946
  24364204.240   128034758.01805  24364205.380    99767345.50343
  20485227.000   107650613.99409  20485226.620    83883608.21549
  21450041.560   112720877.91808  21450040.780    87834517.15348
  20535306.140   107913786.59909  20535309.760    84088687.79349
  21493355.600   112948376.48808  21493357.940    88011743.96547
 15 02 20 03 59 30.0000000  0  9G01G04G14G16G18G19G22G27G32
  23364343.400   122780465.72706  23364348.580    95673117.93745
  21174548.520   111273038.00808  21174550.760    86706295.54248
  23187685.680   121852106.69707  23187687.460    94949703.81045
  23555769.300   123786412.57307  23555770.380    96456945.45645
  24381418.160   128125218.46305  24381419.320    99837834.18443
  20481668.300   107631912.71609  20481667.880    83869035.79249
  21461476.180   112780967.65908  21461475.440    87881340.34048
  20541578.160   107946746.24509  20541581.800    84114370.62749
  21477278.700   112863892.28608  21477281.100    87945912.13247
 15 02 20 04 00  0.0000000  0  9G01G04G14G16G18G19G22G27G32
  23350858.160   122709600.61706  23350863.320    95617898.42545
  21165598.920   111226007.53008  21165601.140    86669648.43848
  23176865.300   121795244.86607  23176866.960    94905395.89845
  23575673.740   123891011.34207  23575674.960    96538450.98646
  24398648.160   128215763.72605  24398649.300    99908388.89943
  20478185.780   107613611.69209  20478185.300    83854775.25449
  21472976.320   112841401.47008  21472975.600    87928431.62648
  20547934.760   107980150.37109  20547938.380    84140399.80949
  21461280.560   112779821.90308  21461283.020    87880402.74647
 15 02 20 04 00 30.0000000  0  9G01G04G14G16G18G19G22G27G32
  23337394.500   122638848.68506  23337399.600    95562767.10845
  21156692.880   111179205.93908  21156695.060    86633179.67548
  23166109.620   121738722.99007  23166111.180    94861352.87645
  23595598.020   123995714.01707  23595599.380    96620037.49645
  24415893.820   128306391.07205  24415895.160    99979007.61944
  20474779.520   107595711.52009  20474779.020    83840827.07249
  21484541.460   112902176.53608  21484540.720    87975788.82648
  20554375.780   108013997.96309  20554379.360    84166774.54749
  21445361.380   112696166.31308  21445363.860    87815216.58048
 15 02 20 04 01  0.0000000  0  9G01G04G14G16G18G19G22G27G32
  23323952.420   122568210.07006  23323957.540    95507724.06045
  21147830.500   111132633.83908  21147832.680    86596889.73948
  23155419.140   121682543.74407  23155420.660    94817576.83646
  23615541.600   124100517.85606  23615543.000    96701702.83445
  24433154.860   128397098.75405  24433156.280   100049688.93143
  20471449.820   107578213.70209  20471449.280    83827192.40749
  21496171.180   112963290.72808  21496170.400    88023410.28148
  20560901.240   108048289.25809  20560904.780    84193495.02549
  21429521.580   112612927.52308  21429524.040    87750355.19648
 15 02 20 04 01 30.0000000  0  9G01G04G14G16G18G19G22G27G32
  23310531.980   122497685.20506  23310537.140    95452769.65546
  21139011.820   111086291.54908  21139014.020    86560778.86048
  23144794.420   121626710.39307  23144796.020    94774070.32445
  23635503.980   124205420.16407  23635505.280    96783444.89045
  24450431.040   128487885.36905  24450432.440   100120431.74345
  20468196.980   107561119.95509  20468196.440    83813872.61049
  21507865.080   113024742.37708  21507864.280    88071294.68948
  20567511.220   108083024.76709  20567514.700    84220561.64349
  21413761.560   112530107.93808  21413763.980    87685820.46547
 15 02 20 04 02  0.0000000  0  9G01G04G14G16G18G19G22G27G32
  23297133.260   122427274.43006  23297138.340    95397904.15346
  21130236.960   111040179.49308  21130239.180    86524847.38948
  23134236.000   121571225.79707  23134237.840    94730835.56246
  23655484.540   124310418.45807  23655485.760    96865261.74245
  24467721.980   128578749.32005  24467723.300   100191234.78944
  20465021.300   107544431.73609  20465020.760    83800868.80749
  21519622.860   113086529.90408  21519622.040    88119440.82048
  20574205.740   108118204.81409  20574209.260    84247974.65549
  21398081.720   112447709.71008  21398084.080    87621614.06347
 15 02 20 04 02 30.0000000  0  9G01G04G14G16G18G19G22G27G32
  23283756.260   122356977.74706  23283761.300    95343127.52946
  21121505.960   110994297.81008  21121508.140    86489095.43948
  23123744.440   121516092.60807  23123746.520    94687874.63245
  23675482.720   124415509.70306  23675483.860    96947151.01645
  24485027.260   128669688.95505  24485028.640   100262096.86844
  20461923.040   107528150.43209  20461922.540    83788182.08149
  21531444.100   113148651.09708  21531443.320    88167846.94948
  20580984.860   108153829.51209  20580988.420    84275734.14949
  21382482.400   112365734.84608  21382484.740    87557737.54648
 15 02 20 04 03  0.0000000  0  9G01G04G14G16G18G19G22G27G32
  23270400.920   122286794.93306  23270406.000    95288439.64946
  21112818.840   110948646.53408  21112820.960    86453523.02448
  23113320.240   121461313.09607  23113322.440    94645189.29045
  23695498.060   124520690.96406  23695499.140    97029110.44645
  24502346.600   128760702.09406  24502347.940   100333016.18344
  20458902.400   107512276.88809  20458901.900    83775813.09049
  21543328.380   113211103.51308  21543327.600    88216511.17548
  20587848.560   108189898.57809  20587852.140    84303839.91249
  21366963.940   112284184.93308  21366966.260    87494192.17748
 15 02 20 04 03 30.0000000  0  9G01G04G14G16G18G19G22G27G32
  23257067.200   122216725.80606  23257072.260    95233840.35646
  21104175.500   110903225.46508  21104177.580    86418129.98548
  23102963.800   121406889.70507  23102965.940    94602781.45445
  23715529.840   124625959.23306  23715531.020    97111137.67346
  24519679.640   128851787.07705  24519681.000   100403991.51944
  20455959.580   107496812.33109  20455959.060    83763762.79149
  21555275.260   113273884.97508  21555274.500    88265431.79648
  20594796.800   108226411.82509  20594800.380    84332291.78549
  21351526.680   112203061.69208  21351528.980    87430979.27048
 15 02 20 04 04  0.0000000  0  9G01G04G14G16G18G19G22G27G32
  23243755.120   122146770.41406  23243760.160    95179329.68746
  21095576.040   110858034.84808  21095578.060    86382916.52448
  23092675.640   121352824.98807  23092677.680    94560653.11445
  23735577.600   124731311.68006  23735578.980    97193230.49545
  24537026.020   128942941.78705  24537027.240   100475021.15544
  20453094.840   107481758.14609  20453094.320    83752032.26049
  21567284.400   113336993.48908  21567283.640    88314607.26648
  20601829.560   108263369.26309  20601833.140    84361089.77849
  21336170.920   112122366.92508  21336173.280    87368100.24048
 15 02 20 04 04 30.0000000  0  9G01G04G14G16G18G19G22G27G32
  23230465.000   122076930.29906  23230469.980    95124908.83945
  21087020.680   110813076.09108  21087022.680    86347883.73648
  23082456.520   121299123.10807  23082458.280    94518807.50545
  23755641.100   124836746.51206  23755642.600    97275387.51145
  24554385.460   129034166.02805  24554386.620   100546104.97344
  20450308.720   107467117.05309  20450308.200    83740623.62049
  21579355.640   113400428.42808  21579354.860    88364037.09548
  20608947.120   108300772.46409  20608950.720    84390235.12249
  21320897.360   112042104.04608  21320899.760    87305557.73248
 15 02 20 04 05  0.0000000  0  9G01G04G14G16G18G19G22G27G32
  23217196.600   122007204.28406  23217201.500    95070576.88946
  21078509.300   110768348.49008  21078511.300    86313031.06848
  23072306.620   121245785.16007  23072308.200    94477245.47046
  23775719.600   124942260.07306  23775721.160    97357605.86045
  24571757.500   129125456.84305  24571758.680   100617240.65144
  20447601.180   107452888.92109  20447600.680    83729536.75849
  21591488.380   113464186.41808  21591487.580    88413718.64348
  20616149.320   108338620.15409  20616152.880    84419726.81849
  21305706.160   111962273.74108  21305708.560    87243352.30848
 15 02 20 04 05 30.0000000  0  9G01G04G14G16G18G19G22G27G32
  23203949.660   121937591.02906  23203954.420    95016332.80746
  21070041.640   110723850.66508  21070043.620    86278357.43748
  23062226.220   121192812.54507  23062227.780    94435968.12645
  23795812.440   125047848.24206  23795813.780    97439882.35145
  24589141.620   129216811.21805  24589142.720   100688425.86644
  20444972.220   107439073.71609  20444971.720    83718771.66149
  21603681.920   113528263.99208  21603681.100    88463649.22748
  20623435.840   108376910.85709  20623439.320    84449563.72149
  21290597.360   111882876.41108  21290599.760    87181484.27148
 15 02 20 04 06  0.0000000  0  9G01G04G14G16G18G19G22G27G32
  23190724.600   121868092.99806  23190729.300    94962178.52246
  21061618.160   110679585.09208  21061620.160    86243864.79248
  23052216.340   121140210.13907  23052217.880    94394979.24246
  23815919.380   125153510.43606  23815920.500    97522216.53044
  24606537.900   129308229.84905  24606538.840   100759661.19342
  20442422.540   107425675.14409  20442422.060    83708331.21349
  21615936.400   113592661.70608  21615935.560    88513829.27248
  20630807.140   108415647.03209  20630810.580    84479747.74149
  21275571.760   111803916.17708  21275574.120    87119956.80348
 15 02 20 04 06 30.0000000  0  9G01G04G14G16G18G19G22G27G32
  23177521.060   121798708.11906  23177525.700    94908112.40446
  21053238.500   110635549.86008  21053240.520    86209551.64148
  23042277.080   121087978.55007  23042278.640    94354279.31146
  23836039.400   125259241.51906  23836040.240    97604604.36844
  24623945.720   129399708.77105  24623946.580   100830943.48244
  20439951.980   107412692.39809  20439951.520    83698214.78549
  21628250.980   113657375.25608  21628250.120    88564255.41648
  20638262.780   108454826.49809  20638266.200    84510277.19849
  21260629.360   111725392.93308  21260631.640    87058769.85448
 15 02 20 04 07  0.0000000  0  9G01G04G14G16G18G19G22G27G32
  23164339.340   121729437.91006  23164343.840    94854135.63245
  21044903.040   110591746.77808  21044905.040    86175419.37348
  23032409.200   121036121.72107  23032410.760    94313871.38846
  23856172.200   125365040.14406  23856172.920    97687044.86045
  24641364.920   129491247.90505  24641365.840   100902272.67343
  20437561.160   107400128.43009  20437560.700    83688424.68149
  21640625.540   113722403.99708  21640624.680    88614927.16548
  20645803.020   108494450.62409  20645806.440    84541153.14049
  21245770.660   111647309.84008  21245772.900    86997925.89048
 15 02 20 04 07 30.0000000  0  9G01G04G14G16G18G19G22G27G32
  23151179.440   121660282.20506  23151183.840    94800248.09545
  21036611.700   110548175.54208  21036613.680    86141467.78348
  23022613.140   120984641.96107  23022614.640    94273757.28746
  23876317.260   125470903.48806  23876318.080    97769535.78545
  24658795.140   129582845.12505  24658796.220   100973647.18444
  20435250.180   107387983.89909  20435249.680    83678961.41449
  21653059.560   113787745.32108  21653058.760    88665842.48448
  20653427.800   108534519.11109  20653431.240    84572375.32949
  21230996.020   111569668.44308  21230998.220    86937426.09248
 15 02 20 04 08  0.0000000  0  9G01G04G14G16G18G19G22G27G32
  23138041.300   121591240.95306  23138045.640    94746449.72746
  21028364.540   110504836.31808  21028366.460    86107696.98448
  23012889.180   120933541.40307  23012890.660    94233938.67846
  23896474.080   125576828.82806  23896475.120    97852075.02545
  24676236.120   129674498.60305  24676237.180   101045065.46043
  20433019.260   107376260.10909  20433018.700    83669825.99349
  21665552.740   113853397.59308  21665551.980    88717000.09348
  20661137.080   108575031.77709  20661140.560    84603943.63249
  21216305.740   111492470.43508  21216307.920    86877271.78848
 15 02 20 04 08 30.0000000  0  9G01G04G14G16G18G19G22G27G32
  23124924.740   121522312.98806  23124929.060    94692739.64546
  21020161.300   110461728.07008  21020163.200    86074106.16348
  23003237.600   120882821.53407  23003239.020    94194416.71646
  23916641.900   125682811.68206  23916643.160    97934659.08446
  24693687.200   129766205.45205  24693688.480   101116525.34443
  20430868.380   107364957.05809  20430867.780    83661018.42349
  21678104.400   113919357.09808  21678103.660    88768397.11048
  20668930.620   108615987.24009  20668934.120    84635856.97249
  21201699.940   111415716.36208  21201702.120    86817463.41548
 15 02 20 04 09  0.0000000  0  9G01G04G14G16G18G19G22G27G32
  23111830.100   121453500.48207  23111834.540    94639119.53146
  21012002.480   110418853.18908  21012004.340    86040697.17648
  22993659.140   120832486.96807  22993660.540    94155194.98046
  23936820.660   125788851.54206  23936822.080    98017287.53645
  24711148.540   129857965.94605  24711150.040   101188027.04244
  20428798.180   107354077.93209  20428797.540    83652541.19049
  21690714.580   113985624.05408  21690713.840    88820033.69948
  20676808.880   108657387.55209  20676812.340    84668116.94149
  21187179.420   111339410.11008  21187181.540    86758003.99148
 15 02 20 04 09 30.0000000  0  9G01G04G14G16G18G19G22G27G32
  23098757.180   121384801.81107  23098761.700    94585588.11546
  21003887.700   110376209.85008  21003889.580    86007468.61148
  22984153.980   120782538.45207  22984155.440    94116274.06945
  23957009.360   125894943.72706  23957010.900    98099956.77745
  24728619.580   129949776.99405  24728621.200   101259568.10644
  20426808.500   107343622.16909  20426807.900    83644393.84449
  21703382.500   114052194.53608  21703381.800    88871906.80248
  20684771.460   108699230.82209  20684774.840    84700722.07649
  21172744.100   111263551.66008  21172746.180    86698893.50748
 15 02 20 04 10  0.0000000  0  9G01G04G14G16G18G19G22G27G32
  23085705.680   121316215.71807  23085710.280    94532144.42546
  20995816.820   110333797.25508  20995818.760    85974419.83348
  22974722.600   120732977.52407  22974724.140    94077655.16845
  23977207.260   126001084.37306  23977208.920    98182663.75846
  24746099.880   130041635.69405  24746101.260   101331146.34143
  20424899.360   107333589.84109  20424898.820    83636576.44849
  21716107.620   114119065.33308  21716106.900    88924013.91048
  20692818.000   108741515.61509  20692821.340    84733671.25349
  21158394.020   111188141.37608  21158396.080    86640132.24048
 15 02 20 04 10 30.0000000  0  9G01G04G14G16G18G19G22G27G32
  23072675.940   121247743.70207  23072680.560    94478789.63646
  20987790.180   110291617.03008  20987792.160    85941552.14848
  22965365.700   120683807.41307  22965367.220    94039340.79445
  23997414.080   126107272.01606  23997415.820    98265407.39045
  24763589.240   130133541.52505  24763590.400   101402761.26144
  20423071.260   107323983.50509  20423070.800    83629090.99149
  21728889.800   114186235.73708  21728889.000    88976354.48948
  20700948.760   108784243.17309  20700952.120    84766965.44649
  21144129.820   111113182.49908  21144131.880    86581722.73448
 15 02 20 04 11  0.0000000  0  9G01G04G14G16G18G19G22G27G32
  23059668.140   121179387.04107  23059672.740    94425524.70546
  20979808.000   110249670.39608  20979810.020    85908866.47748
  22956084.080   120635032.17107  22956085.520    94001334.11545
  24017629.440   126213505.14306  24017631.260    98348186.46745
  24781087.480   130225494.28305  24781088.380   101474412.74544
  20421324.700   107314805.53309  20421324.300    83621939.32549
  21741728.780   114253704.86708  21741727.960    89028927.83748
  20709163.920   108827414.55609  20709167.360    84800605.47349
  21129952.000   111038677.90108  21129954.100    86523667.18748
 15 02 20 04 11 30.0000000  0  9G01G04G14G16G18G19G22G27G32
  23046682.240   121111145.71507  23046686.900    94372349.66547
  20971870.240   110207957.27308  20971872.300    85876362.75548
  22946878.060   120586654.02307  22946879.520    93963636.86945
  24037852.920   126319780.80506  24037854.840    98430998.68745
  24798594.160   130317492.06305  24798594.860   101546099.36642
  20419659.920   107306057.01309  20419659.500    83615122.30049
  21754624.180   114321470.65908  21754623.380    89081732.34048
  20717463.460   108871029.39309  20717466.980    84834591.05249
  21115860.880   110964629.02808  21115863.060    86465966.76248
 15 02 20 04 12  0.0000000  0  9G01G04G14G16G18G19G22G27G32
  23033718.080   121043018.86006  23033722.860    94319263.81646
  20963976.840   110166477.31008  20963978.900    85844040.70848
  22937747.920   120538674.28807  22937749.440    93926250.05046
  24058083.740   126426095.08606  24058085.780    98513840.96244
  24816108.880   130409532.28005  24816109.460   101617818.96643
  20418076.960   107297738.36009  20418076.500    83608640.24149
  21767575.460   114389530.06408  21767574.640    89134765.64048
  20725847.200   108915086.60909  20725850.820    84868921.34449
  21101856.680   110891036.68908  21101858.900    86408622.08948
 15 02 20 04 12 30.0000000  0  9G01G04G14G16G18G19G22G27G32
  23020775.520   120975005.57406  23020780.400    94266266.48546
  20956127.600   110125229.42508  20956129.660    85811899.51348
  22928693.840   120491094.45807  22928695.440    93889174.86746
  24078321.400   126532444.54706  24078323.260    98596710.69645
  24833631.140   130501612.44105  24833631.800   101689569.76144
  20416575.780   107289849.54009  20416575.340    83602493.11349
  21780581.980   114457879.77208  21780581.160    89188025.14548
  20734314.900   108959584.95409  20734318.600    84903595.36949
  21087939.440   110817901.50908  21087941.740    86351633.63548
 15 02 20 04 13  0.0000000  0  9G01G04G14G16G18G19G22G27G32
  23007854.900   120907107.63306  23007859.880    94213359.02546
  20948322.920   110084215.69908  20948325.000    85779940.77448
  22919716.620   120443918.95107  22919718.400    93852414.73646
  24098565.720   126638827.96806  24098567.200    98679606.86045
  24851160.900   130593732.38805  24851161.820   101761351.54444
  20415156.920   107282393.33309  20415156.460    83596683.07649
  21793643.740   114526519.61808  21793642.920    89241510.73748
  20742866.840   109004525.84909  20742870.620    84938614.23849
  21074109.880   110745226.77608  21074112.240    86295003.98048
 15 02 20 04 13 30.0000000  0 10G01G03G04G14G16G18G19G22G27G32
  22994956.300   120839325.43007  22994961.320    94160541.73846
  24633929.260   129452170.52006  24633933.100   100871834.14746
  20940562.860   110043436.41408  20940564.920    85748164.72848
  22910816.720   120397150.27907  22910818.680    93815971.61446
  24118816.140   126745242.65206  24118816.980    98762527.40144
  24868698.020   130685890.91405  24868699.220   101833163.39144
  20413820.640   107275371.24009  20413820.180    83591211.31649
  21806760.320   114595447.70608  21806759.480    89295220.93248
  20751503.100   109049909.44409  20751506.880    84973978.06649
  21060368.340   110673014.45108  21060370.740    86238734.63648
 15 02 20 04 14  0.0000000  0 10G01G03G04G14G16G18G19G22G27G32
  22982079.500   120771657.36307  22982084.480    94107813.40346
  24614001.120   129347447.48806  24614004.980   100790231.81445
  20932847.180   110002890.31008  20932849.240    85716570.37848
  22901994.280   120350789.03907  22901996.420    93779845.97946
  24139071.760   126851684.51506  24139071.960    98845469.10045
  24886241.780   130778084.84405  24886243.260   101905002.84644
  20412566.860   107268782.72809  20412566.420    83586077.41649
  21819931.020   114664660.41708  21819930.200    89349152.91248
  20760223.240   109095733.76109  20760226.980    85009685.31149
  21046714.800   110601264.37508  21046717.180    86182825.47448
 15 02 20 04 14 30.0000000  0  9G01G03G04G14G16G19G22G27G32
  22969223.440   120704098.25407  22969228.400    94055169.96246
  24594095.740   129242844.47206  24594099.780   100708723.00645
  20925174.920   109962572.39808  20925176.960    85685153.82948
  22893248.840   120304832.29907  22893251.140    93744035.53246
  24159330.800   126958145.39006  24159330.680    98928425.62944
  20411394.800   107262623.60409  20411394.360    83581278.10249
  21833154.480   114734150.20008  21833153.660    89403300.79348
  20769026.180   109141993.22909  20769029.840    85045731.63949
  21033148.500   110529973.04208  21033150.920    86127273.78248
 15 02 20 04 15  0.0000000  0  9G01G03G04G14G16G19G22G27G32
  22956390.900   120636662.47807  22956395.720    94002622.61646
  24574216.200   129138377.52306  24574220.400   100627320.21345
  20917548.800   109922496.83008  20917550.820    85653926.11448
  22884583.660   120259296.74607  22884585.880    93708553.28146
  24179595.420   127064636.96606  24179595.300    99011406.05244
  20410307.400   107256909.24409  20410306.960    83576825.35649
  21846433.000   114803929.28908  21846432.180    89457674.09848
  20777914.580   109188701.80709  20777918.200    85082127.92849
  21019672.500   110459156.07608  21019674.920    86072091.72748
 15 02 20 04 15 30.0000000  0  9G01G03G04G14G16G19G22G27G32
  22943579.380   120569337.07607  22943584.080    93950161.27046
  24554360.320   129034035.31505  24554364.640   100546014.61746
  20909966.440   109882651.18309  20909968.460    85622877.57248
  22875996.820   120214171.78807  22875998.760    93673390.98446
  24199862.580   127171143.29705  24199862.900    99094398.01144
  20409302.400   107251627.88809  20409301.960    83572710.01249
  21859763.780   114873982.85008  21859762.920    89512261.28348
  20786885.900   109235846.22609  20786889.500    85118863.83049
  21006284.580   110388802.08508  21006287.020    86017270.43448
 15 02 20 04 16  0.0000000  0  9G01G03G04G14G16G19G22G27G32
  22930789.700   120502126.42007  22930794.300    93897789.34146
  24534529.280   128929823.79905  24534533.800   100464810.85545
  20902428.580   109843039.59808  20902430.640    85592011.39648
  22867489.420   120169463.62807  22867491.000    93638553.48046
  24220132.800   127277665.97506  24220133.600    99177402.67444
  20408380.760   107246784.61409  20408380.320    83568936.04049
  21873147.180   114944312.89508  21873146.300    89567063.91348
  20795940.860   109283430.34109  20795944.480    85155942.35349
  20992985.860   110318916.82608  20992988.300    85962814.39548
 15 02 20 04 16 30.0000000  0  9G01G03G04G14G16G19G22G27G32
  22918021.920   120435031.03607  22918026.400    93845507.23046
  24514723.520   128825745.08105  24514728.320   100383710.58646
  20894935.420   109803662.89509  20894937.520    85561328.26348
  22859061.840   120125175.09807  22859063.200    93604042.94546
  24240405.700   127384202.55405  24240406.880    99260418.19144
  20407542.740   107242380.56809  20407542.260    83565504.31649
  21886582.880   115014917.78008  21886581.980    89622080.69948
  20805079.520   109331454.23409  20805083.140    85193363.55749
  20979776.720   110249502.21108  20979779.120    85908725.08748
 15 02 20 04 17  0.0000000  0  9G01G03G04G14G16G19G22G27G32
  22905276.220   120368051.83607  22905280.600    93793315.66646
  24494943.600   128721801.73006  24494948.580   100302715.77146
  20887487.200   109764522.14009  20887489.300    85530828.98248
  22850714.580   120081309.54407  22850715.900    93569862.01646
  24260681.080   127490751.26706  24260682.460    99343443.16445
  20406788.780   107238418.22209  20406788.260    83562416.77749
  21900070.600   115085796.31408  21900069.720    89677310.71948
  20814301.960   109379918.35409  20814305.600    85231127.79249
  20966657.600   110180560.61008  20966659.960    85855004.36548
 15 02 20 04 17 30.0000000  0  9G01G03G04G14G16G19G22G27G32
  22892552.320   120301187.41707  22892556.640    93741213.53146
  24475189.680   128617993.95706  24475194.660   100221826.62145
  20880083.640   109725615.97509  20880085.700    85500512.50448
  22842447.800   120037867.78907  22842449.260    93536011.30446
  24280958.100   127597307.79006  24280959.660    99426474.21745
  20406118.760   107234897.09009  20406118.200    83559673.03949
  21913609.640   115156944.73808  21913608.820    89732751.04148
  20823607.820   109428820.84509  20823611.440    85269233.61849
  20953628.480   110112091.97008  20953630.800    85801652.17848
 15 02 20 04 18  0.0000000  0  9G01G03G04G14G16G19G22G27G32
  22879850.280   120234438.42107  22879854.700    93689201.33946
  24455462.140   128514323.98106  24455466.960   100141044.83246
  20872724.800   109686945.04409  20872726.860    85470379.31948
  22834261.960   119994852.23107  22834263.680    93502492.68646
  24301236.220   127703869.92505  24301237.920    99509509.68744
  20405532.960   107231818.72009  20405532.380    83557274.31249
  21927199.720   115228361.54508  21927199.000    89788400.49148
  20832997.140   109478161.85709  20833000.720    85307681.15249
  20940689.740   110044098.27008  20940692.040    85748670.07348
 15 02 20 04 18 30.0000000  0  9G01G03G04G14G16G19G22G27G32
  22867170.140   120167804.40307  22867174.700    93637278.72347
  24435761.160   128410792.97906  24435765.640   100060371.34946
  20865410.660   109648509.08709  20865412.740    85440429.22948
  22826157.600   119952264.75707  22826159.520    93469307.64746
  24321514.800   127810434.38506  24321516.460    99592546.93745
  20405031.460   107229183.45909  20405030.880    83555220.87049
  21940840.380   115300044.28308  21940839.760    89844257.15848
  20842469.700   109527940.42209  20842473.260    85346469.62649
  20927841.520   109976580.41308  20927843.800    85696058.76248
 15 02 20 04 19  0.0000000  0  9G01G03G04G14G16G19G22G27G32
  22854511.520   120101283.72907  22854516.280    93585444.42746
  24416086.560   128307400.93406  24416090.800    99979806.14045
  20858140.980   109610306.81809  20858143.100    85410661.23748
  22818134.940   119910106.00107  22818136.900    93436456.69946
  24341793.060   127916997.03406  24341794.620    99675582.74645
  20404614.120   107226990.50909  20404613.580    83553512.08849
  21954530.960   115371989.06608  21954530.360    89900318.01848
  20852025.100   109578154.41409  20852028.680    85385597.39449
  20915083.780   109909538.12808  20915086.060    85643818.02848
 15 02 20 04 19 30.0000000  0  9G01G03G04G14G16G19G22G27G32
  22841874.840   120034878.28407  22841879.800    93533699.97847
  24396438.880   128204151.18806  24396443.040    99899351.80445
  20850916.120   109572339.99609  20850918.260    85381076.71348
  22810194.720   119868379.68207  22810196.540    93403942.73746
  24362070.760   128023556.66805  24362072.320    99758616.24245
  20404281.540   107225242.71809  20404280.980    83552150.17649
  21968271.380   115444195.50608  21968270.800    89956582.76548
  20861663.600   109628805.09809  20861667.180    85425065.45149
  20902417.080   109842974.39408  20902419.380    85591950.18048
 15 02 20 04 20  0.0000000  0  9G01G03G04G14G16G19G22G27G32
  22829260.300   119968588.67607  22829265.300    93482045.70947
  24376818.640   128101046.06006  24376822.740    99819010.15846
  20843736.200   109534609.36409  20843738.340    85351676.23748
  22802337.420   119827088.67107  22802339.040    93371767.97146
  24382347.480   128130111.21705  24382349.200    99841645.77144
  20404034.020   107223941.64209  20404033.360    83551136.34849
  21982061.380   115516662.15008  21982060.760    90013050.27447
  20871385.200   109679892.64709  20871388.820    85464873.92749
  20889841.880   109776891.43208  20889844.180    85540456.97248
 15 02 20 04 20 30.0000000  0  9G01G03G04G14G16G19G22G27G32
  22816667.540   119902413.24107  22816672.540    93430480.46647
  24357225.880   127998085.37406  24357230.000    99738781.07545
  20836600.980   109497113.43809  20836603.040    85322458.64748
  22794563.100   119786233.20607  22794564.440    93339932.60946
  24402622.340   128236655.65306  24402624.100    99924667.40444
  20403871.280   107223086.25609  20403870.580    83550469.81249
  21995900.160   115589384.99108  21995899.480    90069717.41948
  20881189.520   109731414.64709  20881193.140    85505020.93949
  20877358.000   109711288.52008  20877360.320    85489337.82648
 15 02 20 04 21  0.0000000  0  9G01G03G04G14G16G19G22G27G32
  22804096.820   119836353.25707  22804101.700    93379005.17247
  24337661.180   127895271.98706  24337665.180    99658666.75846
  20829510.660   109459853.51109  20829512.680    85293424.94348
  22786872.180   119745816.52107  22786873.340    93308439.15146
  24422895.140   128343189.06905  24422896.640   100007680.47545
  20403793.720   107222678.72009  20403793.040    83550152.25649
  22009787.560   115662363.28208  22009786.760    90126583.62048
  20891076.700   109783371.84209  20891080.320    85545507.05549
  20864966.020   109646168.26008  20864968.340    85438594.77048
 15 02 20 04 21 30.0000000  0  9G01G03G04G14G16G19G22G27G32
  22791548.500   119770411.04107  22791553.260    93327621.64846
  24318125.180   127792609.73006  24318129.120    99578670.20646
  20822465.740   109422832.11909  20822467.720    85264577.11448
  22779265.340   119705843.35007  22779266.620    93277291.27546
  24443165.660   128449710.87906  24443166.940   100090684.45344
  20403802.060   107222722.55509  20403801.420    83550186.41149
  22023723.560   115735597.01508  22023722.660    90183648.85648
  20901047.060   109835765.96209  20901050.600    85586333.63449
  20852666.580   109581534.20908  20852668.920    85388230.57248
 15 02 20 04 22  0.0000000  0  9G01G03G04G14G16G19G22G27G32
  22779022.240   119704584.70607  22779026.900    93276328.41247
  24298617.860   127690098.29006  24298621.880    99498791.17645
  20815465.840   109386047.38909  20815467.800    85235913.69348
  22771742.640   119666313.48907  22771744.320    93246488.82146
  24463433.140   128556216.46905  24463434.240   100173675.80144
  20403895.920   107223216.27409  20403895.400    83550571.12249
  22037707.420   115809082.18608  22037706.440    90240910.01548
  20911100.020   109888594.44509  20911103.540    85627498.67549
  20840459.540   109517385.63608  20840461.880    85338244.68248
 15 02 20 04 22 30.0000000  0  9G01G03G04G14G16G19G22G27G32
  22766517.940   119638873.64807  22766522.460    93225125.00947
  24279139.400   127587738.55406  24279143.480    99419030.37246
  20808510.920   109349499.03009  20808512.860    85207434.46148
  22764304.620   119627228.37407  22764306.760    93216032.89846
  24483696.640   128662701.63105  24483697.740   100256651.27045
  20404075.480   107224160.16209  20404075.020    83551306.62249
  22051738.540   115882816.00908  22051737.560    90298364.93848
  20921235.340   109941856.05009  20921238.860    85669001.20949
  20828345.000   109453723.14108  20828347.320    85288637.54748
 15 02 20 04 23  0.0000000  0  9G01G03G04G14G16G19G22G27G32
  22754035.720   119573278.84507  22754040.160    93174012.19646
  24259690.280   127485533.12006  24259694.460    99339389.79646
  20801601.120   109313187.93509  20801603.040    85179140.11648
  22756951.920   119588591.01507  22756954.440    93185925.89346
  24503955.920   128769165.32306  24503957.120   100339609.99444
  20404341.020   107225555.92309  20404340.620    83552394.22849
  22065816.720   115956797.49408  22065815.800    90356012.83448
  20931453.120   109995551.08009  20931456.700    85710841.47749
  20816323.320   109390548.87108  20816325.620    85239410.84948
 15 02 20 04 23 30.0000000  0  9G01G03G04G14G16G19G22G27G32
  22741575.260   119507798.54707  22741579.640    93122988.60547
  24240270.520   127383481.72306  24240274.720    99259869.23346
  20794736.160   109277112.66309  20794738.100    85151029.52248
  22749684.740   119550401.40307  22749687.240    93156167.77046
  24524210.160   128875603.12605  24524211.480   100422548.54644
  20404692.400   107227402.65109  20404692.060    83553833.23249
  22079941.220   116031022.35208  22079940.360    90413850.37948
  20941752.920   110049677.10209  20941756.520    85753017.57649
  20804394.460   109327862.08608  20804396.700    85190564.00748
 15 02 20 04 24  0.0000000  0  9G01G03G04G14G16G19G22G27G32
  22729136.900   119442434.59507  22729141.220    93072055.66247
  24220880.640   127281587.65806  24220884.860    99180471.27245
  20787916.460   109241275.11109  20787918.440    85123104.16948
  22742503.680   119512663.46107  22742505.940    93126761.62346
  24544459.300   128982013.93705  24544460.560   100505466.05244
  20405130.140   107229702.98709  20405129.780    83555625.69449
  22094112.020   116105490.55908  22094111.200    90471877.54248
  20952134.960   110104235.32209  20952138.620    85795530.46649
  20792558.940   109265665.87708  20792561.120    85142099.43348
 15 02 20 04 24 30.0000000  0  9G01G03G04G14G16G19G22G27G32
  22716720.700   119377187.26807  22716725.020    93021213.59147
  24201521.000   127179852.76206  24201525.340    99101197.31346
  20781142.060   109205675.51909  20781144.080    85095364.23848
  22735408.980   119475379.21907  22735410.960    93097708.99346
  24564702.920   129088395.14305  24564704.080   100588360.53444
  20405654.440   107232457.98409  20405654.000    83557772.44949
  22108328.640   116180199.94508  22108327.940    90530092.63047
  20962599.160   110159225.14509  20962602.840    85838379.66349
  20780817.020   109203961.64508  20780819.160    85094018.22548
 15 02 20 04 25  0.0000000  0  9G01G03G04G14G16G19G22G27G32
  22704326.460   119312055.40407  22704330.800    92970461.50046
  24182191.640   127078277.34806  24182196.160    99022047.64446
  20774412.760   109170312.91409  20774414.820    85067808.96548
  22728400.720   119438549.58907  22728402.440    93069010.61946
  24584940.120   129194742.48705  24584941.160   100671228.57545
  20406265.180   107235667.14009  20406264.640    83560273.08149
  22122590.540   116255147.14508  22122589.880    90588493.03548
  20973145.140   110214644.72809  20973148.840    85881563.74549
  20769168.660   109142749.07108  20769170.800    85046320.11648
 15 02 20 04 25 30.0000000  0  9G01G03G04G14G16G19G22G27G32
  22691954.680   119247041.48807  22691959.040    92919801.31746
  24162893.460   126976865.39506  24162898.100    98943025.36846
  20767729.060   109135189.87009  20767731.120    85040440.37448
  22721479.560   119402178.77407  22721481.160    93040669.74946
  24605170.920   129301055.92905  24605171.800   100754070.20844
  20406962.900   107239333.49909  20406962.340    83563129.97249
  22136897.840   116330332.53508  22136897.180    90647079.03948
  20983773.320   110270495.78909  20983776.980    85925084.04249
  20757614.540   109082031.83708  20757616.720    84999007.99248
 15 02 20 04 26  0.0000000  0  9G01G03G04G14G16G19G22G27G32
  22679604.940   119182143.26007  22679609.340    92869231.27847
  24143626.340   126875616.10706  24143631.040    98864129.82946
  20761090.520   109100304.22009  20761092.600    85013256.75948
  22714645.540   119366266.55007  22714647.080    93012686.22246
  24625394.360   129407330.49805  24625395.080   100836881.54644
  20407747.320   107243455.54109  20407746.760    83566341.94749
  22151249.660   116405751.75308  22151248.980    90705847.24748
  20994482.980   110326775.27209  20994486.660    85968938.17349
  20746154.460   109021808.64708  20746156.640    84952080.84348
 15 02 20 04 26 30.0000000  0  9G01G03G04G14G16G19G22G27G32
  22667277.200   119117360.51307  22667281.640    92818751.22147
  24124390.640   126774530.79606  24124395.100    98785362.06246
  20754497.200   109065656.04009  20754499.260    84986258.18748
  22707899.080   119330814.56707  22707900.600    92985061.31346
  24645609.840   129513563.35505  24645610.300   100919660.38844
  20408618.520   107248033.90909  20408618.000    83569909.50549
  22165645.600   116481402.25608  22165644.800    90764795.67848
  21005273.960   110383482.24109  21005277.640    86013125.40149
  20734788.540   108962080.32308  20734790.720    84905539.29648
 15 02 20 04 27  0.0000000  0  9G01G03G04G14G16G19G22G27G32
  22654971.540   119052693.93007  22654976.060    92768361.68947
  24105186.520   126673611.41306  24105190.700    98706723.59146
  20747949.180   109031245.83109  20747951.220    84959445.05248
  22701240.740   119295825.15607  22701242.280    92957796.85546
  24665816.760   129619752.09005  24665817.220   101002404.87944
  20409576.780   107253069.74109  20409576.300    83573833.52849
  22180085.260   116557282.56708  22180084.400    90823923.17247
  21016146.240   110440616.36109  21016149.860    86057645.48449
  20723517.020   108902848.45108  20723519.260    84859384.59548
 15 02 20 04 27 30.0000000  0  9G01G03G04G14G16G19G22G27G32
  22642688.160   118988144.40607  22642692.720    92718063.35647
  24086014.440   126572860.59606  24086018.400    98628216.46346
  20741446.680   108997074.89709  20741448.700    84932818.35848
  22694671.040   119261300.92407  22694672.600    92930894.87446
  24686014.860   129725894.66005  24686015.260   101085113.35944
  20410622.500   107258564.76409  20410622.020    83578115.35749
  22194568.460   116633391.71808  22194567.540    90883228.99147
  21027099.900   110498177.99409  21027103.460    86102498.68849
  20712340.360   108844115.04808  20712342.640    84813618.30548
 15 02 20 04 28  0.0000000  0  9G01G03G04G14G16G19G22G27G32
  22630427.200   118923712.78707  22630431.800    92667856.89747
  24066874.760   126472280.50506  24066878.660    98549842.35945
  20734989.880   108963144.10009  20734991.880    84906378.78848
  22688190.500   119227244.58407  22688192.060    92904357.49146
  24706203.940   129831989.69405  24706204.420   101167784.82845
  20411755.860   107264520.37209  20411755.360    83582756.09549
  22209094.800   116709727.94508  22209093.880    90942711.75347
  21038134.920   110556167.02109  21038138.420    86147684.93749
  20701258.900   108785881.83208  20701261.200    84768241.76948
 15 02 20 04 28 30.0000000  0  9G01G03G04G14G16G19G22G27G32
  22618188.220   118859396.50007  22618192.820    92617740.32447
  24047767.320   126371869.98806  24047771.200    98471600.40646
  20728578.300   108929450.90209  20728580.260    84880124.36048
  22681798.760   119193655.16707  22681800.340    92878183.93646
  24726383.040   129938031.48805  24726383.700   101250414.82844
  20412976.500   107270934.51309  20412975.940    83587754.12749
  22223663.440   116786286.64708  22223662.560    91002367.86347
  21049250.540   110614579.89409  21049254.020    86193201.44949
  20690272.320   108728147.14108  20690274.640    84723253.71448
