     2.11           OBSERVATION DATA    G                   RINEX VERSION / TYPE
SPIDER V4,0,0,3554                      2015 03 24 00:10    PGM / RUN BY / DATE 
CFKZ                                                        MARKER NAME         
CFKZ                                                        MARKER NUMBER       
                                                            OBSERVER / AGENCY   
496632              LEICA GRX1200+GNSS  8.10/4.007          REC # / TYPE / VERS 
10301036            LEIAR25         NONE                    ANT # / TYPE        
  5212138.8290   540257.5452  3624418.8863                  APPROX POSITION XYZ 
        0.0720        0.0000        0.0000                  ANTENNA: DELTA H/E/N
     1     1                                                WAVELENGTH FACT L1/2
     4    C1    L1    P2    L2                              # / TYPES OF OBSERV 
    30.000                                                  INTERVAL            
  2015    02    20    00    00    0.0000000     GPS         TIME OF FIRST OBS   
  2015    02    20    23    59   30.0000000     GPS         TIME OF LAST OBS    
    16                                                      LEAP SECONDS        
    29                                                      # OF SATELLITES     
   G 1   820   820   819   819                              PRN / # OF OBS      
   G 2   939   939   939   939                              PRN / # OF OBS      
   G 3   855   855   855   855                              PRN / # OF OBS      
   G 4   844   844   844   844                              PRN / # OF OBS      
   G 5   654   654   654   654                              PRN / # OF OBS      
   G 6   813   813   812   812                              PRN / # OF OBS      
   G 7   668   668   668   668                              PRN / # OF OBS      
   G 9   809   809   809   809                              PRN / # OF OBS      
   G10   765   765   765   765                              PRN / # OF OBS      
   G12   834   834   834   834                              PRN / # OF OBS      
   G13   807   807   806   806                              PRN / # OF OBS      
   G14   938   938   938   938                              PRN / # OF OBS      
   G15   711   711   711   711                              PRN / # OF OBS      
   G16   673   673   673   673                              PRN / # OF OBS      
   G17   940   940   939   939                              PRN / # OF OBS      
   G18   914   914   914   914                              PRN / # OF OBS      
   G19   762   762   762   762                              PRN / # OF OBS      
   G20   799   799   799   799                              PRN / # OF OBS      
   G21   735   735   735   735                              PRN / # OF OBS      
   G22   653   653   653   653                              PRN / # OF OBS      
   G23   752   752   752   752                              PRN / # OF OBS      
   G24   831   831   831   831                              PRN / # OF OBS      
   G25   863   863   863   863                              PRN / # OF OBS      
   G27   815   815   815   815                              PRN / # OF OBS      
   G28   879   878   878   878                              PRN / # OF OBS      
   G29   770   770   770   770                              PRN / # OF OBS      
   G30   715   715   715   715                              PRN / # OF OBS      
   G31   847   847   847   847                              PRN / # OF OBS      
   G32   768   768   768   768                              PRN / # OF OBS      
BIT 2 OF LLI FLAGS DATA COLLECTED UNDER A/S CONDITION       COMMENT             
SNR is mapped to RINEX snr flag value [2-9]                 COMMENT             
Lx:     = 25dBHz -> 1; 26-27dBHz -> 2; 28-31dBHz -> 3       COMMENT             
       32-35dBHz -> 4; 36-38dBHz -> 5; 39-41dBHz -> 6       COMMENT             
       42-44dBHz -> 7; 45-48dBHz -> 8; >=49dBHz -> 9        COMMENT             
                                                            END OF HEADER       
 15 02 20 00 00  0.0000000  0  7G16G18G21G25G27G29G31
  22740066.800   119499861.88008  22740063.020    93116767.23847
  23291243.660   122396428.34408  23291241.660    95373892.06446
  20944796.680   110065652.22808  20944792.540    85765430.48048
  23721928.540   124659565.13508  23721929.120    97137320.63046
  23835038.940   125253993.27808  23835038.480    97600520.55146
  22968149.740   120698431.77508  22968147.220    94050714.20847
  21939424.320   115292443.71309  21939420.920    89838248.83448
 15 02 20 00 00 30.0000000  0  7G16G18G21G25G27G29G31
  22723986.640   119415359.86908  22723982.720    93050921.49447
  23277201.780   122322637.79808  23277199.720    95316393.02745
  20947551.360   110080128.37708  20947547.260    85776710.60448
  23739229.860   124750484.10108  23739230.460    97208166.53246
  23821610.420   125183426.77508  23821610.700    97545533.78646
  22981417.280   120768153.96508  22981415.080    94105043.16647
  21953066.140   115364132.09709  21953062.740    89894109.87648
 15 02 20 00 01  0.0000000  0  7G16G18G21G25G27G29G31
  22707930.200   119330982.80208  22707926.160    92985173.14747
  23263186.380   122248986.34808  23263184.260    95259002.31946
  20950384.140   110095014.71008  20950380.020    85788310.34648
  23756570.840   124841611.24608  23756571.360    97279174.65846
  23808199.160   125112950.72708  23808199.040    97490617.35047
  22994691.540   120837911.03408  22994689.460    94159399.29247
  21966776.480   115436180.88009  21966773.220    89950251.74648
 15 02 20 00 01 30.0000000  0  7G16G18G21G25G27G29G31
  22691897.920   119246732.89909  22691894.000    92919523.90447
  23249198.000   122175477.11708  23249195.580    95201722.46346
  20953294.800   110110310.24808  20953290.680    85800228.95148
  23773951.340   124932945.76208  23773951.820    97350344.38446
  23794805.440   125042565.25808  23794805.200    97435771.56546
  23007972.460   120907703.09708  23007970.600    94213782.68947
  21980554.920   115508587.44709  21980551.800    90006672.41548
 15 02 20 00 02  0.0000000  0  7G16G18G21G25G27G29G31
  22675891.480   119162618.54909  22675887.600    92853980.26446
  23235238.500   122102119.76208  23235236.060    95144560.95745
  20956284.340   110126020.54108  20956280.220    85812470.73248
  23791372.260   125024493.01508  23791372.700    97421679.84046
  23781429.840   124972276.64408  23781429.780    97381001.26147
  23021261.180   120977536.15508  23021259.600    94268198.03047
  21994402.300   115581355.97809  21994399.260    90063375.12748
 15 02 20 00 02 30.0000000  0  7G16G18G21G25G27G29G31
  22659910.380   119078637.42009  22659906.600    92788540.43946
  23221307.480   122028911.98908  23221305.080    95087515.99246
  20959351.700   110142139.97408  20959347.660    85825031.32748
  23808832.740   125116247.42908  23808833.060    97493176.75446
  23768071.580   124902080.34508  23768071.720    97326302.92046
  23034556.860   121047405.15908  23034555.240    94322641.38747
  22008317.160   115654478.87909  22008314.120    90120353.96448
 15 02 20 00 03  0.0000000  0  7G16G18G21G25G27G29G31
  22643954.560   118994789.19109  22643950.820    92723204.15547
  23207405.000   121955853.82709  23207402.380    95030587.63246
  20962496.180   110158664.68508  20962492.280    85837907.72748
  23826331.960   125208205.61008  23826332.060    97564832.44746
  23754730.920   124831974.12308  23754731.180    97271674.69947
  23047859.020   121117307.64408  23047857.340    94377110.83547
  22022298.640   115727951.57409  22022295.580    90177605.37648
 15 02 20 00 03 30.0000000  0  7G16G18G21G25G27G29G31
  22628025.240   118911080.25409  22628021.540    92657976.40647
  23193532.440   121882952.69309  23193529.800    94973781.61145
  20965718.460   110175598.13308  20965714.680    85851102.61848
  23843870.400   125300370.86608  23843870.680    97636649.46746
  23741408.240   124761962.17108  23741407.820    97217119.95646
  23061168.440   121187248.24808  23061166.840    94431609.94847
  22036347.040   115801775.78909  22036343.940    90235130.69348
 15 02 20 00 04  0.0000000  0  7G16G18G21G25G27G29G31
  22612122.640   118827511.64309  22612118.920    92592858.04046
  23179690.120   121810211.11509  23179687.640    94917099.92646
  20969018.140   110192938.02408  20969014.380    85864614.22548
  23861447.840   125392741.23608  23861448.180    97708626.34646
  23728103.180   124692043.66108  23728103.300    97162638.07046
  23074484.780   121257225.49408  23074483.220    94486137.63747
  22050461.700   115875948.15309  22050458.580    90292927.28948
 15 02 20 00 04 30.0000000  0  7G16G18G21G25G27G29G31
  22596246.740   118744083.46209  22596243.040    92527849.06147
  23165878.200   121737629.48308  23165875.620    94860542.85246
  20972394.640   110210681.30708  20972390.860    85878440.16248
  23879063.680   125485313.70108  23879064.260    97780760.67646
  23714815.660   124622216.56508  23714815.000    97108227.29546
  23087807.660   121327237.27208  23087805.860    94540692.24147
  22064641.680   115950463.84909  22064638.560    90350991.42148
 15 02 20 00 05  0.0000000  0  7G16G18G21G25G27G29G31
  22580398.580   118660800.88209  22580394.860    92462953.52447
  23152097.740   121665213.26008  23152095.020    94804114.67646
  20975848.360   110228830.05809  20975844.420    85892582.04848
  23896718.320   125578090.17808  23896719.000    97853053.98746
  23701545.980   124552483.78708  23701546.040    97053890.14546
  23101137.540   121397286.28808  23101135.700    94595275.82447
  22078887.100   116025323.42909  22078883.960    90409323.51848
 15 02 20 00 05 30.0000000  0  7G16G18G21G25G27G29G31
  22564578.100   118577663.78209  22564574.440    92398171.40647
  23138348.940   121592963.11709  23138346.140    94747815.90846
  20979378.620   110247381.17108  20979374.580    85907037.45948
  23914411.340   125671067.64908  23914412.160    97925503.91046
  23688293.680   124482843.45308  23688293.380    96999624.95147
  23114474.040   121467370.25808  23114472.060    94649886.68947
  22093197.040   116100522.21409  22093193.840    90467919.92548
 15 02 20 00 06  0.0000000  0  7G16G18G21G25G27G29G31
  22548785.700   118494674.21809  22548782.140    92333504.21547
  23124632.360   121520882.36508  23124629.540    94691649.12446
  20982985.200   110266333.38609  20982981.040    85921805.42048
  23932142.380   125764245.03508  23932143.260    97998109.62846
  23675058.940   124413295.57308  23675059.400    96945431.90146
  23127817.280   121537489.58308  23127815.320    94704525.09247
  22107571.000   116176057.75809  22107567.760    90526778.74148
 15 02 20 00 06 30.0000000  0  7G16G18G21G25G27G29G31
  22533021.020   118411830.39209  22533017.520    92268950.60647
  23110947.740   121448969.49608  23110944.840    94635613.17946
  20986667.040   110285681.19109  20986662.800    85936881.64348
  23949910.480   125857617.19708  23949911.380    98070867.10745
  23661841.400   124343836.14308  23661841.140    96891307.60847
  23141166.440   121607639.58508  23141164.460    94759187.42547
  22122007.700   116251923.34109  22122004.460    90585894.73948
 15 02 20 00 07  0.0000000  0  7G16G18G21G25G27G29G31
  22517286.020   118329142.45609  22517282.540    92204518.47347
  23097297.120   121377235.09808  23097294.200    94579716.30146
  20990425.340   110305431.38609  20990421.140    85952271.40648
  23967716.960   125951190.89608  23967717.980    98143781.59546
  23648641.680   124274472.77308  23648642.120    96837258.32346
  23154523.000   121677828.02008  23154520.840    94813879.67947
  22136508.180   116328124.08809  22136504.940    90645271.90448
 15 02 20 00 07 30.0000000  0  7G16G18G21G25G27G29G31
  22501579.620   118246604.65909  22501576.120    92140203.30347
  23083679.540   121305674.17208  23083676.600    94523954.57946
  20994258.520   110325575.31108  20994254.460    85967967.96348
  23985560.220   126044957.44308  23985561.040    98216846.38946
  23635458.820   124205198.03108  23635459.140    96783278.06446
  23167885.380   121748047.18009  23167883.260    94868595.84747
  22151070.520   116404649.82009  22151067.300    90704902.29548
 15 02 20 00 08  0.0000000  0  7G16G18G21G25G27G29G31
  22485902.340   118164219.80509  22485898.800    92076007.32747
  23070095.620   121234290.16409  23070092.740    94468330.72046
  20998166.520   110346112.38608  20998162.540    85983970.88148
  24003440.100   126138916.30808  24003440.840    98290061.03146
  23622293.560   124136012.60908  23622293.840    96729367.30146
  23181253.740   121818297.81608  23181251.600    94923336.54446
  22165694.300   116481498.48409  22165691.120    90764784.32148
 15 02 20 00 08 30.0000000  0  7G16G18G21G25G27G29G31
  22470256.060   118081998.01709  22470252.500    92011938.40147
  23056547.500   121163094.45009  23056544.540    94412853.58546
  21002150.720   110367049.73008  21002146.740    86000285.69648
  24021357.980   126233074.76408  24021358.700    98363431.20245
  23609146.340   124066924.62908  23609146.300    96675532.56047
  23194629.480   121888587.62308  23194627.240    94978107.80047
  22180380.660   116558675.79709  22180377.540    90824922.44148
 15 02 20 00 09  0.0000000  0  7G16G18G21G25G27G29G31
  22454639.560   117999932.82109  22454635.920    91947991.50547
  23043033.960   121092080.47308  23043031.100    94357518.05546
  21006209.140   110388376.92609  21006205.160    86016904.29148
  24039311.940   126327422.63608  24039312.540    98436948.97346
  23596016.140   123997925.23108  23596016.480    96621766.85746
  23208010.860   121958907.50708  23208008.940    95032902.48847
  22195127.360   116636170.16609  22195124.300    90885307.61248
 15 02 20 00 09 30.0000000  0  7G16G18G21G25G27G29G31
  22439053.760   117918028.87409  22439050.060    91884170.23747
  23029555.980   121021253.62008  23029553.220    94302328.34146
  21010342.060   110410095.39108  21010337.980    86033827.77848
  24057302.200   126421961.61508  24057302.880    98510615.63046
  23582903.600   123929017.14308  23582903.440    96568072.20647
  23221398.440   122029260.50608  23221396.480    95087722.98247
  22209934.380   116713981.55209  22209931.420    90945939.80648
 15 02 20 00 10  0.0000000  0  7G16G18G21G25G27G29G31
  22423499.500   117836290.87509  22423495.900    91820478.31947
  23016114.540   120950619.01408  23016111.960    94247288.43346
  21014549.600   110432206.12609  21014545.460    86051056.92748
  24075329.060   126516692.79408  24075329.800    98584432.06946
  23569808.560   123860202.52708  23569808.720    96514450.52446
  23234792.760   122099648.64508  23234790.620    95142570.81346
  22224801.660   116792109.58109  22224798.780    91006818.73648
 15 02 20 00 10 30.0000000  0  7G16G18G21G25G27G29G31
  22407976.060   117754714.83109  22407972.500    91756912.55647
  23002709.160   120880173.63509  23002706.800    94192395.97546
  21018830.440   110454702.28708  21018826.280    86068586.40948
  24093391.100   126611609.03408  24093392.020    98658392.69246
  23556730.360   123791475.54508  23556730.460    96460897.01447
  23248192.760   122170065.97608  23248190.600    95197441.44247
  22239727.600   116870545.61709  22239724.800    91067937.67048
 15 02 20 00 11  0.0000000  0  7G16G18G21G25G27G29G31
  22392484.400   117673305.90009  22392480.840    91693477.06047
  22989340.880   120809923.09409  22989338.540    94137655.35746
  21023184.920   110477585.54908  21023180.780    86086417.53248
  24111488.780   126706712.23608  24111489.440    98732499.04845
  23543669.480   123722839.16608  23543669.280    96407414.13246
  23261598.840   122240515.28308  23261596.340    95252336.98046
  22254712.200   116949289.87309  22254709.440    91129296.77048
 15 02 20 00 11 30.0000000  0  7G16G18G21G25G27G29G31
  22377026.100   117592072.32709  22377022.520    91630178.16647
  22976011.380   120739876.28208  22976009.040    94083073.45746
  21027614.000   110500860.78709  21027609.860    86104554.07348
  24129622.880   126802007.43208  24129623.860    98806754.94545
  23530626.740   123654299.52308  23530626.520    96354006.67346
  23275012.060   122311002.36408  23275009.680    95307261.91046
  22269756.200   117028345.85109  22269753.340    91190898.78048
 15 02 20 00 12  0.0000000  0  8G16G18G21G22G25G27G29G31
  22361600.240   117511009.14509  22361596.740    91567012.05747
  22962719.800   120670028.76609  22962717.460    94028646.87146
  21032116.040   110524519.02209  21032111.880    86122989.06048
  24545962.500   128989927.15607  24545972.060   100511657.63246
  24147791.860   126897486.34308  24147792.660    98881154.02546
  23517601.160   123585849.63008  23517601.040    96300669.11946
  23288431.080   122381519.99008  23288428.800    95362210.70346
  22284857.660   117107703.80209  22284854.700    91252736.08148
 15 02 20 00 12 30.0000000  0  8G16G18G21G22G25G27G29G31
  22346206.880   117430116.75509  22346203.480    91503979.05447
  22949466.280   120600381.30808  22949463.880    93974376.14246
  21036690.360   110548557.06308  21036686.200    86141719.99648
  24528315.040   128897186.39808  24528322.440   100439392.66344
  24165995.360   126993145.93108  24165996.340    98955693.87845
  23504592.280   123517487.53608  23504592.080    96247399.96947
  23301855.700   122452066.49708  23301853.400    95417181.96946
  22300015.680   117187359.20709  22300012.620    91314805.17048
 15 02 20 00 13  0.0000000  0  8G16G18G21G22G25G27G29G31
  22330846.980   117349400.06209  22330843.580    91441082.90947
  22936251.860   120530939.55108  22936249.520    93920265.72946
  21041337.320   110572976.93109  21041333.200    86160748.46948
  24510651.240   128804360.75008  24510657.820   100367061.58745
  24184233.540   127088987.72808  24184234.340    99030375.73246
  23491600.380   123449215.94108  23491600.320    96194201.41646
  23315286.360   122522644.53508  23315284.100    95472177.82247
  22315230.220   117267312.08809  22315227.140    91377106.05648
 15 02 20 00 13 30.0000000  0  8G16G18G21G22G25G27G29G31
  22315521.460   117268864.06109  22315518.080    91378327.58947
  22923077.580   120461708.83608  22923075.220    93866319.74446
  21046057.280   110597780.28609  21046053.140    86180075.76148
  24492972.140   128711455.77208  24492978.240   100294668.68744
  24202506.540   127185013.38508  24202507.600    99105200.82146
  23478626.280   123381037.67808  23478626.860    96141075.55047
  23328723.480   122593256.88509  23328721.440    95527200.37946
  22330501.300   117347562.33909  22330498.380    91439638.66648
 15 02 20 00 14  0.0000000  0  8G16G18G21G22G25G27G29G31
  22300229.720   117188505.35609  22300226.360    91315710.42347
  22909942.960   120392686.49108  22909940.560    93812536.13346
  21050848.760   110622959.52608  21050844.640    86199695.93748
  24475277.020   128618467.99008  24475282.620   100222211.27845
  24220813.340   127281216.08208  24220814.400    99180163.90845
  23465669.360   123312947.29308  23465668.740    96088018.03647
  23342165.960   122663897.59708  23342164.000    95582245.05546
  22345827.400   117428101.78009  22345824.620    91502396.61448
 15 02 20 00 14 30.0000000  0  8G16G18G21G22G25G27G29G31
  22284973.000   117108330.45209  22284969.620    91253236.47447
  22896849.400   120323879.52708  22896846.920    93758920.35246
  21055712.340   110648517.66108  21055708.200    86219611.35848
  24457567.280   128525404.55707  24457572.540   100149694.94544
  24239154.420   127377599.02708  24239155.680    99255267.40946
  23452729.840   123244948.98409  23452730.000    96035032.44946
  23355614.800   122734571.14508  23355612.840    95637315.32646
  22361208.900   117508932.10309  22361206.200    91565381.22048
 15 02 20 00 15  0.0000000  0  8G16G18G21G22G25G27G29G31
  22269751.680   117028341.64709  22269748.220    91190907.53347
  22883797.400   120255290.61209  22883794.880    93705474.47146
  21060647.840   110674453.74508  21060643.720    86239821.29848
  24439843.100   128432267.64007  24439849.020   100077121.49244
  24257529.440   127474160.97108  24257530.820    99330510.35846
  23439807.580   123177042.71108  23439807.340    95982118.47047
  23369069.880   122805277.35008  23369067.780    95692411.02946
  22376645.240   117590050.19709  22376642.540    91628590.05048
 15 02 20 00 15 30.0000000  0  8G16G18G21G22G25G27G29G31
  22254565.500   116948537.33809  22254561.960    91128722.35547
  22870786.720   120186918.69109  22870784.100    93652197.68846
  21065654.220   110700762.63609  21065650.140    86260321.73148
  24422105.000   128339056.33508  24422110.940   100004489.85545
  24275937.740   127570896.87208  24275939.300    99405888.89246
  23426902.200   123109224.81008  23426901.820    95929273.39946
  23382530.440   122876012.31908  23382528.100    95747529.15847
  22392135.240   117671449.89709  22392132.440    91692018.31948
 15 02 20 00 16  0.0000000  0  8G16G18G21G22G25G27G29G31
  22239414.760   116868919.26309  22239411.140    91066682.30747
  22857817.680   120118765.82809  22857815.020    93599091.59446
  21070731.200   110727442.38009  21070727.120    86281111.14048
  24404353.140   128245772.47708  24404359.160    99931801.74346
  24294379.040   127667805.04708  24294379.940    99481401.68645
  23414013.760   123041494.79708  23414013.640    95876496.78047
  23395996.560   122946775.50209  23395993.740    95802669.21946
  22407678.200   117753127.80209  22407675.260    91755663.37448
 15 02 20 00 16 30.0000000  0  8G16G18G21G22G25G27G29G31
  22224300.680   116789493.92109  22224296.960    91004792.45547
  22844891.680   120050839.30009  22844889.160    93546161.88146
  21075879.380   110754496.30109  21075875.360    86302192.11948
  24386588.880   128152423.10708  24386594.800    99859062.61746
  24312853.780   127764888.70808  24312854.560    99557051.19245
  23401142.740   122973856.99908  23401141.920    95823792.00446
  23409468.920   123017571.51909  23409465.880    95857834.96046
  22423274.420   117835085.75609  22423271.400    91819526.64347
 15 02 20 00 17  0.0000000  0  8G16G18G21G22G25G27G29G31
  22209223.380   116710261.98609  22209219.560    90943053.27447
  22832008.920   119983140.07609  22832006.320    93493409.27446
  21081098.120   110781920.79108  21081094.120    86323561.84848
  24368812.520   128059009.18608  24368818.220    99786273.13245
  24331361.220   127862144.94308  24331361.680    99632835.16445
  23388288.820   122906309.86108  23388288.280    95771157.93646
  23422947.080   123088398.72109  23422943.760    95913024.98646
  22438922.920   117917318.77609  22438919.920    91883604.25448
 15 02 20 00 17 30.0000000  0  8G16G18G21G22G25G27G29G31
  22194183.260   116631225.56609  22194179.400    90881466.46447
  22819169.840   119915670.65009  22819167.260    93440835.71946
  21086386.980   110809714.36408  21086383.060    86345219.18148
  24351024.280   127965533.04408  24351029.780    99713435.17845
  24349901.060   127959572.39908  24349901.620    99708752.53645
  23375452.280   122838853.29108  23375451.500    95718594.36547
  23436430.980   123159256.66608  23436427.520    95968238.94046
  22454623.260   117999824.43109  22454620.380    91947894.30248
 15 02 20 00 18  0.0000000  0  8G16G18G21G22G25G27G29G31
  22179180.520   116552385.72809  22179176.680    90820032.82547
  22806374.800   119848432.67609  22806372.260    93388442.53846
  21091745.640   110837874.78008  21091741.780    86367162.36348
  24333224.420   127871996.01108  24333229.380    99640549.70845
  24368472.980   128057168.73107  24368473.680    99784801.50345
  23362632.820   122771486.12708  23362632.080    95666100.51246
  23449920.420   123230144.08509  23449916.920    96023475.85846
  22470374.800   118082599.04109  22470371.940    92012393.91648
 15 02 20 00 18 30.0000000  0  8G16G18G21G22G25G27G29G31
  22164215.740   116473745.39609  22164211.880    90758754.66347
  22793624.540   119781429.70209  22793621.880    93336232.46946
  21097174.040   110866401.69808  21097170.280    86389391.12848
  24315413.540   127778401.91108  24315418.260    99567619.85145
  24387076.920   128154933.50807  24387077.840    99860981.74645
  23349830.520   122704209.22109  23349829.600    95613676.95946
  23463415.600   123301062.39508  23463412.420    96078736.86446
  22486177.040   118165640.34109  22486174.200    92077101.35948
 15 02 20 00 19  0.0000000  0  8G16G18G21G22G25G27G29G31
  22149289.960   116395309.96109  22149286.100    90697636.15547
  22780920.120   119714667.40909  22780917.320    93284209.95046
  21102672.420   110895296.29008  21102668.760    86411906.39048
  24297592.740   127684755.88608  24297597.580    99494649.52945
  24405713.180   128252868.34107  24405714.420    99937294.48245
  23337045.920   122637025.52609  23337044.880    95561326.09046
  23476916.860   123372014.08408  23476914.280    96134023.86347
  22502030.040   118248948.43909  22502027.200    92142016.67748
 15 02 20 00 19 30.0000000  0  8G16G18G21G22G25G27G29G31
  22134402.400   116317075.50809  22134398.580    90636674.23347
  22768260.820   119648142.04109  22768257.860    93232372.01646
  21108239.380   110924551.07508  21108235.780    86434702.32548
  24279761.540   127591054.77108  24279765.940    99421636.19845
  24424380.460   128350966.03808  24424381.700   100013734.09445
  23324277.800   122569929.07308  23324277.100    95509043.18447
  23490423.440   123442993.10908  23490421.220    96189332.12946
  22517932.100   118332514.44409  22517929.300    92207132.95848
 15 02 20 00 20  0.0000000  0  8G16G18G21G22G25G27G29G31
  22119553.860   116239046.03709  22119550.100    90575872.06747
  22755647.420   119581858.33409  22755644.520    93180722.41546
  21113874.940   110954166.05608  21113871.380    86457778.92548
  24261920.640   127497302.77808  24261924.960    99348583.25745
  24443078.960   128449227.05808  24443080.300   100090300.96545
  23311526.620   122502921.65408  23311525.740    95456829.61047
  23503935.660   123514001.10309  23503933.880    96244662.97946
  22533883.080   118416337.53809  22533880.340    92272449.57348
 15 02 20 00 20 30.0000000  0  8G16G18G21G22G25G27G29G31
  22104744.820   116161224.20609  22104741.100    90515231.70247
  22743080.520   119515819.25009  22743077.700    93129263.42146
  21119578.960   110984140.78308  21119575.400    86481135.85648
  24244070.560   127403502.63108  24244075.040    99275492.80245
  24461808.520   128547650.22308  24461809.720   100166994.23245
  23298792.460   122436003.47808  23298792.020    95404685.58947
  23517453.540   123585038.31008  23517451.780    96300016.62446
  22549882.540   118500414.98209  22549879.840    92337964.36648
 15 02 20 00 21  0.0000000  0  8G16G18G21G22G25G27G29G31
  22089975.640   116083611.66009  22089971.940    90454754.40547
  22730560.460   119450026.35009  22730557.760    93077996.25746
  21125350.940   111014472.66108  21125347.280    86504771.08148
  24226211.780   127309656.27908  24226216.080    99202366.30345
  24480568.660   128646233.55808  24480569.540   100243812.27245
  23286075.140   122369173.73309  23286074.480    95352610.47047
  23530977.000   123656104.21008  23530975.180    96355392.63546
  22565929.760   118584743.10109  22565927.000    92403674.50147
 15 02 20 00 21 30.0000000  0  8G16G18G21G22G25G27G29G31
  22075247.240   116006213.18609  22075243.540    90394443.92447
  22718088.240   119384484.63809  22718085.700    93026924.82646
  21131191.160   111045162.91208  21131187.380    86528685.56448
  24208345.140   127215768.91908  24208349.260    99129207.84546
  24499359.420   128744978.52607  24499360.320   100320756.23345
  23273375.140   122302435.21909  23273374.660    95300606.49647
  23544506.440   123727201.33408  23544504.840    96410792.97446
  22582024.740   118669322.16909  22582021.960    92469580.17248
 15 02 20 00 22  0.0000000  0  8G16G18G21G22G25G27G29G31
  22060559.460   115929028.15209  22060555.720    90334299.75247
  22705664.040   119319194.95609  22705661.560    92976049.77746
  21137098.800   111076207.47308  21137094.940    86552876.12948
  24190470.900   127121840.52808  24190474.660    99056017.42246
  24518179.980   128843881.23907  24518181.140   100397823.11245
  23260692.020   122235785.38908  23260691.840    95248671.60947
  23558041.360   123798327.10708  23558039.600    96466215.60247
  22598166.400   118754146.55009  22598163.600    92535677.00247
 15 02 20 00 22 30.0000000  0  8G16G18G21G22G25G27G29G31
  22045912.620   115852058.22009  22045908.760    90274323.19247
  22693288.120   119254159.04409  22693285.720    92925372.49746
  21143073.380   111107603.55908  21143069.400    86577340.62448
  24172589.160   127027873.00608  24172592.540    98982796.53446
  24537030.280   128942939.40608  24537031.480   100475011.16345
  23248025.800   122169223.43008  23248025.220    95196805.10747
  23571581.640   123869480.65809  23571579.460    96521659.88546
  22614354.000   118839212.64409  22614351.240    92601962.19048
 15 02 20 00 23  0.0000000  0  8G16G18G21G22G25G27G29G31
  22031307.700   115775308.54009  22031303.760    90214518.24947
  22680961.380   119189381.31009  22680958.900    92874896.37746
  21149115.180   111139353.24808  21149111.160    86602080.63348
  24154701.160   126933871.97708  24154704.460    98909549.49545
  24555910.460   129042154.62007  24555911.940   100552321.53145
  23235376.800   122102752.11108  23235376.240    95145009.30047
  23585127.760   123940665.03708  23585125.540    96577128.23646
  22630587.580   118924520.25209  22630584.860    92668435.54247
 15 02 20 00 23 30.0000000  0  8G16G18G21G22G25G27G29G31
  22016744.820   115698779.95309  22016740.740    90154885.57747
  22668684.200   119124864.06709  22668681.560    92824623.23846
  21155223.640   111171453.51109  21155219.640    86627093.81948
  24136806.920   126839838.20108  24136809.940    98836276.97045
  24574819.940   129141524.22708  24574821.380   100629752.19345
  23222744.680   122036370.18209  23222743.960    95093283.15147
  23598679.440   124011878.75308  23598677.300    96632619.41546
  22646866.380   119010065.41909  22646863.740    92735094.00747
 15 02 20 00 24  0.0000000  0  8G16G18G21G22G25G27G29G31
  22002224.440   115622474.68109  22002220.260    90095426.93347
  22656456.920   119060609.30109  22656454.080    92774554.62246
  21161398.420   111203902.41508  21161394.380    86652378.67748
  24118906.880   126745774.32808  24118909.620    98762980.98445
  24593758.560   129241046.47707  24593759.740   100707301.84145
  23210129.400   121970077.23209  23210128.880    95041626.35847
  23612236.600   124083121.41308  23612234.460    96688133.16847
  22663189.740   119095844.77409  22663187.140    92801934.95947
 15 02 20 00 24 30.0000000  0  8G16G18G21G22G25G27G29G31
  21987747.080   115546395.79809  21987742.920    90036144.70047
  22644280.240   118996620.61009  22644277.320    92724693.33746
  21167639.480   111236699.35609  21167635.400    86677934.73248
  24101001.660   126651683.98208  24101004.460    98689664.39646
  24612726.120   129340721.15007  24612727.200   100784970.22445
  23197531.300   121903874.42708  23197531.040    94990039.78047
  23625799.320   124154393.92008  23625797.180    96743670.12846
  22679557.320   119181856.74809  22679554.840    92868957.17247
 15 02 20 00 25  0.0000000  0  8G16G18G21G22G25G27G29G31
  21973313.000   115470544.30109  21973308.840    89977039.63147
  22632154.420   118932899.11209  22632151.500    92675040.24446
  21173946.260   111269841.57208  21173942.120    86703759.83148
  24083091.580   126557568.44108  24083094.340    98616328.19045
  24631722.220   129440545.44908  24631723.340   100862755.16945
  23184950.220   121837760.37608  23184949.760    94938522.35947
  23639367.400   124225695.28408  23639365.340    96799229.61746
  22695968.260   119268096.73809  22695965.860    92936157.04047
 15 02 20 00 25 30.0000000  0  8G16G18G21G22G25G27G29G31
  21958922.600   115394922.44309  21958918.520    89918113.51247
  22620079.960   118869447.48309  22620077.020    92625597.45546
  21180318.440   111303327.74408  21180314.340    86729852.95748
  24065177.120   126463430.61808  24065180.180    98542974.63046
  24650746.460   129540518.11108  24650747.600   100940655.73245
  23172386.080   121771735.14408  23172385.600    94887074.13047
  23652940.900   124297025.56708  23652938.760    96854811.62646
  22712422.020   119354562.08809  22712419.720    93003532.52247
 15 02 20 00 26  0.0000000  0  8G16G18G21G22G25G27G29G31
  21944576.660   115319534.36409  21944572.720    89859369.57347
  22608057.820   118806270.38509  22608054.740    92576368.57646
  21186755.960   111337157.41308  21186751.900    86756213.73448
  24047259.020   126369274.38508  24047262.420    98469606.71245
  24669799.220   129640639.55608  24669800.420   101018672.23845
  23159839.260   121705800.64208  23159838.540    94835696.62747
  23666520.260   124368386.09808  23666517.840    96910417.22346
  22728918.560   119441252.05909  22728916.380    93071083.03047
 15 02 20 00 26 30.0000000  0  8G16G18G21G22G25G27G29G31
  21930274.900   115244378.37309  21930271.100    89800806.46548
  22596087.540   118743365.88409  22596084.280    92527352.09846
  21193257.960   111371325.92108  21193253.940    86782838.55348
  24029337.300   126275098.71508  24029340.840    98396223.69846
  24688879.180   129740904.29008  24688880.420   101096800.35845
  23147308.880   121639952.68808  23147308.260    94784386.55347
  23680104.820   124439773.31109  23680102.420    96966043.60846
  22745456.540   119528159.26009  22745454.360    93138802.82747
 15 02 20 00 27  0.0000000  0  8G16G18G21G22G25G27G29G31
  21916018.260   115169459.48409  21916014.580    89742428.11847
  22584170.080   118680739.49309  22584166.800    92478552.34346
  21199824.720   111405834.48308  21199820.780    86809728.33548
  24011412.760   126180909.12008  24011416.700    98322829.82346
  24707986.760   129841313.96307  24707988.060   101175041.44145
  23134795.420   121574194.34309  23134794.520    94733146.30747
  23693695.140   124511190.21808  23693692.820    97021693.14046
  22762036.020   119615284.24609  22762033.820    93206692.31447
 15 02 20 00 27 30.0000000  0  8G16G18G21G22G25G27G29G31
  21901807.160   115094779.85509  21901803.560    89684236.19548
  22572305.960   118618393.64709  22572302.660    92429971.18746
  21206455.800   111440680.89409  21206451.880    86836881.38448
  23993486.180   126086708.05308  23993490.140    98249426.99445
  24727121.600   129941866.79107  24727123.020   101253394.00745
  23122298.920   121508525.29408  23122298.000    94681975.64647
  23707290.980   124582636.18008  23707288.800    97077365.28546
  22778656.220   119702623.34509  22778654.080    93274748.62647
 15 02 20 00 28  0.0000000  0  8G16G18G21G22G25G27G29G31
  21887641.420   115020338.74109  21887637.940    89626230.12648
  22560495.200   118556327.99409  22560491.880    92381608.37246
  21213150.300   111475860.77408  21213146.400    86864294.27648
  23975557.660   125992495.13108  23975561.440    98176014.92946
  24746282.840   130042558.45207  24746284.280   101331854.79644
  23109818.900   121442942.63308  23109818.220    94630872.30647
  23720891.800   124654108.62208  23720889.380    97133058.08346
  22795316.060   119790170.95909  22795313.980    93342967.40247
 15 02 20 00 28 30.0000000  0  8G16G18G21G22G25G27G29G31
  21873522.360   114946142.79309  21873518.920    89568415.11447
  22548738.980   118494549.12509  22548735.740    92333469.02646
  21219908.720   111511376.72108  21219904.860    86891969.03348
  23957628.180   125898277.01108  23957631.700    98102598.84546
  24765470.940   130143391.85507  24765472.680   101410425.95745
  23097356.240   121377450.72008  23097355.320    94579839.62547
  23734498.300   124725611.65108  23734496.000    97188774.72546
  22812015.780   119877928.47309  22812013.800    93411349.74547
 15 02 20 00 29  0.0000000  0  8G16G18G21G22G25G27G29G31
  21859450.220   114872193.46009  21859446.840    89510792.27448
  22537037.660   118433058.81709  22537034.480    92285554.54346
  21226730.780   111547226.78309  21226726.900    86919904.15348
  23939698.280   125804056.10708  23939701.560    98029180.61446
  24784685.620   130244364.83607  24784687.220   101489105.91244
  23084910.660   121312048.82408  23084910.140    94528877.14147
  23748110.400   124797144.52808  23748108.320    97244514.62546
  22828754.820   119965892.34309  22828752.860    93479892.88647
 15 02 20 00 29 30.0000000  0  8G16G18G21G22G25G27G29G31
  21845425.220   114798491.73809  21845421.860    89453362.35647
  22525391.360   118371857.74109  22525388.320    92237865.41246
  21233615.820   111583407.66309  21233611.900    86948097.04248
  23921767.880   125709832.99808  23921770.820    97955760.66046
  24803926.240   130345474.61407  24803928.240   101567892.42645
  23072481.880   121246735.51508  23072481.480    94477983.66847
  23761728.060   124868706.05608  23761725.820    97300276.79646
  22845532.340   120054058.16209  22845530.360    93548593.39147
 15 02 20 00 30  0.0000000  0  7G16G18G21G22G27G29G31
  21831448.120   114725041.44009  21831444.720    89396128.36248
  22513800.920   118310950.21409  22513798.020    92190405.02647
  21240563.780   111619919.11809  21240559.880    86976547.53348
  23903838.000   125615612.21108  23903840.340    97882342.49246
  23060070.120   121181512.13308  23060069.580    94427160.29647
  23775351.480   124940297.50608  23775349.360    97356062.34546
  22862348.020   120142424.42909  22862345.980    93617450.07547
 15 02 20 00 30 30.0000000  0  7G16G18G21G22G27G29G31
  21817518.500   114651840.81409  21817515.060    89339088.91948
  22502266.160   118250334.76509  22502263.300    92143172.23947
  21247573.600   111656756.04209  21247569.760    87005251.62548
  23885908.380   125521392.85208  23885910.360    97808925.47146
  23047674.800   121116375.19608  23047674.660    94376404.29247
  23788979.860   125011915.14008  23788977.960    97411868.27346
  22879200.660   120230984.57509  22879198.520    93686457.83347
 15 02 20 00 31  0.0000000  0  7G16G18G21G22G27G29G31
  21803637.360   114578894.93809  21803633.900    89282247.96948
  22490788.200   118190017.10809  22490785.200    92096171.49347
  21254645.460   111693918.88808  21254641.600    87034209.68748
  23867979.920   125427179.82408  23867981.660    97735513.37346
  23035296.520   121051327.18708  23035296.440    94325717.51847
  23802613.700   125083561.87608  23802612.200    97467696.82246
  22896090.080   120319738.11009  22896087.920    93755616.27647
 15 02 20 00 31 30.0000000  0  7G16G18G21G22G27G29G31
  21789805.160   114506206.28409  21789801.700    89225607.46548
  22479367.420   118129999.42609  22479364.220    92049404.50847
  21261779.180   111731406.81109  21261775.340    87063421.05248
  23850053.080   125332975.69108  23850054.620    97662108.20246
  23022935.340   120986368.24808  23022934.940    94275100.19047
  23816253.080   125155237.80308  23816251.560    97523548.16846
  22913015.740   120408682.37309  22913013.600    93824923.34447
 15 02 20 00 32  0.0000000  0  7G16G18G21G22G27G29G31
  21776021.760   114433773.89409  21776018.240    89169166.65248
  22468003.480   118070281.03809  22468000.260    92002870.73347
  21268973.700   111769214.50009  21268969.900    87092881.58248
  23832127.880   125238780.27308  23832129.420    97588709.83046
  23010590.540   120921495.16408  23010590.280    94224549.75747
  23829897.600   125226939.44108  23829895.800    97579419.56446
  22929976.440   120497811.26409  22929974.400    93894374.25647
 15 02 20 00 32 30.0000000  0  7G16G18G21G22G27G29G31
  21762288.460   114361604.66109  21762284.880    89112930.88448
  22456697.680   118010868.68109  22456694.480    91956575.40947
  21276229.760   111807345.55509  21276225.940    87122594.09148
  23814205.720   125144600.99608  23814207.080    97515324.01346
  22998262.980   120856712.77308  22998262.460    94174069.97447
  23843547.860   125298671.88608  23843546.140    97635314.90246
  22946972.600   120587126.62708  22946970.740    93963970.46547
 15 02 20 00 33  0.0000000  0  7G16G18G21G22G27G29G31
  21748605.280   114289698.81709  21748601.680    89056900.37348
  22445450.180   117951762.81409  22445447.000    91910518.91047
  21283546.600   111845795.42209  21283542.680    87152555.03148
  23796286.560   125050438.12808  23796287.900    97441951.04046
  22985952.180   120792018.78309  22985951.520    94123659.08947
  23857203.680   125370432.81908  23857201.820    97691232.53746
  22964003.280   120676623.12809  22964001.500    94033707.81747
 15 02 20 00 33 30.0000000  0  7G16G18G21G22G27G29G31
  21734973.320   114218062.25009  21734969.700    89001079.67948
  22434262.160   117892969.41709  22434259.020    91864705.90647
  21290924.540   111884566.38109  21290920.520    87182766.17348
  23778371.780   124956298.13008  23778372.920    97368595.83046
  22973658.860   120727416.92208  22973658.500    94073320.01147
  23870865.340   125442225.92408  23870863.580    97747175.10145
  22981068.620   120766301.52809  22981066.840    94103586.88847
 15 02 20 00 34  0.0000000  0  7G16G18G21G22G27G29G31
  21721391.420   114146689.08609  21721387.860    88945464.23548
  22423132.400   117834482.49609  22423129.360    91819131.71147
  21298361.640   111923648.52909  21298357.560    87213219.79348
  23760460.180   124862175.01708  23760461.040    97295253.76646
  22961381.460   120662898.88908  22961381.040    94023046.24447
  23884531.720   125514042.64708  23884529.640    97803136.21446
  22998166.500   120856150.64509  22998164.660    94173599.00147
 15 02 20 00 34 30.0000000  0  7G16G18G21G22G27G29G31
  21707861.660   114075590.03309  21707858.180    88890062.39048
  22412063.060   117776313.14209  22412060.000    91773804.96647
  21305859.240   111963048.76909  21305855.120    87243921.27948
  23742553.920   124768079.93908  23742554.640    97221933.53046
  22949121.580   120598473.12108  22949121.000    93972844.38647
  23898204.060   125585892.01108  23898202.080    97859122.68746
  23015297.940   120946175.89809  23015296.000    94243748.33047
 15 02 20 00 35  0.0000000  0  7G16G18G21G22G27G29G31
  21694383.340   114004761.12809  21694379.860    88834871.03748
  22401053.500   117718457.75809  22401050.460    91728722.87747
  21313415.940   112002759.67409  21313411.820    87274864.84348
  23724652.480   124674010.12908  23724653.100    97148632.99246
  22936878.200   120534133.97708  22936877.800    93922710.00847
  23911881.660   125657768.11108  23911879.520    97915129.98945
  23032461.300   121036368.63909  23032459.320    94314028.16547
 15 02 20 00 35 30.0000000  0  7G16G18G21G22G27G29G31
  21680957.520   113934208.02309  21680954.040    88779894.61048
  22390104.820   117660921.87809  22390101.660    91683889.74247
  21321032.100   112042782.58909  21321027.900    87306051.52648
  23706757.060   124579971.42708  23706757.500    97075356.67646
  22924651.860   120469884.58608  22924651.520    93872645.54647
  23925565.000   125729674.19108  23925562.480    97971160.65946
  23049656.620   121126729.16609  23049654.560    94384438.72747
 15 02 20 00 36  0.0000000  0  7G16G18G21G22G27G29G31
  21667584.120   113863930.39409  21667580.580    88725132.82648
  22379216.900   117603705.04709  22379213.620    91639305.22747
  21328706.800   112083112.92109  21328702.580    87337477.75348
  23688867.420   124485963.16008  23688867.660    97002104.07646
  22912442.040   120405721.93308  22912441.560    93822648.73047
  23939253.580   125801607.19508  23939251.320    98027212.31445
  23066882.680   121217251.37709  23066880.600    94454975.27147
 15 02 20 00 36 30.0000000  0  7G16G18G21G22G27G29G31
  21654264.120   113793933.52209  21654260.560    88670589.80648
  22368390.660   117546812.37209  22368387.240    91594973.28947
  21336440.100   112123751.52209  21336435.840    87369144.19148
  23670984.720   124391990.99408  23670984.720    96928879.59546
  22900249.380   120341649.17208  22900248.940    93772721.92047
  23952947.920   125873570.22308  23952945.580    98083287.38845
  23084139.480   121307935.33509  23084137.520    94525637.81147
 15 02 20 00 37  0.0000000  0  7G16G18G21G22G27G29G31
  21640997.380   113724216.45809  21640993.800    88616264.81848
  22357626.000   117490243.68609  22357622.540    91550893.80447
  21344231.180   112164693.78709  21344226.920    87401047.23848
  23653108.980   124298055.35908  23653108.760    96855683.53746
  22888073.360   120277663.59409  22888072.780    93722863.03547
  23966647.480   125945560.79308  23966645.140    98139383.89846
  23101425.920   121398775.13209  23101424.120    94596421.67147
 15 02 20 00 37 30.0000000  0  7G16G18G21G22G27G29G31
  21627785.460   113654787.22209  21627781.820    88562164.11848
  22346924.480   117434006.95809  22346921.100    91507073.01247
  21352081.040   112205944.75909  21352076.720    87433190.86148
  23635241.740   124204164.43408  23635241.400    96782522.34646
  22875915.040   120213770.82908  22875914.300    93673076.50147
  23980352.840   126017584.33608  23980350.700    98195506.15345
  23118742.720   121489773.93209  23118741.040    94667329.35946
 15 02 20 00 38  0.0000000  0  7G16G18G21G22G27G29G31
  21614627.740   113585643.02809  21614624.120    88508285.53648
  22336285.320   117378098.30209  22336282.120    91463507.85647
  21359988.200   112247497.00809  21359983.820    87465569.24748
  23617382.360   124110315.03108  23617381.900    96709393.48246
  22863773.300   120149965.19709  22863772.420    93623357.86447
  23994063.420   126089634.92708  23994061.560    98251649.44446
  23136088.220   121580923.10608  23136086.640    94738354.29346
 15 02 20 00 38 30.0000000  0  7G16G18G21G22G27G29G31
  21601524.980   113516787.63609  21601521.380    88454631.98548
  22325709.320   117322521.84809  22325706.240    91420201.56347
  21367952.480   112289349.88108  21367948.180    87498181.86548
  23599531.800   124016511.70208  23599531.160    96636300.48946
  22851648.560   120086248.67008  22851647.580    93573708.63447
  24007779.440   126161715.03708  24007778.280    98307815.64346
  23153462.080   121672221.42009  23153460.620    94809495.40347
 15 02 20 00 39  0.0000000  0  7G16G18G21G22G27G29G31
  21588477.380   113448222.05309  21588473.820    88401204.27148
  22315196.880   117267279.31509  22315193.860    91377155.45247
  21375973.480   112331500.91509  21375969.300    87531026.82648
  23581690.220   123922755.87608  23581689.460    96563244.49946
  22839540.380   120022619.82809  22839539.340    93524127.76047
  24021501.120   126233823.36508  24021499.980    98364003.98746
  23170863.340   121763663.52709  23170861.940    94880748.09847
 15 02 20 00 39 30.0000000  0  7G16G18G21G22G27G29G31
  21575485.580   113379949.48409  21575482.020    88348004.87248
  22304748.560   117212373.60109  22304745.520    91334371.81147
  21384051.040   112373949.14909  21384046.960    87564103.37348
  23563858.480   123829051.28208  23563857.600    96490228.42346
  22827449.120   119959079.88308  22827448.240    93474616.13047
  24035228.380   126305960.82908  24035227.680    98420214.88446
  23188291.960   121855249.06609  23188290.740    94952112.79847
 15 02 20 00 40  0.0000000  0  7G16G18G21G22G27G29G31
  21562550.140   113311972.88309  21562546.480    88295036.09348
  22294364.940   117157807.34709  22294361.840    91291852.66847
  21392184.920   112416693.10909  21392180.820    87597410.35648
  23546037.040   123735401.02408  23546035.840    96417254.66146
  22815374.780   119895629.32108  22815374.000    93425174.14447
  24048961.640   126378127.41408  24048960.780    98476448.57646
  23205747.300   121946974.77708  23205746.180    95023586.48347
 15 02 20 00 40 30.0000000  0  7G16G18G21G22G27G29G31
  21549670.960   113244292.07809  21549667.200    88242297.79948
  22284045.960   117103580.48309  22284042.760    91249597.98847
  21400374.240   112459728.33409  21400370.140    87630944.28948
  23528225.980   123641805.45508  23528224.640    96344323.49146
  22803316.980   119832265.81909  22803316.160    93375800.01447
  24062700.000   126450321.55908  24062697.880    98532703.74445
  23223228.440   122038835.78708  23223227.480    95095165.75247
 15 02 20 00 41  0.0000000  0  7G16G18G21G22G27G29G31
  21536848.760   113176910.78609  21536844.960    88189792.91448
  22273792.220   117049696.43209  22273788.940    91207610.44447
  21408619.240   112503056.03809  21408615.220    87664706.13548
  23510426.060   123548268.70408  23510424.700    96271438.14546
  22791276.100   119768990.93009  22791275.280    93326494.93247
  24076444.060   126522544.85908  24076441.660    98588981.64246
  23240735.160   122130831.36809  23240734.360    95166850.32447
 15 02 20 00 41 30.0000000  0  7G16G18G21G22G27G29G31
  21524085.400   113109838.86609  21524081.620    88137529.08148
  22263605.620   116996165.17809  22263602.240    91165897.79147
  21416920.820   112546681.10409  21416916.880    87698699.68448
  23492639.240   123454800.88808  23492637.900    96198606.50646
  22779253.480   119705812.06709  22779252.800    93277264.66347
  24090194.560   126594804.59508  24090192.500    98645287.85345
  23258268.060   122222964.91009  23258267.320    95238642.34646
 15 02 20 00 42  0.0000000  0  7G16G18G21G22G27G29G31
  21511378.820   113043065.19109  21511375.020    88085497.64748
  22253483.960   116942975.31209  22253480.500    91124451.15247
  21425276.000   112590587.76109  21425272.040    87732912.66048
  23474863.580   123361391.12108  23474862.140    96125820.08146
  22767246.660   119642715.87309  22767245.980    93228098.80247
  24103949.460   126667087.29008  24103947.460    98701612.04646
  23275824.000   122315220.16809  23275823.260    95310529.21046
 15 02 20 00 42 30.0000000  0  7G16G18G21G22G27G29G31
  21498731.800   112976604.58409  21498727.980    88033710.16348
  22243430.140   116890142.09409  22243426.600    91083282.44247
  21433687.100   112634788.01909  21433683.140    87767354.41548
  23457102.020   123268055.29908  23457100.460    96053091.24146
  22755258.040   119579715.23909  22755257.220    93179007.41147
  24117710.960   126739405.93708  24117709.640    98757964.11545
  23293404.900   122407606.94809  23293404.220    95382518.48047
 15 02 20 00 43  0.0000000  0  7G16G18G21G22G27G29G31
  21486142.380   112910446.70309  21486138.520    87982158.57648
  22233442.160   116837655.11509  22233438.640    91042383.51547
  21442151.240   112679267.00209  21442147.240    87802013.36548
  23439352.680   123174783.28508  23439351.100    95980412.11246
  22743285.180   119516797.62709  22743284.300    93129980.70447
  24131477.340   126811748.11108  24131475.960    98814334.68045
  23311007.880   122500109.84208  23311007.360    95454598.25447
 15 02 20 00 43 30.0000000  0  7G16G18G21G22G27G29G31
  21473612.480   112844601.67709  21473608.600    87930850.76948
  22223521.840   116785523.92009  22223518.480    91001761.82647
  21450669.520   112724030.76809  21450665.500    87836894.21848
  23421617.400   123081585.32308  23421615.840    95907790.69846
  22731329.540   119453970.65109  22731328.800    93081024.65847
  24145249.680   126884121.21108  24145247.480    98870729.30145
  23328633.780   122592732.92409  23328633.360    95526771.60547
 15 02 20 00 44  0.0000000  0  7G16G18G21G22G27G29G31
  21461142.060   112779069.21909  21461138.200    87879786.52948
  22213669.120   116733748.17109  22213665.920    90961417.11147
  21459241.180   112769074.87009  21459237.100    87871993.52448
  23403896.340   122988461.81208  23403894.720    95835227.26346
  22719390.700   119391232.03309  22719390.120    93032137.44447
  24159027.540   126956522.98208  24159025.080    98927146.20245
  23346281.600   122685471.05709  23346281.300    95599034.40847
 15 02 20 00 44 30.0000000  0  7G16G18G21G22G27G29G31
  21448732.040   112713854.08209  21448728.220    87828969.54948
  22203884.920   116682332.25509  22203881.840    90921352.77347
  21467866.440   112814400.71209  21467862.320    87907312.36448
  23386190.540   122895417.98808  23386188.760    95762725.92246
  22707469.200   119328584.28009  22707468.660    92983321.01347
  24172811.280   127028956.19508  24172807.900    98983587.61945
  23363951.360   122778324.17609  23363951.220    95671386.86947
 15 02 20 00 45  0.0000000  0  7G16G18G21G22G27G29G31
  21436382.700   112648957.71209  21436378.880    87778400.94448
  22194169.480   116631277.46809  22194166.540    90881569.83247
  21476544.500   112860004.56409  21476540.440    87942847.82548
  23368500.180   122802455.18908  23368498.280    95690287.67247
  22695564.860   119266026.38309  22695564.340    92934574.62248
  24186600.620   127101419.56508  24186597.160    99040052.54946
  23381642.200   122871288.20808  23381642.240    95743825.82047
 15 02 20 00 45 30.0000000  0  7G16G18G21G22G27G29G31
  21424094.140   112584380.53409  21424090.280    87728081.07048
  22184522.960   116580584.73909  22184520.040    90842069.03347
  21485274.980   112905883.85909  21485270.920    87978597.92548
  23350825.440   122709574.82008  23350823.400    95617913.67447
  22683677.320   119203556.81009  22683676.820    92885897.04548
  24200395.520   127173911.76808  24200392.560    99096539.94946
  23399353.200   122964358.23608  23399353.380    95816347.33246
 15 02 20 00 46  0.0000000  0  7G16G18G21G22G27G29G31
  21411867.820   112520130.69409  21411863.980    87678016.26448
  22174946.840   116530261.67909  22174943.800    90802856.28147
  21494058.580   112952042.59008  21494054.660    88014565.76748
  23333167.960   122616785.10808  23333165.880    95545610.29546
  22671807.700   119141181.53909  22671807.140    92837292.93548
  24214196.700   127246438.63808  24214194.100    99153054.36845
  23417085.040   123057537.82408  23417085.300    95888954.41246
 15 02 20 00 46 30.0000000  0  7G16G18G21G22G27G29G31
  21399703.020   112456204.34909  21399699.200    87628203.54448
  22165440.240   116480304.00609  22165437.040    90763928.24747
  21502893.760   112998472.36509  21502889.940    88050744.80948
  23315527.040   122524082.95908  23315524.820    95473375.14547
  22659954.840   119078894.27809  22659954.320    92788757.45147
  24228003.400   127318993.98008  24228001.140    99209591.01346
  23434835.900   123150817.30508  23434836.280    95961639.32246
 15 02 20 00 47  0.0000000  0  7G16G18G21G22G27G29G31
  21387600.460   112392605.14009  21387596.660    87578645.71548
  22156003.820   116430715.55209  22156000.580    90725287.90447
  21511780.500   113045173.13809  21511776.840    88087135.01548
  23297903.600   122431472.49708  23297901.380    95401211.42947
  22648119.080   119016696.86909  22648118.520    92740291.92747
  24241815.780   127391579.47808  24241814.060    99266151.09246
  23452605.460   123244195.08308  23452605.940    96034400.73347
 15 02 20 00 47 30.0000000  0  7G16G18G21G22G27G29G31
  21375560.560   112329335.07809  21375556.740    87529344.37448
  22146637.960   116381497.98609  22146634.660    90686936.57847
  21520718.440   113092142.56109  21520714.800    88123734.56148
  23280298.060   122338956.09408  23280295.820    95329120.99646
  22636300.320   118954588.89709  22636299.660    92691896.12347
  24255634.100   127464194.65408  24255632.200    99322734.38346
  23470393.180   123337667.98609  23470393.700    96107236.22046
 15 02 20 00 48  0.0000000  0  7G16G18G21G22G27G29G31
  21363583.840   112266397.02909  21363580.020    87480301.74748
  22137343.220   116332654.14209  22137339.920    90648876.45847
  21529707.380   113139379.69109  21529703.720    88160542.71548
  23262711.080   122246537.11808  23262708.720    95257106.46946
  22624498.760   118892571.32809  22624497.960    92643570.75548
  24269458.220   127536840.84208  24269456.240    99379341.75146
  23488198.740   123431234.29009  23488199.260    96180144.60247
 15 02 20 00 48 30.0000000  0  7G16G18G21G22G27G29G31
  21351671.040   112203794.97409  21351667.240    87431520.91848
  22128120.240   116284187.37309  22128116.980    90611110.15147
  21538747.300   113186884.53409  21538743.540    88197559.46348
  23245143.440   122154219.76008  23245141.060    95185171.11246
  22612714.660   118830645.62209  22612713.920    92595316.98348
  24283288.420   127609519.28608  24283286.760    99435974.27645
  23506021.620   123524891.81509  23506022.160    96253124.08947
 15 02 20 00 49  0.0000000  0  7G16G18G21G22G27G29G31
  21339822.120   112141528.38709  21339818.300    87383001.50448
  22118968.880   116236097.02709  22118965.760    90573637.17047
  21547837.200   113234652.13309  21547833.420    88234780.95948
  23227595.200   122062004.04608  23227592.640    95113314.95246
  22600947.560   118768809.18109  22600946.840    92547132.75548
  24297124.280   127682227.27408  24297122.520    99492629.85746
  23523860.820   123618635.37608  23523861.420    96326170.62446
 15 02 20 00 49 30.0000000  0  7G16G18G21G22G27G29G31
  21328037.900   112079601.94809  21328034.100    87334747.13848
  22109890.080   116188387.71909  22109887.080    90536461.12147
  21556977.420   113282684.23208  21556973.560    88272208.58348
  23210067.220   121969895.13708  23210064.600    95041542.03747
  22589198.000   118707064.63009  22589197.260    92499020.15247
  24310966.180   127754967.42508  24310964.620    99549310.42846
  23541716.280   123712464.51209  23541716.980    96399283.87547
 15 02 20 00 50  0.0000000  0  7G16G18G21G22G27G29G31
  21316317.700   112018012.10209  21316313.960    87286755.05948
  22100883.060   116141055.55609  22100880.020    90499578.91847
  21566166.300   113330972.39808  21566162.500    88309835.71148
  23192558.960   121877889.93708  23192556.260    94969849.87847
  22577464.820   118645406.21609  22577464.160    92450974.65847
  24324813.440   127827734.21108  24324811.980    99606011.81246
  23559586.160   123806369.89209  23559587.100    96472456.44147
 15 02 20 00 50 30.0000000  0  7G16G18G21G22G27G29G31
  21304664.180   111956772.91709  21304660.500    87239036.21748
  22091950.400   116094113.59609  22091947.180    90463000.78847
  21575405.760   113379526.33008  21575402.000    88347669.94248
  23175073.180   121786002.68009  23175070.480    94898249.66446
  22565750.240   118583845.67509  22565749.500    92403005.40748
  24338667.740   127900539.21708  24338666.260    99662742.95546
  23577472.300   123900360.56309  23577473.540    96545695.49147
 15 02 20 00 51  0.0000000  0  7G16G18G21G22G27G29G31
  21293075.360   111895873.80809  21293071.740    87191582.37448
  22083090.100   116047552.10909  22083086.820    90426719.11447
  21584693.280   113428332.31709  21584689.420    88385700.58148
  23157608.040   121694223.95408  23157605.300    94826733.99847
  22554051.880   118522370.79309  22554051.200    92355102.92047
  24352527.280   127973370.00208  24352525.420    99719494.23646
  23595371.800   123994421.77508  23595373.280    96618989.64746
 15 02 20 00 51 30.0000000  0  7G16G18G21G22G27G29G31
  21281553.260   111835325.11409  21281549.660    87144401.58048
  22074304.060   116001380.73409  22074300.660    90390741.44147
  21594029.860   113477396.21109  21594025.960    88423932.18448
  23140165.580   121602563.95909  23140162.780    94755310.83446
  22542371.320   118460989.44109  22542370.680    92307273.30348
  24366393.220   128046234.65208  24366391.240    99776271.83545
  23613285.440   124088557.78908  23613287.260    96692342.12846
 15 02 20 00 52  0.0000000  0  7G16G18G21G22G27G29G31
  21270098.440   111775129.84409  21270094.840    87097496.18148
  22065592.740   115955602.36509  22065589.260    90355069.99747
  21603415.140   113526716.49509  21603411.320    88462363.56248
  23122746.400   121511026.36808  23122743.460    94683983.04047
  22530708.720   118399702.42409  22530708.100    92259517.20148
  24380265.440   128119133.91308  24380263.340    99833076.42745
  23631212.820   124182766.09509  23631214.860    96765750.69147
 15 02 20 00 52 30.0000000  0  7G16G18G21G22G27G29G31
  21258710.220   111715284.34909  21258706.600    87050863.33048
  22056955.320   115910212.68709  22056951.860    90319701.43847
  21612848.040   113576286.62109  21612844.180    88500989.62948
  23105349.980   121419608.33108  23105347.040    94612748.38647
  22519063.040   118338504.25209  22519062.420    92211830.34048
  24394143.080   128192062.01808  24394141.060    99889903.49146
  23649152.440   124277038.70708  23649154.720    96839209.56646
 15 02 20 00 53  0.0000000  0  7G16G18G21G22G27G29G31
  21247390.200   111655797.30309  21247386.580    87004509.79148
  22048393.380   115865220.13509  22048390.080    90284642.32247
  21622329.400   113626110.79509  21622325.420    88539813.65848
  23087977.940   121328318.71608  23087975.100    94541613.80447
  22507435.600   118277401.60309  22507434.960    92164217.91048
  24408027.280   128265025.82908  24408025.700    99946758.36146
  23667104.980   124371378.99008  23667107.440    96912721.24046
 15 02 20 00 53 30.0000000  0  7G16G18G21G22G27G29G31
  21236136.800   111596660.28409  21236133.180    86958428.99948
  22039905.380   115820615.97709  22039902.240    90249885.86047
  21631856.720   113676176.33309  21631852.580    88578825.75748
  23070628.860   121237149.39508  23070626.000    94470572.95247
  22495824.280   118216383.57509  22495823.620    92116671.38748
  24421916.620   128338014.64308  24421914.940   100003632.74345
  23685067.780   124465772.95608  23685070.220    96986274.69947
 15 02 20 00 54  0.0000000  0  7G16G18G21G22G27G29G31
  21224952.180   111537884.67509  21224948.580    86912629.83448
  22031493.460   115776411.28309  22031490.300    90215440.66347
  21641431.460   113726491.22409  21641427.220    88618032.15848
  23053304.960   121146112.39309  23053302.060    94399635.21547
  22484230.900   118155459.74209  22484230.180    92069198.28548
  24435812.600   128411037.44608  24435810.820   100060533.59746
  23703042.080   124560227.09208  23703044.420    97059874.97046
 15 02 20 00 54 30.0000000  0  7G16G18G21G22G27G29G31
  21213836.600   111479471.96109  21213833.040    86867113.44748
  22023157.820   115732607.23609  22023154.600    90181307.66447
  21651053.060   113777052.34809  21651048.700    88657430.43848
  23036006.680   121055209.95108  23036003.680    94328802.30747
  22472655.280   118094629.37209  22472654.580    92021798.06448
  24449714.980   128484093.81908  24449713.280   100117460.58546
  23721027.180   124654737.83108  23721029.440    97133519.41746
 15 02 20 00 55  0.0000000  0  7G16G18G21G22G27G29G31
  21202790.000   111421421.79109  21202786.440    86821879.55348
  22014898.220   115689202.89009  22014895.080    90147486.12847
  21660720.680   113827855.70009  21660716.280    88697017.46448
  23018734.120   120964442.09409  23018730.860    94258074.26247
  22461097.000   118033890.16709  22461096.300    91974468.83648
  24463623.320   128557181.39408  24463621.420   100174411.96046
  23739021.960   124749299.34608  23739024.180    97207203.34646
 15 02 20 00 55 30.0000000  0  7G16G18G21G22G27G29G31
  21191813.260   111363738.56509  21191809.660    86776931.57848
  22006715.540   115646202.62909  22006712.440    90113979.42747
  21670434.380   113878901.53809  21670430.040    88736793.43148
  23001488.180   120873813.70209  23001484.600    94187454.89247
  22449556.520   117973244.58509  22449555.800    91927212.51847
  24477537.900   128630302.43008  24477535.560   100231389.35045
  23757026.400   124843911.29308  23757028.460    97280926.66946
 15 02 20 00 56  0.0000000  0  7G16G18G21G22G27G29G31
  21180906.680   111306424.26809  21180903.120    86732271.09148
  21998610.020   115603607.74209  21998606.900    90080788.62547
  21680193.840   113930187.86009  21680189.520    88776756.78348
  22984269.240   120783327.16509  22984265.460    94116946.03947
  22438033.800   117912692.25108  22438033.040    91880028.87548
  24491458.720   128703456.89308  24491456.440   100288392.76046
  23775039.700   124938570.38408  23775041.820    97354686.62545
 15 02 20 00 56 30.0000000  0  7G16G18G21G22G27G29G31
  21170070.900   111249482.07009  21170067.420    86687900.54748
  21990582.160   115561420.97409  21990579.020    90047915.84147
  21689998.820   113981713.61709  21689994.500    88816906.72348
  22967078.000   120692986.27909  22967074.020    94046550.70147
  22426529.020   117852234.30809  22426528.240    91832918.84548
  24505385.900   128776645.44808  24505384.040   100345422.79346
  23793061.560   125033274.61508  23793063.760    97428481.88846
 15 02 20 00 57  0.0000000  0  7G16G18G21G22G27G29G31
  21159305.900   111192911.79409  21159302.480    86643819.82548
  21982631.840   115519641.90809  21982628.720    90015360.74947
  21699848.600   114033474.84109  21699844.320    88857240.13648
  22949914.380   120602791.26709  22949910.360    93976269.02947
  22415041.740   117791868.64409  22415040.980    91785880.66147
  24519319.200   128849865.94908  24519317.500   100402477.67845
  23811090.860   125128018.41408  23811093.180    97502307.84846
 15 02 20 00 57 30.0000000  0  7G16G18G21G22G27G29G31
  21148612.260   111136716.36809  21148608.860    86600031.18448
  21974759.580   115478272.95009  21974756.440    89983125.20347
  21709743.000   114085470.52209  21709738.800    88897756.23748
  22932779.120   120512745.58008  22932775.100    93906103.68447
  22403572.200   117731596.20109  22403571.460    91738915.11148
  24533258.900   128923119.34408  24533257.320   100459558.22446
  23829127.380   125222800.06308  23829129.860    97576163.37747
 15 02 20 00 58  0.0000000  0  7G16G18G21G22G27G29G31
  21137990.260   111080897.42109  21137986.860    86556535.90448
  21966965.600   115437315.31909  21966962.420    89951210.18747
  21719681.620   114137698.62209  21719677.520    88938453.44948
  22915672.680   120422851.65109  22915668.660    93836056.61347
  22392120.320   117671416.70909  22392119.620    91692022.03548
  24547204.840   128996405.43208  24547203.360   100516664.24545
  23847170.320   125317615.81108  23847172.960    97650045.39647
 15 02 20 00 58 30.0000000  0  6G16G18G21G22G27G31
  21127446.460   111025489.24409  21127442.980    86513360.70648
  21959256.280   115396802.76809  21959253.180    89919641.98247
  21729670.220   114190189.41309  21729666.220    88979355.34448
  22898601.760   120333144.35909  22898597.680    93766154.94747
  22380692.320   117611362.54509  22380691.600    91645226.57648
  23865225.440   125412495.24208  23865228.240    97723977.00346
 15 02 20 00 59  0.0000000  0  6G16G18G21G22G27G31
  21116968.200   110970425.36909  21116964.600    86470453.79448
  21951618.920   115356668.52809  21951615.940    89888368.55047
  21739695.420   114242872.30809  21739691.480    89020406.94848
  22881553.700   120243557.32609  22881549.580    93696347.01647
  22369275.100   117551364.96208  22369274.520    91598475.23748
  23883279.040   125507366.48108  23883282.040    97797902.33447
 15 02 20 00 59 30.0000000  0  7G16G18G19G21G22G27G31
  21106564.320   110915752.38709  21106560.640    86427851.47348
  21944062.380   115316958.72109  21944059.380    89857425.85647
  24536296.580   128939126.90706  24536297.400   100472025.45946
  21749765.320   114295789.82409  21749761.380    89061641.37048
  22864537.540   120154137.94309  22864533.480    93626669.68347
  22357877.180   117491468.63009  22357876.700    91551802.78948
  23901339.120   125602271.52308  23901342.180    97871853.95546
 15 02 20 01 00  0.0000000  0  7G16G18G19G21G22G27G31
  21096240.900   110861502.32009  21096237.200    86385578.69148
  21936592.640   115277704.77809  21936589.540    89826838.40247
  24521489.620   128861315.09508  24521489.780   100411392.99546
  21759885.220   114348970.14709  21759881.220    89103080.57348
  22847559.480   120064918.79409  22847555.560    93557148.38347
  22346504.240   117431703.54508  22346503.860    91505232.60748
  23919410.740   125697237.01108  23919413.780    97945852.78646
 15 02 20 01 00 30.0000000  0  7G16G18G19G21G22G27G31
  21085976.460   110807562.13209  21085972.740    86343547.38048
  21929188.020   115238793.31109  21929184.900    89796517.78547
  24506678.940   128783479.27207  24506676.320   100350741.60644
  21770032.880   114402296.27609  21770028.800    89144633.40348
  22830598.100   119975787.00209  22830594.300    93487695.16847
  22335134.440   117371954.73509  22335134.080    91458675.12448
  23937471.360   125792144.68308  23937474.280    98019806.54646
 15 02 20 01 01  0.0000000  0  7G16G18G19G21G22G27G31
  21075794.060   110754052.93609  21075790.280    86301851.90648
  21921871.540   115200344.88609  21921868.420    89766557.99447
  24491885.220   128705738.52207  24491882.460   100290164.46346
  21780230.600   114455885.67509  21780226.560    89186391.36448
  22813676.640   119886864.56809  22813672.880    93418405.07047
  22323790.460   117312341.57309  22323790.080    91412223.31348
  23955543.100   125887110.85708  23955546.020    98093805.91746
 15 02 20 01 01 30.0000000  0  7G16G18G19G21G22G27G31
  21065685.520   110700932.02109  21065681.720    86260458.98448
  21914634.980   115162316.24109  21914631.780    89736925.30847
  24477101.420   128628047.52508  24477098.820   100229626.06845
  21790469.460   114509691.54209  21790465.500    89228318.00148
  22796787.160   119798109.53109  22796783.280    93349245.40647
  22312463.800   117252819.27109  22312463.300    91365842.32948
  23973616.800   125982087.88508  23973619.720    98167813.67946
 15 02 20 01 02  0.0000000  0  7G16G18G19G21G22G27G31
  21055653.480   110648213.15809  21055649.680    86219379.36548
  21907480.820   115124720.71409  21907477.600    89707630.10847
  24462328.920   128550417.94207  24462325.440   100169135.47545
  21800751.380   114563723.61409  21800747.520    89270420.90448
  22779932.240   119709535.97709  22779928.200    93280227.15247
  22301156.680   117193399.73909  22301156.100    91319541.39148
  23991694.200   126077084.45408  23991697.160    98241836.76745
 15 02 20 01 02 30.0000000  0  7G16G18G19G21G22G27G31
  21045695.680   110595884.41709  21045691.880    86178603.71648
  21900406.700   115087545.96709  21900403.440    89678662.79247
  24447565.780   128472836.15108  24447562.020   100108682.11146
  21811073.380   114617966.04809  21811069.540    89312687.72648
  22763109.720   119621132.78009  22763105.540    93211341.64647
  22289866.460   117134069.17409  22289865.840    91273309.80948
  24009772.220   126172084.20008  24009775.220    98315862.46546
 15 02 20 01 03  0.0000000  0  7G16G18G19G21G22G27G31
  21035814.520   110543958.28109  21035810.680    86138141.78848
  21893414.920   115050803.86309  21893411.560    89650032.59147
  24432813.540   128395312.21807  24432810.220   100048273.98645
  21821437.160   114672427.98309  21821433.340    89355125.58048
  22746322.040   119532912.86309  22746317.720    93142598.94847
  22278595.180   117074838.08509  22278594.520    91227155.71648
  24027852.140   126267093.73008  24027855.220    98389895.59746
 15 02 20 01 03 30.0000000  0  7G16G18G19G21G22G27G31
  21026009.300   110492431.49409  21026005.420    86097991.05148
  21886504.720   115014490.38009  21886501.260    89621736.38947
  24418071.520   128317840.88208  24418067.420    99987906.65545
  21831841.320   114727101.96809  21831837.500    89397728.68448
  22729568.680   119444873.58309  22729564.200    93073997.01847
  22267341.900   117015701.47409  22267341.240    91181075.25248
  24045932.560   126362105.28908  24045935.680    98463930.39546
 15 02 20 01 04  0.0000000  0  7G16G18G19G21G22G27G31
  21016280.080   110441304.31109  21016276.260    86058151.67748
  21879676.120   114978605.55109  21879672.560    89593774.19447
  24403339.420   128240420.57007  24403335.160    99927579.11846
  21842285.040   114781984.23409  21842281.320    89440494.07648
  22712849.900   119357016.00609  22712845.260    93005536.65447
  22256106.260   116956657.82109  22256105.680    91135067.22148
  24064012.460   126457114.08908  24064015.540    98537963.08146
 15 02 20 01 04 30.0000000  0  7G16G18G19G21G22G27G31
  21006629.840   110390592.25709  21006626.120    86018635.79148
  21872931.740   114943163.71609  21872928.200    89566157.19047
  24388619.020   128163064.13108  24388615.140    99867301.48446
  21852770.600   114837086.60009  21852766.920    89483430.98648
  22696168.660   119269355.82109  22696164.020    92937230.10747
  22244890.800   116897720.36809  22244890.260    91089141.93748
  24082093.680   126552130.38808  24082096.900    98612001.58046
 15 02 20 01 05  0.0000000  0  7G16G18G19G21G22G27G31
  20997056.100   110340282.34009  20997052.500    85979433.25448
  21866269.120   114908152.03109  21866265.780    89538875.37247
  24373908.200   128085756.71308  24373903.440    99807061.86045
  21863294.800   114892392.03509  21863291.180    89526526.11248
  22679522.600   119181880.66609  22679518.000    92869067.74747
  22233692.760   116838874.39109  22233692.220    91043287.94948
  24100172.820   126647136.42708  24100176.260    98686032.03246
 15 02 20 01 05 30.0000000  0  7G16G18G19G21G22G27G31
  20987561.620   110290388.82609  20987558.140    85940555.19748
  21859690.860   114873583.70909  21859687.640    89511939.04447
  24359208.460   128008510.14308  24359204.240    99746869.85846
  21873859.600   114947910.57109  21873856.040    89569787.30848
  22662914.560   119094605.33709  22662909.940    92801061.08347
  22222514.440   116780132.24409  22222513.900    90997514.85848
  24118251.680   126742141.45308  24118255.440    98760061.71645
 15 02 20 01 06  0.0000000  0  7G16G18G19G21G22G27G31
  20978144.240   110240900.54609  20978140.860    85901992.89748
  21853194.780   114839447.17509  21853191.600    89485339.16647
  24344518.360   127931311.95308  24344514.000    99686715.40445
  21884462.280   115003627.84609  21884458.700    89613203.35148
  22646342.500   119007519.56709  22646337.920    92733202.13747
  22211353.440   116721481.08209  22211352.900    90951812.67048
  24136327.400   126837129.66408  24136331.280    98834078.29346
 15 02 20 01 06 30.0000000  0  7G16G18G19G21G22G27G31
  20968806.960   110191833.20009  20968803.680    85863758.59748
  21846783.860   114805757.78309  21846780.600    89459087.70647
  24329839.540   127854175.29808  24329835.040    99626608.96745
  21895105.120   115059555.85709  21895101.420    89656783.61148
  22629809.740   118920639.76509  22629805.100    92665503.66247
  22200212.440   116662934.92909  22200211.920    90906192.27948
  24154402.000   126932111.68508  24154405.980    98908089.95646
 15 02 20 01 07  0.0000000  0  7G16G18G19G21G22G27G31
  20959547.900   110143176.77109  20959544.720    85825844.49548
  21840456.020   114772504.62609  21840452.660    89433176.16347
  24315170.260   127777088.02908  24315166.000    99566541.02046
  21905785.380   115115680.57909  21905781.560    89700517.16648
  22613314.340   118833956.25809  22613309.720    92597958.16447
  22189089.180   116604481.92409  22189088.680    90860644.50748
  24172472.680   127027072.74308  24172476.720    98982085.32546
 15 02 20 01 07 30.0000000  0  7G16G18G19G21G22G27G31
  20950368.880   110094940.66409  20950365.720    85788257.91848
  21834212.860   114739696.12609  21834209.420    89407611.11047
  24300511.720   127700057.71908  24300507.620    99506517.44145
  21916504.180   115172007.65109  21916500.260    89744408.38648
  22596858.280   118747479.22609  22596853.740    92530573.55247
  22177985.040   116546129.71309  22177984.600    90815175.24248
  24190540.340   127122017.49208  24190544.260    99056068.06446
 15 02 20 01 08  0.0000000  0  7G16G18G19G21G22G27G31
  20941270.200   110047126.60209  20941267.040    85751000.19948
  21828054.620   114707333.82809  21828051.120    89382393.75447
  24285863.980   127623083.89608  24285859.520    99446537.85746
  21927260.880   115228534.05009  21927256.860    89788454.91848
  22580441.920   118661210.86709  22580437.420    92463351.53647
  22166900.040   116487877.99209  22166899.600    90769784.29048
  24208604.240   127216942.48708  24208608.120    99130035.37246
 15 02 20 01 08 30.0000000  0  7G16G18G19G21G22G27G31
  20932251.880   109999734.90309  20932248.720    85714071.60048
  21821981.200   114675417.55609  21821977.640    89357523.95047
  24271226.580   127546164.91208  24271222.740    99386601.09346
  21938055.060   115285257.79309  21938050.960    89832655.23948
  22564065.500   118575152.52209  22564061.060    92396293.16147
  22155833.940   116429725.48809  22155833.500    90724470.65348
  24226663.580   127311843.39608  24226667.060    99203983.90345
 15 02 20 01 09  0.0000000  0  7G16G18G19G21G22G27G31
  20923314.060   109952766.37809  20923310.920    85677472.75648
  21815992.520   114643947.28009  21815989.140    89333001.66547
  24256599.720   127469299.82908  24256595.200    99326706.19045
  21948886.100   115342175.55009  21948882.040    89877006.72448
  22547729.300   118489305.33509  22547724.820    92329399.32347
  22144786.640   116371671.36409  22144786.140    90679233.69048
  24244717.580   127406715.99008  24244720.880    99277910.28546
 15 02 20 01 09 30.0000000  0  7G16G18G19G21G22G27G31
  20914458.120   109906228.15709  20914454.960    85641209.21048
  21810089.880   114612929.60109  21810086.760    89308832.05847
  24241983.780   127392493.49408  24241979.720    99266857.17046
  21959754.620   115399290.42109  21959750.680    89921511.80448
  22531434.820   118403677.24109  22531430.240    92262676.19248
  22133759.120   116313721.10009  22133758.520    90634077.64048
  24262766.680   127501562.97508  24262769.940    99351816.76246
 15 02 20 01 10  0.0000000  0  7G16G18G19G21G22G27G31
  20905683.660   109860117.80709  20905680.440    85605279.06448
  21804272.720   114582360.85009  21804269.760    89285012.26647
  24227378.180   127315741.23208  24227374.420    99207050.27146
  21970659.300   115456595.45309  21970655.440    89966165.07347
  22515181.500   118318265.92009  22515176.960    92196121.98847
  22122750.420   116255869.98109  22122749.800    90588998.87048
  24280809.260   127596376.20108  24280812.420    99425696.89245
 15 02 20 01 10 30.0000000  0  7G16G18G19G21G22G27G31
  20896991.100   109814437.66709  20896987.760    85569684.14848
  21798541.480   114552243.02009  21798538.520    89261543.85147
  24212783.180   127239043.92808  24212779.020    99147286.14545
  21981600.180   115514090.68009  21981596.420    90010966.54748
  22498970.000   118233075.06009  22498965.600    92129739.57147
  22111760.860   116198119.34009  22111760.240    90543998.35748
  24298845.060   127691154.36008  24298848.380    99499549.64546
 15 02 20 01 11  0.0000000  0  7G16G18G19G21G22G27G31
  20888380.720   109769189.51809  20888377.300    85534425.84448
  21792896.360   114522577.53509  21792893.300    89238427.89347
  24198198.540   127162401.20408  24198194.680    99087564.59746
  21992576.800   115571773.55209  21992573.220    90055914.22348
  22482800.880   118148107.10709  22482796.620    92063530.85247
  22100790.440   116140469.06609  22100789.720    90499076.06148
  24316873.560   127785893.94208  24316877.140    99573372.42046
 15 02 20 01 11 30.0000000  0  7G16G18G19G21G22G27G31
  20879852.920   109724375.62409  20879849.480    85499505.92648
  21787337.560   114493365.96709  21787334.440    89215665.64348
  24183624.560   127085813.90508  24183620.440    99027886.19446
  22003588.840   115629642.39409  22003585.380    90101006.81748
  22466674.800   118063364.88309  22466670.560    91997498.01047
  22089839.260   116082919.88509  22089838.440    90454232.55548
  24334894.300   127880592.84708  24334897.960    99647163.49646
 15 02 20 01 12  0.0000000  0  7G16G18G19G21G22G27G31
  20871408.680   109680001.04309  20871405.280    85464928.32748
  21781865.920   114464611.84309  21781862.760    89193259.85847
  24169061.440   127009284.05608  24169057.260    98968252.57346
  22014636.620   115687699.13008  22014633.200    90146245.83048
  22450592.800   117978853.70209  22450588.500    91931645.20747
  22078907.900   116025474.85609  22078907.020    90409470.18748
  24352907.200   127975250.62908  24352911.120    99720922.49146
 15 02 20 01 12 30.0000000  0  7G16G18G19G21G22G27G31
  20863047.260   109636061.29509  20863043.840    85430689.55848
  21776480.540   114436310.90209  21776477.260    89171207.18747
  24154508.300   126932805.60908  24154504.120    98908659.04146
  22025718.500   115745934.97309  22025715.040    90191624.40147
  22434554.140   117894570.01209  22434549.780    91865969.66247
  22067995.200   115968127.90209  22067994.300    90364784.23948
  24370910.660   128069858.51708  24370914.800    99794642.66445
 15 02 20 01 13  0.0000000  0  7G16G18G19G21G22G27G31
  20854770.960   109592568.75109  20854767.460    85396799.26248
  21771183.500   114408474.72409  21771180.220    89149516.67747
  24139966.720   126856389.03508  24139962.140    98849113.67145
  22036836.300   115804359.28809  22036832.680    90237149.83747
  22418561.320   117810526.85509  22418556.840    91800481.53947
  22057103.220   115910889.97109  22057102.280    90320183.27448
  24388906.060   128164424.28408  24388910.500    99868329.98146
 15 02 20 01 13 30.0000000  0  7G16G18G19G21G22G27G31
  20846578.420   109549515.88709  20846574.740    85363251.57848
  21765973.160   114381094.49209  21765969.900    89128181.44647
  24125435.300   126780025.40908  24125430.820    98789609.57546
  22047987.880   115862960.77109  22047984.200    90282813.32447
  22402613.020   117726717.57609  22402608.340    91735175.66447
  22046230.260   115853751.97909  22046229.320    90275660.17548
  24406891.140   128258935.54708  24406895.760    99941974.74746
 15 02 20 01 14  0.0000000  0  7G16G18G19G21G22G27G31
  20838471.340   109506912.02709  20838467.460    85330053.75548
  21760851.160   114354178.95909  21760848.000    89107208.31447
  24110914.940   126703721.70808  24110910.420    98730152.18545
  22059174.220   115921744.76509  22059170.500    90328619.01547
  22386711.060   117643152.03909  22386706.260    91670059.71447
  22035377.740   115796721.70909  22035376.860    90231221.02348
  24424866.840   128353397.15908  24424871.480   100015580.82546
 15 02 20 01 14 30.0000000  0  7G16G18G19G21G22G27G31
  20830448.620   109464751.82909  20830444.640    85297201.64848
  21755816.500   114327722.49409  21755813.500    89086592.89447
  24096404.820   126627470.97508  24096400.440    98670736.03146
  22070393.460   115980701.52009  22070389.640    90374559.34647
  22370854.660   117559825.73209  22370849.780    91605130.17248
  22024544.340   115739791.92909  22024543.520    90186860.15148
  24442831.120   128447798.74508  24442835.900   100089140.15046
 15 02 20 01 15  0.0000000  0  7G16G18G19G21G22G27G31
  20822511.520   109423042.06609  20822507.540    85264700.53248
  21750870.260   114301730.62309  21750867.460    89066339.50147
  24081905.560   126551277.92108  24081901.620    98611364.86246
  22081646.380   116039835.84309  22081642.580    90420638.02347
  22355045.220   117476746.32209  22355040.320    91540393.02548
  22013731.100   115682968.21609  22013730.360    90142581.95148
  24460784.520   128542142.95608  24460789.420   100162654.85046
 15 02 20 01 15 30.0000000  0  7G16G18G19G21G22G27G31
  20814660.040   109381782.30709  20814656.120    85232550.05848
  21746012.400   114276202.55409  21746009.660    89046447.51847
  24067416.980   126475140.49808  24067413.100    98552037.00546
  22092932.240   116099143.39609  22092928.440    90466851.69447
  22339282.780   117393914.21909  22339277.940    91475848.57848
  22002937.680   115626248.66609  22002937.060    90098384.89548
  24478725.980   128636424.72208  24478731.100   100236120.89546
 15 02 20 01 16  0.0000000  0  7G16G18G19G21G22G27G31
  20806894.260   109340973.03109  20806890.380    85200750.62348
  21741242.800   114251137.68009  21741239.960    89026916.44747
  24052938.840   126399057.18208  24052934.940    98492751.32846
  22104250.220   116158620.35708  22104246.560    90513197.36448
  22323567.520   117311330.21809  22323562.700    91411497.46148
  21992163.900   115569632.06209  21992163.320    90054268.06948
  24496654.780   128730639.51508  24496659.940   100309534.83546
 15 02 20 01 16 30.0000000  0  7G16G18G19G21G22G27G31
  20799215.360   109300620.39709  20799211.540    85169307.01848
  21736562.460   114226541.67309  21736559.540    89007750.75848
  24038471.780   126323032.39308  24038467.880    98433511.30546
  22115600.920   116218269.53508  22115597.560    90559677.23448
  22307900.760   117229001.32209  22307895.940    91347345.13247
  21981410.540   115513123.07609  21981410.020    90010235.09948
  24514571.060   128824788.95908  24514576.060   100382897.84745
 15 02 20 01 17  0.0000000  0  7G16G18G19G21G22G27G31
  20791623.220   109260723.84509  20791619.500    85138218.78948
  21731970.940   114202412.82309  21731968.000    88988949.05647
  24024015.460   126247063.29508  24024011.300    98374314.59246
  22126983.600   116278086.60508  22126980.380    90606287.91647
  22292282.540   117146927.30509  22292277.680    91283391.38648
  21970677.160   115456719.37709  21970676.700    89966284.17548
  24532473.880   128918868.09608  24532478.980   100456206.10445
 15 02 20 01 17 30.0000000  0  7G16G18G19G21G22G27G31
  20784118.560   109221286.92909  20784114.860    85107488.71748
  21727468.800   114178753.95409  21727465.760    88970513.59147
  24009570.140   126171152.23508  24009565.880    98315163.13946
  22138398.380   116338072.29308  22138395.240    90653029.99847
  22276713.800   117065112.91409  22276708.840    91219639.97447
  21959964.260   115400423.44309  21959963.880    89922417.21248
  24550363.100   129012875.73308  24550368.160   100529458.63646
 15 02 20 01 18  0.0000000  0  7G16G18G19G21G22G27G31
  20776701.340   109182309.62709  20776697.700    85077116.78948
  21723055.960   114155564.66009  21723052.860    88952444.01747
  23995135.400   126095297.30108  23995131.180    98256055.44346
  22149844.560   116398222.76209  22149841.400    90699900.48747
  22261194.560   116983559.03109  22261189.540    91156091.54247
  21949271.660   115344233.78209  21949271.300    89878633.06248
  24568237.900   129106807.98608  24568243.040   100602652.60645
 15 02 20 01 18 30.0000000  0  7G16G18G19G21G22G27G31
  20769371.740   109143792.61309  20769368.120    85047103.53148
  21718732.400   114132844.67209  21718729.300    88934740.13448
  23980711.420   126019497.79708  23980706.860    98196990.88046
  22161321.580   116458535.11408  22161318.380    90746897.11747
  22245725.180   116902267.25309  22245720.180    91092747.34748
  21938599.180   115288149.53409  21938598.760    89834931.05548
  24586097.420   129200660.36308  24586102.540   100675784.15445
 15 02 20 01 19  0.0000000  0  7G16G18G19G21G22G27G31
  20762131.300   109105743.93309  20762127.660    85017455.20748
  21714499.540   114110600.89509  21714496.400    88917407.33747
  23966298.860   125943759.04908  23966294.240    98137973.72346
  22172830.320   116519013.66908  22172827.060    90794023.26647
  22230307.180   116821245.68909  22230302.280    91029613.70448
  21927948.000   115232177.25509  21927947.540    89791316.31148
  24603942.360   129294435.94308  24603947.500   100748855.70346
 15 02 20 01 19 30.0000000  0  7G16G18G19G21G22G27G31
  20754978.940   109068158.16709  20754975.280    84988167.59348
  21710356.220   114088827.45909  21710353.120    88900441.03048
  23951896.680   125868074.75108  23951892.060    98078998.96246
  22184368.940   116579649.81308  22184365.820    90841272.19747
  22214939.940   116740490.48109  22214935.100    90966687.61948
  21917316.920   115176310.47709  21917316.340    89747783.77348
  24621770.960   129388125.57208  24621776.260   100821860.25045
 15 02 20 01 20  0.0000000  0  7G16G18G19G21G22G27G31
  20747916.020   109031042.45609  20747912.400    84959246.25848
  21706303.540   114067530.15609  21706300.480    88883845.75448
  23937505.960   125792450.69508  23937501.420    98020071.13646
  22195938.260   116640447.46508  22195935.260    90888646.98347
  22199624.780   116660008.92709  22199619.940    90903974.75548
  21906706.980   115120554.69209  21906706.240    89704337.69048
  24639583.760   129481731.75308  24639589.160   100894799.94544
 15 02 20 01 20 30.0000000  0  7G16G18G19G21G22G27G31
  20740942.380   108994395.39709  20740938.760    84930690.10248
  21702341.120   114046707.25409  21702338.080    88867620.12048
  23923125.720   125716882.43608  23923121.120    97961186.79346
  22207537.480   116701401.77208  22207534.380    90936143.83947
  22184361.600   116579800.84009  22184356.860    90841474.99448
  21896117.640   115064907.17009  21896116.780    89660975.99748
  24657379.660   129575249.29708  24657385.260   100967670.69945
 15 02 20 01 21  0.0000000  0  7G16G18G19G21G22G27G31
  20734058.380   108958219.71409  20734054.780    84902501.26248
  21698469.220   114026360.08009  21698466.160    88851765.20648
  23908756.460   125641371.38408  23908752.120    97902347.02646
  22219166.280   116762511.02708  22219163.100    90983761.44647
  22169151.000   116499869.26009  22169146.380    90779190.69048
  21885549.160   115009369.08809  21885548.220    89617699.57448
  24675158.360   129668675.61708  24675163.660   101040470.49744
 15 02 20 01 21 30.0000000  0  7G16G18G19G21G22G27G31
  20727265.000   108922520.44809  20727261.420    84874683.64448
  21694688.720   114006493.34509  21694685.660    88836284.65147
  23894398.560   125565920.79608  23894394.220    97843554.37246
  22230825.020   116823777.67008  22230821.780    91031501.67747
  22153994.200   116420220.37409  22153989.640    90717126.66048
  21875002.280   114953944.46309  21875001.300    89574511.54848
  24692919.720   129762011.67108  24692924.960   101113199.95745
 15 02 20 01 22  0.0000000  0  6G16G18G19G21G22G27
  20720560.760   108887289.68909  20720557.240    84847231.09448
  21690997.860   113987098.51709  21690994.940    88821171.80548
  23880050.400   125490521.79608  23880046.500    97784801.94046
  22242511.620   116885190.50309  22242508.180    91079355.81647
  22138889.800   116340846.70809  22138885.320    90655277.07348
  21864475.240   114898624.19009  21864474.240    89531404.85648
 15 02 20 01 22 30.0000000  0  6G16G18G19G21G22G27
  20713948.320   108852541.13809  20713944.900    84820154.29548
  21687399.140   113968187.97309  21687396.360    88806436.32147
  23865714.460   125415186.07808  23865710.180    97726098.77346
  22254227.920   116946759.57608  22254224.360    91127331.70347
  22123840.740   116261763.42409  22123836.260    90593653.77448
  21853970.360   114843420.44909  21853969.360    89488388.94048
 15 02 20 01 23  0.0000000  0  6G16G18G19G21G22G27
  20707427.220   108818272.33109  20707423.840    84793451.31448
  21683892.100   113949758.58409  21683889.340    88792075.77148
  23851389.780   125339909.78108  23851385.420    97667441.96146
  22265972.940   117008479.29409  22265969.300    91175424.97247
  22108846.660   116182968.77109  22108842.120    90532255.36948
  21843486.940   114788329.66809  21843486.000    89445461.06748
 15 02 20 01 23 30.0000000  0  6G16G18G19G21G22G27
  20700997.280   108784482.36709  20700993.860    84767121.46848
  21680476.320   113931808.45309  21680473.500    88778088.65848
  23837075.940   125264690.37508  23837071.300    97608829.46046
  22277745.880   117070345.72908  22277742.040    91223632.58147
  22093907.560   116104462.45609  22093902.800    90471081.65448
  21833024.620   114733349.67409  21833023.720    89402619.52348
 15 02 20 01 24  0.0000000  0  6G16G18G19G21G22G27
  20694658.580   108751171.94709  20694655.080    84741165.30148
  21677151.980   113914338.59209  21677149.080    88764475.78948
  23822773.100   125189528.16008  23822768.680    97550261.52446
  22289546.280   117132356.64509  22289542.320    91271952.76147
  22079023.800   116026247.09109  22079018.780    90410134.66448
  21822583.520   114678481.02909  21822582.580    89359864.73548
 15 02 20 01 24 30.0000000  0  6G16G18G19G21G22G27
  20688413.260   108718352.49309  20688409.700    84715591.69448
  21673920.600   113897357.21309  21673917.580    88751243.54448
  23808482.300   125114430.55308  23808478.040    97491743.94346
  22301375.340   117194518.43109  22301371.440    91320390.49647
  22064197.200   115948332.61909  22064192.060    90349422.11948
  21812165.180   114623731.99109  21812164.220    89317203.14948
 15 02 20 01 25  0.0000000  0  6G16G18G19G21G22G27
  20682259.280   108686012.80509  20682255.640    84690391.93348
  21670780.120   113880853.69509  21670776.940    88738383.68647
  23794202.020   125039386.08208  23794197.660    97433267.72446
  22313230.600   117256817.91908  22313226.700    91368935.55447
  22049426.060   115870710.31409  22049420.960    90288937.23948
  21801767.340   114569091.05009  21801766.380    89274625.79848
 15 02 20 01 25 30.0000000  0  6G16G18G19G21G22G27
  20676199.060   108654166.22309  20676195.460    84665576.41548
  21667732.800   113864839.96009  21667729.600    88725905.45548
  23779933.840   124964406.30108  23779929.460    97374841.95946
  22325113.800   117319264.96708  22325109.860    91417595.57747
  22034713.160   115793394.05209  22034708.140    90228690.84048
  21791392.380   114514570.40909  21791391.420    89232142.18848
 15 02 20 01 26  0.0000000  0  6G16G18G19G21G22G27
  20670231.480   108622806.63109  20670227.980    84641140.35948
  21664777.380   113849309.32509  21664774.160    88713803.67447
  23765676.420   124889483.80908  23765672.200    97316460.85946
  22337023.240   117381850.07408  22337019.400    91466363.17447
  22020057.560   115716378.49109  22020052.540    90168678.75348
  21781038.940   114460162.85609  21781038.020    89189746.70548
 15 02 20 01 26 30.0000000  0  6G16G18G19G21G22G27
  20664357.280   108591937.81709  20664353.840    84617086.73748
  21661914.600   113834265.20209  21661911.340    88702080.99547
  23751430.440   124814621.27808  23751426.480    97258126.43946
  22348959.040   117444573.65508  22348955.340    91515238.68847
  22005460.160   115639668.74109  22005455.120    90108904.96148
  21770707.660   114405871.53709  21770706.720    89147441.78548
 15 02 20 01 27  0.0000000  0  6G16G18G19G21G22G27
  20658576.740   108561560.93009  20658573.300    84593416.42148
  21659144.220   113819706.97209  21659140.980    88690736.92848
  23737195.740   124739817.82208  23737191.620    97199838.03146
  22360921.040   117507434.36509  22360917.280    91564221.05347
  21990921.200   115563266.40409  21990916.180    90049370.71348
  21760398.360   114351695.93409  21760397.440    89105227.03148
 15 02 20 01 27 30.0000000  0  6G16G18G19G21G22G27
  20652890.200   108531678.05709  20652886.780    84570131.07248
  21656466.500   113805635.81809  21656463.260    88679772.40347
  23722972.440   124665074.17508  23722968.540    97141596.26447
  22372908.860   117570430.80608  22372905.180    91613309.18747
  21976441.340   115487174.64909  21976436.380    89990078.46348
  21750111.280   114297637.20009  21750110.400    89063103.35348
 15 02 20 01 28  0.0000000  0  6G16G18G19G21G22G27
  20647298.220   108502292.20609  20647294.840    84547233.00748
  21653881.880   113792053.95809  21653878.620    88669189.14248
  23708760.920   124590391.90508  23708756.860    97083402.32246
  22384922.360   117633562.29808  22384918.800    91662502.53347
  21962021.300   115411397.15309  21962016.420    89931031.08048
  21739846.780   114243697.13309  21739845.920    89021072.12548
 15 02 20 01 28 30.0000000  0  6G16G18G19G21G22G27
  20641800.620   108473402.75909  20641797.320    84524721.75548
  21651390.200   113778960.18409  21651387.020    88658986.20947
  23694560.600   124515769.09308  23694556.660    97025254.70746
  22396961.080   117696825.74609  22396957.460    91711798.71247
  21947661.120   115335934.46509  21947656.380    89872229.02648
  21729604.600   114189874.27109  21729603.800    88979132.24548
 15 02 20 01 29  0.0000000  0  6G16G18G19G21G22G27
  20636397.520   108445009.37209  20636394.220    84502597.03248
  21648991.220   113766353.30109  21648988.080    88649162.67248
  23680371.520   124441204.18308  23680367.260    96967152.17846
  22409024.280   117760217.95408  22409020.640    91761195.22547
  21933360.960   115260787.33209  21933356.320    89813672.83948
  21719384.540   114136167.60109  21719383.800    88937282.88648
 15 02 20 01 29 30.0000000  0  6G16G18G19G21G22G27
  20631090.640   108417121.53409  20631087.260    84480866.24348
  21646686.440   113754241.10609  21646683.300    88639724.60648
  23666194.740   124366704.54108  23666190.480    96909100.57246
  22421112.940   117823743.97308  22421109.400    91810696.00747
  21919122.800   115185965.54009  21919118.120    89755370.18848
  21709188.100   114082584.96109  21709187.420    88895530.18348
 15 02 20 01 30  0.0000000  0  6G16G18G19G21G22G27
  20625879.160   108389735.24009  20625875.780    84459526.27148
  21644475.020   113742619.21409  21644471.800    88630668.59148
  23652029.320   124292265.34308  23652025.160    96851096.02447
  22433225.960   117887398.16009  22433222.460    91860296.63547
  21904946.140   115111466.39509  21904941.380    89697318.92848
  21699014.380   114029121.72809  21699013.680    88853870.52948
 15 02 20 01 30 30.0000000  0  6G16G18G19G21G22G27
  20620763.300   108362851.16209  20620759.900    84438577.63348
  21642356.740   113731487.19909  21642353.520    88621994.31048
  23637875.400   124217886.12507  23637871.080    96793138.21746
  22445362.900   117951177.62409  22445359.320    91909994.89647
  21890831.160   115037291.29309  21890826.340    89639520.18048
  21688863.340   113975777.64709  21688862.620    88812303.72148
 15 02 20 01 31  0.0000000  0  6G16G18G19G21G22G27
  20615744.240   108336475.55009  20615740.780    84418025.19648
  21640332.560   113720850.17709  21640329.340    88613705.72348
  23623733.820   124143571.53908  23623729.420    96735230.72947
  22457524.200   118015085.25609  22457520.540    91959793.04147
  21876779.220   114963447.69509  21876774.360    89581979.74948
  21678736.000   113922558.20309  21678735.300    88770834.02448
 15 02 20 01 31 30.0000000  0  6G16G18G19G21G22G27
  20610821.840   108310607.96409  20610818.300    84397868.63748
  21638402.340   113710707.21009  21638399.120    88605802.12548
  23609604.040   124069319.77508  23609599.620    96677372.25446
  22469709.300   118079117.79509  22469705.520    92009688.52247
  21862790.440   114889936.00009  21862785.520    89524697.94148
  21668632.120   113869461.89509  21668631.440    88729460.30048
 15 02 20 01 32  0.0000000  0  6G16G18G19G21G22G27
  20605994.880   108285241.81609  20605991.280    84378102.80648
  21636564.660   113701050.67809  21636561.480    88598277.58148
  23595485.020   123995123.23008  23595480.580    96619556.76147
  22481916.400   118143266.21808  22481912.580    92059674.29147
  21848863.840   114816750.91309  21848858.760    89467670.61748
  21658550.220   113816481.26609  21658549.560    88688176.68948
 15 02 20 01 32 30.0000000  0  6G16G18G19G21G22G27
  20601265.580   108260388.84609  20601261.960    84358736.85548
  21634821.540   113691891.17209  21634818.400    88591140.30948
  23581378.520   123920992.48308  23581373.920    96561792.53446
  22494147.100   118207538.95109  22494143.200    92109756.91847
  21835001.780   114743904.79709  21834996.480    89410907.43248
  21648492.420   113763627.36209  21648491.780    88646991.83948
 15 02 20 01 33  0.0000000  0  6G16G18G19G21G22G27
  20596633.520   108236047.34309  20596630.000    84339769.45248
  21633172.560   113683226.37309  21633169.580    88584388.53648
  23567283.900   123846924.49508  23567279.400    96504077.25647
  22506400.640   118271931.43909  22506396.600    92159932.88147
  21821204.120   114671397.05009  21821198.580    89354407.90548
  21638458.220   113710897.60809  21638457.660    88605903.73848
 15 02 20 01 33 30.0000000  0  6G16G18G19G21G22G27
  20592098.700   108212216.79209  20592095.220    84321200.18748
  21631617.460   113675054.45609  21631614.540    88578020.82148
  23553200.900   123772917.78408  23553196.360    96446409.68446
  22518676.340   118336439.89009  22518672.220    92210199.19647
  21807470.940   114599228.21009  21807465.220    89298172.46548
  21628447.400   113658290.81109  21628446.940    88564911.43948
 15 02 20 01 34  0.0000000  0  6G16G18G19G21G22G27
  20587662.160   108188902.73309  20587658.780    84303033.38449
  21630157.120   113667379.92609  21630154.060    88572040.67248
  23539130.240   123698975.90008  23539125.760    96388792.67147
  22530974.600   118401067.33009  22530970.440    92260558.22847
  21793803.300   114527404.43509  21793797.580    89242205.91348
  21618460.900   113605811.59709  21618460.480    88524018.54948
 15 02 20 01 34 30.0000000  0  6G16G18G19G21G22G27
  20583324.060   108166105.80809  20583320.780    84285269.55149
  21628791.340   113660202.26209  21628788.140    88566447.69248
  23525071.780   123625098.44208  23525067.240    96331225.86147
  22543294.800   118465811.08009  22543290.800    92311007.87147
  21780201.560   114455927.29509  21780195.920    89186509.46548
  21608498.660   113553459.57009  21608498.180    88483224.76448
 15 02 20 01 35  0.0000000  0  6G16G18G19G21G22G27
  20579084.360   108143825.97609  20579081.120    84267908.63948
  21627519.940   113653520.94509  21627516.700    88561241.46848
  23511025.360   123551284.76808  23511021.080    96273708.75646
  22555636.720   118530668.64109  22555632.840    92361546.20747
  21766666.000   114384798.31409  21766660.560    89131084.31248
  21598560.560   113501234.38409  21598560.000    88442529.81148
 15 02 20 01 35 30.0000000  0  6G16G18G19G21G22G27
  20574943.400   108122064.89509  20574940.160    84250951.94648
  21626343.080   113647336.23009  21626339.760    88556422.22847
  23496991.340   123477535.53208  23496986.740    96216241.80747
  22568000.080   118595639.09408  22567996.160    92412172.53447
  21753197.200   114314020.02609  21753191.900    89075932.41748
  21588646.780   113449136.77909  21588646.140    88401934.26148
 15 02 20 01 36  0.0000000  0  6G16G18G19G21G22G27
  20570901.180   108100822.83609  20570897.940    84234399.68648
  21625260.640   113641648.01709  21625257.340    88551989.86348
  23482969.240   123403849.56908  23482964.380    96158824.21246
  22580384.380   118660719.58909  22580380.440    92462884.59247
  21739795.420   114243593.80309  21739790.240    89021054.87248
  21578757.200   113397166.52009  21578756.560    88361437.96548
 15 02 20 01 36 30.0000000  0  6G16G18G19G21G22G27
  20566958.120   108080101.85009  20566954.840    84218253.46748
  21624272.820   113636457.26909  21624269.660    88547945.13848
  23468959.400   123330228.21208  23468954.960    96101456.98447
  22592789.600   118725909.84408  22592785.700    92513682.17847
  21726461.280   114173522.65609  21726456.180    88966453.99848
  21568892.140   113345325.27709  21568891.480    88321042.20048
 15 02 20 01 37  0.0000000  0  6G16G18G19G21G22G27
  20563114.400   108059902.69709  20563111.020    84202513.86648
  21623379.460   113631762.85409  21623376.440    88544287.15848
  23454961.780   123256670.51108  23454957.160    96044139.29147
  22605215.300   118791207.44009  22605211.440    92564563.40447
  21713194.940   114103807.68409  21713189.900    88912130.66448
  21559051.480   113293612.50709  21559050.820    88280746.54348
 15 02 20 01 37 30.0000000  0  6G16G18G19G21G22G27
  20559370.080   108040225.94709  20559366.620    84187181.33348
  21622580.580   113627564.87709  21622577.600    88541016.01648
  23440976.340   123183176.22608  23440971.660    95986871.06647
  22617661.020   118856609.79909  22617657.040    92615526.27747
  21699996.820   114034451.23509  21699991.820    88858086.70248
  21549235.380   113242028.57909  21549234.700    88240551.27748
 15 02 20 01 38  0.0000000  0  6G16G18G19G21G22G27
  20555726.460   108021078.54809  20555722.960    84172261.28648
  21621877.300   113623869.53309  21621874.340    88538136.53947
  23427004.020   123109751.58308  23426999.400    95929657.11047
  22630127.580   118922121.96409  22630123.500    92666574.70747
  21686868.420   113965461.18709  21686863.460    88804328.23648
  21539445.000   113190579.94009  21539444.340    88200461.42248
 15 02 20 01 38 30.0000000  0  6G16G18G19G21G22G27
  20552182.300   108002453.82209  20552178.760    84157748.51649
  21621268.300   113620669.31409  21621265.280    88535642.88048
  23413043.580   123036389.03108  23413039.200    95872491.50947
  22642613.220   118987734.22709  22642609.100    92717701.14147
  21673808.820   113896832.46809  21673803.800    88750851.34348
  21529679.020   113139259.59009  21529678.420    88160471.55148
 15 02 20 01 39  0.0000000  0  6G16G18G19G21G22G27
  20548738.200   107984354.97809  20548734.620    84143645.51748
  21620753.960   113617965.89709  21620750.720    88533536.33748
  23399095.400   122963090.27508  23399090.800    95815375.61647
  22655117.960   119053446.63509  22655113.780    92768905.61747
  21660818.640   113828568.42509  21660813.520    88697658.60848
  21519937.880   113088069.55609  21519937.320    88120583.21548
 15 02 20 01 39 30.0000000  0  6G16G18G19G21G22G27
  20545395.340   107966788.51909  20545391.780    84129957.36548
  21620335.220   113615765.00209  21620331.860    88531821.35348
  23385160.380   122889861.07208  23385155.980    95758313.95747
  22667642.620   119119264.06809  22667638.340    92820191.90847
  21647899.340   113760677.00309  21647894.160    88644756.22648
  21510222.740   113037016.06709  21510222.200    88080801.27748
 15 02 20 01 40  0.0000000  0  6G16G18G19G21G22G27
  20542153.480   107949752.83909  20542149.960    84116682.80648
  21620011.560   113614063.85009  21620008.160    88530495.78848
  23371238.020   122816698.83908  23371233.820    95701304.47647
  22680186.120   119185181.59108  22680182.000    92871556.20347
  21635050.760   113693157.39409  21635045.540    88592143.57248
  21500533.240   112986097.05109  21500532.680    88041124.12248
 15 02 20 01 40 30.0000000  0  6G16G18G19G21G22G27
  20539012.940   107933249.41409  20539009.440    84103822.98348
  21619783.080   113612863.00809  21619779.660    88529560.07248
  23357328.620   122743604.57708  23357324.180    95644347.91647
  22692748.720   119251198.81209  22692744.740    92922998.18847
  21622273.480   113626012.57109  21622268.300    88539822.95148
  21490869.560   112935313.78609  21490868.960    88001552.74748
 15 02 20 01 41  0.0000000  0  6G16G18G19G21G22G27
  20535973.240   107917275.78809  20535969.780    84091376.00249
  21619649.140   113612159.09409  21619645.700    88529011.58547
  23343431.520   122670574.71608  23343427.260    95587441.54747
  22705329.280   119317310.12209  22705325.460    92974513.48247
  21609567.280   113559241.02609  21609562.160    88487793.20548
  21481231.160   112884663.26109  21481230.480    87962084.81948
 15 02 20 01 41 30.0000000  0  6G16G18G19G21G22G27
  20533035.660   107901838.87109  20533032.260    84079347.23648
  21619610.820   113611957.82609  21619607.400    88528854.74947
  23329547.760   122597615.24108  23329543.420    95530590.06247
  22717928.540   119383519.70909  22717924.840    93026105.36647
  21596933.560   113492850.57909  21596928.540    88436060.40748
  21471619.260   112834151.89909  21471618.440    87922725.32548
 15 02 20 01 42  0.0000000  0  6G16G18G19G21G22G27
  20530200.160   107886938.29409  20530196.780    84067736.39449
  21619667.980   113612258.15409  21619664.500    88529088.78148
  23315677.120   122524724.95309  23315672.720    95473792.47046
  22730545.980   119449825.21108  22730542.420    93077771.96247
  21584372.500   113426842.01509  21584367.540    88384625.17748
  21462033.760   112783779.08409  21462032.740    87883473.78948
 15 02 20 01 42 30.0000000  0  6G16G18G19G21G22G27
  20527466.460   107872572.32809  20527463.060    84056542.13748
  21619820.100   113613057.41609  21619816.480    88529711.59347
  23301819.260   122451901.67608  23301814.820    95417047.07947
  22743181.020   119516222.36908  22743177.420    93129510.03647
  21571884.040   113361215.13509  21571879.160    88333487.38048
  21452474.240   112733542.93909  21452473.020    87844328.74748
 15 02 20 01 43  0.0000000  0  6G16G18G19G21G22G27
  20524834.760   107858742.29409  20524831.340    84045765.47948
  21620067.040   113614355.64309  21620063.500    88530723.19747
  23287974.200   122379145.81708  23287969.760    95360354.20247
  22755833.420   119582710.96608  22755829.820    93181319.31947
  21559468.760   113295972.57709  21559463.880    88282649.04948
  21442940.860   112683444.32109  21442939.500    87805290.87548
 15 02 20 01 43 30.0000000  0  6G16G18G19G21G22G27
  20522305.620   107845451.34209  20522302.160    84035408.89549
  21620409.160   113616154.34209  21620405.780    88532124.80348
  23274142.440   122306459.36508  23274138.120    95303715.43347
  22768502.920   119649290.29508  22768499.560    93233199.28047
  21547127.340   113231118.03009  21547122.400    88232113.05148
  21433434.040   112633485.67109  21433432.700    87766362.06548
 15 02 20 01 44  0.0000000  0  6G16G18G19G21G22G27
  20519878.940   107832698.88509  20519875.440    84025471.90949
  21620846.520   113618453.13109  21620843.280    88533916.07348
  23260323.800   122233841.63509  23260319.140    95247130.19947
  22781189.260   119715957.61708  22781186.000    93285147.84547
  21534859.980   113166652.66309  21534854.960    88181880.31148
  21423953.760   112583666.80809  21423952.480    87727542.17048
 15 02 20 01 44 30.0000000  0  6G16G18G19G21G22G27
  20517554.560   107820484.12709  20517551.060    84015953.91649
  21621378.700   113621249.91909  21621375.540    88536095.39248
  23246517.920   122161291.15108  23246513.180    95190597.37147
  22793891.800   119782709.94108  22793888.540    93337162.62347
  21522666.700   113102576.33609  21522661.560    88131950.72348
  21414499.860   112533986.59909  21414498.680    87688830.32548
 15 02 20 01 45  0.0000000  0  6G16G18G19G21G22G27
  20515334.020   107808815.26309  20515330.560    84006861.29749
  21622006.920   113624551.20609  21622003.780    88538667.83248
  23232726.020   122088814.52709  23232721.400    95134122.13146
  22806611.740   119849553.53309  22806608.400    93389248.52246
  21510549.200   113038898.03909  21510544.040    88082331.29948
  21405073.740   112484452.25609  21405072.620    87650232.15448
 15 02 20 01 45 30.0000000  0  6G16G18G19G21G22G27
  20513216.340   107797686.77209  20513212.900    83998189.74549
  21622730.020   113628350.79309  21622726.860    88541628.56047
  23218947.180   122016406.33708  23218942.300    95077700.16647
  22819347.540   119916480.25908  22819344.140    93441399.21747
  21498506.760   112975613.92009  21498501.500    88033019.01148
  21395674.420   112435058.62509  21395673.300    87611743.61248
 15 02 20 01 46  0.0000000  0  6G16G18G19G21G22G27
  20511202.180   107787102.04009  20511198.700    83989941.89249
  21623548.420   113632651.29109  21623545.200    88544979.60747
  23205181.940   121944069.16608  23205177.020    95021333.54947
  22832099.280   119983491.15208  22832095.920    93493615.46547
  21486540.100   112912728.53409  21486534.700    87984017.42648
  21386302.560   112385809.12309  21386301.400    87573367.37948
 15 02 20 01 46 30.0000000  0  6G16G18G19G21G22G27
  20509291.540   107777061.24909  20509288.000    83982117.89948
  21624462.020   113637451.79509  21624458.600    88548720.26347
  23191430.280   121871803.09009  23191425.300    94965022.31546
  22844866.780   120050584.59908  22844863.420    93545896.06547
  21474649.500   112850243.23009  21474644.040    87935327.60348
  21376958.160   112336703.82509  21376956.940    87535103.51348
 15 02 20 01 47  0.0000000  0  6G16G18G19G21G22G27
  20507485.220   107767568.71909  20507481.660    83974721.12048
  21625471.320   113642755.21609  21625467.760    88552852.80847
  23177692.600   121799611.25209  23177687.480    94908768.95846
  22857650.240   120117761.81209  22857646.800    93598241.92646
  21462835.920   112788163.18709  21462830.580    87886953.57248
  21367641.900   112287746.52209  21367640.700    87496954.96148
 15 02 20 01 47 30.0000000  0  6G16G18G19G21G22G27
  20505782.420   107758620.36809  20505778.900    83967748.37949
  21626575.520   113648557.02209  21626571.740    88557373.71248
  23163968.260   121727489.46609  23163963.240    94852570.19846
  22870448.580   120185016.86508  22870445.020    93650648.45547
  21451099.040   112726486.00509  21451093.860    87838893.44648
  21358353.080   112238933.57809  21358351.980    87458918.90048
 15 02 20 01 48  0.0000000  0  6G16G18G19G21G22G27
  20504183.720   107750219.30809  20504180.220    83961202.09749
  21627774.740   113654859.03409  21627770.980    88562284.36948
  23150257.600   121655439.99508  23150252.540    94796427.72047
  22883261.920   120252350.60909  22883258.200    93703116.30146
  21439439.720   112665215.94909  21439434.600    87791150.56448
  21349092.240   112190267.76109  21349091.220    87420997.49748
 15 02 20 01 48 30.0000000  0  6G16G18G19G21G22G27
  20502689.040   107742364.78309  20502685.500    83955081.68849
  21629068.780   113661659.56809  21629065.100    88567583.49248
  23136560.640   121583461.80808  23136555.580    94740340.82046
  22896089.820   120319761.06408  22896086.120    93755643.92647
  21427858.040   112604353.43609  21427852.880    87743725.25248
  21339859.220   112141748.21609  21339858.240    87383190.06749
 15 02 20 01 49  0.0000000  0  6G16G18G19G21G22G27
  20501299.180   107735061.08009  20501295.580    83949390.48049
  21630458.260   113668961.77309  21630454.700    88573273.52248
  23122877.840   121511558.47208  23122873.020    94684312.27447
  22908932.440   120387249.61608  22908928.960    93808232.36447
  21416354.920   112543903.81009  21416349.700    87696621.66348
  21330654.860   112093379.34509  21330653.960    87345500.04248
 15 02 20 01 49 30.0000000  0  6G16G18G19G21G22G27
  20500014.480   107728309.77009  20500010.820    83944129.72848
  21631943.320   113676766.21009  21631939.840    88579354.90848
  23109209.600   121439731.39909  23109204.680    94628343.12947
  22921789.720   120454815.19908  22921786.160    93860880.86847
  21404930.880   112483869.86409  21404925.640    87649841.99448
  21321479.480   112045162.76309  21321478.640    87307928.68648
 15 02 20 01 50  0.0000000  0  6G16G18G19G21G22G27
  20498834.320   107722107.60409  20498830.560    83939296.86949
  21633523.140   113685068.50709  21633519.740    88585824.24848
  23095555.160   121367976.97709  23095550.260    94572430.63347
  22934660.800   120522453.47308  22934657.180    93913586.00846
  21393585.500   112424249.34809  21393580.220    87603384.46748
  21312332.520   111997095.34009  21312331.680    87270473.55548
 15 02 20 01 50 30.0000000  0  6G16G18G19G21G22G27
  20497758.980   107716456.58309  20497755.160    83934893.48049
  21635198.000   113693869.91909  21635194.640    88592682.49548
  23081914.860   121296296.89009  23081910.040    94516576.00647
  22947545.680   120590164.31008  22947542.060    93966347.67547
  21382319.500   112365045.93409  21382314.140    87557251.97048
  21303214.300   111949179.07809  21303213.460    87233136.21449
 15 02 20 01 51  0.0000000  0  6G16G18G19G21G22G27
  20496788.640   107711357.29909  20496784.780    83930920.01449
  21636967.780   113703169.83609  21636964.400    88599929.19048
  23068288.720   121224691.36908  23068283.820    94460779.51947
  22960444.140   120657946.05208  22960440.520    94019164.61747
  21371133.140   112306261.14009  21371127.660    87511445.65748
  21294124.980   111901414.64709  21294124.180    87195917.17948
 15 02 20 01 51 30.0000000  0  6G16G18G19G21G22G27
  20495923.640   107706811.70409  20495919.780    83927377.99448
  21638832.720   113712969.61809  21638829.260    88607565.39648
  23054677.060   121153161.74209  23054672.360    94405042.19846
  22973356.140   120725798.95409  22973352.460    94072036.99247
  21360027.100   112247898.71609  21360021.580    87465968.46648
  21285064.980   111853804.33809  21285064.220    87158818.23749
 15 02 20 01 52  0.0000000  0  6G16G18G19G21G22G27
  20495164.220   107702820.92709  20495160.400    83924268.29449
  21640792.580   113723268.39009  21640789.060    88615590.41148
  23041080.000   121081708.95909  23041075.420    94349364.70747
  22986281.480   120793721.83008  22986277.720    94124963.91646
  21349001.740   112189960.59109  21348996.260    87420821.89248
  21276034.500   111806349.27909  21276033.820    87121840.25949
 15 02 20 01 52 30.0000000  0  7G04G16G18G19G21G22G27
  24570469.540   129118711.69808  24570473.140   100611977.07745
  20494510.220   107699384.18109  20494506.480    83921590.30848
  21642847.280   113734065.41709  21642843.640    88624003.69747
  23027497.400   121010332.03509  23027492.720    94293746.35547
  22999219.560   120861711.90208  22999215.800    94177943.18546
  21338057.260   112132447.42009  21338051.840    87376006.45548
  21267033.460   111759048.92609  21267032.860    87084982.83848
 15 02 20 01 53  0.0000000  0  7G04G16G18G19G21G22G27
  24552209.140   129022748.46307  24552212.580   100537201.08544
  20493966.640   107696527.49409  20493962.920    83919364.32048
  21645001.340   113745385.36509  21644997.740    88632824.44947
  23013934.080   120939056.50209  23013929.440    94238207.01547
  23012175.080   120929793.44309  23012171.340    94230993.69346
  21327198.880   112075386.40609  21327193.520    87331543.34748
  21258066.860   111711929.51109  21258066.320    87048266.41948
 15 02 20 01 53 30.0000000  0  7G04G16G18G19G21G22G27
  24533971.360   128926905.36308  24533973.620   100462518.52845
  20493523.540   107694198.96209  20493519.840    83917549.87749
  21647244.700   113757175.07909  21647241.320    88642011.24947
  23000380.220   120867830.47909  23000375.540    94182706.21047
  23025137.760   120997912.62608  23025133.900    94284073.57446
  21316416.800   112018726.72909  21316411.600    87287392.96648
  21249124.900   111664939.29109  21249124.340    87011650.66048
 15 02 20 01 54  0.0000000  0  7G04G16G18G19G21G22G27
  24515762.400   128831217.48108  24515764.300   100387957.07544
  20493187.500   107692432.98309  20493183.760    83916173.78849
  21649583.880   113769468.26509  21649580.660    88651590.36548
  22986842.380   120796688.38909  22986837.520    94127270.85747
  23038113.760   121066102.45708  23038109.860    94337208.47546
  21305717.840   111962504.04309  21305712.780    87243583.10748
  21240214.180   111618113.18109  21240213.620    86975162.78148
 15 02 20 01 54 30.0000000  0  7G04G16G18G19G21G22G27
  24497581.200   128735676.23508  24497583.380   100313509.84745
  20492956.760   107691220.63609  20492953.060    83915229.10049
  21652017.040   113782255.09309  21652013.880    88661554.13447
  22973318.780   120725621.26609  22973314.000    94071893.90847
  23051101.160   121134352.15208  23051097.300    94390390.04946
  21295100.700   111906711.30009  21295095.700    87200108.25948
  21231333.140   111571442.82209  21231332.520    86938796.26848
 15 02 20 01 55  0.0000000  0  7G04G16G18G19G21G22G27
  24479428.880   128640286.25307  24479430.320   100239180.30244
  20492832.260   107690566.37909  20492828.580    83914719.28549
  21654544.840   113795538.76709  21654541.680    88671905.04847
  22959810.140   120654633.07808  22959805.180    94016578.42947
  23064100.440   121202663.84208  23064096.680    94443619.94146
  21284566.520   111851354.14909  21284561.460    87156972.82948
  21222482.540   111524932.55509  21222481.900    86902554.50848
 15 02 20 01 55 30.0000000  0  7G04G16G18G19G21G22G27
  24461305.360   128545047.94208  24461306.980   100164969.07944
  20492813.960   107690470.09909  20492810.240    83914644.26348
  21657167.020   113809318.41309  21657163.860    88682642.45148
  22946316.520   120583723.77109  22946311.700    93961324.47847
  23077111.200   121271035.80608  23077107.560    94496896.76146
  21274115.500   111796433.86509  21274110.420    87114177.81948
  21213662.540   111478582.95309  21213661.860    86866437.92948
 15 02 20 01 56  0.0000000  0  7G04G16G18G19G21G22G27
  24443211.680   128449967.12508  24443213.400   100090880.52845
  20492902.920   107690937.74209  20492899.200    83915008.66749
  21659884.420   113823598.77809  21659881.320    88693770.00247
  22932839.060   120512899.03009  22932834.480    93906136.41047
  23090134.220   121339472.76608  23090130.780    94550224.24846
  21263748.940   111741957.14909  21263743.800    87071728.44248
  21204874.260   111432400.14109  21204873.560    86830451.32648
 15 02 20 01 56 30.0000000  0  7G04G16G18G19G21G22G27
  24425146.800   128355037.82008  24425148.520   100016910.07144
  20493097.920   107691962.53709  20493094.240    83915807.20649
  21662695.640   113838372.44809  21662692.560    88705281.95547
  22919376.380   120442152.35309  22919371.800    93851009.14947
  23103168.000   121407966.02608  23103164.540    94603595.60746
  21253465.860   111687918.89609  21253460.720    87029620.73148
  21196116.580   111386378.04309  21196115.880    86794589.95548
 15 02 20 01 57  0.0000000  0  7G04G16G18G19G21G22G27
  24407111.080   128260260.93008  24407112.780    99943058.34045
  20493399.120   107693545.36409  20493395.500    83917040.57449
  21665600.720   113853638.94609  21665597.560    88717177.94847
  22905928.640   120371484.21308  22905924.020    93795943.09747
  23116212.480   121476514.71308  23116208.860    94657010.13846
  21243266.600   111634321.19709  21243261.440    86987856.31348
  21187389.640   111340517.70309  21187388.980    86758854.62948
 15 02 20 01 57 30.0000000  0  7G04G16G18G19G21G22G27
  24389105.260   128165641.14008  24389106.740    99869329.01245
  20493807.340   107695690.39109  20493803.740    83918712.01749
  21668600.200   113869401.41409  21668596.900    88729460.38647
  22892496.680   120300898.92809  22892492.180    93740941.64247
  23129268.000   121545121.43708  23129264.440    94710469.91546
  21233152.160   111581169.40109  21233147.020    86946439.35548
  21178694.360   111294823.79309  21178693.720    86723248.98949
 15 02 20 01 58  0.0000000  0  7G04G16G18G19G21G22G27
  24371129.100   128071177.16807  24371130.560    99795721.11245
  20494322.220   107698396.01409  20494318.620    83920820.29349
  21671693.580   113885657.51209  21671690.220    88742127.48647
  22879080.260   120230395.15209  22879075.740    93686003.65747
  23142333.960   121613783.01909  23142330.360    94763972.41346
  21223122.600   111528463.68109  21223117.460    86905369.98648
  21170030.560   111249295.43209  21170029.980    86687772.35748
 15 02 20 01 58 30.0000000  0  7G04G16G18G19G21G22G27
  24353182.480   127976867.95807  24353183.720    99722233.75545
  20494943.420   107701660.48409  20494939.800    83923364.03449
  21674880.540   113902404.55109  21674877.040    88755177.14047
  22865679.060   120159971.22409  22865674.380    93631127.89147
  23155409.780   121682496.07308  23155405.920    94817515.06946
  21213177.840   111476203.66209  21213172.720    86864647.91148
  21161398.040   111203931.49309  21161397.520    86652423.84948
 15 02 20 01 59  0.0000000  0  7G04G16G18G19G21G22G27
  24335266.260   127882718.32808  24335267.360    99648870.73445
  20495671.880   107705488.59909  20495668.240    83926346.98049
  21678161.580   113919645.68309  21678157.900    88768611.79647
  22852293.860   120089631.72509  22852289.080    93576317.89047
  23168495.880   121751263.65908  23168491.800    94871100.18146
  21203318.940   111424394.64909  21203313.800    86824277.27048
  21152797.760   111158736.84809  21152797.280    86617207.24949
 15 02 20 01 59 30.0000000  0  7G04G16G18G19G21G22G27
  24317380.440   127788729.25908  24317381.160    99575632.82144
  20496507.680   107709880.79409  20496504.020    83929769.46449
  21681536.680   113937381.18909  21681532.860    88782431.68447
  22838924.900   120019377.47108  22838919.980    93521574.32847
  23181592.100   121820085.23808  23181588.160    94924727.35446
  21193546.360   111373039.36509  21193541.320    86784260.19048
  21144229.980   111113712.97409  21144229.540    86582123.71849
 15 02 20 02 00  0.0000000  0  7G04G16G18G19G21G22G27
  24299525.080   127694900.92208  24299525.900    99502520.18244
  20497450.740   107714836.71609  20497447.100    83933631.22749
  21685005.440   113955609.49909  21685001.720    88796635.55848
  22825572.020   119949208.17608  22825566.980    93466896.98847
  23194698.240   121888958.57608  23194694.480    94978394.88346
  21183860.240   111322138.39509  21183855.220    86744597.10948
  21135694.760   111068860.01109  21135694.280    86547173.37449
 15 02 20 02 00 30.0000000  0  7G04G16G18G19G21G22G27
  24281700.500   127601233.58808  24281701.360    99429532.91845
  20498500.980   107720356.01409  20498497.400    83937931.97149
  21688567.600   113974328.99409  21688563.960    88811222.19247
  22812235.360   119879123.98809  22812230.480    93412285.94547
  23207814.020   121957882.08408  23207810.320    95032101.48246
  21174260.840   111271693.26609  21174255.700    86705289.22448
  21127192.200   111024178.49909  21127191.640    86512356.62248
 15 02 20 02 01  0.0000000  0  7G04G16G18G19G21G22G27
  24263906.380   127507725.84408  24263906.960    99356669.94945
  20499658.140   107726437.04409  20499654.580    83942670.43648
  21692222.800   113993537.70909  21692219.280    88826190.03447
  22798914.560   119809123.16308  22798909.940    93357739.84847
  23220938.820   122026852.39109  23220935.060    95085844.56846
  21164748.000   111221703.08809  21164742.740    86666335.86048
  21118721.980   110979667.09509  21118721.380    86477672.42148
 15 02 20 02 01 30.0000000  0  7G04G16G18G19G21G22G27
  24246143.460   127414381.75208  24246144.300    99283934.58445
  20500922.860   107733083.24709  20500919.260    83947849.29648
  21695971.560   114013238.11209  21695968.180    88841541.00848
  22785610.400   119739209.61708  22785605.900    93303261.80347
  23234072.860   122095871.90608  23234069.060    95139625.98746
  21155322.660   111172173.02609  21155317.340    86627741.02248
  21110284.940   110935330.27709  21110284.300    86443124.26049
 15 02 20 02 02  0.0000000  0  7G04G16G18G19G21G22G27
  24228411.780   127321202.18808  24228412.600    99211327.35745
  20502295.260   107740295.03509  20502291.560    83953468.86849
  21699813.660   114033429.10709  21699810.420    88857274.25448
  22772322.900   119669383.56408  22772318.480    93248851.90447
  23247216.020   122164939.79108  23247212.240    95193445.09646
  21145985.260   111123104.66009  21145979.900    86589505.94648
  21101881.300   110891169.02109  21101880.620    86408712.90849
 15 02 20 02 02 30.0000000  0  7G04G16G18G19G21G22G27
  24210710.900   127228184.24307  24210711.660    99138846.07246
  20503774.580   107748068.56409  20503770.800    83959526.15849
  21703748.380   114054106.33109  21703745.140    88873386.39248
  22759051.540   119599642.09409  22759047.100    93194507.91947
  23260367.260   122234050.75908  23260363.620    95247297.77846
  21136735.280   111074495.75309  21136729.960    86551628.89648
  21093510.580   110847180.57309  21093509.840    86374436.20949
 15 02 20 02 03  0.0000000  0  7G04G16G18G19G21G22G27
  24193041.760   127135332.10908  24193042.180    99066493.95345
  20505361.480   107756407.40709  20505357.640    83966023.94548
  21707776.200   114075272.23509  21707772.940    88889879.30647
  22745796.960   119529989.01909  22745792.560    93140232.79647
  23273527.220   122303207.27308  23273523.460    95301185.97746
  21127573.700   111026351.51909  21127568.420    86514113.92148
  21085173.560   110803369.27609  21085172.780    86340297.53648
 15 02 20 02 03 30.0000000  0  7G04G16G18G19G21G22G27
  24175404.260   127042647.03108  24175404.580    98994272.05845
  20507056.320   107765313.28909  20507052.400    83972963.59549
  21711897.140   114096927.31609  21711893.820    88906753.39948
  22732559.460   119460425.79509  22732555.000    93086027.71047
  23286695.820   122372409.11108  23286692.140    95355109.45946
  21118500.980   110978674.38809  21118495.780    86476962.92648
  21076870.660   110759737.03509  21076869.840    86306298.39949
 15 02 20 02 04  0.0000000  0  7G04G16G18G19G21G22G27
  24157797.940   126950126.44808  24157798.300    98922178.35145
  20508858.220   107774782.13209  20508854.320    83980341.91349
  21716110.260   114119066.82509  21716106.840    88924004.98148
  22719338.480   119390949.34108  22719334.080    93031890.22047
  23299872.340   122441651.51108  23299868.640    95409064.57146
  21109516.740   110931462.12709  21109511.640    86440174.17048
  21068601.340   110716281.14409  21068600.480    86272436.68149
 15 02 20 02 04 30.0000000  0  7G04G16G18G19G21G22G27
  24140223.520   126857773.97608  24140223.860    98850215.59746
  20510767.720   107784816.81209  20510763.860    83988161.15049
  21720415.940   114141692.96609  21720412.460    88941635.74048
  22706134.720   119321563.14309  22706130.320    92977823.08447
  23313056.900   122510936.30308  23313053.200    95463052.71646
  21100621.780   110884718.87009  21100616.760    86403750.87648
  21060366.380   110673005.61709  21060365.480    86238715.50749
 15 02 20 02 05  0.0000000  0  7G04G16G18G19G21G22G27
  24122681.160   126765589.31708  24122681.460    98778383.63645
  20512784.760   107795416.67309  20512780.940    83996420.77149
  21724813.740   114164803.74309  21724810.260    88959644.14647
  22692948.100   119252266.53009  22692943.540    92923825.71747
  23326248.960   122580261.22508  23326245.500    95517072.09946
  21091816.360   110838445.91509  21091811.340    86367694.04648
  21052165.720   110629910.34609  21052164.780    86205134.78249
 15 02 20 02 05 30.0000000  0  7G04G16G18G19G21G22G27
  24105171.320   126673575.55008  24105171.640    98706684.83145
  20514909.860   107806584.43509  20514906.100    84005122.92249
  21729304.140   114188401.08809  21729300.600    88978031.70047
  22679779.140   119183062.83609  22679774.440    92869900.79847
  23339448.880   122649627.95508  23339445.700    95571124.07746
  21083101.200   110792646.98109  21083096.100    86332006.57948
  21044000.040   110586998.94809  21043999.020    86171697.33649
 15 02 20 02 06  0.0000000  0  7G04G16G18G19G21G22G27
  24087693.540   126581730.11108  24087693.580    98635117.16345
  20517142.280   107818316.36509  20517138.640    84014264.68349
  21733886.360   114212480.81409  21733882.720    88996795.13348
  22666627.340   119113949.00909  22666622.500    92816045.85347
  23352656.020   122719032.04409  23352652.780    95625205.16246
  21074475.800   110747320.01609  21074470.620    86296686.88948
  21035868.900   110544269.15109  21035867.800    86138401.40849
 15 02 20 02 06 30.0000000  0  7G04G16G18G19G21G22G27
  24070247.880   126490053.59208  24070248.040    98563681.17045
  20519482.080   107830612.65609  20519478.560    84023846.20949
  21738560.120   114237041.69109  21738556.420    89015933.48747
  22653492.680   119044925.64809  22653487.900    92762261.45647
  23365870.060   122788472.02808  23365866.680    95679314.25346
  21065940.360   110702466.13209  21065935.080    86261735.82648
  21027772.400   110501721.79809  21027771.280    86105247.62349
 15 02 20 02 07  0.0000000  0  7G04G16G18G19G21G22G27
  24052835.240   126398550.59408  24052835.400    98492380.32845
  20521930.020   107843476.76009  20521926.560    84033870.18649
  21743326.040   114262086.73809  21743322.240    89035449.12047
  22640376.080   118975997.18709  22640371.380    92708550.95747
  23379091.440   122857950.91408  23379088.200    95733453.62046
  21057495.940   110658090.88809  21057490.640    86227157.73148
  21019711.500   110459361.67209  21019710.420    86072239.74549
 15 02 20 02 07 30.0000000  0  7G04G16G18G19G21G22G27
  24035455.280   126307218.58208  24035455.300    98421212.72145
  20524485.600   107856906.11109  20524482.100    84044334.60949
  21748183.280   114287611.80609  21748179.540    89055338.78447
  22627276.920   118907160.89609  22627272.200    92654912.34047
  23392319.280   122927464.57608  23392316.200    95787620.07146
  21049142.300   110614192.32709  21049137.000    86192951.07448
  21011685.820   110417186.73809  21011684.840    86039376.16849
 15 02 20 02 08  0.0000000  0  7G04G16G18G19G21G22G27
  24018108.540   126216061.12708  24018108.380    98350181.12145
  20527149.300   107870903.52809  20527145.700    84055241.68849
  21753132.280   114313619.23409  21753128.620    89075604.30247
  22614196.040   118838420.61609  22614191.260    92601348.46947
  23405554.240   122997015.47008  23405551.180    95841815.56946
  21040880.340   110570775.26309  21040874.960    86159119.61648
  21003696.160   110375201.17009  21003695.280    86006660.15149
 15 02 20 02 08 30.0000000  0  7G04G16G18G19G21G22G27
  24000794.400   126125075.12008  24000793.980    98279283.11445
  20529920.320   107885464.84509  20529916.600    84066588.16848
  21758172.100   114340103.96709  21758168.480    89096241.76847
  22601132.800   118769772.93409  22601127.980    92547856.81047
  23418795.340   123066597.74908  23418792.160    95896035.51246
  21032709.540   110527837.45909  21032704.100    86125661.60848
  20995741.980   110333401.99509  20995741.200    85974089.37249
 15 02 20 02 09  0.0000000  0  7G04G16G18G19G21G22G27
  23983513.060   126034261.48308  23983512.580    98208519.44845
  20532798.640   107900590.10409  20532794.860    84078374.08449
  21763302.740   114367065.68309  21763299.180    89117250.91447
  22588087.420   118701218.89408  22588082.520    92494438.06347
  23432042.420   123136211.33308  23432039.020    95950279.84946
  21024630.140   110485380.06709  21024624.640    86092577.95248
  20987823.560   110291790.69009  20987822.840    85941664.98749
 15 02 20 02 09 30.0000000  0  7G04G16G18G19G21G22G27
  23966265.520   125943625.93108  23966264.880    98137894.51545
  20535785.180   107916284.39409  20535781.400    84090603.39348
  21768524.840   114394507.89309  21768521.340    89138634.44447
  22575060.840   118632763.72309  22575055.940    92441096.42247
  23445296.180   123205859.69408  23445292.560    96004551.27346
  21016643.280   110443409.16809  21016637.820    86059873.37248
  20979942.000   110250373.01009  20979941.280    85909391.47449
 15 02 20 02 10  0.0000000  0  7G04G16G18G19G21G22G27
  23949051.360   125853165.35108  23949050.280    98067405.84145
  20538879.160   107932543.73309  20538875.500    84103273.00448
  21773837.440   114422425.93109  21773834.040    89160388.76847
  22562052.580   118564404.85209  22562047.720    92387829.76847
  23458555.640   123275538.10108  23458551.860    96058846.14346
  21008748.580   110401922.67109  21008743.220    86027546.24548
  20972096.820   110209146.50009  20972096.080    85877266.92949
 15 02 20 02 10 30.0000000  0  7G04G16G18G19G21G22G27
  23931870.660   125762881.21708  23931869.700    97997054.74845
  20542080.760   107949368.79909  20542077.260    84116383.43648
  21779240.560   114450819.66109  21779237.240    89182513.75647
  22549062.860   118496143.28209  22549057.960    92334638.96047
  23471820.800   123345246.79808  23471817.100    96113164.56246
  21000946.460   110360922.78709  21000941.320    85995598.30448
  20964288.440   110168113.12309  20964287.640    85845292.87748
 15 02 20 02 11  0.0000000  0  7G04G16G18G19G21G22G27
  23914724.100   125672776.39008  23914723.320    97926843.33645
  20545390.400   107966761.57909  20545387.000    84129936.25648
  21784734.280   114479689.84309  21784731.040    89205010.01647
  22536092.100   118427981.66709  22536087.240    92281526.03047
  23485091.920   123414986.58208  23485088.160    96167507.25446
  20993237.660   110320412.73809  20993232.540    85964032.04948
  20956517.380   110127275.80409  20956516.540    85813471.60649
 15 02 20 02 11 30.0000000  0  7G04G16G18G19G21G22G27
  23897611.000   125582847.22308  23897610.180    97856768.79345
  20548807.320   107984717.56009  20548803.880    84143927.92548
  21790317.800   114509031.62009  21790314.560    89227873.74647
  22523139.660   118359916.49809  22523134.820    92228488.23848
  23498368.060   123484752.71108  23498364.060    96221870.47046
  20985621.580   110280389.62609  20985616.380    85932845.22548
  20948783.060   110086631.62509  20948782.160    85781800.81749
 15 02 20 02 12  0.0000000  0  7G04G16G18G19G21G22G27
  23880532.380   125493099.07608  23880531.740    97786835.32645
  20552332.300   108003241.17309  20552328.760    84158361.92248
  21795991.740   114538848.51009  21795988.360    89251107.69947
  22510206.620   118291953.44509  22510201.800    92175530.05847
  23511649.780   123554548.44208  23511645.720    96276256.72946
  20978099.320   110240859.51209  20978094.040    85902042.56548
  20941086.580   110046186.38909  20941085.660    85750285.05949
 15 02 20 02 12 30.0000000  0  7G04G16G18G19G21G22G27
  23863487.340   125403526.93308  23863486.520    97717038.95145
  20555964.180   108022326.56109  20555960.520    84173233.65548
  21801754.740   114569133.47909  21801751.340    89274706.38247
  22497291.940   118224086.96909  22497287.220    92122647.12947
  23524936.000   123624367.10908  23524931.840    96330660.86445
  20970669.900   110201817.75909  20970664.640    85871620.44148
  20933427.040   110005935.36609  20933426.120    85718920.63049
 15 02 20 02 13  0.0000000  0  7G04G16G18G19G21G22G27
  23846476.580   125314134.61808  23846475.880    97647382.73145
  20559703.480   108041976.55709  20559699.760    84188545.33848
  21807607.440   114599889.26209  21807603.860    89298671.95047
  22484396.520   118156321.53108  22484391.960    92069842.85947
  23538227.120   123694211.24708  23538222.960    96385084.87246
  20963334.300   110163269.12109  20963329.060    85841582.55348
  20925805.340   109965883.12309  20925804.460    85687711.09349
 15 02 20 02 13 30.0000000  0  7G04G16G18G19G21G22G27
  23829502.200   125224933.85708  23829501.520    97577875.75945
  20563552.260   108062202.11409  20563548.580    84204305.51348
  21813551.460   114631125.32709  21813547.820    89323011.74747
  22471522.520   118088668.72509  22471517.980    92017126.43347
  23551524.860   123764091.07408  23551520.860    96439536.64446
  20956094.940   110125225.90409  20956089.680    85811938.51748
  20918223.740   109926041.69609  20918222.880    85656665.83649
 15 02 20 02 14  0.0000000  0  7G04G16G18G19G21G22G27
  23812560.620   125135905.61508  23812559.500    97508503.19745
  20567506.680   108082982.93709  20567503.100    84220498.35748
  21819583.040   114662821.16009  21819579.460    89347709.81947
  22458666.340   118021109.33209  22458661.860    91964482.80247
  23564825.240   123833985.66308  23564821.460    96493999.96446
  20948948.180   110087669.34309  20948942.820    85782673.67848
  20910678.720   109886392.58209  20910677.920    85625770.42749
 15 02 20 02 14 30.0000000  0  7G04G16G18G19G21G22G27
  23795653.700   125047059.42208  23795652.340    97439272.52045
  20571568.460   108104327.95009  20571564.900    84237130.83348
  21825703.440   114694984.07109  21825699.900    89372771.81847
  22445829.860   117953653.25808  22445825.480    91911919.60948
  23578130.080   123903903.42108  23578126.340    96548481.29846
  20941895.960   110050609.69709  20941890.540    85753796.04948
  20903172.260   109846945.87909  20903171.420    85595032.74049
 15 02 20 02 15  0.0000000  0  7G04G16G18G19G21G22G27
  23778781.980   124958398.31008  23778780.760    97370186.05445
  20575737.980   108126239.06709  20575734.440    84254204.42549
  21831913.040   114727616.15709  21831909.580    89398199.42447
  22433013.620   117886303.39209  22433009.140    91859439.20448
  23591439.620   123973845.46508  23591436.080    96602981.56946
  20934938.900   110014050.27109  20934933.480    85725308.19048
  20895705.040   109807705.04709  20895704.160    85564455.47749
 15 02 20 02 15 30.0000000  0  7G04G16G18G19G21G22G27
  23761944.740   124869918.27708  23761943.560    97301240.66045
  20580014.280   108148711.42309  20580010.740    84271715.35548
  21838210.660   114760710.73909  21838207.400    89423987.41147
  22420216.880   117819055.79009  22420212.360    91807038.51047
  23604752.860   124043806.55908  23604749.340    96657496.70946
  20928076.420   109977987.89209  20928071.080    85697207.64648
  20888276.360   109768666.61109  20888275.380    85534035.92449
 15 02 20 02 16  0.0000000  0  7G04G16G18G19G21G22G27
  23745142.960   124781624.73208  23745141.700    97232440.57945
  20584398.200   108171749.22209  20584394.660    84289666.88348
  21844597.020   114794271.58209  21844593.880    89450138.72347
  22407440.660   117751916.15909  22407436.020    91754721.93947
  23618070.460   124113790.22608  23618066.680    96712029.41646
  20921309.740   109942428.63909  20921304.400    85669499.16148
  20880887.380   109729836.59609  20880886.280    85503778.77649
 15 02 20 02 16 30.0000000  0  7G04G16G18G19G21G22G27
  23728376.040   124693514.53508  23728374.640    97163783.35645
  20588888.940   108195348.20709  20588885.360    84308055.70948
  21851071.240   114828293.76409  21851068.100    89476649.52747
  22394684.460   117684881.46309  22394679.620    91702487.13248
  23631391.540   124183792.23008  23631387.620    96766576.42246
  20914638.260   109907369.50109  20914632.840    85642180.37548
  20873537.520   109691212.26709  20873536.300    85473681.90249
 15 02 20 02 17  0.0000000  0  7G04G16G18G19G21G22G27
  23711644.860   124605592.33208  23711643.280    97095272.64445
  20593487.240   108219512.32109  20593483.580    84326884.89048
  21857633.820   114862780.50209  21857630.640    89503522.31847
  22381949.140   117617956.55009  22381944.220    91650337.85148
  23644716.700   124253815.75408  23644712.460    96821140.21146
  20908062.940   109872815.89609  20908057.440    85615255.50448
  20866227.800   109652799.16609  20866226.520    85443749.62249
 15 02 20 02 17 30.0000000  0  7G04G16G18G19G21G22G27
  23694948.820   124517854.85108  23694947.420    97026905.86645
  20598192.100   108244236.50609  20598188.440    84346150.48348
  21864283.880   114897726.94509  21864280.680    89530753.30447
  22369234.020   117551138.05209  22369229.100    91598271.53147
  23658044.920   124323856.07508  23658040.760    96875717.06745
  20901583.280   109838764.88209  20901577.680    85588722.26348
  20858957.660   109614594.33309  20858956.380    85413979.63549
 15 02 20 02 18  0.0000000  0  7G04G16G18G19G21G22G27
  23678287.960   124430302.16308  23678286.820    96958683.07745
  20603003.440   108269520.27109  20602999.800    84365852.11448
  21871021.020   114933130.65509  21871017.740    89558340.61547
  22356539.200   117484426.38308  22356534.300    91546288.39648
  23671375.960   124393911.72008  23671372.160    96930305.86946
  20895199.380   109805216.95909  20895193.640    85562581.03448
  20851727.240   109576598.57709  20851726.040    85384372.56449
 15 02 20 02 18 30.0000000  0  7G04G16G18G19G21G22G27
  23661663.560   124342941.15508  23661662.560    96890609.61745
  20607922.380   108295369.45209  20607918.780    84385994.33348
  21877846.120   114968996.65809  21877842.860    89586288.15247
  22343865.940   117417828.38309  22343861.100    91494393.89648
  23684710.820   124463987.74708  23684707.220    96984910.53646
  20888912.480   109772179.04709  20888906.720    85536837.23248
  20844537.940   109538818.91609  20844536.820    85354933.87949
 15 02 20 02 19  0.0000000  0  7G04G16G18G19G21G22G27
  23645074.580   124255766.05508  23645073.800    96822681.02745
  20612947.540   108321777.16409  20612944.060    84406571.77048
  21884757.940   115005317.67409  21884754.520    89614590.25047
  22331213.300   117351338.83609  22331208.500    91442583.85648
  23698048.300   124534077.37908  23698045.140    97039525.82646
  20882721.680   109739646.45009  20882715.940    85511487.17248
  20837388.900   109501250.70109  20837387.800    85325659.96249
 15 02 20 02 19 30.0000000  0  7G04G16G18G19G21G22G27
  23628521.400   124168778.82008  23628520.620    96754898.81345
  20618079.080   108348743.98009  20618075.660    84427584.86648
  21891756.260   115042093.52109  21891752.700    89643246.75047
  22318581.700   117284959.72709  22318576.940    91390859.89748
  23711388.500   124604181.08408  23711385.460    97094152.05946
  20876627.440   109707621.32809  20876621.780    85486532.54448
  20830280.580   109463896.33809  20830279.460    85296552.67649
 15 02 20 02 20  0.0000000  0  7G04G16G18G19G21G22G27
  23612004.500   124081981.94808  23612003.400    96687264.92245
  20623317.360   108376271.24809  20623313.860    84449034.68748
  21898841.100   115079324.75909  21898837.480    89672258.10547
  22305971.700   117218693.58009  22305966.900    91339223.94648
  23724731.660   124674299.80008  23724728.700    97148790.03146
  20870630.300   109676106.49409  20870624.780    85461975.54348
  20823213.460   109426758.77909  20823212.400    85267614.33349
 15 02 20 02 20 30.0000000  0  7G04G16G18G19G21G22G27
  23595524.020   123995376.49608  23595522.880    96619780.22845
  20628662.200   108404358.31409  20628658.560    84470920.71548
  21906012.440   115117010.62309  21906008.820    89701623.72747
  22293383.540   117152541.91709  22293378.720    91287677.22048
  23738077.720   124744433.71108  23738074.800    97203439.83246
  20864730.580   109645103.37509  20864725.180    85437817.28248
  20816187.960   109389839.93209  20816186.980    85238846.41549
 15 02 20 02 21  0.0000000  0  7G04G16G18G19G21G22G27
  23579079.500   123908960.00508  23579078.480    96552442.76645
  20634113.100   108433002.72709  20634109.340    84493241.03548
  21913269.460   115155147.23509  21913265.920    89731340.56847
  22280816.700   117086502.38309  22280811.800    91236217.88248
  23751425.780   124814578.76508  23751422.920    97258098.29745
  20858927.800   109614609.87809  20858922.480    85414056.13248
  20809203.680   109353137.94209  20809202.820    85210247.47449
 15 02 20 02 21 30.0000000  0  7G04G16G18G19G21G22G27
  23562671.620   123822735.93808  23562670.680    96485255.22845
  20639670.360   108462206.16509  20639666.560    84515996.96548
  21920612.560   115193735.86409  21920609.180    89761409.62847
  22268271.840   117020578.61709  22268266.880    91184848.72048
  23764776.200   124884736.79408  23764773.620    97312766.87745
  20853222.700   109584629.73809  20853217.400    85390695.00248
  20802261.480   109316656.89709  20802260.700    85181820.70449
 15 02 20 02 22  0.0000000  0  7G04G16G18G19G21G22G27
  23546299.880   123736701.61608  23546298.540    96418215.54445
  20645333.240   108491964.75109  20645329.440    84539185.46848
  21928040.820   115232771.56309  21928037.500    89791827.07047
  22255748.540   116954768.18909  22255743.540    91133567.87348
  23778128.380   124954903.79608  23778125.860    97367442.45346
  20847614.920   109555160.71309  20847609.540    85367732.14248
  20795360.960   109280394.65109  20795360.240    85153564.41249
 15 02 20 02 22 30.0000000  0  7G04G16G18G19G21G22G27
  23529965.060   123650861.74408  23529963.840    96351327.43245
  20651102.400   108522281.76209  20651098.620    84562809.11448
  21935554.820   115272257.58709  21935551.460    89822595.41047
  22243247.860   116889076.64309  22243242.840    91082379.68548
  23791483.080   125025083.33408  23791480.500    97422127.78046
  20842105.380   109526207.57409  20842099.900    85345171.27248
  20788503.180   109244356.89009  20788502.460    85125483.04249
 15 02 20 02 23  0.0000000  0  7G04G16G18G19G21G22G27
  23513666.580   123565213.09308  23513665.320    96284588.27945
  20656976.940   108553152.45809  20656973.220    84586864.20348
  21943153.400   115312188.51509  21943150.000    89853710.41947
  22230769.100   116823500.52209  22230764.100    91031281.43348
  23804839.560   125095270.85708  23804836.800    97476819.36946
  20836693.520   109497768.00809  20836687.980    85323010.58748
  20781687.580   109208540.77709  20781686.840    85097574.39349
 15 02 20 02 23 30.0000000  0  7G04G16G18G19G21G22G27
  23497405.200   123479759.27108  23497403.800    96218000.94345
  20662957.400   108584579.56709  20662953.700    84611352.85648
  21950836.860   115352565.44109  21950833.460    89885172.96347
  22218313.000   116758043.48809  22218307.980    90980275.97448
  23818198.040   125165468.62708  23818194.960    97531518.92246
  20831379.960   109469845.24609  20831374.380    85301252.60148
  20774915.020   109172950.63509  20774914.220    85069841.82149
 15 02 20 02 24  0.0000000  0  7G04G16G18G19G21G22G27
  23481180.840   123394500.06008  23481179.540    96151565.24745
  20669043.400   108616561.87009  20669039.760    84636274.13148
  21958604.920   115393387.30509  21958601.620    89916982.19647
  22205879.660   116692706.11809  22205874.680    90929363.74248
  23831558.140   125235675.31208  23831554.720    97586225.38546
  20826164.820   109442439.79409  20826159.280    85279897.71048
  20768185.580   109137587.18609  20768184.780    85042285.89149
 15 02 20 02 24 30.0000000  0  7G04G16G18G19G21G22G27
  23464993.220   123309433.69008  23464991.880    96085279.82545
  20675234.300   108649095.65509  20675230.720    84661625.13948
  21966456.880   115434649.89109  21966453.560    89949134.88047
  22193468.800   116627486.73009  22193463.800    90878543.44948
  23844919.160   125305887.42008  23844915.600    97640936.10646
  20821047.780   109415549.84909  20821042.280    85258944.52648
  20761499.060   109102449.09709  20761498.240    85014905.57049
 15 02 20 02 25  0.0000000  0  7G04G16G18G19G21G22G27
  23448842.960   123224563.58508  23448841.600    96019147.32345
  20681530.620   108682183.30309  20681527.040    84687407.71748
  21974392.980   115476354.70109  21974389.760    89981632.13147
  22181081.140   116562389.25809  22181076.140    90827818.16748
  23858281.680   125376107.44308  23858278.040    97695652.97245
  20816029.640   109389179.47409  20816024.180    85238396.19648
  20754856.260   109067540.62209  20754855.420    84987704.15649
 15 02 20 02 25 30.0000000  0  7G04G16G18G19G21G22G27
  23432730.280   123139890.89008  23432728.980    95953168.64946
  20687932.320   108715824.60809  20687928.720    84713621.72548
  21982413.100   115518501.02909  21982410.000    90014473.42747
  22168716.980   116497415.34009  22168712.040    90777189.15248
  23871645.580   125446335.31108  23871642.120    97750375.96846
  20811110.660   109363330.08809  20811105.180    85218253.83648
  20748257.560   109032863.87009  20748256.680    84960683.31749
 15 02 20 02 26  0.0000000  0  7G04G16G18G19G21G22G27
  23416655.160   123055415.80908  23416653.960    95887343.96546
  20694439.160   108750018.38009  20694435.560    84740266.22148
  21990516.840   115561086.85109  21990513.700    90047657.19147
  22156376.340   116432565.24609  22156371.440    90726656.63748
  23885010.640   125516569.65108  23885007.380    97805104.00545
  20806290.780   109338001.59809  20806285.320    85198517.35648
  20741703.080   108998419.38009  20741702.140    84933843.46149
 15 02 20 02 26 30.0000000  0  7G04G16G18G19G21G22G27
  23400617.540   122971138.06708  23400616.480    95821673.07845
  20701050.940   108784763.22709  20701047.240    84767340.13048
  21998703.880   115604110.17909  21998700.640    90081181.84947
  22144059.340   116367839.29509  22144054.520    90676220.83048
  23898376.840   125586809.39608  23898373.480    97859836.25145
  20801570.100   109313194.18909  20801564.620    85179186.92048
  20735192.940   108964207.97709  20735191.940    84907185.23149
 15 02 20 02 27  0.0000000  0  7G04G16G18G19G21G22G27
  23384617.320   122887056.78508  23384616.340    95756155.24945
  20707767.040   108820056.18509  20707763.280    84794841.14248
  22006973.600   115647567.90109  22006970.380    90115045.01147
  22131765.840   116303236.79209  22131761.040    90625881.24748
  23911743.580   125657052.24908  23911740.120    97914570.92745
  20796948.440   109288907.19109  20796942.980    85160262.00148
  20728727.060   108930229.38509  20728726.020    84880708.41449
 15 02 20 02 27 30.0000000  0  7G04G16G18G19G21G22G27
  23368654.560   122803172.07508  23368653.560    95690790.60745
  20714587.240   108855896.23309  20714583.460    84822768.45448
  22015325.720   115691458.16209  22015322.340    90149245.22347
  22119496.000   116238758.43409  22119491.200    90575638.38348
  23925110.780   125727297.61408  23925107.440    97969307.57346
  20792425.820   109265140.69909  20792420.440    85141742.67348
  20722305.600   108896484.47509  20722304.540    84854413.68349
 15 02 20 02 28  0.0000000  0  7G04G16G18G19G21G22G27
  23352728.820   122719481.68408  23352727.740    95625577.33645
  20721510.820   108892279.66109  20721507.060    84851119.17548
  22023759.400   115735776.48509  22023755.900    90183778.99647
  22107249.400   116174401.85709  22107244.560    90525490.40648
  23938477.780   125797541.27408  23938474.260    98024042.87845
  20788001.800   109241892.39609  20787996.480    85123627.13048
  20715928.200   108862971.51909  20715927.180    84828299.69149
 15 02 20 02 28 30.0000000  0  7G04G16G18G19G21G22G27
  23336842.540   122635998.53508  23336841.240    95560525.55046
  20728540.000   108929218.41909  20728536.280    84879902.61748
  22032276.580   115780534.32109  22032273.040    90218655.21747
  22095028.540   116110180.81209  22095023.740    90475448.03648
  23951846.760   125867795.30708  23951843.140    98078786.25246
  20783678.860   109219175.70009  20783673.620    85105925.81748
  20709597.640   108829704.78709  20709596.700    84802377.55749
 15 02 20 02 29  0.0000000  0  7G04G16G18G19G21G22G27
  23320993.080   122552709.35708  23320991.720    95495624.94945
  20735671.920   108966697.24309  20735668.300    84909106.89748
  22040874.400   115825715.95709  22040870.820    90253861.69347
  22082830.980   116046082.54309  22082826.280    90425501.35948
  23965215.020   125938045.44408  23965211.320    98133526.61445
  20779454.620   109196977.50309  20779449.440    85088628.54148
  20703311.460   108796671.30609  20703310.620    84776637.19849
 15 02 20 02 29 30.0000000  0  7G04G16G18G19G21G22G27
  23305182.100   122469622.53808  23305180.680    95430882.01246
  20742907.920   109004723.17809  20742904.400    84938737.49648
  22049554.120   115871327.93609  22049550.460    90289403.49747
  22070658.540   115982116.43109  22070653.960    90375657.65648
  23978583.840   126008298.99908  23978579.980    98188269.61745
  20775330.760   109175306.57209  20775325.560    85071742.11448
  20697071.560   108763880.61209  20697070.760    84751086.01249
 15 02 20 02 30  0.0000000  0  7G04G16G18G19G21G22G27
  23289409.440   122386737.15708  23289408.100    95366296.05346
  20750247.560   109043293.84609  20750244.140    84968792.56048
  22058315.020   115917366.90009  22058311.300    90325278.02947
  22058511.060   115918281.16309  22058506.520    90325915.89948
  23991952.860   126078553.54908  23991948.840    98243013.41345
  20771307.020   109154161.39509  20771301.680    85055265.37048
  20690877.860   108731332.29909  20690877.040    84725723.68849
 15 02 20 02 30 30.0000000  0  7G04G16G18G19G21G22G27
  23273675.080   122304053.25008  23273673.780    95301867.06646
  20757690.620   109082407.82909  20757687.280    84999270.98048
  22067156.880   115963831.08009  22067153.080    90361483.89147
  22046388.680   115854577.71809  22046384.160    90276276.88248
  24005321.820   126148808.22608  24005317.940    98297757.28645
  20767383.400   109133542.39609  20767377.980    85039198.63548
  20684730.480   108699027.35509  20684729.620    84700551.01149
 15 02 20 02 31  0.0000000  0  7G04G16G18G19G21G22G27
  23257979.160   122221571.05108  23257977.820    95237595.25846
  20765236.860   109122063.64309  20765233.480    85030171.60848
  22076079.280   116010718.99009  22076075.580    90398019.91347
  22034291.500   115791006.69009  22034286.940    90226741.04248
  24018690.700   126219062.43508  24018686.780    98352500.83845
  20763559.940   109113450.08809  20763554.520    85023542.30148
  20678629.660   108666967.00109  20678628.720    84675568.92349
 15 02 20 02 31 30.0000000  0  7G04G16G18G19G21G22G27
  23242321.600   122139290.43808  23242320.320    95173480.53646
  20772885.940   109162259.52009  20772882.480    85061493.07548
  22085081.900   116058028.23509  22085078.260    90434884.26147
  22022219.540   115727568.29009  22022214.940    90177308.53148
  24032059.020   126289313.94908  24032055.580    98407242.24445
  20759836.560   109093883.80209  20759831.140    85008295.86948
  20672575.440   108635151.73709  20672574.480    84650777.81649
 15 02 20 02 32  0.0000000  0  7G04G16G18G19G21G22G27
  23226702.580   122057212.33408  23226701.420    95109523.63946
  20780637.740   109202995.00709  20780634.200    85093235.01948
  22094164.500   116105757.64609  22094160.900    90472076.02947
  22010173.100   115664264.00709  22010168.500    90127980.53948
  24045427.240   126359563.64408  24045423.360    98461982.27745
  20756213.480   109074844.89209  20756208.140    84993460.37148
  20666568.220   108603583.39609  20666567.220    84626179.12349
 15 02 20 02 32 30.0000000  0  7G04G16G18G19G21G22G27
  23211122.280   121975337.69108  23211121.280    95045725.28546
  20788492.100   109244269.45609  20788488.500    85125396.92748
  22103326.740   116153905.98609  22103323.280    90509594.21047
  21998152.480   115601095.33909  21998147.840    90078758.21448
  24058794.940   126429811.06608  24058791.100    98516720.48745
  20752691.020   109056334.51609  20752685.700    84979036.71848
  20660608.300   108572263.78409  20660607.280    84601774.22749
 15 02 20 02 33  0.0000000  0  7G04G16G18G19G21G22G27
  23195580.500   121893665.39008  23195579.460    94982084.57346
  20796448.420   109286080.06909  20796444.820    85157976.62148
  22112568.080   116202470.06309  22112564.620    90547436.35847
  21986157.660   115538061.97609  21986152.940    90029641.32948
  24072161.860   126500054.12208  24072158.060    98571455.31945
  20749268.940   109038351.34309  20749263.600    84965023.86848
  20654695.680   108541192.71409  20654694.640    84577563.01449
 15 02 20 02 33 30.0000000  0  7G04G16G18G19G21G22G27
  23180077.820   121812198.18108  23180076.720    94918603.69646
  20804506.980   109328428.02209  20804503.380    85190975.02448
  22121888.720   116251450.73509  22121885.360    90585603.12247
  21974189.180   115475166.96109  21974184.360    89980632.24748
  24085528.160   126570294.71208  24085524.440    98626188.24545
  20745947.740   109020898.16709  20745942.420    84951424.00748
  20648831.040   108510373.74909  20648829.980    84553548.24449
 15 02 20 02 34  0.0000000  0  7G04G16G18G19G21G22G27
  23164613.940   121730934.53108  23164612.700    94855281.41246
  20812667.120   109371310.08309  20812663.540    85224389.61448
  22131287.940   116300844.16709  22131284.760    90624091.52647
  21962246.900   115412409.46209  21962241.960    89931730.32048
  24098893.300   126640530.18208  24098889.800    98680917.13945
  20742727.080   109003973.13509  20742721.680    84938235.68348
  20643014.200   108479806.26409  20643013.140    84529729.43549
 15 02 20 02 34 30.0000000  0  7G04G16G18G19G21G22G27
  23149189.600   121649878.59308  23149188.100    94792121.00946
  20820929.320   109414728.87609  20820925.860    85258222.43548
  22140766.180   116350652.65709  22140763.080    90662903.33447
  21950331.560   115349793.68309  21950326.520    89882938.82048
  24112258.100   126710763.26108  24112254.660    98735644.23845
  20739607.700   108987580.27509  20739602.160    84925462.03248
  20637246.120   108449495.05409  20637245.120    84506110.31249
 15 02 20 02 35  0.0000000  0  7G04G16G18G19G21G22G27
  23133803.660   121569024.41008  23133801.880    94729117.80446
  20829292.200   109458676.64309  20829288.820    85292467.44248
  22150321.960   116400867.80509  22150318.700    90702032.02647
  21938442.200   115287314.71109  21938437.120    89834253.91148
  24125621.080   126780987.11408  24125617.760    98790364.06545
  20736588.400   108971713.75709  20736582.820    84913098.52448
  20631525.860   108419435.20609  20631524.940    84482687.05149
 15 02 20 02 35 30.0000000  0  7G04G16G18G19G21G22G27
  23118456.960   121488376.57908  23118455.180    94666275.37146
  20837756.380   109503156.47409  20837753.080    85327127.05148
  22159955.580   116451492.23409  22159952.140    90741479.64147
  21926579.840   115224977.91209  21926574.860    89785679.79848
  24138982.980   126851205.43708  24138980.220    98845079.60246
  20733670.160   108956378.26609  20733664.540    84901148.80248
  20625854.540   108389632.37609  20625853.660    84459464.07349
 15 02 20 02 36  0.0000000  0  7G04G16G18G19G21G22G27
  23103149.800   121407937.09708  23103148.100    94603595.31946
  20846321.900   109548168.40709  20846318.580    85362201.28448
  22169667.200   116502526.31409  22169663.540    90781246.46247
  21914745.020   115162785.89409  21914740.140    89737218.50248
  24152344.120   126921419.49808  24152341.380    98899791.85345
  20730853.340   108941575.54609  20730847.700    84889614.22748
  20620232.700   108360089.43809  20620231.820    84436443.61149
 15 02 20 02 36 30.0000000  0  7G04G16G18G19G21G22G27
  23087882.420   121327706.83108  23087880.640    94541078.26746
  20854988.700   109593712.08109  20854985.240    85397689.85748
  22179456.400   116553968.59709  22179452.800    90821331.34647
  21902938.080   115100740.15809  21902933.260    89688871.17548
  24165704.500   126991629.19708  24165702.060    98954500.66445
  20728138.100   108927306.46409  20728132.320    84878495.46848
  20614660.700   108330808.24909  20614659.780    84413627.10249
 15 02 20 02 37  0.0000000  0  7G04G16G18G19G21G22G27
  23072653.760   121247680.19708  23072651.980    94478719.89946
  20863755.220   109639779.76909  20863751.580    85433586.76148
  22189321.800   116605810.85109  22189318.000    90861727.91647
  21891158.140   115038836.04309  21891153.320    89640634.22748
  24179062.880   127061827.99708  24179059.740    99009201.03245
  20725523.240   108913565.16909  20725517.420    84867787.98448
  20609137.560   108301783.88709  20609136.600    84391010.72849
 15 02 20 02 37 30.0000000  0  7G04G16G18G19G21G22G27
  23057464.460   121167860.65708  23057462.900    94416522.90746
  20872621.720   109686373.33309  20872618.000    85469893.43448
  22199263.480   116658054.71609  22199259.680    90902437.42847
  21879405.780   114977076.77409  21879400.920    89592510.13248
  24192419.740   127132017.97908  24192416.260    99063894.50645
  20723009.440   108900355.08909  20723003.620    84857494.42848
  20603664.140   108273020.90209  20603663.140    84368598.01349
 15 02 20 02 38  0.0000000  0  7G04G16G18G19G21G22G27
  23042315.800   121088254.43708  23042314.440    94354492.13146
  20881589.080   109733497.19609  20881585.380    85506613.33048
  22209282.240   116710704.18909  22209278.460    90943462.97847
  21867682.460   114915470.12809  21867677.560    89544504.95948
  24205776.000   127202205.48308  24205772.080    99118586.06844
  20720597.840   108887682.36109  20720592.140    84847619.57548
  20598241.760   108244526.48209  20598240.800    84346394.57849
 15 02 20 02 38 30.0000000  0  7G04G16G18G19G21G22G27
  23027205.720   121008850.82208  23027204.320    94292619.23846
  20890654.700   109781137.90509  20890651.160    85543735.95648
  22219375.860   116763746.70709  22219372.220    90984794.81647
  21855986.220   114854005.58809  21855981.240    89496610.52548
  24219129.420   127272377.78208  24219125.720    99173265.74745
  20718286.380   108875535.98209  20718280.760    84838154.87748
  20592868.560   108216290.85509  20592867.720    84324392.80449
 15 02 20 02 39  0.0000000  0  7G04G16G18G19G21G22G27
  23012135.480   120929656.31308  23012133.920    94230909.27646
  20899819.900   109829301.87709  20899816.480    85581266.32648
  22229545.040   116817186.49209  22229541.580    91026436.19347
  21844318.420   114792690.38609  21844313.380    89448832.45748
  24232481.100   127342540.65408  24232477.840    99227938.12045
  20716076.240   108863922.12609  20716070.640    84829105.13048
  20587546.060   108188321.45209  20587545.320    84302598.47849
 15 02 20 02 39 30.0000000  0  7G04G16G18G19G21G22G27
  22997105.480   120850673.14008  22997103.800    94169363.98846
  20909084.640   109877988.64009  20909081.240    85619204.06748
  22239789.860   116871023.39009  22239786.200    91068387.02547
  21832679.580   114731527.36709  21832674.480    89401172.98148
  24245831.200   127412695.48508  24245828.080    99282604.18645
  20713967.820   108852842.76609  20713962.240    84820471.88448
  20582274.860   108160621.36909  20582274.180    84281014.00249
 15 02 20 02 40  0.0000000  0  7G04G16G18G19G21G22G27
  22982115.400   120771900.02508  22982113.820    94107982.42146
  20918448.340   109927195.21009  20918444.880    85657546.84148
  22250109.580   116925254.16509  22250105.980    91110644.77647
  21821069.620   114670516.21409  21821064.420    89353631.83648
  24259179.340   127482840.11408  24259176.360    99337262.35045
  20711960.780   108842296.26209  20711955.300    84812253.83948
  20577054.920   108133190.36509  20577054.280    84259639.20649
 15 02 20 02 40 30.0000000  0  8G04G16G18G19G21G22G27G32
  22967165.320   120693337.22808  22967163.800    94046764.70946
  20927910.680   109976919.98009  20927907.180    85696293.41948
  22260503.920   116979876.98209  22260500.380    91153208.01247
  21809488.680   114609657.65309  21809483.400    89306209.58748
  24272525.420   127552974.19008  24272522.080    99391912.29845
  20710055.180   108832282.70809  20710049.820    84804451.08648
  20571886.440   108106029.63009  20571885.780    84238475.01149
  24507350.460   128786999.91008  24507350.440   100353503.85444
 15 02 20 02 41  0.0000000  0  8G04G16G18G19G21G22G27G32
  22952254.660   120614981.69108  22952253.080    93985708.46946
  20937470.640   110027157.80409  20937467.140    85735439.77948
  22270971.940   117034886.60209  22270968.260    91196072.65147
  21797936.360   114548949.86809  21797931.060    89258904.82648
  24285868.720   127623094.07808  24285865.420    99446551.11245
  20708250.540   108822799.09209  20708245.140    84797061.27048
  20566769.020   108079137.24409  20566768.340    84217519.90949
  24484713.660   128668040.96508  24484713.540   100260808.74045
 15 02 20 02 41 30.0000000  0  8G04G16G18G19G21G22G27G32
  22937384.640   120536839.41608  22937382.980    93924818.43346
  20947129.080   110077913.34609  20947125.620    85774989.55648
  22281514.280   117090286.89909  22281510.500    91239241.72847
  21786413.880   114488399.15209  21786408.600    89211722.45048
  24299210.280   127693204.42807  24299206.860    99501182.55845
  20706547.760   108813850.76809  20706542.340    84790088.56848
  20561703.960   108052520.05809  20561703.260    84196779.25749
  24462082.700   128549115.39508  24462083.240   100168139.80545
 15 02 20 02 42  0.0000000  0  8G04G16G18G19G21G22G27G32
  22922555.200   120458910.16208  22922553.540    93864094.39046
  20956885.600   110129184.49609  20956882.180    85814941.10448
  22292130.440   117146075.20909  22292126.780    91282713.13247
  21774921.320   114428005.80709  21774916.060    89164662.71348
  24312549.980   127763304.21008  24312546.880    99555805.76745
  20704946.720   108805437.45409  20704941.280    84783532.75748
  20556691.420   108026178.74909  20556690.660    84176253.56149
  24439458.360   128430225.33607  24439458.960   100075498.53845
 15 02 20 02 42 30.0000000  0  8G04G16G18G19G21G22G27G32
  22907765.740   120381190.97508  22907764.020    93803534.04346
  20966739.240   110180966.09109  20966735.860    85855290.40948
  22302819.520   117202246.47809  22302815.880    91326482.95247
  21763458.400   114367768.24509  21763453.180    89117724.36748
  24325886.980   127833390.14308  24325883.360    99610418.19845
  20703446.900   108797555.94609  20703441.460    84777391.34148
  20551731.000   108000111.52109  20551730.200    84155941.43849
  24416840.580   128311370.01008  24416841.360    99982884.33844
 15 02 20 02 43  0.0000000  0  8G04G16G18G19G21G22G27G32
  22893016.860   120303685.14508  22893015.100    93743139.94346
  20976690.260   110233259.43809  20976686.920    85896038.46648
  22313581.740   117258802.04509  22313578.020    91370552.23547
  21752025.900   114307690.39809  21752020.680    89070910.47948
  24339221.900   127903464.18608  24339218.440    99665021.31645
  20702048.880   108790209.23609  20702043.420    84771666.64848
  20546823.540   107974322.69209  20546822.740    84135846.26349
  24394230.500   128192554.94008  24394231.400    99890301.53945
 15 02 20 02 43 30.0000000  0  8G04G16G18G19G21G22G27G32
  22878308.220   120226390.89409  22878306.400    93682910.68546
  20986737.920   110286060.67109  20986734.700    85937182.28548
  22324416.280   117315737.98109  22324412.620    91414917.89647
  21740623.620   114247771.43009  21740618.460    89024220.38048
  24352553.980   127973524.07108  24352550.240    99719613.44145
  20700752.200   108783394.77909  20700746.680    84766356.69648
  20541968.920   107948811.45809  20541968.140    84115967.37949
  24371628.240   128073780.65808  24371629.120    99797750.40645
 15 02 20 02 44  0.0000000  0  8G04G16G18G19G21G22G27G32
  22863639.760   120149307.89008  22863638.040    93622846.03446
  20996881.860   110339367.51709  20996878.720    85978720.08548
  22335322.660   117373051.60309  22335319.060    91459577.86047
  21729251.580   114188011.49309  21729246.500    88977654.19948
  24365883.160   128043568.68108  24365879.280    99774193.64644
  20699556.700   108777112.04009  20699551.040    84761461.07048
  20537167.240   107923578.46709  20537166.460    84096305.32249
  24349034.260   127955049.16408  24349034.780    99705232.56445
 15 02 20 02 44 30.0000000  0  8G04G16G18G19G21G22G27G32
  22849012.260   120072439.99509  22849010.640    93562949.02946
  21007122.600   110393182.39109  21007119.400    86020653.75348
  22346301.240   117430744.54509  22346297.620    91504533.40847
  21717910.700   114128415.20209  21717905.700    88931215.54448
  24379209.920   128113600.77608  24379205.240    99828764.13845
  20698463.020   108771364.67109  20698457.340    84756982.61749
  20532419.440   107898628.50409  20532418.640    84076863.79149
  24326449.520   127836366.57108  24326450.160    99612752.96145
 15 02 20 02 45  0.0000000  0  8G04G16G18G19G21G22G27G32
  22834425.240   119995784.54609  22834423.640    93503217.54546
  21017459.140   110447500.58109  21017455.880    86062979.62048
  22357350.980   117488812.13009  22357347.580    91549780.87347
  21706600.700   114068981.03809  21706595.740    88884903.20948
  24392533.660   128183617.54608  24392529.160    99883322.65945
  20697470.680   108766149.49009  20697464.960    84752918.86148
  20527725.240   107873960.02509  20527724.380    84057641.60649
  24303874.120   127717732.72908  24303874.680    99520311.36545
 15 02 20 02 45 30.0000000  0  8G04G16G18G19G21G22G27G32
  22819879.200   119919344.22409  22819877.440    93443653.69146
  21027891.360   110502321.87309  21027888.020    86105697.50248
  22368472.060   117547254.68009  22368468.960    91595320.52747
  21695322.240   114009712.24309  21695317.200    88838719.74848
  24405854.640   128253620.15508  24405849.980    99937870.16045
  20696579.980   108761468.52209  20696574.220    84749271.36448
  20523085.340   107849576.67609  20523084.360    84038641.60049
  24281308.880   127599152.22808  24281309.040    99427911.15145
 15 02 20 02 46  0.0000000  0  8G04G16G18G19G21G22G27G32
  22805373.480   119843115.59709  22805371.500    93384254.79546
  21038418.620   110557642.48609  21038415.140    86148804.47548
  22379663.520   117606066.50709  22379660.480    91641147.92647
  21684074.780   113950606.41309  21684069.720    88792663.25948
  24419172.340   128323605.05408  24419168.100    99992403.85644
  20695790.180   108757318.42909  20695784.460    84746037.54048
  20518499.260   107825476.20609  20518498.200    84019862.01749
  24258753.660   127480624.45408  24258753.940    99335552.15745
 15 02 20 02 46 30.0000000  0  8G04G16G18G19G21G22G27G32
  22790909.200   119767105.06609  22790907.120    93325025.85346
  21049041.520   110613465.97309  21049037.900    86192303.29448
  22390926.100   117665251.92209  22390923.040    91687266.43947
  21672859.720   113891670.84909  21672854.600    88746739.45148
  24432487.400   128393577.84808  24432483.380   100046928.07845
  20695102.440   108753704.87209  20695096.760    84743221.79248
  20513968.440   107801666.07909  20513967.240    84001308.67749
  24236210.080   127362158.31608  24236210.080    99243241.30545
 15 02 20 02 47  0.0000000  0  8G04G16G18G19G21G22G27G32
  22776485.200   119691306.57109  22776483.100    93265962.11846
  21059758.500   110669784.06709  21059754.840    86236187.51948
  22402258.320   117724802.94309  22402255.180    91733669.84147
  21661676.100   113832900.46109  21661670.940    88700944.35548
  24445799.020   128463531.64007  24445795.760   100101437.54545
  20694515.640   108750621.38009  20694509.920    84740819.08148
  20509491.840   107778141.21709  20509490.580    83982977.62249
  24213677.400   127243749.77108  24213677.340    99150975.34245
 15 02 20 02 47 30.0000000  0  8G04G16G18G19G21G22G27G32
  22762102.400   119615724.56509  22762100.140    93207067.07746
  21070570.000   110726598.88909  21070566.280    86280458.81348
  22413660.420   117784721.29109  22413657.200    91780359.46247
  21650524.880   113774300.41509  21650519.720    88655281.98848
  24459107.640   128533470.08007  24459104.160   100155935.05145
  20694030.500   108748071.74709  20694024.740    84738832.36648
  20505070.520   107754906.93409  20505069.220    83964872.99449
  24191156.960   127125405.58108  24191156.700    99058759.49445
 15 02 20 02 48  0.0000000  0  8G04G16G18G19G21G22G27G32
  22747760.260   119540356.36909  22747757.940    93148338.62246
  21081475.100   110783905.73109  21081471.400    86325113.49948
  22425131.540   117845002.22309  22425128.200    91827331.61547
  21639405.760   113715868.97909  21639400.600    88609751.00548
  24472412.800   128603390.15007  24472410.200   100210418.19844
  20693646.360   108746053.04609  20693640.600    84737259.35748
  20500704.200   107731961.81709  20500702.920    83946993.68449
  24168648.680   127007125.39207  24168648.300    98966593.48845
 15 02 20 02 48 30.0000000  0  8G04G16G18G19G21G22G27G32
  22733459.620   119465206.35009  22733457.320    93089780.18746
  21092474.440   110841708.00209  21092470.820    86370154.22648
  22436672.000   117905648.07309  22436668.700    91874588.10746
  21628319.720   113657611.42709  21628314.560    88564355.51448
  24485715.160   128673295.22507  24485712.980   100264889.69344
  20693363.940   108744569.04309  20693358.180    84736103.00248
  20496393.940   107709311.20609  20496392.660    83929343.86449
  24146153.800   126888915.96308  24146153.280    98874482.64945
 15 02 20 02 49  0.0000000  0  8G04G16G18G19G21G22G27G32
  22719199.880   119390271.42309  22719197.740    93031389.37746
  21103566.940   110899999.49409  21103563.360    86415576.16148
  22448280.960   117966653.40709  22448277.660    91922124.72147
  21617266.360   113599525.62909  21617261.180    88519093.86948
  24499014.040   128743181.69008  24499011.880   100319346.69144
  20693182.600   108743616.05809  20693176.820    84735360.43148
  20492139.380   107686953.21609  20492138.100    83911922.05349
  24123672.400   126770776.80108  24123671.800    98782426.47945
 15 02 20 02 49 30.0000000  0  8G04G16G18G19G21G22G27G32
  22704980.920   119315550.88609  22704978.920    92973165.59846
  21114752.100   110958777.66509  21114748.500    86461377.33948
  22459957.820   118028015.26309  22459954.500    91969939.16747
  21606245.720   113541611.92409  21606240.560    88473966.31448
  24512309.260   128813048.40307  24512306.960   100373788.24144
  20693102.100   108743192.94109  20693096.300    84735030.74648
  20487940.540   107664888.10309  20487939.260    83894728.45649
  24101204.700   126652709.45208  24101204.020    98690426.30544
 15 02 20 02 50  0.0000000  0  8G04G16G18G19G21G22G27G32
  22690803.600   119241049.27608  22690801.740    92915112.42446
  21126030.280   111018044.29609  21126026.540    86507559.12648
  22471702.880   118089735.92309  22471699.540    92018033.15447
  21595258.860   113483875.58809  21595253.700    88428976.97348
  24525601.500   128882898.88907  24525598.880   100428217.20144
  20693123.100   108743303.47509  20693117.420    84735116.88348
  20483798.440   107643121.38609  20483797.180    83877767.37649
  24078751.980   126534720.72408  24078751.120    98598487.37045
 15 02 20 02 50 30.0000000  0  8G04G16G18G19G21G22G27G32
  22676667.260   119166762.80209  22676665.560    92857226.89746
  21137400.520   111077794.91609  21137396.700    86554118.05348
  22483515.180   118151809.61509  22483511.860    92066402.27247
  21584305.220   113426313.87909  21584300.140    88384123.70048
  24538889.740   128952729.13507  24538886.660   100482630.36344
  20693244.860   108743943.53609  20693239.300    84735615.65048
  20479712.600   107621650.55109  20479711.420    83861036.85149
  24056314.100   126416809.44408  24056313.080    98506608.71345
 15 02 20 02 51  0.0000000  0  8G04G16G18G19G21G22G27G32
  22662572.240   119092693.15809  22662570.560    92799510.33546
  21148862.660   111138028.55909  21148858.780    86601053.36948
  22495394.480   118214235.68209  22495391.080    92115045.95446
  21573385.300   113368929.43609  21573380.300    88339408.56148
  24552174.320   129022539.79307  24552171.460   100537028.26644
  20693467.560   108745113.91609  20693462.040    84736527.64748
  20475683.580   107600478.26509  20475682.480    83844538.97549
  24033891.720   126298979.68008  24033890.540    98414793.60545
 15 02 20 02 51 30.0000000  0  8G04G16G18G19G21G22G27G32
  22648518.940   119018842.47609  22648517.220    92741964.36346
  21160416.640   111198745.16009  21160412.800    86648365.01848
  22507340.960   118277014.26209  22507337.280    92163964.35647
  21562499.760   113311725.56009  21562494.800    88294834.12748
  24565455.460   129092332.82008  24565452.540   100591412.41144
  20693791.480   108746816.47409  20693785.980    84737854.32848
  20471712.040   107579607.96009  20471711.000    83828276.41849
  24011485.640   126181236.04108  24011484.300    98323045.54745
 15 02 20 02 52  0.0000000  0  8G04G16G18G19G21G22G27G32
  22634507.000   118945209.28409  22634505.160    92684587.89146
  21172061.600   111259940.00309  21172057.820    86696049.31248
  22519353.580   118340141.42609  22519349.840    92213154.34947
  21551648.440   113254701.51509  21551643.520    88250399.81048
  24578733.020   129162105.82607  24578730.020   100645780.99345
  20694216.320   108749048.68409  20694210.660    84739593.72148
  20467797.860   107559038.99209  20467796.840    83812248.64649
  23989096.120   126063579.28408  23989094.700    98231365.15344
 15 02 20 02 52 30.0000000  0  8G04G16G18G19G21G22G27G32
  22620536.280   118871792.84209  22620534.400    92627380.29647
  21183797.140   111321611.20509  21183793.500    86744104.78848
  22531432.000   118403614.14109  22531428.420    92262613.60547
  21540831.420   113197857.84909  21540826.500    88206106.06748
  24592006.620   129231857.86108  24592003.560   100700133.20844
  20694741.800   108751809.77509  20694735.980    84741745.22848
  20463941.140   107538771.86309  20463940.100    83796456.08449
  23966723.440   125946011.46508  23966722.160    98139754.14045
 15 02 20 02 53  0.0000000  0  8G04G16G18G19G21G22G27G32
  22606607.460   118798596.23609  22606605.500    92570343.98447
  21195623.640   111383760.35509  21195620.140    86792532.69948
  22543576.380   118467433.78509  22543572.820    92312343.18346
  21530049.480   113141198.53709  21530044.580    88161955.96948
  24605276.620   129301591.40707  24605273.420   100754471.04845
  20695368.220   108755101.78609  20695362.340    84744310.43248
  20460142.620   107518810.77109  20460141.640    83780901.98849
  23944368.720   125828538.02408  23944367.480    98048216.68745
 15 02 20 02 53 30.0000000  0  8G04G16G18G19G21G22G27G32
  22592719.800   118725615.98509  22592717.840    92513476.31347
  21207539.920   111446380.98109  21207536.440    86841328.00048
  22555785.760   118531593.84309  22555782.200    92362338.05047
  21519302.140   113084720.85309  21519297.200    88117947.41048
  24618542.300   129371302.22407  24618539.360   100808791.14945
  20696094.900   108758920.56009  20696089.020    84747286.11848
  20456401.860   107499153.23309  20456400.960    83765584.43549
  23922031.720   125711157.81608  23922030.660    97956751.89245
 15 02 20 02 54  0.0000000  0  8G04G16G18G19G21G22G27G32
  22578874.620   118652858.75509  22578872.600    92456782.39046
  21219546.740   111509477.13609  21219543.160    86890493.83148
  22568060.820   118596099.12509  22568057.300    92412601.89547
  21508590.880   113028432.80409  21508585.900    88074086.61548
  24631804.680   129440996.52807  24631801.600   100863098.37844
  20696922.960   108763272.09709  20696917.140    84750676.93048
  20452720.340   107479807.03309  20452719.520    83750509.47849
  23899714.140   125593879.92508  23899713.120    97865366.77145
 15 02 20 02 54 30.0000000  0  8G04G16G18G19G21G22G27G32
  22565070.440   118580317.34409  22565068.400    92400256.64846
  21231642.320   111573039.69109  21231638.640    86940023.08848
  22580399.780   118660940.20309  22580396.120    92463127.40947
  21497914.520   112972327.98609  21497909.440    88030368.58948
  24645062.480   129510666.52408  24645059.400   100917386.65845
  20697850.840   108768148.30509  20697845.040    84754476.58348
  20449096.980   107460766.10809  20449096.180    83735672.39449
  23877415.200   125476699.73108  23877414.240    97774057.72145
 15 02 20 02 55  0.0000000  0  8G04G16G18G19G21G22G27G32
  22551308.360   118507997.47008  22551306.380    92343903.51647
  21243827.360   111637072.46909  21243823.580    86989918.76548
  22592803.340   118726120.42609  22592799.420    92513917.21846
  21487274.340   112916413.35709  21487269.200    87986798.76348
  24658316.460   129580317.24307  24658313.240   100971659.94944
  20698879.560   108773554.46809  20698873.840    84758689.19148
  20445533.040   107442037.24909  20445532.180    83721078.48949
  23855136.320   125359625.16608  23855135.520    97682831.05845
 15 02 20 02 55 30.0000000  0  8G04G16G18G19G21G22G27G32
  22537588.220   118435898.17309  22537586.340    92287722.29047
  21256101.320   111701572.17509  21256097.460    87040178.28548
  22605270.640   118791636.82209  22605266.820    92564968.93446
  21476670.420   112860689.22909  21476665.260    87943377.38748
  24671566.440   129649947.28507  24671563.120   101025917.12344
  20700008.780   108779489.01109  20700003.180    84763313.52148
  20442028.520   107423620.68509  20442027.580    83706727.92249
  23832878.000   125242658.10608  23832877.200    97591688.08045
 15 02 20 02 56  0.0000000  0  8G04G16G18G19G21G22G27G32
  22523909.400   118364015.75909  22523907.560    92231710.05547
  21268462.900   111766532.62209  21268459.080    87090796.81548
  22617800.820   118857483.59609  22617797.160    92616278.11947
  21466102.200   112805152.79509  21466097.040    87900102.26648
  24684811.840   129719552.58707  24684808.140   101080155.00844
  20701237.640   108785947.25009  20701232.140    84768345.92949
  20438582.920   107405513.85409  20438581.880    83692618.70749
  23810639.840   125125797.17408  23810639.000    97500627.85745
 15 02 20 02 56 30.0000000  0  8G04G16G18G19G21G22G27G32
  22510272.520   118292353.32709  22510270.560    92175869.22547
  21280912.300   111831954.47109  21280908.520    87141774.88848
  22630393.960   118923661.28709  22630390.340    92667845.14746
  21455570.480   112749808.15209  21455565.320    87856976.58048
  24698053.240   129789135.85908  24698049.100   101134375.71944
  20702566.540   108792931.34209  20702561.220    84773788.08548
  20435197.020   107387720.90809  20435195.960    83678754.08049
  23788422.940   125009047.91608  23788422.140    97409654.59445
 15 02 20 02 57  0.0000000  0  8G04G16G18G19G21G22G27G32
  22496677.780   118220912.49409  22496675.860    92120201.08447
  21293449.480   111897837.86009  21293445.760    87193112.59548
  22643049.980   118990169.40209  22643046.460    92719669.67147
  21445075.820   112694658.28109  21445070.660    87814002.67548
  24711290.640   129858698.46107  24711285.960   101188580.32644
  20703995.720   108800442.25609  20703990.480    84779640.75048
  20431871.400   107370244.74409  20431870.380    83665136.29449
  23766228.120   124892414.68208  23766227.360    97318771.78645
 15 02 20 02 57 30.0000000  0  8G04G16G18G19G21G22G27G32
  22483124.640   118149690.37309  22483122.780    92064703.34847
  21306073.360   111964177.00709  21306069.740    87244805.43548
  22655767.840   119057002.71209  22655764.420    92771747.57747
  21434617.800   112639701.04909  21434612.620    87771178.87548
  24724523.400   129928236.52707  24724518.720   101242765.85944
  20705524.520   108808476.50409  20705519.280    84785901.21348
  20428605.680   107353083.45309  20428604.740    83651763.86449
  23744055.440   124775896.96108  23744054.440    97227978.90645
 15 02 20 02 58  0.0000000  0  8G04G16G18G19G21G22G27G32
  22469613.780   118078690.21109  22469611.860    92009378.56947
  21318784.120   112030972.68009  21318780.540    87296854.01648
  22668547.800   119124162.37809  22668544.620    92824079.79047
  21424197.260   112584940.87009  21424192.060    87728508.62048
  24737752.000   129997752.95307  24737747.740   101296934.46344
  20707153.340   108817036.35709  20707148.120    84792571.23548
  20425400.700   107336241.31109  20425399.780    83638640.12349
  23721905.820   124659500.31408  23721904.660    97137280.41245
 15 02 20 02 58 30.0000000  0  8G04G16G18G19G21G22G27G32
  22456145.200   118007912.34609  22456143.220    91954227.00647
  21331581.500   112098223.51109  21331577.920    87349257.26248
  22681389.420   119191646.46109  22681386.500    92876664.78246
  21413814.460   112530379.22409  21413809.280    87685993.06848
  24750976.560   130067247.89907  24750972.720   101351086.39444
  20708882.160   108826121.22909  20708876.880    84799650.36748
  20422256.800   107319719.93709  20422255.860    83625766.32349
  23699779.900   124543227.76508  23699778.440    97046678.57345
 15 02 20 02 59  0.0000000  0  8G04G16G18G19G21G22G27G32
  22442718.280   117937353.46809  22442716.260    91899246.08347
  21344464.380   112165923.35209  21344460.740    87402010.39248
  22694291.840   119259449.07809  22694288.740    92929497.98646
  21403469.040   112476014.14609  21403463.920    87643630.68148
  24764196.360   130136717.43207  24764192.780   101405218.47044
  20710710.180   108835727.12109  20710704.840    84807135.48448
  20419173.580   107303517.06509  20419172.560    83613140.70449
  23677677.420   124427078.45408  23677675.640    96956172.76645
 15 02 20 02 59 30.0000000  0  8G04G16G18G19G21G22G27G32
  22429333.780   117867017.60609  22429331.800    91844438.95147
  21357433.060   112234073.90209  21357429.280    87455114.73148
  22707255.220   119327572.15209  22707251.980    92982580.90946
  21393161.920   112421850.50009  21393156.880    87601425.26248
  24777411.840   130206165.41307  24777408.620   101459333.77745
  20712637.860   108845856.82209  20712632.460    84815028.76848
  20416151.960   107287637.83509  20416150.860    83600767.28749
  23655599.620   124311058.92108  23655597.580    96865768.07445
 15 02 20 03 00  0.0000000  0  8G04G16G18G19G21G22G27G32
  22415991.680   117796904.77309  22415989.720    91789805.58947
  21370487.180   112302673.45609  21370483.360    87508568.92648
  22720279.280   119396013.98908  22720276.020    93035912.21647
  21382893.420   112367889.71009  21382888.440    87559377.90148
  24790622.660   130275591.09007  24790620.020   101513431.68645
  20714665.040   108856509.73009  20714659.660    84823329.74548
  20413192.180   107272083.63709  20413190.960    83588647.13249
  23633546.960   124195171.89908  23633544.800    96775466.63245
 15 02 20 03 00 30.0000000  0  8G04G16G18G19G21G22G27G32
  22402691.440   117727011.83209  22402689.500    91735343.58347
  21383625.480   112371715.84609  21383621.680    87562368.19848
  22733362.920   119464768.68209  22733359.580    93089487.31646
  21372663.180   112314129.78809  21372658.220    87517487.06748
  24803828.680   130344991.29306  24803826.320   101567509.74445
  20716791.020   108867681.93009  20716785.680    84832035.36448
  20410293.780   107256852.24809  20410292.500    83576778.51949
  23611519.400   124079416.66808  23611517.240    96685267.89045
 15 02 20 03 01  0.0000000  0  8G04G16G18G19G21G22G27G32
  22389433.900   117657342.77109  22389431.840    91681056.05047
  21396848.260   112441202.68109  21396844.560    87616513.77748
  22746506.220   119533837.88608  22746503.020    93143307.44046
  21362472.240   112260575.97609  21362467.260    87475756.82848
  24817030.600   130414368.97307  24817027.980   101621570.25744
  20719016.520   108879376.49109  20719011.080    84841148.02348
  20407457.760   107241948.85109  20407456.460    83565165.48749
  23589518.140   123963799.61108  23589515.880    96595176.80045
 15 02 20 03 01 30.0000000  0  8G04G16G18G19G21G22G27G32
  22376218.060   117587892.81809  22376215.960    91626939.21047
  21410154.340   112511126.98209  21410150.720    87671000.24548
  22759708.160   119603214.96908  22759705.040    93197367.52546
  21352319.840   112207224.43109  21352314.760    87434184.19648
  24830227.740   130483719.67307  24830224.940   101675609.74544
  20721340.300   108891587.74309  20721334.800    84850663.28948
  20404683.400   107227369.80709  20404682.160    83553805.20549
  23567542.800   123848318.77208  23567540.560    96505191.85145
 15 02 20 03 02  0.0000000  0  8G04G16G18G19G21G22G27G32
  22363044.700   117518666.20009  22363042.600    91572996.41547
  21423544.140   112581490.95809  21423540.500    87725829.32648
  22772969.020   119672901.69208  22772965.900    93251668.84646
  21342206.980   112154080.51209  21342201.800    87392773.35848
  24843420.600   130553046.98907  24843417.320   101729631.02445
  20723762.960   108904318.87309  20723757.420    84860583.66048
  20401971.780   107213120.49409  20401970.600    83542701.85149
  23545594.680   123732980.75408  23545592.420    96415318.18446
 15 02 20 03 02 30.0000000  0  8G04G16G18G19G21G22G27G32
  22349913.160   117449659.81709  22349911.060    91519225.22647
  21437016.520   112652288.78209  21437012.840    87780996.47048
  22786287.980   119742892.88509  22786284.800    93306207.45946
  21332133.300   112101142.41509  21332128.000    87351522.89448
  24856608.420   130622347.15407  24856604.560   101783631.14345
  20726283.680   108917565.53009  20726278.120    84870905.74148
  20399322.480   107199198.80909  20399321.360    83531853.79349
  23523673.520   123617784.93808  23523671.420    96325555.33745
 15 02 20 03 03  0.0000000  0  8G04G16G18G19G21G22G27G32
  22336824.960   117380880.89909  22336822.800    91465631.30747
  21450572.360   112723525.18109  21450568.640    87836505.35648
  22799665.740   119813193.61408  22799662.380    93360987.25346
  21322100.420   112048419.04609  21322095.100    87310439.77048
  24869792.300   130691627.69207  24869788.120   101837615.97944
  20728903.800   108931334.36409  20728898.240    84881634.70948
  20396737.220   107185613.48709  20396736.120    83521267.83149
  23501781.380   123502741.42808  23501779.440    96235911.13545
 15 02 20 03 03 30.0000000  0  9G04G14G16G18G19G21G22G27G32
  22323778.360   117312320.50309  22323776.180    91412207.64147
  24686515.540   129728507.28507  24686510.940   101087137.12244
  21464209.520   112795188.87809  21464205.760    87892347.20048
  22813100.220   119883792.52708  22813096.940    93415999.37446
  21312106.760   111995902.19509  21312101.480    87269517.55348
  24882970.700   130760879.05908  24882966.320   101891578.07444
  20731621.340   108945614.99409  20731615.680    84892762.48448
  20394214.460   107172356.49309  20394213.360    83510937.71049
  23479917.000   123387843.63508  23479914.980    96146380.47445
 15 02 20 03 04  0.0000000  0  9G04G14G16G18G19G21G22G27G32
  22310774.000   117243982.02709  22310771.720    91358956.91547
  24672468.880   129654696.13507  24672465.420   101029621.94544
  21477928.120   112867280.73909  21477924.380    87948522.68448
  22826591.760   119954690.75709  22826588.680    93471244.74247
  21302153.260   111943596.49309  21302148.080    87228759.86748
  24896143.980   130830104.23807  24896139.700   101945519.77744
  20734436.880   108960410.58809  20734431.140    84904291.52948
  20391755.080   107159432.33809  20391754.020    83500866.94649
  23458081.540   123273097.44008  23458079.340    96056967.93646
 15 02 20 03 04 30.0000000  0  9G04G14G16G18G19G21G22G27G32
  22297813.580   117175874.63909  22297811.260    91305886.25247
  24658427.580   129580910.40807  24658424.940   100972126.57645
  21491729.520   112939807.82209  21491725.860    88005037.29448
  22840141.580   120025895.06109  22840138.400    93526728.61746
  21292241.920   111891512.46009  21292236.840    87188174.91348
  24909313.740   130899312.07007  24909309.760   101999447.93744
  20737351.920   108975728.80709  20737346.100    84916227.81148
  20389360.980   107146851.36009  20389360.000    83491063.59149
  23436277.160   123158514.61508  23436274.740    95967682.71646
 15 02 20 03 05  0.0000000  0  9G04G14G16G18G19G21G22G27G32
  22284895.180   117107988.25509  22284892.800    91252987.79747
  24644389.780   129507142.40307  24644387.260   100914645.02044
  21505611.300   113012757.37809  21505607.760    88061881.10648
  22853747.380   120097393.05009  22853743.940    93582441.33446
  21282371.120   111839641.22209  21282366.080    87147755.77648
  24922477.860   130968491.93907  24922474.420   102053354.33244
  20740364.240   108991558.10109  20740358.320    84928562.32448
  20387030.520   107134604.47609  20387029.520    83481520.56649
  23414502.420   123044087.48908  23414499.800    95878518.78646
 15 02 20 03 05 30.0000000  0  9G04G14G16G18G19G21G22G27G32
  22272019.020   117040324.11609  22272016.620    91200262.52547
  24630356.240   129433396.66207  24630353.840   100857180.79444
  21519573.260   113086128.29609  21519569.780    88119053.25048
  22867409.000   120169184.19209  22867405.340    93638382.50846
  21272541.280   111787985.23709  21272536.300    87107504.37048
  24935636.800   131037645.20807  24935633.880   102107239.97544
  20743473.920   109007899.35609  20743467.900    84941295.77848
  20384764.100   107122694.29309  20384763.080    83472239.90649
  23392758.080   122929820.19808  23392755.260    95789479.41445
 15 02 20 03 06  0.0000000  0  9G04G14G16G18G19G21G22G27G32
  22259185.660   116972885.01609  22259183.280    91147712.60547
  24616327.960   129359678.34107  24616325.960   100799737.98144
  21533615.440   113159920.44709  21533611.960    88176553.62648
  22881126.240   120241268.85809  22881122.520    93694552.34746
  21262753.180   111736548.50909  21262748.220    87067423.81048
  24948791.220   131106774.26207  24948788.560   102161106.76044
  20746681.200   109024753.90509  20746675.160    84954429.20148
  20382562.460   107111124.56009  20382561.440    83463224.53249
  23371045.080   122815717.96808  23371042.180    95700568.65545
 15 02 20 03 06 30.0000000  0  9G04G14G16G18G19G21G22G27G32
  22246394.620   116905668.00209  22246392.280    91095335.75647
  24602304.900   129285987.21007  24602303.000   100742316.31844
  21547736.960   113234129.45409  21547733.460    88234378.82848
  22894898.420   120313641.79009  22894894.680    93750946.84446
  21253006.560   111685329.82709  21253001.620    87027513.16448
  24961940.560   131175876.02107  24961938.140   102214952.28244
  20749985.360   109042117.85309  20749979.460    84967959.56248
  20380425.340   107099893.86809  20380424.360    83454473.35049
  23349363.460   122701780.69808  23349360.520    95611786.41045
 15 02 20 03 07  0.0000000  0  9G04G14G16G18G19G21G22G27G32
  22233645.860   116838673.05509  22233643.540    91043131.89147
  24588287.660   129212325.86107  24588285.800   100684917.86744
  21561937.140   113308751.96409  21561933.620    88292526.23248
  22908725.160   120386300.82709  22908721.260    93807564.29246
  21243301.540   111634329.75009  21243296.620    86987772.83848
  24975084.740   131244949.79907  24975082.520   102268776.02044
  20753386.200   109059990.07909  20753380.520    84981885.96848
  20378352.840   107089002.87009  20378351.880    83445986.85449
  23327713.580   122588010.45708  23327710.760    95523134.34345
 15 02 20 03 07 30.0000000  0  9G04G14G16G18G19G21G22G27G32
  22220940.140   116771904.49009  22220938.000    90991104.47947
  24574277.680   129138701.41407  24574275.860   100627548.21144
  21576216.380   113383789.73309  21576212.800    88350997.22748
  22922606.580   120459248.07909  22922602.540    93864406.30246
  21233639.260   111583554.35409  21233634.360    86948207.61348
  24988224.520   131314000.00907  24988222.200   102322581.32544
  20756884.500   109078374.02709  20756878.920    84996211.13948
  20376346.080   107078457.28309  20376345.100    83437769.51749
  23306096.900   122474414.55508  23306094.120    95434618.11345
 15 02 20 03 08  0.0000000  0  9G04G14G16G18G19G21G22G27G32
  22208277.280   116705361.06309  22208275.260    90939252.48547
  24560275.040   129065115.45507  24560272.920   100570208.50445
  21590573.980   113459239.07509  21590570.380    88409788.93048
  22936542.100   120532479.93909  22936538.020    93921470.08746
  21224019.660   111533003.29109  21224014.780    86908817.19448
  25001359.560   131383024.80007  25001357.260   102376366.87244
  20760479.660   109097266.89709  20760474.140    85010932.86148
  20374405.000   107068256.81809  20374404.020    83429821.10549
  23284513.600   122360994.09408  23284510.920    95346238.58145
 15 02 20 03 08 30.0000000  0  9G04G14G16G18G19G21G22G27G32
  22195656.500   116639038.61109  22195654.560    90887572.66847
  24546279.500   128991566.84807  24546276.840   100512897.88944
  21605008.740   113535093.87509  21605005.080    88468896.56748
  22950530.680   120605989.93909  22950526.580    93978750.61346
  21214442.320   111482674.29009  21214437.500    86869599.81348
  25014489.100   131452020.23407  25014486.280   102430129.56044
  20764170.760   109116663.77109  20764165.280    85026047.31348
  20372529.100   107058398.78109  20372528.080    83422139.52049
  23262963.420   122247747.82508  23262960.880    95257994.80046
 15 02 20 03 09  0.0000000  0  9G04G14G16G18G19G21G22G27G32
  22183079.120   116572944.22209  22183077.240    90836070.55147
  24532292.640   128918064.83807  24532290.040   100455623.62045
  21619521.420   113611358.32409  21619517.760    88528323.42248
  22964573.000   120679783.21009  22964569.020    94036251.85646
  21204908.740   111432575.33309  21204903.960    86830561.68848
  25027614.280   131520992.65307  25027611.080   102483874.32144
  20767958.920   109136570.46009  20767953.420    85041559.03348
  20370719.880   107048891.11909  20370718.820    83414730.96449
  23241448.140   122134685.08008  23241445.820    95169894.02546
 15 02 20 03 09 30.0000000  0  8G04G14G16G18G19G22G27G32
  22170544.760   116507075.57709  22170542.860    90784744.34647
  24518314.620   128844610.00207  24518311.860   100398386.07845
  21634111.060   113688027.38609  21634107.420    88588065.55148
  22978668.440   120753855.10209  22978664.380    94093970.21846
  21195418.780   111382705.42009  21195414.020    86791702.02348
  20771843.340   109156983.12809  20771837.800    85057465.01048
  20368977.040   107039732.55109  20368975.960    83407594.42449
  23219967.840   122021806.13008  23219965.720    95081936.45546
 15 02 20 03 10  0.0000000  0  8G04G14G16G18G19G22G27G32
  22158052.420   116441427.25909  22158050.360    90733589.83147
  24504345.100   128771199.96807  24504342.400   100341183.45445
  21648776.260   113765093.58709  21648772.600    88648117.13648
  22992815.540   120828198.24409  22992811.400    94151899.93146
  21185971.680   111333060.77409  21185966.920    86753017.89648
  20775822.760   109177895.64709  20775817.240    85073760.48149
  20367299.820   107030919.11309  20367298.760    83400726.81049
  23198522.080   121909108.41308  23198520.140    94994120.09946
 15 02 20 03 10 30.0000000  0  8G04G14G16G18G19G22G27G32
  22145603.340   116376005.91909  22145601.080    90682612.17647
  24490385.840   128697844.21007  24490383.720   100284023.12345
  21663517.700   113842560.45909  21663514.020    88708480.94048
  23007014.940   120902816.60508  23007010.960    94210044.10746
  21176568.940   111283649.13909  21176564.160    86714515.34748
  20779898.340   109199313.26609  20779892.880    85090449.54848
  20365689.760   107022458.44009  20365688.720    83394134.08649
  23177112.640   121796601.07308  23177110.740    94906452.07046
 15 02 20 03 11  0.0000000  0  8G04G14G16G18G19G22G27G32
  22133196.840   116310808.65409  22133194.460    90631809.13747
  24476437.080   128624542.33808  24476434.740   100226904.77944
  21678334.420   113920422.68309  21678330.660    88769152.80548
  23021265.760   120977705.00709  23021261.720    94268398.70946
  21167210.160   111234468.60209  21167205.380    86676192.85748
  20784069.180   109221231.93309  20784063.840    85107529.03248
  20364146.540   107014348.70709  20364145.500    83387814.81149
  23155739.420   121684283.75508  23155737.520    94818932.14246
 15 02 20 03 11 30.0000000  0  9G01G04G14G16G18G19G22G27G32
  24595304.180   129249190.61308                                
  22120833.460   116245838.61509  22120831.100    90581183.12247
  24462499.640   128551300.24707  24462497.080   100169833.03445
  21693226.640   113998681.52509  21693222.840    88830133.72748
  23035568.260   121052864.83609  23035564.120    94326964.83146
  21157896.400   111185524.43909  21157891.580    86638054.56548
  20788335.800   109243653.58209  20788330.540    85125000.45848
  20362671.000   107006594.40509  20362669.940    83381772.51049
  23134403.500   121572162.40508  23134401.560    94731564.87846
 15 02 20 03 12  0.0000000  0  9G01G04G14G16G18G19G22G27G32
  24580222.580   129169935.77607  24580222.900   100651909.12346
  22108511.780   116181088.31909  22108509.500    90530728.37147
  24448572.760   128478113.31808  24448570.160   100112804.26945
  21708192.260   114077326.15209  21708188.440    88891415.25948
  23049920.440   121128285.81809  23049916.220    94385734.40246
  21148626.340   111136809.88209  21148621.460    86600095.16848
  20792696.500   109266569.17809  20792691.220    85142856.76448
  20361261.860   106999188.85709  20361260.740    83376001.96149
  23113103.900   121460232.00708  23113101.860    94644346.44446
 15 02 20 03 12 30.0000000  0  9G01G04G14G16G18G19G22G27G32
  24565166.240   129090817.74907  24565167.240   100590258.82745
  22096235.800   116116578.45509  22096233.600    90480460.95747
  24434660.800   128405005.19907  24434657.640   100055836.89544
  21723234.740   114156374.93609  21723230.940    88953011.72048
  23064325.920   121203986.68509  23064321.640    94444722.12346
  21139404.220   111088347.15409  21139399.260    86562332.01548
  20797155.100   109289998.50409  20797149.660    85161113.39848
  20359923.300   106992154.07509  20359922.060    83370520.32149
  23091845.020   121348515.81508  23091842.960    94557294.92746
 15 02 20 03 13  0.0000000  0  9G01G04G14G16G18G19G22G27G32
  24550131.980   129011812.69207  24550133.560   100528696.53046
  22084001.080   116052284.97509  22083998.860    90430362.17447
  24420759.680   128331954.48108  24420756.720    99998914.27445
  21738348.960   114235800.94009  21738345.300    89014902.10948
  23078779.540   121279941.33008  23078775.420    94503907.54346
  21130225.740   111040113.71409  21130220.720    86524747.52948
  20801706.580   109313916.19909  20801701.020    85179750.56548
  20358650.900   106985467.14509  20358649.540    83365309.73549
  23070622.880   121236992.49308  23070620.800    94470393.65046
 15 02 20 03 13 30.0000000  0  9G01G04G14G16G18G19G22G27G32
  24535121.200   128932931.55607  24535122.740   100467230.80545
  22071809.720   115988219.08009  22071807.440    90380440.71147
  24406872.060   128258975.17807  24406869.360    99942047.28545
  21753536.620   114315612.81409  21753533.020    89077093.17748
  23093283.140   121356158.68309  23093279.120    94563297.68446
  21121093.260   110992121.99409  21121088.200    86487351.39248
  20806352.780   109338332.27409  20806347.200    85198776.08048
  20357446.940   106979140.30809  20357445.600    83360379.73049
  23049440.060   121125675.73608  23049437.940    94383653.35946
 15 02 20 03 14  0.0000000  0  9G01G04G14G16G18G19G22G27G32
  24520133.340   128854169.66508  24520134.660   100405857.96646
  22059660.760   115924375.78809  22059658.380    90330692.71447
  24392997.580   128186065.36008  24392994.700    99885234.42745
  21768796.400   114395803.74609  21768792.840    89139579.63248
  23107835.440   121432631.55909  23107831.420    94622886.93046
  21112006.140   110944368.68009  21112001.040    86450141.03448
  20811092.640   109363240.54509  20811087.060    85218185.13948
  20356310.780   106973169.86209  20356309.500    83355727.44549
  23028296.120   121014563.39209  23028293.960    94297072.35446
 15 02 20 03 14 30.0000000  0  9G01G04G14G16G18G19G22G27G32
  24505168.720   128775530.65807  24505170.160   100344580.95545
  22047554.900   115860758.94609  22047552.440    90281121.17647
  24379137.700   128113231.31808  24379135.000    99828480.65545
  21784128.460   114476374.53309  21784124.920    89202362.06648
  23122436.740   121509361.89309  23122432.540    94682676.81046
  21102965.340   110896858.68309  21102960.200    86413120.25648
  20815926.600   109388643.38209  20815921.020    85237979.56948
  20355243.260   106967560.64009  20355242.100    83351356.63149
  23007192.280   120903661.78808  23007190.060    94210655.57246
 15 02 20 03 15  0.0000000  0  9G01G04G14G16G18G19G22G27G32
  24490227.480   128697013.29208  24490228.560   100283398.61646
  22035491.820   115797367.20909  22035489.380    90231725.02947
  24365292.580   128040474.83708  24365290.020    99771787.28744
  21799532.020   114557320.91609  21799528.440    89265437.16548
  23137086.140   121586345.50408  23137082.080    94742664.04646
  21093970.880   110849592.04009  21093965.640    86376289.11748
  20820854.120   109414537.87909  20820848.500    85258157.11048
  20354244.420   106962312.42609  20354243.340    83347267.11949
  22986128.700   120792972.12309  22986126.460    94124403.92946
 15 02 20 03 15 30.0000000  0  9G01G04G14G16G18G19G22G27G32
  24475309.320   128618619.23507  24475310.780   100222312.48446
  22023471.920   115734202.41509  22023469.560    90182505.73247
  24351463.300   127967800.58408  24351460.540    99715157.97245
  21815006.880   114638642.03809  21815003.300    89328804.28148
  23151783.760   121663582.28309  23151779.760    94802848.53745
  21085023.360   110802572.03709  21085018.040    86339650.16048
  20825875.320   109440924.60209  20825869.720    85278718.20148
  20353314.840   106957428.07509  20353313.840    83343461.13649
  22965106.300   120682498.86009  22965103.980    94038320.87946
 15 02 20 03 16  0.0000000  0  9G01G04G14G16G18G19G22G27G32
  24460414.820   128540347.41608  24460415.900   100161321.49245
  22011494.980   115671263.22609  22011492.620    90133462.22047
  24337649.780   127895209.97508  24337647.160    99658593.87844
  21830552.320   114720334.28609  21830548.780    89392460.58948
  23166528.860   121741068.74008  23166524.820    94863227.60745
  21076122.760   110755798.73509  21076117.380    86303203.43948
  20830989.780   109467801.00009  20830984.140    85299660.85148
  20352454.520   106952907.46009  20352453.560    83339938.57849
  22944125.300   120572243.37608  22944122.880    93952407.53346
 15 02 20 03 16 30.0000000  0  9G01G04G14G16G18G19G22G27G32
  24445543.620   128462199.56207  24445544.820   100100427.14946
  21999561.380   115608551.53209  21999559.000    90084595.98047
  24323853.060   127822707.44108  24323850.360    99602098.41544
  21846168.280   114802397.00209  21846164.800    89456405.56648
  23181321.420   121818804.47509  23181317.360    94923800.90546
  21067269.820   110709275.88809  21067264.380    86266951.87848
  20836197.620   109495167.63009  20836191.900    85320985.50648
  20351663.980   106948753.55909  20351663.060    83336701.77349
  22923186.580   120462210.09309  22923184.160    93866667.35046
 15 02 20 03 17  0.0000000  0  9G01G04G14G16G18G19G22G27G32
  24430695.820   128384172.55408  24430696.980   100039626.93446
  21987670.440   115546064.22109  21987668.060    90035904.59747
  24310072.960   127750293.01607  24310070.240    99545671.58645
  21861853.560   114884823.97509  21861850.220    89520634.36848
  23196160.360   121896783.91008  23196156.640    94984564.10746
  21058464.020   110663001.02309  21058458.600    86230893.55449
  20841497.860   109523019.92809  20841492.040    85342688.60348
  20350942.880   106944964.31609  20350941.940    83333749.11649
  22902290.040   120352398.52308  22902287.640    93781099.91546
 15 02 20 03 17 30.0000000  0  9G01G04G14G16G18G19G22G27G32
  24415871.920   128306273.03308  24415872.800    99978926.07846
  21975823.520   115483807.78409  21975821.060    89987393.09847
  24296311.460   127677976.23408  24296308.920    99489320.85545
  21877608.960   114967619.63609  21877605.740    89585150.47048
  23211046.540   121975011.97109  23211042.920    95045521.00445
  21049706.940   110616982.43009  21049701.560    86195034.93248
  20846891.440   109551363.01909  20846885.560    85364774.14348
  20350292.720   106941547.39709  20350291.680    83331086.59049
  22881437.400   120242817.85608  22881435.080    93695712.41446
 15 02 20 03 18  0.0000000  0  9G01G04G14G16G18G19G22G27G32
  24401070.360   128228489.58208  24401071.140    99918315.62446
  21964018.320   115421770.75009  21964015.800    89939052.55847
  24282566.900   127605748.36707  24282564.240    99433039.40345
  21893431.840   115050769.64009  21893428.620    89649942.67848
  23225977.600   122053474.55009  23225973.780    95106660.72846
  21040996.700   110571210.14109  21040991.400    86159368.22448
  20852375.820   109580183.48909  20852370.000    85387231.65848
  20349711.460   106938492.40409  20349710.340    83328706.07549
  22860626.960   120133459.14108  22860624.820    93610497.85146
 15 02 20 03 18 30.0000000  0  9G01G04G14G16G18G19G22G27G32
  24386293.040   128150834.68808  24386293.900    99857805.37846
  21952257.200   115359965.50109  21952254.660    89890892.65047
  24268842.240   127533624.77908  24268839.660    99376839.21245
  21909324.140   115134283.84809  21909320.780    89715018.68348
  23240955.240   122132182.28308  23240951.600    95167991.40846
  21032336.020   110525698.26509  21032330.780    86123904.42548
  20857953.380   109609493.69609  20857947.600    85410070.78348
  20349201.700   106935813.04209  20349200.540    83326618.26149
  22839861.680   120024337.71808  22839859.740    93525468.20546
 15 02 20 03 19  0.0000000  0  9G01G04G14G16G18G19G22G27G32
  24371539.020   128073301.28008  24371539.740    99797389.76446
  21940538.880   115298385.33709  21940536.400    89842908.12747
  24255136.640   127461601.20708  24255134.100    99320716.94944
  21925283.800   115218151.89209  21925280.320    89780370.41348
  23255977.700   122211125.74809  23255974.260    95229505.77246
  21023723.800   110480440.99109  21023718.600    86088639.03848
  20863622.380   109639284.56309  20863616.600    85433284.45448
  20348762.200   106933503.21809  20348761.100    83324818.41649
  22819140.680   119915448.88708  22819138.860    93440619.79646
 15 02 20 03 19 30.0000000  0  9G01G04G14G16G18G19G22G27G32
  24356808.220   127995890.80308  24356809.220    99737070.00246
  21928863.640   115237031.60009  21928861.200    89795100.02147
  24241450.820   127389682.09008  24241448.400    99264676.10045
  21941310.640   115302372.92109  21941307.080    89845997.19448
  23271045.000   122290304.26609  23271041.300    95291203.35246
  21015160.640   110435441.42609  21015155.440    86053574.44648
  20869382.820   109669556.00809  20869377.040    85456872.59748
  20348393.520   106931565.55009  20348392.480    83323308.54149
  22798464.820   119806796.95608  22798463.040    93355955.98346
 15 02 20 03 20  0.0000000  0  9G01G04G14G16G18G19G22G27G32
  24342101.360   127918605.26208  24342102.100    99676847.51946
  21917231.820   115175906.06509  21917229.400    89747469.75047
  24227785.920   127317872.04108  24227783.320    99208720.19144
  21957404.600   115386946.89209  21957401.020    89911898.99148
  23286156.840   122369717.79208  23286153.140    95353084.02746
  21006647.120   110390702.70009  21006641.940    86018713.11248
  20875234.800   109700308.60209  20875229.020    85480835.66348
  20348096.200   106930003.00909  20348095.200    83322090.97749
  22777834.920   119698386.34209  22777833.100    93271480.20646
 15 02 20 03 20 30.0000000  0  9G01G04G14G16G18G19G22G27G32
  24327417.580   127841442.08108  24327418.520    99616720.41246
  21905642.920   115115006.28909  21905640.600    89700015.41047
  24214141.760   127246171.55908  24214139.120    99152849.69844
  21973564.660   115471868.24609  21973561.060    89978071.46948
  23301312.400   122449361.35508  23301308.800    95415143.93045
  20998183.080   110346223.77209  20998177.880    85984054.22348
  20881177.560   109731538.10609  20881171.720    85505170.35048
  20347869.920   106928814.15009  20347869.020    83321164.59749
  22757251.020   119590217.16708  22757249.060    93187192.54246
 15 02 20 03 21  0.0000000  0  9G01G04G14G16G18G19G22G27G32
  24312757.180   127764401.06708  24312757.900    99556688.42946
  21894096.920   115054331.97309  21894094.640    89652736.74347
  24200519.160   127174583.46408  24200516.100    99097066.75545
  21989790.120   115557133.59109  21989786.500    90044511.99948
  23316511.200   122529232.51008  23316507.900    95477381.20446
  20989768.720   110302005.78809  20989763.500    85949598.66648
  20887210.800   109763243.06709  20887205.000    85529875.52448
  20347714.860   106927999.78709  20347714.060    83320530.03949
  22736713.560   119482291.77608  22736711.380    93103094.85546
 15 02 20 03 21 30.0000000  0  9G01G04G14G16G18G19G22G27G32
  24298120.500   127687486.03208  24298121.240    99496754.68246
  21882594.560   114993887.06809  21882592.360    89605636.85547
  24186919.000   127103114.20408  24186916.060    99041376.41245
  22006081.340   115642744.64209  22006077.740    90111221.91248
  23331753.780   122609333.14508  23331750.660    95539797.25846
  20981405.060   110258054.34509  20981399.820    85915350.79348
  20893335.000   109795425.87909  20893329.240    85554953.04448
  20347632.020   106927564.90909  20347631.280    83320191.17149
  22716223.700   119374616.76708  22716221.340    93019192.26946
 15 02 20 03 22  0.0000000  0  9G01G04G14G16G18G19G22G27G32
  24283507.300   127610694.39107  24283508.240    99436917.07046
  21871135.360   114933668.84409  21871133.180    89558713.56447
  24173341.540   127031764.03608  24173338.540    98985778.88945
  22022437.200   115728695.58009  22022433.640    90178196.66848
  23347039.160   122689658.37208  23347036.020    95602388.32646
  20973091.800   110214367.90309  20973086.540    85881309.41148
  20899549.300   109828082.39309  20899543.520    85580399.67948
  20347621.160   106927507.90309  20347620.380    83320146.75049
  22695781.500   119267191.94509  22695778.980    92935484.64146
 15 02 20 03 22 30.0000000  0  9G01G04G14G16G18G19G22G27G32
  24268917.900   127534027.05708  24268919.020    99377176.30346
  21859719.480   114873678.39409  21859717.280    89511967.78047
  24159787.480   126960537.13308  24159784.440    98930277.41445
  22038857.340   115814984.55709  22038853.880    90245434.83447
  23362367.180   122770206.95708  23362363.720    95665153.51045
  20964829.420   110170949.05809  20964824.160    85847476.55348
  20905853.580   109861211.93909  20905847.800    85606214.91848
  20347682.660   106927830.68309  20347681.740    83320398.27149
  22675387.600   119160020.87009  22675384.980    92851974.72746
 15 02 20 03 23  0.0000000  0  9G01G04G14G16G18G19G22G27G32
  24254351.660   127457481.45708  24254352.700    99317530.38246
  21848346.440   114813913.00209  21848344.220    89465397.34847
  24146256.920   126889433.55808  24146253.960    98874872.02744
  22055340.940   115901606.79409  22055337.520    90312932.67748
  23377736.740   122850974.10608  23377733.240    95728088.92546
  20956617.760   110127796.85609  20956612.520    85813851.46748
  20912247.040   109894810.35809  20912241.300    85632395.51448
  20347816.180   106928531.78109  20347815.100    83320944.58249
  22655042.040   119053103.51309  22655039.300    92768662.51746
 15 02 20 03 23 30.0000000  0  9G01G04G14G16G18G19G22G27G32
  24239808.620   127381057.36507  24239809.900    99257979.17946
  21837016.240   114754372.60909  21837014.000    89419002.24347
  24132750.460   126818456.15308  24132747.300    98819564.92445
  22071887.420   115988559.22009  22071883.940    90380687.81648
  23393147.280   122931957.29508  23393143.900    95791192.69445
  20948457.080   110084912.45609  20948451.860    85780435.04948
  20918729.420   109928876.04909  20918723.740    85658940.21048
  20348021.820   106929612.02409  20348020.640    83321786.33849
  22634745.200   118946442.46309  22634742.400    92685550.02546
 15 02 20 03 24  0.0000000  0  9G01G04G14G16G18G19G22G27G32
  24225290.060   127304761.24508  24225290.860    99198527.67345
  21825730.120   114695063.35709  21825727.820    89372787.25747
  24119269.600   126747613.95008  24119266.380    98764363.25244
  22088497.420   116075845.08809  22088493.860    90448702.77447
  23408599.840   123013160.97808  23408596.220    95854468.32645
  20940348.880   110042303.80109  20940343.740    85747233.50248
  20925301.720   109963413.84209  20925296.060    85685852.77848
  20348301.000   106931078.82309  20348299.720    83322929.30249
  22614498.780   118840046.64709  22614495.900    92602644.20546
 15 02 20 03 24 30.0000000  0  9G01G04G14G16G18G19G22G27G32
  24210794.400   127228586.00308  24210795.460    99139170.39546
  21814486.700   114635978.42909  21814484.300    89326747.06247
  24105813.780   126676903.06508  24105810.700    98709263.87745
  22105169.060   116163454.85909  22105165.480    90516970.12648
  23424092.520   123094576.06308  23424088.900    95917908.63345
  20932292.140   109999965.39409  20932287.060    85714242.53748
  20931962.200   109998414.94609  20931956.500    85713126.37248
  20348652.600   106932926.23309  20348651.280    83324368.84549
  22594301.960   118733911.60509  22594299.040    92519941.59346
 15 02 20 03 25  0.0000000  0  9G01G04G14G16G18G19G22G27G32
  24196323.340   127152538.53808  24196324.300    99079912.63645
  21803287.180   114577124.49609  21803284.800    89280886.86547
  24092384.540   126606333.05707  24092381.480    98654274.24745
  22121903.220   116251393.16909  22121899.620    90585493.48648
  23439626.300   123176206.99008  23439622.860    95981517.12745
  20924288.380   109957905.52509  20924283.400    85681468.62548
  20938711.940   110033884.85609  20938706.220    85740765.25948
  20349078.080   106935162.03309  20349076.740    83326111.02449
  22574156.500   118628046.67409  22574153.560    92437449.43946
 15 02 20 03 25 30.0000000  0  9G01G04G14G16G18G19G22G27G32
  24181875.000   127076612.59508  24181876.080    99020749.60346
  21792130.400   114518495.42409  21792128.080    89235201.86747
  24078981.560   126535900.96208  24078978.860    98599392.10744
  22138698.160   116339650.75409  22138694.540    90654265.61848
  23455199.660   123258045.55208  23455196.140    96045287.43545
  20916336.700   109916119.43509  20916331.800    85648908.04448
  20945549.440   110069815.89809  20945543.680    85768763.47348
  20349576.500   106937781.16309  20349575.120    83328151.89949
  22554061.820   118522448.53909  22554058.860    92355165.18246
 15 02 20 03 26  0.0000000  0  9G01G04G14G16G18G19G22G27G32
  24167450.160   127000809.48408  24167451.340    98961682.25846
  21781016.700   114460092.51009  21781014.440    89189693.13247
  24065605.680   126465610.70108  24065602.940    98544620.48145
  22155553.440   116428225.44109  22155549.780    90723284.86148
  23470812.420   123340090.96808  23470808.740    96109218.97145
  20908437.620   109874609.78909  20908432.760    85616562.88848
  20952474.540   110106207.53909  20952468.780    85797120.60048
  20350148.220   106940785.79309  20350146.820    83330493.17549
  22534018.580   118417120.87809  22534015.620    92273091.70446
 15 02 20 03 26 30.0000000  0  9G01G04G14G16G18G19G22G27G32
  24153048.980   126925130.37508  24153049.900    98902711.47546
  21769946.300   114401917.19109  21769944.000    89144361.71347
  24052257.780   126395466.39808  24052255.080    98489962.59545
  22172468.880   116517116.65209  22172465.220    90792550.74047
  23486464.380   123422342.29408  23486460.720    96173310.90845
  20900591.720   109833379.49309  20900586.880    85584435.38648
  20959487.160   110143058.88309  20959481.380    85825835.94548
  20350793.740   106944178.21009  20350792.360    83333136.61749
  22514027.500   118312067.44009  22514024.560    92191231.88546
 15 02 20 03 27  0.0000000  0  9G01G04G14G16G18G19G22G27G32
  24138671.660   126849577.56908  24138672.660    98843839.22046
  21758919.620   114343971.56809  21758917.300    89099209.29347
  24038938.660   126325473.53308  24038935.980    98435422.70645
  22189444.340   116606323.59509  22189440.700    90862062.65847
  23502155.520   123504799.59708  23502151.960    96237563.33145
  20892799.720   109792432.40109  20892794.860    85552528.57448
  20966587.440   110180371.44209  20966581.760    85854910.66948
  20351513.660   106947961.71509  20351512.300    83336084.80449
  22494089.540   118207293.21809  22494086.660    92109589.63046
 15 02 20 03 27 30.0000000  0  9G01G04G14G16G18G19G22G27G32
  24124317.460   126774146.48008  24124318.480    98785061.81546
  21747935.780   114286251.07009  21747933.420    89054232.29947
  24025648.140   126255630.35408  24025645.460    98380999.46245
  22206478.280   116695838.18209  22206474.740    90931814.28747
  23517884.560   123587456.22608  23517880.860    96301971.12045
  20885061.060   109751765.43109  20885056.140    85520840.03848
  20973774.300   110218138.96209  20973768.720    85884339.91748
  20352307.340   106952132.69409  20352306.000    83339334.92449
  22474204.360   118102796.24109  22474201.600    92028163.42946
 15 02 20 03 28  0.0000000  0  9G01G04G14G16G18G19G22G27G32
  24109987.400   126698840.20608  24109988.000    98726381.56246
  21736995.360   114228758.73009  21736993.000    89009433.08547
  24012386.960   126185942.60908  24012384.360    98326697.36445
  22223571.020   116785661.63909  22223567.580    91001806.58647
  23533651.640   123670313.10008  23533648.220    96366534.93146
  20877376.580   109711383.17709  20877371.620    85489373.35748
  20981047.940   110256362.80509  20981042.540    85914124.73048
  20353175.540   106956695.15509  20353174.160    83342890.08349
  22454372.980   117998581.98009  22454370.340    91946957.52546
 15 02 20 03 28 30.0000000  0  9G01G04G14G16G18G19G22G27G32
  24095680.840   126623658.97008  24095681.660    98667798.85746
  21726098.400   114171494.72209  21726096.040    88964811.80047
  23999156.160   126116413.66508  23999153.240    98272518.95045
  22240722.120   116875791.52809  22240718.680    91072037.67047
  23549456.320   123753368.33408  23549453.180    96431253.25646
  20869746.580   109671287.26109  20869741.620    85458129.79549
  20988408.120   110295041.39509  20988402.840    85944263.88948
  20354118.520   106961650.44909  20354117.140    83346751.34649
  22434596.040   117894653.50409  22434593.480    91865974.31547
 15 02 20 03 29  0.0000000  0  9G01G04G14G16G18G19G22G27G32
  24081397.920   126548601.33007  24081398.500    98609312.39946
  21715244.580   114114457.72009  21715242.260    88920367.40648
  23985955.760   126047045.11608  23985952.480    98218465.56645
  22257930.700   116966223.32009  22257927.280    91142504.00747
  23565298.200   123836618.32008  23565295.040    96496123.36945
  20862171.040   109631477.67709  20862166.080    85427109.35649
  20995854.280   110334171.66909  20995849.040    85974755.02248
  20355136.180   106966997.98609  20355134.820    83350918.26449
  22414873.720   117791011.70809  22414871.080    91785214.50147
 15 02 20 03 29 30.0000000  0  9G01G04G14G16G18G19G22G27G32
  24067138.400   126473667.26208  24067138.960    98550922.23445
  21704433.900   114057647.74409  21704431.680    88876099.90247
  23972786.500   125977839.64108  23972782.980    98164539.21344
  22275196.140   117056953.83109  22275192.760    91213203.10147
  23581176.900   123920061.03608  23581173.460    96561143.71845
  20854650.360   109591956.22409  20854645.420    85396313.42049
  21003386.160   110373751.73109  21003380.860    86005596.62748
  20356228.680   106972738.81309  20356227.280    83355391.62449
  22395206.480   117687659.29309  22395203.720    91704680.15847
 15 02 20 03 30  0.0000000  0  9G01G04G14G16G18G19G22G27G32
  24052902.660   126398858.57608  24052903.040    98492629.80345
  21693666.780   114001066.65909  21693664.640    88832010.75948
  23959649.060   125908802.07208  23959645.620    98110743.73044
  22292518.360   117147982.58809  22292514.980    91284134.60447
  23597092.200   124003696.32608  23597088.940    96626314.03545
  20847185.160   109552726.04409  20847180.180    85365744.44949
  21011003.800   110413782.01909  21010998.420    86036789.06548
  20357396.520   106978875.72209  20357395.120    83360173.63349
  22375595.140   117584600.69909  22375592.280    91624374.77847
 15 02 20 03 30 30.0000000  0  9G01G04G14G16G18G19G22G27G32
  24038690.500   126324173.91207  24038690.840    98434433.94346
  21682943.000   113944713.01509  21682940.900    88788098.84348
  23946543.760   125839933.97608  23946540.160    98057080.26445
  22309896.580   117239305.41909  22309893.160    91355295.24847
  23613043.420   124087520.49508  23613040.160    96691631.57445
  20839775.500   109513787.58209  20839770.420    85335402.79648
  21018706.480   110454259.40809  21018701.060    86068329.88848
  20358639.580   106985408.19609  20358638.300    83365263.87549
  22356039.840   117481836.94009  22356036.980    91544299.14347
 15 02 20 03 31  0.0000000  0  9G01G04G14G16G18G19G22G27G32
  24024502.020   126249612.47408  24024502.240    98376334.15746
  21672262.420   113888586.20909  21672260.260    88744363.69847
  23933471.020   125771237.51708  23933467.740    98003550.58244
  22327330.120   117330918.88809  22327326.640    91426682.36147
  23629030.100   124171530.78708  23629026.620    96757094.13345
  20832421.460   109475141.34709  20832416.260    85305288.85149
  21026493.800   110495181.42309  21026488.320    86100217.17448
  20359957.960   106992336.53009  20359956.740    83370662.58049
  22336540.940   117379369.91809  22336538.220    91464454.72047
 15 02 20 03 31 30.0000000  0  9G01G04G14G16G18G19G22G27G32
  24010336.920   126175174.05008  24010337.120    98318330.25045
  21661624.880   113832685.75909  21661622.720    88700804.93947
  23920431.640   125702715.52508  23920428.420    97950156.80445
  22344818.340   117422819.63909  22344814.740    91498293.34047
  23645051.780   124255724.87408  23645048.040    96822699.95445
  20825123.280   109436788.78209  20825117.980    85275403.74549
  21034365.260   110536546.25909  21034359.780    86132449.51848
  20361351.740   106999661.38409  20361350.600    83376370.25149
  22317098.980   117277201.89209  22317096.340    91384843.29247
 15 02 20 03 32  0.0000000  0  9G01G04G14G16G18G19G22G27G32
  23996195.440   126100861.02008  23996196.180    98260424.04845
  21651030.920   113777014.32509  21651028.760    88657424.60747
  23907426.660   125634373.28708  23907423.400    97896903.11445
  22362361.100   117515007.24709  22362357.420    91570127.84047
  23661108.460   124340103.03708  23661104.820    96888449.16145
  20817881.740   109398733.91109  20817876.340    85245750.61448
  21042321.040   110578354.39909  21042315.520    86165027.30148
  20362821.660   107007386.17309  20362820.540    83382389.56949
  22297714.920   117175338.00009  22297712.300    91305468.84147
 15 02 20 03 32 30.0000000  0  9G01G04G14G16G18G19G22G27G32
  23982077.120   126026668.85508  23982077.660    98202611.99845
  21640479.660   113721567.28709  21640477.540    88614219.14848
  23894455.800   125566209.21008  23894452.420    97843788.24945
  22379957.040   117607474.65209  22379953.300    91642180.36247
  23677198.960   124424658.74908  23677195.300    96954336.71945
  20810696.220   109360973.64409  20810690.800    85216327.03748
  21050359.900   110620599.57609  21050354.540    86197945.62848
  20364366.960   107015507.18409  20364365.940    83388717.63249
  22278388.360   117073776.11909  22278385.800    91226329.72747
 15 02 20 03 33  0.0000000  0  9G01G04G14G16G18G19G22G27G32
  23967982.900   125952602.12607  23967983.060    98144897.58046
  21629971.980   113666349.04609  21629969.880    88571191.96348
  23881520.080   125498230.62608  23881516.600    97790817.94845
  22397606.560   117700223.50809  22397602.840    91714452.19247
  23693323.820   124509394.34108  23693319.940    97020364.46745
  20803567.920   109323514.01709  20803562.480    85187137.71748
  21058482.520   110663284.88109  21058477.240    86231206.89448
  20365988.780   107024029.92409  20365987.720    83395358.72449
  22259120.580   116972523.28309  22259118.040    91147431.40947
 15 02 20 03 33 30.0000000  0  9G01G04G14G16G18G19G22G27G32
  23953912.560   125878662.09208  23953912.760    98087282.03346
  21619508.220   113611361.24809  21619506.060    88528344.33048
  23868620.320   125430441.94808  23868616.940    97737995.58745
  22415309.340   117793252.47109  22415305.720    91786942.28747
  23709482.620   124594309.07208  23709478.860    97086531.78445
  20796497.380   109286358.13609  20796491.940    85158185.10049
  21066688.840   110706409.73909  21066683.660    86264810.67948
  20367687.480   107032956.67709  20367686.380    83402314.63749
  22239912.320   116871583.47109  22239909.840    91068777.00847
 15 02 20 03 34  0.0000000  0  9G01G04G14G16G18G19G22G27G32
  23939865.920   125804847.13708  23939866.480    98029763.94546
  21609088.100   113556602.21509  21609085.780    88485674.99148
  23855756.840   125362844.60808  23855753.940    97685322.34445
  22433064.580   117886557.13409  22433061.080    91859647.23147
  23725674.800   124679399.43108  23725671.140    97152835.93345
  20789484.560   109249505.63909  20789479.120    85129468.88248
  21074978.240   110749970.90309  21074973.100    86298754.44848
  20369462.940   107042286.65909  20369461.800    83409584.75049
  22220763.820   116770957.65109  22220761.360    90990367.29047
 15 02 20 03 34 30.0000000  0  9G01G04G14G16G18G19G22G27G32
  23925842.340   125731152.43008  23925842.740    97972339.49645
  21598710.500   113502066.77309  21598708.020    88443179.85448
  23842929.220   125295436.53208  23842926.300    97632796.58045
  22450870.780   117980129.58309  22450867.360    91932560.83447
  23741899.240   124764658.39008  23741895.320    97219271.52745
  20782528.880   109212953.37609  20782523.440    85100986.60148
  21083349.420   110793961.41009  21083344.180    86333032.77748
  20371314.360   107052015.91009  20371313.200    83417165.97749
  22201674.600   116670643.40109  22201672.180    90912200.35747
 15 02 20 03 35  0.0000000  0  9G01G04G14G16G18G19G22G27G32
  23911842.780   125657584.57408  23911843.300    97915013.89045
  21588376.680   113447761.89609  21588374.060    88400864.37347
  23830139.580   125228227.32908  23830136.820    97580425.77345
  22468728.720   118073973.84309  22468725.320    92005686.22847
  23758156.580   124850090.54008  23758152.240    97285842.05145
  20775631.840   109176709.39609  20775626.400    85072744.54348
  21091803.200   110838386.23409  21091797.960    86367649.52748
  20373243.180   107062151.93009  20373242.060    83425064.16249
  22182646.460   116570649.85809  22182644.000    90834283.32347
 15 02 20 03 35 30.0000000  0  9G01G04G14G16G18G19G22G27G32
  23897867.160   125584143.13008  23897867.820    97857786.83046
  21578086.600   113393687.09009  21578083.940    88358728.16747
  23817388.340   125161219.61308  23817385.640    97528211.98645
  22486637.780   118168086.68809  22486634.360    92079020.91947
  23774446.060   124935693.30208  23774441.920    97352545.44545
  20768793.720   109140774.97709  20768788.280    85044743.70848
  21100339.200   110883243.56609  21100333.960    86402603.29548
  20375249.560   107072695.25809  20375248.440    83433279.73449
  22163679.760   116470979.15309  22163677.260    90756617.85547
 15 02 20 03 36  0.0000000  0  9G01G04G14G16G18G19G22G27G32
  23883914.200   125510820.67407  23883914.480    97800652.39746
  21567838.880   113339834.85809  21567836.180    88316765.39748
  23804674.740   125094408.81808  23804671.960    97476151.60845
  22504595.880   118262457.40909  22504592.460    92152556.53547
  23790766.320   125021457.18808  23790762.340    97419374.44745
  20762013.400   109105144.34709  20762007.960    85016979.58448
  21108955.660   110928523.76109  21108950.400    86437886.54948
  20377332.200   107083639.31009  20377331.040    83441807.56149
  22144773.500   116371626.33909  22144771.020    90679200.08347
 15 02 20 03 36 30.0000000  0  9G01G04G14G16G18G19G22G27G32
  23869985.060   125437622.59907  23869985.680    97743614.98346
  21557634.580   113286210.80009  21557631.800    88274980.42448
  23792000.160   125027803.16908  23791997.420    97424251.11745
  22522603.600   118357088.86309  22522600.220    92226295.33747
  23807118.100   125107385.62608  23807113.920    97486331.72545
  20755292.220   109069824.38709  20755286.760    84989457.55248
  21117653.500   110974230.71909  21117648.080    86473502.37548
  20379492.240   107094990.34209  20379491.040    83450652.53149
  22125929.240   116272599.29209  22125926.780    90602036.15547
 15 02 20 03 37  0.0000000  0  9G01G04G14G16G18G19G22G27G32
  23856079.760   125364549.57308  23856080.360    97686674.97546
  21547473.840   113232815.69609  21547471.020    88233373.86648
  23779365.380   124961406.48208  23779362.420    97372513.44145
  22540660.700   118451979.34109  22540657.300    92300235.95847
  23823500.840   125193477.34808  23823496.400    97553416.17744
  20748630.580   109034817.25309  20748625.140    84962179.26249
  21126432.400   111020363.43309  21126426.780    86509449.93848
  20381729.980   107106749.87909  20381728.740    83459815.80949
  22107147.620   116173901.29409  22107145.160    90525128.62447
 15 02 20 03 37 30.0000000  0  9G01G04G14G16G18G19G22G27G32
  23842198.180   125291601.62508  23842199.240    97629832.52946
  21537356.580   113179649.24009  21537353.780    88191945.46448
  23766770.820   124895221.56508  23766767.880    97320940.78045
  22558766.560   118547125.87809  22558763.100    92374376.11547
  23839914.160   125279730.57108  23839909.880    97620626.47745
  20742028.820   109000124.73309  20742023.400    84935146.13649
  21135291.940   111066919.67609  21135286.080    86545727.53848
  20384045.660   107118918.76209  20384044.400    83469298.04149
  22088429.140   116075534.74409  22088426.620    90448479.37347
 15 02 20 03 38  0.0000000  0  9G01G04G14G16G18G19G22G27G32
  23828339.980   125218776.25608  23828340.820    97573085.48446
  21527282.380   113126709.18509  21527279.640    88150693.49748
  23754216.580   124829248.71208  23754213.840    97269533.36245
  22576920.040   118642522.65509  22576916.540    92448711.27247
  23856357.500   125366141.01608  23856353.400    97687959.30345
  20735486.680   108965745.65809  20735481.300    84908357.26249
  21144231.200   111113895.43909  21144225.240    86582332.03948
  20386438.960   107131495.34709  20386437.700    83479097.97549
  22069773.840   115977499.72209  22069771.200    90372088.45847
 15 02 20 03 38 30.0000000  0  9G01G04G14G16G18G19G22G27G32
  23814505.400   125146074.49808  23814506.060    97516434.74746
  21517251.420   113073996.61009  21517248.740    88109618.77048
  23741703.480   124763491.99808  23741700.720    97218294.36645
  22595120.860   118738168.44409  22595117.380    92523240.45847
  23872830.360   125452706.68508  23872826.300    97755413.09245
  20729004.600   108931682.61009  20728999.300    84881814.63349
  21153250.040   111161289.73909  21153244.040    86619262.65648
  20388910.140   107144481.45709  20388908.960    83489217.01849
  22051182.320   115879799.75009  22051179.500    90295958.61047
 15 02 20 03 39  0.0000000  0  9G01G04G14G16G18G19G22G27G32
  23800694.160   125073495.24308  23800694.600    97459879.53946
  21507263.540   113021510.48309  21507260.920    88068720.50748
  23729231.960   124697953.74508  23729229.060    97167225.61045
  22613368.340   118834059.34309  22613364.780    92597960.63647
  23889332.140   125539425.10908  23889328.220    97822985.87645
  20722582.800   108897936.36209  20722577.600    84855518.86449
  21162348.060   111209099.94209  21162342.020    86656517.36848
  20391459.200   107157877.04709  20391458.140    83499655.13749
  22032654.760   115782436.30009  22032651.900    90220091.00147
 15 02 20 03 39 30.0000000  0  9G01G04G14G16G18G19G22G27G32
  23786906.980   125001042.89708  23786907.440    97403423.22946
  21497319.500   112969255.05409  21497317.020    88028002.01147
  23716803.240   124632640.82908  23716800.160    97116332.41945
  22631662.700   118930196.46309  22631659.040    92672872.68347
  23905863.480   125626298.47608  23905859.760    97890679.38545
  20716222.420   108864512.65509  20716217.300    84829474.40949
  21171525.640   111257328.35309  21171519.600    86694097.94248
  20394087.080   107171687.09109  20394086.140    83510416.20949
  22014192.400   115685416.08009  22014189.600    90144490.83147
 15 02 20 03 40  0.0000000  0  9G01G04G14G16G18G19G22G27G32
  23773142.880   124928712.37108  23773143.380    97347061.81346
  21487418.420   112917225.37309  21487416.080    87987459.42447
  23704417.040   124567551.09308  23704413.940    97065613.14445
  22650002.400   119026571.91309  22649998.640    92747970.44347
  23922423.020   125713319.77908  23922419.480    97958488.16745
  20709922.880   108831408.15209  20709917.740    84803678.70449
  21180781.440   111305968.13109  21180775.440    86731999.07648
  20396793.020   107185907.42709  20396792.160    83521496.99649
  21995794.720   115588736.60409  21995792.120    90069156.19647
 15 02 20 03 40 30.0000000  0  9G01G04G14G16G18G19G22G27G32
  23759402.360   124856506.11008  23759402.980    97290797.26046
  21477560.840   112865423.96909  21477558.600    87947094.71347
  23692074.340   124502690.08208  23692071.300    97015072.10845
  22668387.400   119123185.66709  22668383.640    92823253.89147
  23939010.860   125800489.42208  23939007.220    98026412.59345
  20703684.880   108798626.83809  20703679.640    84778134.82849
  21190115.680   111355019.96909  21190109.720    86770221.29248
  20399577.660   107200541.23209  20399576.760    83532899.95749
  21977462.760   115492402.74409  21977460.340    89994090.86547
 15 02 20 03 41  0.0000000  0  9G01G04G14G16G18G19G22G27G32
  23745685.400   124784423.45608  23745685.980    97234628.98046
  21467746.540   112813850.06809  21467744.320    87906907.27548
  23679775.680   124438060.04308  23679772.540    96964711.04945
  22686817.100   119220034.56009  22686813.420    92898720.55747
  23955626.420   125887804.96908  23955622.620    98094450.65844
  20697508.500   108766169.30909  20697503.140    84752843.24649
  21199527.760   111404481.24109  21199521.920    86808762.54248
  20402440.980   107215588.65609  20402440.060    83544625.22249
  21959196.900   115396416.22409  21959194.680    89919296.18447
 15 02 20 03 41 30.0000000  0  9G01G04G14G16G18G19G22G27G32
  23731992.080   124712464.06708  23731992.560    97178556.75546
  21457975.520   112762503.44009  21457973.300    87866896.92948
  23667521.420   124373663.57708  23667518.420    96914531.98945
  22705290.860   119317114.87909  22705287.220    92974367.55947
  23972269.420   125975263.75708  23972265.540    98162600.40245
  20691393.980   108734036.93209  20691388.520    84727805.03749
  21209017.440   111454349.77709  21209011.580    86847621.14648
  20405383.140   107231050.14409  20405382.200    83556673.12349
  21940997.680   115300779.21109  21940995.560    89844773.83047
 15 02 20 03 42  0.0000000  0  9G01G04G14G16G18G19G22G27G32
  23718322.160   124640628.39908  23718322.740    97122580.97246
  21448247.900   112711384.67809  21448245.660    87827064.12948
  23655312.300   124309503.83508  23655309.340    96864537.38545
  22723808.200   119414424.01009  22723804.460    93050192.85847
  23988939.360   126062864.71708  23988935.480    98230860.86646
  20685341.740   108702231.97809  20685336.280    84703021.96649
  21218584.460   111504624.38109  21218578.560    86886796.16448
  20408404.380   107246926.94109  20408403.420    83569044.65849
  21922865.660   115205494.62609  21922863.520    89770526.10247
 15 02 20 03 42 30.0000000  0  9G01G04G14G16G18G19G22G27G32
  23704675.940   124568917.65508  23704676.360    97066702.51746
  21438563.980   112660495.01709  21438561.680    87787409.86047
  23643149.020   124245585.31708  23643146.220    96814730.75846
  22742368.940   119511961.14409  22742365.140    93126195.82247
  24005636.160   126150607.05408  24005632.340    98299231.49645
  20679352.340   108670757.42909  20679346.900    84678496.34849
  21228228.460   111555304.16909  21228222.500    86926286.90848
  20411505.060   107263221.04809  20411504.140    83581741.36249
  21904801.460   115110566.13609  21904799.280    89696555.84647
 15 02 20 03 43  0.0000000  0  9G01G04G14G16G18G19G22G27G32
  23691052.780   124497327.89908  23691053.440    97010918.30046
  21428923.020   112609830.56509  21428920.560    87747931.07148
  23631031.520   124181906.60808  23631028.700    96765110.95845
  22760971.700   119609719.29509  22760967.840    93202371.00047
  24022358.760   126238484.67908  24022354.880    98367707.58544
  20673425.340   108639610.75009  20673419.880    84654226.21249
  21237948.420   111606383.16109  21237942.560    86966088.71048
  20414684.560   107279929.17609  20414683.640    83594760.67749
  21886804.760   115015992.16409  21886802.420    89622861.85047
 15 02 20 03 43 30.0000000  0  9G01G04G14G16G18G19G22G27G32
  23677453.440   124425863.42608  23677453.820    96955231.70446
  21419325.720   112559395.46009  21419323.100    87708631.00548
  23618960.940   124118475.31308  23618958.240    96715684.01245
  22779616.600   119707699.48609  22779612.840    93278719.20747
  24039107.340   126326499.93607  24039103.580    98436290.91345
  20667561.720   108608797.45809  20667556.320    84630215.85949
  21247744.980   111657864.19509  21247739.040    87006203.80548
  20417943.860   107297056.46709  20417942.940    83608106.61949
  21868876.780   114921779.47109  21868874.260    89549449.36547
 15 02 20 03 44  0.0000000  0  9G01G04G14G16G18G19G22G27G32
  23663877.760   124354523.18508  23663878.280    96899641.95346
  21409771.900   112509188.94009  21409769.180    87669509.05648
  23606937.720   124055293.22608  23606934.820    96666451.20445
  22798303.060   119805898.13809  22798299.360    93355237.63446
  24055881.460   126414649.76108  24055877.900    98504979.01645
  20661761.640   108578318.29409  20661756.320    84606465.86349
  21257617.440   111709744.29409  21257611.580    87046629.85648
  20421282.900   107314602.52609  20421281.920    83621778.87749
  21851017.740   114827929.41409  21851015.160    89476319.45347
 15 02 20 03 44 30.0000000  0  9G01G04G14G16G18G19G22G27G32
  23650324.800   124283301.98408  23650325.160    96844144.96246
  21400260.480   112459205.70709  21400257.760    87630561.09148
  23594961.560   123992358.09908  23594958.920    96617410.87445
  22817029.560   119904307.33209  22817026.020    93431920.13047
  24072680.020   126502927.14408  24072676.680    98573766.60045
  20656024.460   108548169.63609  20656019.180    84582973.41249
  21267564.420   111762016.07409  21267558.640    87087361.10948
  20424700.760   107332562.88909  20424699.720    83635773.96749
  21833227.140   114734439.24009  21833224.640    89403469.97947
 15 02 20 03 45  0.0000000  0  9G01G04G14G16G18G19G22G27G32
  23636796.040   124212207.80408  23636796.420    96788746.88846
  21390792.980   112409453.88709  21390790.340    87591793.44548
  23583034.340   123929680.49408  23583031.440    96568571.16246
  22835797.200   120002932.27908  22835793.800    93508770.74047
  24089504.040   126591338.25208  24089501.040    98642658.29545
  20650352.060   108518361.16409  20650346.840    84559746.03249
  21277587.120   111814685.53409  21277581.280    87128402.25548
  20428199.040   107350946.30109  20428197.960    83650098.70449
  21815506.980   114641319.18409  21815504.580    89330908.88847
 15 02 20 03 45 30.0000000  0  9G01G04G14G16G18G19G22G27G32
  23623290.340   124141235.22708  23623290.540    96733443.63346
  21381368.380   112359927.95309  21381365.940    87553201.81848
  23571155.740   123867258.00408  23571152.700    96519930.29345
  22854604.340   120101764.44609  22854600.980    93585782.82047
  24106352.140   126679875.30008  24106349.040    98711648.24144
  20644743.760   108488889.03409  20644738.500    84536780.73349
  21287684.140   111867745.58509  21287678.320    87169747.74748
  20431776.860   107369747.97709  20431775.800    83664749.36349
  21797856.660   114548566.31009  21797854.360    89258633.93247
 15 02 20 03 46  0.0000000  0  9G01G04G14G16G18G19G22G27G32
  23609808.120   124070385.83508  23609808.780    96678236.39346
  21371987.020   112310629.59509  21371984.820    87514787.51848
  23559326.640   123805095.45408  23559323.620    96471491.91746
  22873450.700   120200802.45809  22873447.340    93662955.28947
  24123224.080   126768538.41407  24123220.680    98780736.40844
  20639200.020   108459756.09709  20639194.720    84514079.74949
  21297855.320   111921195.65709  21297849.560    87211397.16248
  20435434.640   107388970.20109  20435433.640    83679727.72149
  21780277.000   114456184.51609  21780274.700    89186648.12648
 15 02 20 03 46 30.0000000  0  9G01G04G14G16G18G19G22G27G32
  23596349.100   123999657.37708  23596349.340    96623123.27646
  21362648.580   112261556.66809  21362646.540    87476548.89248
  23547547.140   123743193.15908  23547544.240    96423256.37345
  22892335.360   120300041.64009  22892332.020    93740284.52647
  24140119.260   126857323.16308  24140115.780    98849919.27244
  20633720.700   108430961.74009  20633715.320    84491642.60249
  21308099.960   111975031.95009  21308094.300    87253347.52348
  20439172.160   107408611.30609  20439171.180    83695032.48849
  21762767.980   114364173.88409  21762765.700    89114951.55547
 15 02 20 03 47  0.0000000  0  9G01G04G14G16G18G19G22G27G32
  23582913.500   123929052.18908  23582913.740    96568106.29646
  21353353.480   112212711.48709  21353351.560    87438487.71948
  23535818.040   123681556.45408  23535815.220    96375227.78446
  22911258.180   120399481.34908  22911254.840    93817770.01847
  24157037.940   126946230.32008  24157034.440    98919197.62045
  20628306.620   108402509.97909  20628301.080    84469472.40349
  21318418.140   112029254.71709  21318412.620    87295599.03448
  20442989.960   107428674.43409  20442989.040    83710666.08549
  21745330.560   114272539.29009  21745328.160    89043547.99147
 15 02 20 03 47 30.0000000  0  9G01G04G14G16G18G19G22G27G32
  23569501.280   123858570.87308  23569501.820    96513185.83946
  21344101.940   112164094.95709  21344100.100    87400604.73248
  23524140.280   123620189.05308  23524137.300    96327409.02945
  22930218.700   120499119.33109  22930215.360    93895410.00547
  24173979.560   127035258.15408  24173976.280    98988569.88644
  20622958.180   108374403.14309  20622952.420    84447570.97749
  21328809.600   112083862.60009  21328804.160    87338150.62648
  20446888.360   107449160.84609  20446887.460    83726629.52049
  21727965.220   114181283.53709  21727962.740    88972439.61047
 15 02 20 03 48  0.0000000  0  9G01G04G14G16G18G19G22G27G32
  23556112.760   123788214.34808  23556112.940    96458362.59346
  21334894.100   112115707.75509  21334892.240    87362900.45748
  23512514.380   123559094.43908  23512511.100    96279802.83445
  22949216.600   120598953.65409  22949213.220    93973202.98247
  24190943.800   127124405.77408  24190940.340    99058035.59944
  20617675.800   108346643.52909  20617669.880    84425940.11749
  21339274.160   112138854.63309  21339268.840    87381001.56148
  20450867.580   107470072.00109  20450866.680    83742923.92549
  21710672.580   114090409.92909  21710670.000    88901629.00748
 15 02 20 03 48 30.0000000  0  9G01G04G14G16G18G19G22G27G32
  23542747.520   123717979.43008  23542748.040    96403634.10046
  21325729.280   112067546.69209  21325727.400    87325372.36248
  23500940.160   123498272.37508  23500936.940    96232409.04845
  22968250.680   120698978.27009  22968247.240    94051144.23947
  24207929.960   127213668.16908  24207926.640    99127590.62045
  20612459.160   108319229.60609  20612453.140    84404578.61749
  21349810.780   112194225.77509  21349805.540    87424147.90848
  20454927.180   107491405.33509  20454926.240    83759547.29049
  21693452.440   113999917.55909  21693449.840    88831115.47748
 15 02 20 03 49  0.0000000  0  9G01G04G14G16G18G19G22G27G32
  23529405.540   123647866.87608  23529406.000    96349000.96146
  21316607.760   112019612.74109  21316605.780    87288021.25148
  23489418.680   123437726.44208  23489415.420    96185230.37246
  22987320.680   120799191.37308  22987317.180    94129232.38447
  24224937.900   127303044.62208  24224934.000    99197234.64843
  20607308.760   108292163.68009  20607302.640    84383488.27849
  21360419.300   112249974.53309  21360414.220    87467588.49748
  20459067.420   107513162.30709  20459066.480    83776500.77449
  21676305.480   113909809.51009  21676302.800    88760901.42248
 15 02 20 03 49 30.0000000  0  9G01G04G14G16G18G19G22G27G32
  23516086.580   123577876.03308  23516086.920    96294462.67746
  21307529.440   111971905.46909  21307527.280    87250846.77148
  23477950.300   123377459.18308  23477946.900    96138268.88445
  23006425.840   120899589.56208  23006422.280    94207464.72447
  24241966.840   127392531.85908  24241962.560    99266964.96744
  20602224.680   108265446.49109  20602218.540    84362669.68649
  21371099.280   112306098.47309  21371094.180    87511321.44848
  20463288.300   107535342.88909  20463287.300    83793784.34749
  21659231.980   113820087.52609  21659229.280    88690988.19148
 15 02 20 03 50  0.0000000  0  9G01G04G14G16G18G19G22G27G32
  23502791.400   123508009.54608  23502791.940    96240021.28746
  21298494.700   111924427.10909  21298492.360    87213850.64348
  23466535.620   123317475.66008  23466532.620    96091528.50545
  23025565.980   121000171.92309  23025562.380    94285840.58047
  24259017.020   127482131.24908  24259012.840    99336782.60144
  20597207.680   108239082.39409  20597201.620    84342126.23749
  21381850.720   112362598.26009  21381845.680    87555347.25348
  20467590.360   107557950.18609  20467589.320    83811400.41249
  21642232.820   113730756.39009  21642230.140    88621379.52047
 15 02 20 03 50 30.0000000  0  9G01G04G14G16G18G19G22G27G32
  23489519.320   123438263.90308  23489519.840    96185674.04346
  21289502.920   111877174.34309  21289500.380    87177030.31748
  23455175.120   123257775.47208  23455172.120    96045008.82946
  23044740.060   121100932.86408  23044736.540    94364355.60347
  24276087.300   127571836.68508  24276083.080    99406682.95843
  20592257.460   108213069.29509  20592251.500    84321856.28849
  21392672.740   112419468.33809  21392667.620    87599661.61748
  20471972.980   107580981.29609  20471972.020    83829346.73149
  21625307.780   113641814.88809  21625305.140    88552074.44747
 15 02 20 03 51  0.0000000  0  9G01G04G14G16G18G19G22G27G32
  23476270.560   123368641.30508  23476271.000    96131422.68647
  21280554.520   111830149.76809  21280551.860    87140387.81848
  23443869.400   123198363.66708  23443866.780    95998713.94146
  23063948.000   121201871.53308  23063944.500    94443009.10946
  24293178.020   127661649.30608  24293173.760    99476666.81844
  20587374.740   108187411.04109  20587368.940    84301862.84749
  21403565.380   112476709.20309  21403560.260    87644264.88348
  20476436.840   107604439.11409  20476435.900    83847625.54749
  21608457.760   113553267.63509  21608455.220    88483076.58648
 15 02 20 03 51 30.0000000  0  9G01G04G14G16G18G19G22G27G32
  23463045.420   123299142.70408  23463045.860    96077267.95946
  21271649.700   111783354.31109  21271646.960    87103923.84848
  23432619.240   123139243.83508  23432616.300    95952646.51146
  23083189.460   121302986.16108  23083185.860    94521799.73546
  24310288.940   127751567.81608  24310284.660    99546733.17843
  20582560.060   108162110.19409  20582554.380    84282147.90249
  21414528.420   112534319.45309  21414523.160    87689155.99748
  20480982.240   107628325.05109  20480981.240    83866237.95749
  21591683.380   113465117.79109  21591680.920    88414388.40248
 15 02 20 03 52  0.0000000  0  9G01G04G14G16G18G19G22G27G32
  23449843.180   123229764.88008  23449843.720    96023207.35346
  21262787.840   111736784.51709  21262785.060    87067635.69348
  23421424.540   123080415.92308  23421421.980    95906806.64046
  23102463.220   121404270.49808  23102459.520    94600722.60146
  24327419.040   127841587.37508  24327415.040    99616878.30745
  20577813.080   108137164.88809  20577807.440    84262710.00149
  21425560.740   112592294.27309  21425555.380    87734331.18848
  20485608.640   107652636.47109  20485607.540    83885181.91049
  21574984.420   113377364.35109  21574981.980    88346009.10047
 15 02 20 03 52 30.0000000  0  9G01G04G14G16G18G19G22G27G32
  23436664.080   123160508.72008  23436664.380    95969241.53546
  21253969.140   111690441.56809  21253966.340    87031524.32348
  23410286.280   123021883.64308  23410283.720    95861197.02946
  23121768.880   121505722.40509  23121765.100    94679776.03346
  24344568.200   127931706.72208  24344564.280    99687101.21345
  20573134.280   108112577.71509  20573128.660    84243551.16849
  21436662.240   112650632.43209  21436656.720    87779789.50348
  20490316.220   107677374.77909  20490315.080    83904458.50849
  21558361.420   113290010.49309  21558359.060    88277941.17347
 15 02 20 03 53  0.0000000  0  9G01G04G14G16G18G19G22G27G32
  23423508.180   123091374.29308  23423508.520    95915370.58646
  21245193.580   111644325.48209  21245190.780    86995589.72448
  23399204.880   122963649.51008  23399201.680    95815819.74845
  23141106.040   121607339.69108  23141102.180    94758958.35646
  24361736.140   128021924.61408  24361732.460    99757400.77745
  20568523.920   108088350.19909  20568518.320    84224672.58549
  21447832.360   112709331.87209  21447826.920    87825529.32948
  20495105.080   107702540.53409  20495104.020    83924068.18949
  21541814.840   113203058.45809  21541812.560    88210186.35747
 15 02 20 03 53 30.0000000  0  9G01G04G14G16G18G19G22G27G32
  23410375.780   123022363.77208  23410376.420    95861596.20546
  21236461.680   111598438.59309  21236458.900    86959833.70348
  23388180.900   122905718.60908  23388178.420    95770678.85546
  23160474.500   121709121.42708  23160470.620    94838268.80246
  24378922.760   128112240.49908  24378918.840    99827776.80845
  20563982.700   108064485.97909  20563977.100    84206077.08549
  21459071.240   112768392.78709  21459065.780    87871550.82948
  20499975.760   107728136.45609  20499974.800    83944013.06249
  21525345.580   113116512.62209  21525343.380    88142748.05248
 15 02 20 03 54  0.0000000  0  9G01G04G14G16G18G19G22G27G32
  23397266.080   122953472.27208  23397266.600    95807914.51346
  21227772.440   111552776.02409  21227769.600    86924252.48748
  23377214.480   122848089.04408  23377211.560    95725772.66045
  23179872.760   121811059.80408  23179868.940    94917701.29346
  24396126.940   128202648.30008  24396123.000    99898224.39645
  20559509.960   108040981.77409  20559504.440    84187762.11849
  21470377.560   112827808.61409  21470372.180    87917848.86648
  20504927.460   107754158.14409  20504926.560    83964289.69949
  21508953.220   113030370.32609  21508951.020    88075624.18448
 15 02 20 03 54 30.0000000  0  9G01G04G14G16G18G19G22G27G32
  23384180.020   122884704.19808  23384180.440    95754329.01146
  21219126.700   111507342.30409  21219123.880    86888849.59248
  23366306.700   122790768.06108  23366304.120    95681106.98146
  23199301.160   121913156.63008  23199297.380    94997257.25946
  24413349.140   128293150.56808  24413344.960    99968745.66645
  20555106.780   108017843.29809  20555101.380    84169732.14949
  21481751.880   112887581.37409  21481746.540    87964425.04348
  20509961.220   107780610.43209  20509960.280    83984901.86149
  21492638.960   112944638.08509  21492636.680    88008819.85547
 15 02 20 03 55  0.0000000  0  9G01G04G14G16G18G19G22G27G32
  23371117.220   122816058.20808  23371117.680    95700838.64347
  21210524.200   111462136.11109  21210521.480    86853624.00748
  23355457.840   122733757.10608  23355455.380    95636682.86046
  23218758.920   122015407.85408  23218755.160    95076933.54046
  24430588.540   128383744.32408  24430584.560   100039338.08546
  20550773.300   107995071.02509  20550768.020    84151987.51949
  21493193.600   112947707.92909  21493188.220    88011276.90248
  20515076.820   107807492.51309  20515075.760    84005848.93049
  21476402.940   112859316.91109  21476400.560    87942335.82848
 15 02 20 03 55 30.0000000  0  9G01G04G14G16G18G19G22G27G32
  23358077.560   122747534.63708  23358077.960    95647443.70046
  21201964.980   111417157.70309  21201962.420    86818575.88748
  23344668.600   122677059.33808  23344666.220    95592502.78546
  23238245.440   122117810.23708  23238241.700    95156727.60046
  24447845.060   128474427.75708  24447841.220   100110000.38344
  20546509.960   107972667.01709  20546504.720    84134529.86049
  21504702.280   113008186.50309  21504696.920    88058403.07048
  20520274.320   107834805.21009  20520273.160    84027131.55549
  21460245.600   112774409.23209  21460243.120    87876173.99648
 15 02 20 03 56  0.0000000  0  9G01G04G14G16G18G19G22G27G32
  23345060.460   122679129.63008  23345060.820    95594141.09346
  21193448.480   111372403.55809  21193446.020    86783702.53848
  23333938.760   122620673.35108  23333936.260    95548565.61446
  23257759.640   122220357.95808  23257755.800    95236634.89946
  24465117.460   128565194.99708  24465113.360   100180728.12545
  20542316.160   107950628.33409  20542310.920    84117356.85249
  21516276.880   113069011.36609  21516271.560    88105799.06748
  20525553.060   107862544.97709  20525551.780    84048746.93349
  21444166.580   112689913.26209  21444164.040    87810332.97847
 15 02 20 03 56 30.0000000  0  9G01G04G14G16G18G19G22G27G32
  23332067.000   122610848.61008  23332067.560    95540935.15147
  21184975.680   111327879.09309  21184973.320    86749008.15548
  23323269.780   122564607.57508  23323267.280    95504878.02146
  23277301.940   122323053.35308  23277298.060    95316657.29146
  24482406.640   128656050.00708  24482402.280   100251524.20843
  20538193.240   107928962.34009  20538188.040    84100474.26149
  21527918.040   113130185.74409  21527912.660    88153467.41348
  20530914.180   107890717.79509  20530912.900    84070699.78849
  21428167.360   112605836.70209  21428164.760    87744818.78148
 15 02 20 03 57  0.0000000  0  9G01G04G14G16G18G19G22G27G32
  23319096.640   122542688.64108  23319097.220    95487823.49447
  21176546.040   111283581.32209  21176543.700    86714490.41448
  23312661.700   122508861.91208  23312659.000    95461439.83746
  23296871.260   122425890.70308  23296867.340    95396790.28746
  24499711.560   128746988.02208  24499706.980   100322385.06144
  20534140.920   107907667.31809  20534135.740    84083880.73849
  21539624.920   113191704.87009  21539619.360    88201404.39648
  20536357.180   107919321.03409  20536355.900    84092988.02549
  21412247.780   112522178.62309  21412245.180    87679630.66047
 15 02 20 03 57 30.0000000  0  9G01G04G14G16G18G19G22G27G32
  23306149.280   122474649.55808  23306149.620    95434806.05046
  21168159.520   111239510.17209  21168157.180    86680149.27048
  23302115.060   122453438.92908  23302112.240    95418253.10145
  23316466.940   122528866.52608  23316462.980    95477031.19446
  24517031.900   128838007.23408  24517027.820   100393309.02744
  20530159.440   107886744.61509  20530154.280    84067577.33949
  21551396.960   113253566.43809  21551391.120    88249608.22648
  20541882.140   107948355.01109  20541880.920    84115611.89649
  21396408.220   112438941.07409  21396405.640    87614770.23647
 15 02 20 03 58  0.0000000  0  9G01G04G14G16G18G19G22G27G32
  23293225.000   122406731.94708  23293225.360    95381883.25546
  21159816.240   111195666.35809  21159813.900    86645985.26748
  23291630.480   122398341.92608  23291627.520    95375320.36046
  23336088.540   122631978.69808  23336084.560    95557378.33146
  24534367.540   128929106.03509  24534362.660   100464295.19541
  20526249.280   107866196.49609  20526244.080    84051565.82049
  21563233.840   113315768.76609  21563227.740    88298077.57948
  20547489.220   107977820.64109  20547488.080    84138572.13249
  21380649.120   112356126.64109  21380646.620    87550239.52248
 15 02 20 03 58 30.0000000  0  9G01G04G14G16G18G19G22G27G32
  23280323.940   122338936.21408  23280324.260    95329055.44446
  21151516.280   111152050.27309  21151513.960    86611998.70148
  23281208.400   122343573.69908  23281205.480    95332643.82045
  23355735.760   122735225.58308  23355731.740    95637830.44946
  24551718.100   129020283.41708  24551713.500   100535342.56543
  20522410.760   107846024.55609  20522405.480    84035847.42749
  21575135.200   113378310.48809  21575128.980    88346811.39648
  20553178.640   108007718.71309  20553177.520    84161869.32549
  21364970.980   112273737.84609  21364968.560    87486040.47548
 15 02 20 03 59  0.0000000  0  9G01G04G14G16G18G19G22G27G32
  23267446.160   122271263.69908  23267446.400    95276323.65146
  21143260.040   111108663.41809  21143257.660    86578190.77148
  23270849.780   122289138.60208  23270846.840    95290226.85146
  23375408.260   122838605.41608  23375404.240    95718386.16546
  24569083.460   129111538.82908  24569078.320   100606450.77242
  20518644.440   107826231.84909  20518639.040    84020424.54649
  21587101.000   113441191.28909  21587094.780    88395809.41948
  20558950.720   108038051.00609  20558949.600    84185504.87449
  21349374.540   112191778.22609  21349372.140    87422175.84648
 15 02 20 03 59 30.0000000  0  9G01G04G14G16G18G19G22G27G32
  23254590.960   122203709.77908  23254591.340    95223684.25347
  21135046.560   111065501.24709  21135044.160    86544557.91448
  23260554.220   122235034.82508  23260551.200    95248068.05146
  23395104.580   122942110.55208  23395100.520    95799039.53646
  24586462.380   129202865.83308  24586457.780   100677614.64344
  20514949.620   107806814.98709  20514944.120    84005294.52249
  21599129.900   113504403.98209  21599123.840    88445066.06948
  20564804.600   108068813.08009  20564803.480    84209475.31749
  21333859.260   112110245.01609  21333856.880    87358643.47748
 15 02 20 04 00  0.0000000  0  9G01G04G14G16G18G19G22G27G32
  23241758.820   122136276.18708  23241759.160    95171138.59247
  21126876.160   111022565.44509  21126873.760    86511101.44948
  23250322.580   122181266.79208  23250319.420    95206170.89346
  23414824.500   123045739.66508  23414820.500    95879789.48046
  24603854.820   129294264.39208  24603850.760   100748834.20544
  20511326.920   107787777.10509  20511321.280    83990459.80549
  21611221.880   113567948.20209  21611216.040    88494581.03548
  20570740.600   108100007.08909  20570739.540    84233782.32849
  21318425.960   112029142.02609  21318423.480    87295446.36048
 15 02 20 04 00 30.0000000  0  9G01G04G14G16G18G19G22G27G32
  23228950.200   122068966.21908  23228950.820    95118689.29547
  21118749.480   110979859.39509  21118747.060    86477824.00648
  23240155.900   122127840.44908  23240152.680    95164539.97046
  23434568.180   123149493.71308  23434564.220    95960636.79346
  24621261.120   129385736.32006  24621257.160   100820111.16744
  20507777.240   107769123.30309  20507771.500    83975924.38349
  21623377.300   113631825.56209  21623371.520    88544355.61448
  20576759.500   108131636.68009  20576758.460    84258428.75149
  21303075.580   111948474.71909  21303073.020    87232588.73348
 15 02 20 04 01  0.0000000  0  9G01G04G14G16G18G19G22G27G32
  23216164.840   122001778.50408  23216165.100    95066335.23447
  21110666.360   110937382.04509  21110663.880    86444724.77248
  23230054.260   122074756.96608  23230051.260    95123176.21346
  23454334.800   123253368.46008  23454330.980    96041578.16246
  24638680.560   129477278.39607  24638677.500   100891442.46745
  20504300.620   107750853.67809  20504294.860    83961688.31749
  21635595.440   113696032.38709  21635589.740    88594386.90648
  20582861.100   108163700.73909  20582860.020    84283413.72549
  21287808.180   111868243.56509  21287805.620    87170070.95648
 15 02 20 04 01 30.0000000  0  9G01G04G14G16G18G19G22G27G32
  23203402.240   121934710.27308  23203402.620    95014074.31046
  21102626.240   110895130.47709  21102623.740    86411801.48148
  23220017.840   122022016.41808  23220015.080    95082079.69646
  23474123.240   123357358.09208  23474119.540    96122609.04446
  24656112.420   129568886.10907  24656109.780   100962825.04045
  20500896.760   107732966.77209  20500891.120    83947750.47949
  21647875.280   113760563.81009  21647869.660    88644671.13448
  20589044.960   108196196.76609  20589043.780    84308735.29949
  21272623.580   111788447.82209  21272621.020    87107892.47248
 15 02 20 04 02  0.0000000  0  9G01G04G14G16G18G19G22G27G32
  23190662.160   121867760.75108  23190662.460    94961905.88146
  21094628.960   110853104.04609  21094626.400    86379053.62048
  23210047.180   121969620.72708  23210044.620    95041251.88546
  23493932.920   123461459.15408  23493929.280    96203726.75346
  24673556.680   129660556.65308  24673554.340   101034256.58046
  20497565.820   107715463.19709  20497560.300    83934111.33449
  21660216.360   113825417.29609  21660210.780    88695206.31948
  20595310.900   108229124.25409  20595309.620    84334393.07349
  21257522.020   111709088.72309  21257519.540    87046054.22748
 15 02 20 04 02 30.0000000  0  9G01G04G14G16G18G19G22G27G32
  23177945.060   121800932.41208  23177945.660    94909831.86646
  21086675.000   110811305.17109  21086672.380    86346483.07848
  23200143.180   121917574.97708  23200140.780    95000696.74146
  23513763.740   123565671.17408  23513760.200    96284930.91646
  24691013.360   129752291.05008  24691010.880   101105737.92045
  20494308.620   107698346.90009  20494303.160    83920773.95649
  21672618.860   113890592.99909  21672613.360    88745992.59248
  20601659.400   108262486.00109  20601658.100    84360389.23449
  21242504.340   111630170.77809  21242501.960    86984559.74148
 15 02 20 04 03  0.0000000  0  9G01G04G14G16G18G19G22G27G32
  23165250.620   121734222.78208  23165251.040    94857850.36247
  21078763.840   110769731.72609  21078761.260    86314088.19048
  23190305.940   121865879.29808  23190303.300    94960414.39646
  23533614.800   123669988.99608  23533611.240    96366217.52246
  24708481.320   129844085.18008  24708478.740   101177265.76244
  20491124.900   107681616.65409  20491119.480    83907737.39449
  21685081.900   113956086.39909  21685076.380    88797026.42648
  20608090.040   108296279.71809  20608088.820    84386721.99549
  21227570.480   111551693.40809  21227568.140    86923408.56048
 15 02 20 04 03 30.0000000  0  9G01G04G14G16G18G19G22G27G32
  23152579.020   121667632.98808  23152579.380    94805962.23247
  21070895.800   110728384.79409  21070893.180    86281869.80048
  23180536.100   121814537.50508  23180533.280    94920407.80146
  23553485.760   123774411.08308  23553482.220    96447585.38846
  24725960.580   129935938.48108  24725957.780   101248839.76944
  20488015.180   107665275.10509  20488009.800    83895003.72349
  21697605.200   114021896.63709  21697599.660    88848307.12348
  20614603.080   108330506.78609  20614602.060    84413392.42549
  21212721.100   111473659.72109  21212718.740    86862603.08748
 15 02 20 04 04  0.0000000  0  9G01G04G14G16G18G19G22G27G32
  23139930.680   121601165.99608  23139931.180    94754169.79547
  21063071.500   110687267.48609  21063068.800    86249830.36248
  23170834.540   121763555.12408  23170831.600    94880681.27346
  23573376.600   123878937.64908  23573373.120    96529034.66246
  24743451.320   130027852.08608  24743448.280   101320460.71144
  20484980.300   107649326.72909  20484974.920    83882576.41749
  21710188.980   114088024.63409  21710183.440    88899835.43748
  20621199.120   108365170.34309  20621198.360    84440402.96649
  21197957.140   111396074.52409  21197954.740    86802147.09648
 15 02 20 04 04 30.0000000  0  9G01G04G14G16G18G19G22G27G32
  23127305.080   121534818.73008  23127305.200    94702470.64747
  21055290.280   110646376.56309  21055287.500    86217967.31548
  23161201.060   121712931.79308  23161198.240    94841234.51846
  23593286.080   123983562.36208  23593282.640    96610560.41146
  24760952.620   130119821.13908  24760948.260   101392125.14042
  20482019.960   107633769.81409  20482014.560    83870454.14249
  21722832.240   114154465.27809  21722826.640    88951607.36748
  20627877.760   108400267.58509  20627877.140    84467751.46849
  21183278.320   111318936.72809  21183275.960    86742039.73148
 15 02 20 04 05  0.0000000  0  9G01G04G14G16G18G19G22G27G32
  23114702.240   121468590.19108  23114702.540    94650863.99347
  21047551.960   110605711.33809  21047549.160    86186280.12548
  23151636.060   121662668.76108  23151633.560    94802068.51646
  23613213.640   124088281.77408  23613210.200    96692159.94846
  24778464.000   130211842.95608  24778459.860   101463830.32544
  20479134.180   107618604.43809  20479128.660    83858636.96449
  21735534.400   114221215.30009  21735528.640    89003620.38448
  20634638.900   108435797.59709  20634638.260    84495437.17749
  21168684.740   111242247.12409  21168682.500    86682281.61448
 15 02 20 04 05 30.0000000  0  9G01G04G14G16G18G19G22G27G32
  23102122.540   121402483.09208  23102122.620    94599351.97046
  21039857.100   110565274.74109  21039854.320    86154771.09848
  23142140.900   121612771.71308  23142138.440    94763187.70246
  23633159.260   124193096.06308  23633155.800    96773833.43146
  24795985.660   130303918.80507  24795981.940   101535577.72944
  20476323.740   107603835.00109  20476318.180    83847128.31449
  21748295.480   114288275.55709  21748289.620    89055875.13348
  20641483.040   108471763.39109  20641482.320    84523462.47149
  21154177.420   111166010.49509  21154175.160    86622876.47148
 15 02 20 04 06  0.0000000  0  9G01G04G14G16G18G19G22G27G32
  23089565.620   121336496.20108  23089565.800    94547933.65446
  21032205.460   110525065.31509  21032202.680    86123439.09248
  23132715.800   121563241.75608  23132713.080    94724592.92446
  23653122.040   124298000.92208  23653118.580    96855577.47346
  24813516.780   130396045.81807  24813512.340   101607365.01843
  20473588.620   107589461.48609  20473583.060    83835928.17449
  21761114.980   114355642.76809  21761109.100    89108369.07448
  20648409.920   108508163.77609  20648409.120    84551826.40249
  21139756.360   111090227.23509  21139754.020    86563824.58848
 15 02 20 04 06 30.0000000  0  9G01G04G14G16G18G19G22G27G32
  23077031.440   121270628.57208  23077031.560    94496608.23946
  21024596.880   110485082.22209  21024594.100    86092283.43348
  23123361.040   121514080.73608  23123358.120    94686285.62646
  23673101.280   124402992.43708  23673097.840    96937389.03745
  24831057.100   130488220.97608  24831053.020   101679189.78444
  20470928.860   107575484.35509  20470923.320    83825036.90149
  21773992.340   114423313.81709  21773986.560    89161099.76248
  20655419.360   108544997.95109  20655418.460    84580528.35449
  21125421.700   111014898.36909  21125419.320    86505126.76948
 15 02 20 04 07  0.0000000  0  9G01G04G14G16G18G19G22G27G32
  23064520.080   121204880.61308  23064519.880    94445376.06447
  21017031.520   110445326.17909  21017028.760    86061304.70748
  23114077.040   121465291.55008  23114073.920    94648268.07446
  23693096.540   124508068.22508  23693093.000    97019266.25146
  24848606.340   130580443.37807  24848602.300   101751051.35342
  20468344.880   107561905.66909  20468339.400    83814456.10749
  21786927.160   114491287.05209  21786921.560    89214065.91948
  20662511.420   108582266.48409  20662510.440    84609568.76149
  21111173.900   110940026.05109  21111171.500    86446784.71748
 15 02 20 04 07 30.0000000  0  9G01G04G14G16G18G19G22G27G32
  23052031.640   121139253.04208  23052031.760    94394237.71747
  21009509.440   110405797.68409  21009506.760    86030503.29648
  23104864.200   121416877.38108  23104860.980    94610542.75346
  23713107.500   124613226.54508  23713103.840    97101207.80846
  24866164.360   130672711.76108  24866159.720   101822948.92943
  20465837.080   107548727.07309  20465831.600    83804187.06949
  21799919.140   114559560.74309  21799913.780    89267266.19048
  20669686.260   108619970.14209  20669685.200    84638948.22749
  21097013.480   110865612.78609  21097011.080    86388800.36048
 15 02 20 04 08  0.0000000  0 10G01G03G04G14G16G18G19G22G27G32
  23039565.980   121073745.75108  23039565.860    94343193.12047
  24645515.760   129513059.85408  24645516.720   100919262.84545
  21002030.720   110366496.88409  21002028.060    85999879.30948
  23095723.040   121368840.44208  23095719.800    94573111.36046
  23733133.620   124718464.58408  23733129.920    97183211.47945
  24883730.880   130765024.41807  24883726.300   101894880.93943
  20463405.680   107535950.03009  20463400.200    83794230.92349
  21812968.020   114628133.30209  21812962.780    89320699.35448
  20676943.940   108658108.96609  20676942.760    84668666.77549
  21082940.860   110791660.32909  21082938.420    86331175.08448
 15 02 20 04 08 30.0000000  0 10G01G03G04G14G16G18G19G22G27G32
  23027124.040   121008363.25208  23027123.980    94292245.73246
  24625453.160   129407628.72908  24625453.640   100837108.79745
  20994596.200   110327428.37309  20994593.540    85969436.30948
  23086655.000   121321187.97508  23086651.840    94535979.57246
  23753175.220   124823783.73508  23753171.300    97265278.33745
  24901306.060   130857384.48507  24901302.120   101966849.68444
  20461051.760   107523580.35409  20461046.320    83784592.20949
  21826074.140   114697006.72909  21826069.040    89374366.95848
  20684285.280   108696687.51109  20684284.040    84698727.97949
  21068957.140   110718174.91709  21068954.620    86273913.71848
 15 02 20 04 09  0.0000000  0  9G01G03G04G14G16G19G22G27G32
  23014704.680   120943099.20308  23014704.760    94241390.66047
  24605413.180   129302318.02307  24605413.780   100755048.61345
  20987204.740   110288585.99409  20987202.080    85939169.52448
  23077659.340   121273916.05108  23077656.320    94499144.30246
  23773230.580   124929174.92208  23773226.400    97347401.36445
  20458774.380   107511612.84609  20458768.980    83775266.88049
  21839235.920   114766172.74709  21839230.820    89428262.55248
  20691709.060   108735699.50409  20691707.860    84729126.92949
  21055061.420   110645151.98509  21055058.820    86217012.72348
 15 02 20 04 09 30.0000000  0  9G01G03G04G14G16G19G22G27G32
  23002307.100   120877949.20709  23002306.840    94190624.44246
  24585395.640   129197125.24308  24585396.340   100673080.30345
  20979855.420   110249965.13009  20979852.720    85909075.34348
  23068735.780   121227022.84708  23068732.900    94462604.13746
  23793298.180   125034630.96108  23793293.920    97429574.92445
  20456572.980   107500044.40109  20456567.620    83766252.50749
  21852452.240   114835624.75609  21852447.000    89482381.01148
  20699214.420   108775140.54009  20699213.300    84759860.20149
  21041253.200   110572588.84409  21041250.520    86160470.01448
 15 02 20 04 10  0.0000000  0  9G01G03G04G14G16G19G22G27G32
  22989932.360   120812919.21809  22989932.200    94139951.73147
  24565402.040   129092058.35307  24565402.560   100591210.03246
  20972549.500   110211572.15609  20972546.720    85879158.74448
  23059886.040   121180517.08408  23059883.260    94426365.88246
  23813378.600   125140155.25508  23813374.540    97511801.61645
  20454448.980   107488882.44809  20454443.620    83757554.88349
  21865723.760   114905366.80709  21865718.460    89536725.46248
  20706802.500   108815016.64809  20706801.420    84790932.48749
  21027533.800   110500493.15509  21027531.180    86104291.55948
 15 02 20 04 10 30.0000000  0  9G01G03G04G14G16G19G22G27G32
  22977580.400   120748009.15109  22977580.060    94089372.48547
  24545432.760   128987119.02307  24545432.940   100509439.18145
  20965286.940   110173407.09109  20965284.140    85849419.72748
  23051110.380   121134400.50608  23051107.700    94390430.88646
  23833471.420   125245744.78808  23833467.600    97594079.17245
  20452402.540   107478128.13109  20452397.160    83749174.90049
  21879050.180   114975396.64709  21879044.780    89591294.17948
  20714473.360   108855327.75909  20714472.320    84822343.72849
  21013903.580   110428866.61409  21013901.180    86048478.67948
 15 02 20 04 11  0.0000000  0  9G01G03G04G14G16G19G22G27G32
  22965250.880   120683217.17608  22965250.500    94038885.24147
  24525487.720   128882307.29307  24525487.980   100427767.77346
  20958067.400   110135467.98609  20958064.560    85819856.78548
  23042408.980   121088674.09608  23042406.360    94354799.92046
  23853575.900   125351395.06108  23853572.220    97676404.04145
  20450433.540   107467780.83509  20450428.160    83741112.07249
  21892430.500   115045710.38809  21892425.000    89646084.10348
  20722226.640   108896072.02309  20722225.700    84854092.48849
  21000362.580   110357709.09909  21000360.400    85993031.26648
 15 02 20 04 11 30.0000000  0  9G01G03G04G14G16G19G22G27G32
  22952944.220   120618545.69608  22952944.200    93988491.91547
  24505567.740   128777627.36708  24505568.060   100346199.09445
  20950891.300   110097757.25809  20950888.480    85790471.82048
  23033782.680   121043342.61008  23033779.940    94319476.68646
  23873691.920   125457105.69308  23873688.320    97758775.95345
  20448542.700   107457844.29809  20448537.320    83733369.31449
  21905864.900   115116308.41409  21905859.360    89701095.55948
  20730062.860   108937251.77609  20730061.960    84886180.59749
  20986911.640   110287024.53609  20986909.540    85937952.39648
 15 02 20 04 12  0.0000000  0  9G01G03G04G14G16G19G22G27G32
  22940660.580   120553995.48808  22940660.620    93938193.03447
  24485673.340   128673081.89507  24485673.420   100264735.10746
  20943758.840   110060276.08509  20943756.080    85761265.70548
  23025232.060   120998408.98508  23025229.460    94284463.49246
  23893819.020   125562874.38608  23893815.440    97841193.14645
  20446730.440   107448320.70009  20446725.000    83725948.33149
  21919353.160   115187189.33309  21919347.620    89756327.44548
  20737982.180   108978867.77909  20737981.220    84918608.63549
  20973551.360   110216815.39709  20973549.140    85883243.97048
 15 02 20 04 12 30.0000000  0  9G01G03G04G14G16G19G22G27G32
  22928399.400   120489563.49108  22928399.540    93887986.29747
  24465804.260   128568669.67407  24465804.180   100183375.02145
  20936669.420   110023021.26309  20936666.720    85732235.99048
  23016757.100   120953872.84608  23016754.420    94249759.99946
  23913956.220   125668695.79708  23913952.600    97923651.36045
  20444996.380   107439208.11409  20444990.880    83718847.61249
  21932894.200   115258347.89709  21932888.640    89811775.66848
  20745984.000   109020916.98309  20745982.920    84951374.23249
  20960281.380   110147080.29809  20960278.940    85828904.93448
 15 02 20 04 13  0.0000000  0  9G01G03G04G14G16G19G22G27G32
  22916161.140   120425251.53908  22916161.540    93837873.11646
  24445961.260   128464394.29708  24445961.260   100102121.54645
  20929623.520   109985994.88509  20929620.880    85703384.29148
  23008358.460   120909738.54308  23008355.900    94215369.64146
  23934103.260   125774568.70008  23934099.480    98006149.74445
  20443341.060   107430509.50109  20443335.540    83712069.47649
  21946488.040   115329783.92409  21946482.360    89867440.11748
  20754068.540   109063401.05409  20754067.420    84984478.70249
  20947102.220   110077822.58609  20947099.600    85774937.87948
 15 02 20 04 13 30.0000000  0  9G01G03G04G14G16G19G22G27G32
  22903945.440   120361057.78108  22903945.920    93787852.01047
  24426144.260   128360255.68408  24426144.540   100020974.65345
  20922620.720   109949194.87009  20922618.120    85674708.95948
  23000036.360   120866006.39008  23000033.860    94181292.63346
  23954259.200   125880488.27008  23954255.220    98088684.46645
  20441764.420   107422224.24609  20441758.880    83705613.43049
  21960133.840   115401493.33409  21960128.160    89923317.57248
  20762235.400   109106318.11709  20762234.300    85017920.56149
  20934013.760   110009042.02509  20934011.100    85721342.63148
 15 02 20 04 14  0.0000000  0  9G01G03G04G14G16G19G22G27G32
  22891752.140   120296981.41208  22891752.500    93737922.39147
  24406353.600   128256254.90407  24406353.720    99939935.09645
  20915660.940   109912620.74809  20915658.300    85646209.66048
  22991791.140   120822677.87708  22991788.740    94147530.14546
  23974423.340   125986451.27308  23974419.320    98171253.07546
  20440266.540   107414352.76809  20440261.000    83699479.80849
  21973831.160   115473473.31809  21973825.400    89979405.87948
  20770484.540   109149667.21709  20770483.380    85051699.07849
  20921016.160   109940739.32609  20921013.560    85668119.76148
 15 02 20 04 14 30.0000000  0  9G01G03G04G14G16G19G22G27G32
  22879581.360   120233023.14808  22879581.620    93688084.78847
  24386589.600   128152394.36707  24386589.520    99859004.84946
  20908744.300   109876273.46209  20908741.640    85617887.09748
  22983623.380   120779755.99008  22983621.160    94114084.54146
  23994595.280   126092455.68008  23994591.360    98253853.89746
  20438847.740   107406897.01009  20438842.220    83693670.12749
  21987579.700   115545722.35709  21987573.900    90035703.83648
  20778816.020   109193448.97309  20778814.760    85085814.72149
  20908109.940   109872916.97109  20908107.440    85615271.18348
 15 02 20 04 15  0.0000000  0  9G01G03G04G14G16G19G22G27G32
  22867433.460   120169184.91708  22867433.560    93638340.70447
  24366853.060   128048677.90208  24366852.660    99778186.84945
  20901871.140   109840154.67809  20901868.480    85589742.59148
  22975533.780   120737245.11008  22975531.500    94080959.17646
  24014774.900   126198500.64008  24014770.980    98336486.32245
  20437508.540   107399860.06109  20437503.120    83688186.78849
  22001379.420   115618240.30709  22001373.560    90092211.33148
  20787230.060   109237665.11909  20787228.760    85120268.84549
  20895295.760   109805578.12409  20895293.260    85562799.35848
 15 02 20 04 15 30.0000000  0  9G01G03G04G14G16G19G22G27G32
  22855308.020   120105464.66108  22855307.780    93588688.58347
  24347143.800   127945105.11308  24347143.260    99697480.84145
  20895041.160   109804262.78609  20895038.520    85561774.88648
  22967522.460   120695145.56208  22967520.040    94048154.34846
  24034961.220   126304581.36708  24034957.420    98419146.61345
  20436248.960   107393241.17309  20436243.520    83683029.21049
  22015229.540   115691023.22109  22015223.720    90148925.29248
  20795726.200   109282313.50609  20795725.100    85155059.78649
  20882573.580   109738722.37309  20882571.000    85510703.96848
 15 02 20 04 16  0.0000000  0  9G01G03G04G14G16G19G22G27G32
  22843205.460   120041864.80909  22843205.120    93539130.26747
  24327462.740   127841680.39208  24327462.340    99616890.18646
  20888254.780   109768600.05809  20888252.120    85533985.74448
  22959590.320   120653461.75908  22959587.640    94015673.44446
  24055154.340   126410697.44308  24055150.560    98501834.46345
  20435069.640   107387043.78109  20435064.220    83678200.06649
  22029130.100   115764071.30409  22029124.340    90205845.88248
  20804304.980   109327396.36909  20804304.160    85190189.27949
  20869944.120   109672353.66309  20869941.400    85458988.10648
 15 02 20 04 16 30.0000000  0  9G01G03G04G14G16G19G22G27G32
  22831125.120   119978382.08309  22831124.660    93489663.24147
  24307809.440   127738402.00808  24307809.140    99536413.56446
  20881511.420   109733163.39409  20881508.700    85506372.77348
  22951737.160   120612192.63908  22951734.380    93983515.71046
  24075353.120   126516842.75408  24075349.300    98584545.09345
  20433970.100   107381265.32509  20433964.620    83673697.37149
  22043080.060   115837379.16209  22043074.340    90262968.89048
  20812965.900   109372910.19409  20812965.180    85225654.58949
  20857406.980   109606470.09309  20857404.140    85407650.25648
 15 02 20 04 17  0.0000000  0  9G01G03G04G14G16G19G22G27G32
  22819067.620   119915019.28309  22819067.180    93440289.63647
  24288184.840   127635274.75908  24288184.680    99456054.68745
  20874811.720   109697955.88609  20874808.920    85478938.35548
  22943964.040   120571343.75308  22943961.180    93951685.39346
  24095557.620   126623017.72108  24095553.660    98667278.83245
  20432951.200   107375910.52009  20432945.660    83669524.78849
  22057079.700   115910947.61909  22057073.940    90320294.96748
  20821709.480   109418857.68609  20821708.660    85261457.82249
  20844962.920   109541076.07409  20844960.120    85356693.90248
 15 02 20 04 17 30.0000000  0  9G01G03G04G14G16G19G22G27G32
  22807032.240   119851772.86809  22807031.960    93391006.73247
  24268588.680   127532296.70508  24268588.540    99375812.06945
  20868154.940   109662973.82409  20868152.000    85451679.61648
  22936270.660   120530913.59408  22936267.620    93920181.39846
  24115766.520   126729215.64008  24115762.520    98750030.47546
  20432012.400   107370976.74409  20432006.820    83665680.28649
  22071127.760   115984770.75909  22071121.980    90377819.48848
  20830534.900   109465234.96409  20830533.960    85297595.95049
  20832611.500   109476169.40309  20832608.860    85306117.28148
 15 02 20 04 18  0.0000000  0  9G01G03G04G14G16G19G22G27G32
  22795019.860   119788647.44809  22795019.500    93341818.12847
  24249022.160   127429474.28508  24249022.080    99295690.73545
  20861541.940   109628221.90709  20861538.840    85424600.20648
  22928658.060   120490908.73008  22928655.040    93889008.77646
  24135980.160   126835438.63308  24135976.180    98832801.63945
  20431154.820   107366469.78409  20431149.160    83662168.36349
  22085224.840   116058851.13609  22085219.040    90435544.46348
  20839442.960   109512046.43609  20839441.900    85334072.42049
  20820353.940   109411756.03909  20820351.420    85255925.05548
 15 02 20 04 18 30.0000000  0  9G01G03G04G14G16G19G22G27G32
  22783029.400   119725637.45509  22783029.060    93292719.44947
  24229484.680   127326803.68608  24229484.660    99215687.67646
  20854971.640   109593694.70009  20854968.500    85397695.89148
  22921125.740   120451325.93208  22921122.760    93858165.04846
  24156196.920   126941678.24308  24156192.980    98915585.75445
  20430377.500   107362385.00009  20430371.840    83658985.41349
  22099369.420   116133181.23309  22099363.640    90493464.00848
  20848432.480   109559286.30209  20848431.340    85370882.69049
  20808189.480   109347831.85109  20808186.980    85206114.00248
 15 02 20 04 19  0.0000000  0  9G01G03G04G14G16G19G22G27G32
  22771062.180   119662749.58108  22771062.100    93243715.93147
  24209977.620   127224293.29408  24209977.640    99135809.51045
  20848445.380   109559399.20609  20848442.320    85370972.12348
  22913675.500   120412174.26208  22913672.520    93827657.24746
  24176417.600   127047938.79108  24176413.800    98998386.18145
  20429681.960   107358730.13609  20429676.360    83656137.46049
  22113562.200   116207765.57809  22113556.500    90551581.68448
  20857504.640   109606960.98709  20857503.580    85408031.78549
  20796119.720   109284404.98109  20796117.080    85156690.47948
 15 02 20 04 19 30.0000000  0  9G01G03G04G14G16G19G22G27G32
  22759117.320   119599979.55708  22759117.340    93194804.23247
  24190500.560   127121940.59508  24190500.360    99056054.16745
  20841962.320   109525331.05309  20841959.440    85344425.51748
  22906306.740   120373451.31908  22906303.780    93797483.53846
  24196640.820   127154213.01808  24196637.080    99081197.25144
  20429067.640   107355502.14609  20429062.120    83653622.14249
  22127802.220   116282597.73509  22127796.660    90609892.45048
  20866658.680   109655065.87909  20866657.680    85445516.10849
  20784144.060   109221472.31909  20784141.320    85107652.03348
 15 02 20 04 20  0.0000000  0  9G01G03G04G14G16G19G22G27G32
  22747194.900   119537327.25608  22747194.840    93145984.25747
  24171053.860   127019747.17308  24171053.540    98976422.89845
  20835522.480   109491490.14309  20835519.760    85318055.97448
  22899019.960   120335159.29808  22899017.100    93767645.59946
  24216866.160   127260498.09708  24216862.480    99164016.77845
  20428534.740   107352701.92209  20428529.260    83651440.14149
  22142088.960   116357675.44909  22142083.520    90668394.55247
  20875894.540   109703600.56909  20875893.520    85483335.33149
  20772262.720   109159035.28209  20772259.940    85058999.80748
 15 02 20 04 20 30.0000000  0  9G01G03G04G14G16G19G22G27G32
  22735295.340   119474795.15008  22735295.340    93097257.93347
  24151638.180   126917717.14708  24151637.920    98896919.02245
  20829126.380   109457879.15409  20829123.820    85291865.59448
  22891816.000   120297302.65308  22891813.200    93738146.91246
  24237093.480   127366793.33608  24237089.860    99246844.24244
  20428083.920   107350332.81009  20428078.480    83649594.08349
  22156422.500   116432999.04709  22156416.960    90727088.26947
  20885212.620   109752567.11609  20885211.520    85521491.06149
  20760476.380   109097097.43209  20760473.600    85010736.54948
 15 02 20 04 21  0.0000000  0  9G01G03G04G14G16G19G22G27G32
  22723418.040   119412380.00108  22723418.360    93048622.74747
  24132253.320   126815849.17508  24132253.000    98817541.38845
  20822773.440   109424494.94409  20822771.020    85265851.94048
  22884694.660   120259880.23108  22884691.840    93708986.61346
  24257321.740   127473093.45008  24257318.120    99329675.50344
  20427714.720   107348392.77709  20427709.340    83648082.37249
  22170801.900   116508563.35109  22170796.320    90785969.55747
  20894612.220   109801962.08209  20894611.080    85559980.63549
  20748784.620   109035656.94509  20748781.880    84962860.84548
 15 02 20 04 21 30.0000000  0  9G01G03G04G14G16G19G22G27G32
  22711562.720   119350079.90008  22711563.080    93000077.22047
  24112899.220   126714142.85008  24112898.880    98738289.72946
  20816463.360   109391335.64709  20816461.060    85240013.53248
  22877656.040   120222892.53508  22877653.180    93680165.00546
  24277550.060   127579393.56608  24277546.420    99412506.75445
  20427427.060   107346881.11909  20427421.680    83646904.45449
  22185226.360   116584364.08709  22185220.820    90845035.06848
  20904092.860   109851783.07609  20904091.760    85598802.17749
  20737187.320   108974713.13409  20737184.660    84915372.16948
 15 02 20 04 22  0.0000000  0  9G01G03G04G14G16G19G22G27G32
  22699730.260   119287899.93708  22699730.380    92951625.30747
  24093577.160   126612605.07308  24093576.740    98659169.38846
  20810197.080   109358406.44609  20810194.860    85214354.43148
  22870701.520   120186346.44609  22870698.560    93651687.56446
  24297778.960   127685696.21508  24297775.300    99495340.02045
  20427222.040   107345803.64709  20427216.620    83646064.87049
  22199696.420   116660404.38209  22199690.700    90904287.26248
  20913655.380   109902034.86309  20913654.400    85637959.39949
  20725685.760   108914272.30709  20725683.180    84868275.42948
 15 02 20 04 22 30.0000000  0  9G01G03G04G14G16G19G22G27G32
  22687920.560   119225839.49808  22687920.860    92903266.53647
  24074287.340   126511236.86608  24074287.040    98580181.20746
  20803974.500   109325706.99009  20803972.320    85188874.34248
  22863831.400   120150243.49608  22863828.500    93623555.40146
  24318007.560   127791997.32108  24318003.740    99578172.01845
  20427099.780   107345160.83009  20427094.260    83645563.96549
  22214211.540   116736681.50309  22214205.760    90963723.98248
  20923299.740   109952716.45609  20923298.780    85677451.53949
  20714280.120   108854335.09409  20714277.500    84821571.11348
 15 02 20 04 23  0.0000000  0  9G01G03G04G14G16G19G22G27G32
  22676133.180   119163896.75808  22676133.740    92854999.47847
  24055029.780   126410038.14108  24055029.580    98501325.07045
  20797795.300   109293235.34309  20797793.120    85163571.76448
  22857045.700   120114583.95309  22857042.760    93595768.74246
  24338235.140   127898293.04708  24338231.180    99660999.86445
  20427060.020   107344951.70609  20427054.440    83645401.00749
  22228770.880   116813191.72909  22228765.260    91023342.32248
  20933025.520   110003825.55109  20933024.540    85717276.79649
  20702970.200   108794900.86609  20702967.540    84775258.72648
 15 02 20 04 23 30.0000000  0  9G01G03G04G14G16G19G22G27G32
  22664368.300   119102071.90908  22664368.740    92806824.27547
  24035804.880   126309010.69708  24035804.580    98422602.41746
  20791659.600   109260991.94309  20791657.420    85138447.04148
  22850344.660   120079369.72908  22850341.820    93568329.10546
  24358461.200   128004580.97908  24358456.980    99743821.63845
  20427102.960   107345177.54409  20427097.360    83645576.99349
  22243374.200   116889932.74409  22243368.580    91083140.52348
  20942832.640   110055361.95209  20942831.600    85757435.02649
  20691756.240   108735970.90909  20691753.500    84729339.29148
 15 02 20 04 24  0.0000000  0  9G01G03G04G14G16G19G22G27G32
  22652626.020   119040365.76708  22652626.200    92758741.59747
  24016613.140   126208157.06808  24016612.820    98344015.19646
  20785567.580   109228977.74409  20785565.300    85113500.91248
  22843728.980   120044603.88008  22843726.240    93541238.83146
  24378685.200   128110859.17408  24378681.040    99826635.78745
  20427229.020   107345840.19109  20427223.400    83646093.33949
  22258021.200   116966903.63509  22258015.720    91143117.82048
  20952721.140   110107326.08109  20952720.040    85797926.55549
  20680638.620   108677547.32709  20680635.820    84683814.43448
 15 02 20 04 24 30.0000000  0  9G01G03G04G14G16G19G22G27G32
  22640906.280   118978778.03308  22640906.580    92710751.17847
  23997454.680   126107478.54408  23997454.340    98265564.43346
  20779519.080   109197192.29509  20779516.680    85088733.03548
  22837198.860   120010287.86308  22837196.200    93514499.06346
  24398906.720   128217124.43808  24398902.660    99909439.89145
  20427438.400   107346940.25609  20427432.740    83646950.53349
  22272711.460   117044101.67409  22272706.040    91203272.14147
  20962690.820   110159716.99509  20962689.720    85838750.62649
  20669617.480   108619630.96109  20669614.680    84638684.81448
 15 02 20 04 25  0.0000000  0  9G01G03G04G14G16G19G22G27G32
  22629208.700   118917306.74108  22629209.080    92662851.50147
  23978329.480   126006974.84508  23978328.980    98187249.84246
  20773513.760   109165633.91709  20773511.280    85064142.09448
  22830754.340   119976421.85808  22830751.700    93488109.99146
  24419124.840   128323371.80408  24419120.800    99992230.02845
  20427730.820   107348476.72909  20427725.140    83648147.77449
  22287444.180   117121522.83809  22287438.820    91263600.29348
  20972741.240   110212532.34809  20972740.160    85879905.42649
  20658692.700   108562220.74109  20658689.880    84593949.57448
 15 02 20 04 25 30.0000000  0  9G01G03G04G14G16G19G22G27G32
  22617534.180   118855956.78208  22617534.420    92615046.33447
  23959238.800   125906652.50508  23959238.420    98109076.59846
  20767552.580   109134307.49009  20767550.080    85039731.90348
  22824396.660   119943012.55708  22824394.160    93462076.78047
  24439340.040   128429603.81508  24439336.080   100075008.22345
  20428107.320   107350455.23909  20428101.680    83649689.46849
  22302220.000   117199169.95209  22302214.560    91324104.54247
  20982873.260   110265776.53109  20982872.160    85921394.38549
  20647865.400   108505322.78509  20647862.620    84549613.51148
 15 02 20 04 26  0.0000000  0  9G01G03G04G14G16G19G22G27G32
  22605881.820   118794723.30108  22605881.920    92567331.95647
  23940181.980   125806508.25608  23940181.680    98031042.13746
  20761634.620   109103208.26109  20761632.120    85015498.74348
  22818125.340   119910057.21808  22818123.000    93436397.30947
  24459550.880   128535812.92208  24459547.040   100157768.54945
  20428567.180   107352871.86709  20428561.580    83651572.55149
  22317037.580   117277036.11909  22317031.980    91384779.47848
  20993085.920   110319444.10609  20993084.700    85963213.26049
  20637134.860   108448933.22009  20637132.140    84505673.60248
 15 02 20 04 26 30.0000000  0  9G01G03G04G14G16G19G22G27G32
  22594252.280   118733609.75808  22594252.460    92519711.03847
  23921160.000   125706547.26608  23921159.540    97953150.47046
  20755760.600   109072339.93509  20755758.080    84991445.51948
  22811941.460   119877561.21108  22811939.320    93411075.75846
  24479757.560   128642000.01808  24479753.860   100240511.73945
  20429111.280   107355731.11309  20429105.680    83653800.53549
  22331897.100   117355122.54109  22331891.360    91445626.05248
  21003379.760   110373538.08509  21003378.500    86005364.40149
  20626501.860   108393056.61409  20626499.260    84462133.39648
