     2.11           OBSERVATION DATA    G                   RINEX VERSION / TYPE
SPIDER V4,0,0,3554                      2015 03 23 00:16    PGM / RUN BY / DATE 
CBCK                                                        MARKER NAME         
CBCK                                                        MARKER NUMBER       
                                                            OBSERVER / AGENCY   
496514              LEICA GRX1200+GNSS  8.10/4.007          REC # / TYPE / VERS 
10301041            LEIAR25         NONE                    ANT # / TYPE        
  5163537.3641   764112.0288  3655122.6807                  APPROX POSITION XYZ 
        0.0720        0.0000        0.0000                  ANTENNA: DELTA H/E/N
     1     1                                                WAVELENGTH FACT L1/2
     4    C1    L1    P2    L2                              # / TYPES OF OBSERV 
    30.000                                                  INTERVAL            
  2015    03    02    09    06    0.0000000     GPS         TIME OF FIRST OBS   
  2015    03    02    23    59   30.0000000     GPS         TIME OF LAST OBS    
    16                                                      LEAP SECONDS        
    26                                                      # OF SATELLITES     
   G 1    32    32    32    32                              PRN / # OF OBS      
   G 2   945   944   944   944                              PRN / # OF OBS      
   G 3   189   189   189   189                              PRN / # OF OBS      
   G 5   663   662   662   662                              PRN / # OF OBS      
   G 6   598   598   598   598                              PRN / # OF OBS      
   G 7   557   557   557   557                              PRN / # OF OBS      
   G 9   477   477   477   477                              PRN / # OF OBS      
   G10   602   602   602   602                              PRN / # OF OBS      
   G12   818   818   818   818                              PRN / # OF OBS      
   G13   781   781   781   781                              PRN / # OF OBS      
   G14   447   447   447   447                              PRN / # OF OBS      
   G15   657   657   656   656                              PRN / # OF OBS      
   G16   187   187   187   187                              PRN / # OF OBS      
   G17   498   498   498   498                              PRN / # OF OBS      
   G18   462   462   462   462                              PRN / # OF OBS      
   G20   556   556   556   556                              PRN / # OF OBS      
   G21   401   400   400   400                              PRN / # OF OBS      
   G22    62    62    60    60                              PRN / # OF OBS      
   G23   288   288   288   288                              PRN / # OF OBS      
   G24   820   819   819   819                              PRN / # OF OBS      
   G25   842   841   841   841                              PRN / # OF OBS      
   G27   130   130   129   129                              PRN / # OF OBS      
   G28   601   601   600   600                              PRN / # OF OBS      
   G29   710   710   709   709                              PRN / # OF OBS      
   G30   724   724   724   724                              PRN / # OF OBS      
   G31   530   530   530   530                              PRN / # OF OBS      
BIT 2 OF LLI FLAGS DATA COLLECTED UNDER A/S CONDITION       COMMENT             
SNR is mapped to RINEX snr flag value [2-9]                 COMMENT             
Lx:     = 25dBHz -> 1; 26-27dBHz -> 2; 28-31dBHz -> 3       COMMENT             
       32-35dBHz -> 4; 36-38dBHz -> 5; 39-41dBHz -> 6       COMMENT             
       42-44dBHz -> 7; 45-48dBHz -> 8; >=49dBHz -> 9        COMMENT             
                                                            END OF HEADER       
 15 03 02 09 06  0.0000000  0 10G01G03G06G07G09G10G17G20G23G30
  24146887.900   126892737.69308  24146898.400    98877495.64446
  21958068.740   115390424.06709  21958072.760    89914631.91148
  21243384.480   111634740.13409  21243388.320    86988123.04448
  22313014.600   117255684.73909  22313017.240    91368078.77248
  20399667.920   107200976.18309  20399669.400    83533234.25949
  22257190.860   116962322.56808  22257192.240    91139482.21047
  23799830.880   125068945.95308  23799835.960    97456335.40246
  21615146.240   113588361.45509  21615146.560    88510410.20947
  21068279.440   110714552.74209  21068277.320    86271071.64048
  24654519.520   129560383.32507  24654532.560   100956170.62146
 15 03 02 09 06 30.0000000  0 11G01G02G03G06G07G09G10G17G20G23G30
  24167638.780   127001783.02108  24167649.280    98962465.59746
  24854749.420                                                  
  21968286.800   115444120.35909  21968290.900    89956473.04248
  21233822.040   111584489.47509  21233825.940    86948966.68048
  22295674.100   117164559.87509  22295676.720    91297072.44248
  20399150.420   107198257.04109  20399151.960    83531115.41349
  22243283.360   116889238.61909  22243284.800    91082533.67546
  23814283.740   125144895.95108  23814288.780    97515516.90946
  21602734.160   113523135.67409  21602734.660    88459584.92547
  21076802.660   110759342.30009  21076800.520    86305972.52948
  24633383.580   129449314.56108  24633396.740   100869624.00245
 15 03 02 09 07  0.0000000  0 11G01G02G03G06G07G09G10G17G20G23G30
  24188411.860   127110944.43508  24188422.160    99047525.99346
  24835410.060   130510964.41507  24835409.460   101696847.66345
  21978547.020   115498038.37809  21978551.240    89998486.94448
  21224355.100   111534740.25909  21224358.960    86910201.04948
  22278384.640   117073703.25009  22278387.220    91226275.12248
  20398703.820   107195910.56309  20398705.500    83529286.95949
  22229401.000   116816286.88009  22229402.500    91025688.15546
  23828766.840   125221004.52208  23828771.860    97574822.00446
  21590352.140   113458067.47309  21590352.580    88408882.42047
  21085373.140   110804380.23509  21085371.020    86341066.94748
  24612244.800   129338231.57707  24612258.040   100783066.31345
 15 03 02 09 07 30.0000000  0 11G01G02G03G06G07G09G10G17G20G23G30
  24209204.420   127220208.21808  24209214.740    99132666.16746
  24816092.080   130409448.07907  24816091.660   101617743.94745
  21988847.280   115552166.79409  21988851.640    90040664.75648
  21214981.780   111485482.93809  21214985.580    86871818.69948
  22261144.480   116983105.63709  22261147.020    91155679.62548
  20398325.800   107193924.12809  20398327.560    83527739.04749
  22215541.820   116743456.61309  22215543.480    90968937.27746
  23843277.520   125297257.36208  23843282.500    97634239.49046
  21577998.120   113393146.43609  21577998.500    88358294.57947
  21093988.460   110849653.70509  21093986.320    86376344.90148
  24591101.560   129227125.29507  24591114.760   100696490.39145
 15 03 02 09 08  0.0000000  0 11G01G02G03G06G07G09G10G17G20G23G30
  24230017.800   127329581.60208  24230028.220    99217891.65045
  24796798.300   130308058.70908  24796798.020   101538739.15345
  21999189.500   115606515.42209  21999193.980    90083014.17348
  21205704.260   111436729.19209  21205707.980    86833828.75648
  22243956.000   116892779.58809  22243958.560    91085295.74448
  20398017.980   107192306.39209  20398019.760    83526478.43049
  22201707.800   116670758.60208  22201709.520    90912289.46246
  23857816.900   125373660.74808  23857821.940    97693774.28346
  21565674.100   113328383.26109  21565674.520    88307829.75347
  21102650.080   110895170.86009  21102647.980    86411812.73748
  24569956.260   129116008.01607  24569969.380   100609905.89845
 15 03 02 09 08 30.0000000  0 11G01G02G03G06G07G09G10G17G20G23G30
  24250850.860   127439057.98008  24250861.340    99303197.37845
  24777528.300   130206794.10507  24777528.160   101459831.60045
  22009572.840   115661079.90309  22009577.420    90125531.79648
  21196522.100   111388476.47309  21196525.780    86796229.22148
  22226818.820   116802723.06309  22226821.380    91015121.88548
  20397779.180   107191051.69709  20397781.080    83525500.70149
  22187898.260   116598189.27408  22187900.020    90855741.92246
  23872383.420   125450207.07708  23872388.540    97753420.46646
  21553379.540   113263774.78809  21553379.980    88257485.46647
  21111356.920   110940925.61309  21111354.860    86447465.72048
  24548808.440   129004877.69007  24548821.540   100523311.24645
 15 03 02 09 09  0.0000000  0 11G01G02G03G06G07G09G10G17G20G23G30
  24271703.380   127548636.84908  24271714.160    99388583.03346
  24758282.700   130105658.15207  24758282.760   101381024.32545
  22019997.620   115715861.95309  22020002.280    90168218.95248
  21187435.940   111340728.32509  21187439.620    86759022.84948
  22209733.740   116712940.23009  22209736.260    90945161.27548
  20397609.580   107190160.57709  20397611.640    83524806.26849
  22174113.720   116525751.07209  22174115.440    90799296.54547
  23886976.960   125526894.99708  23886982.040    97813176.97846
  21541114.960   113199323.89609  21541115.380    88207263.96747
  21120109.020   110986917.99609  21120107.020    86483303.86148
  24527659.060   128893738.47708  24527671.860   100436709.66745
 15 03 02 09 09 30.0000000  0 11G01G02G03G06G07G09G10G17G20G23G30
  24292574.900   127658315.47008  24292585.880    99474046.39646
  24739062.040   130004652.90908  24739062.180   101302318.88045
  22030463.820   115770861.43209  22030468.460    90211075.53448
  21178446.140   111293486.33109  21178449.740    86722210.88648
  22192701.140   116623433.53609  22192703.700    90875415.84148
  20397508.940   107189631.52609  20397511.060    83524393.96649
  22160354.320   116453444.50309  22160355.960    90742953.74847
  23901596.740   125603720.76508  23901601.640    97873040.86046
  21528880.460   113135031.00709  21528880.860    88157165.59647
  21128906.020   111033146.31209  21128904.060    86519325.86048
  24506508.440   128782592.50608  24506521.000   100350102.81945
 15 03 02 09 10  0.0000000  0 11G01G02G03G06G07G09G10G17G20G23G30
  24313464.760   127768090.23108  24313475.740    99559584.54846
  24719866.500   129903779.51108  24719866.680   101223716.16645
  22040971.200   115826077.34609  22040975.900    90254100.77648
  21169552.880   111246751.37009  21169556.400    86685794.01648
  22175721.360   116534204.39309  22175723.900    90805886.68548
  20397476.820   107189462.46609  20397478.920    83524262.18449
  22146619.900   116381269.55709  22146621.560    90686713.51847
  23916241.900   125680680.22108  23916246.800    97933008.94246
  21516676.180   113070896.77509  21516676.540    88107190.84347
  21137747.400   111079607.73809  21137745.460    86555529.50548
  24485356.800   128671441.22008  24485369.260   100263491.86346
 15 03 02 09 10 30.0000000  0 11G01G02G03G06G07G09G10G17G20G23G30
  24334373.240   127877962.52808  24334384.400    99645198.68545
  24700697.220   129803043.82608  24700697.340   101145220.76145
  22051520.360   115881513.16709  22051525.180    90297297.36248
  21160757.060   111200528.63209  21160760.500    86649776.26848
  22158795.560   116445258.79509  22158798.020    90736578.46448
  20397513.620   107189655.50209  20397515.680    83524412.54049
  22132911.340   116309230.71208  22132913.060    90630579.33247
  23930912.540   125757773.56408  23930917.400    97993081.34546
  21504502.940   113006925.34509  21504503.220    88057342.94047
  21146633.400   111126303.89709  21146631.540    86591916.04248
  24464205.300   128560290.41508  24464217.580   100176881.20445
 15 03 02 09 11  0.0000000  0 11G01G02G03G06G07G09G10G17G20G23G30
  24355298.660   127987924.14608  24355310.080    99730882.44946
  24681553.580   129702442.44908  24681553.500   101066829.95745
  22062110.340   115937163.11809  22062115.160    90340660.81348
  21152057.920   111154814.09609  21152061.380    86614154.53148
  22141923.040   116356593.30909  22141925.460    90667488.52148
  20397618.000   107190203.63709  20397620.060    83524839.60649
  22119227.640   116237323.01108  22119229.520    90574547.35746
  23945607.040   125834991.91708  23945611.880    98053251.18446
  21492359.720   112943111.94909  21492359.880    88007618.18748
  21155562.700   111173227.82409  21155560.960    86628480.06848
  24443053.260   128449136.72908  24443065.400   100090268.30145
 15 03 02 09 11 30.0000000  0 11G01G02G03G06G07G09G10G17G20G23G30
  24376241.800   128097979.22908  24376253.560    99816639.02946
  24662437.140   129601984.00608  24662437.060   100988550.57846
  22072742.340   115993033.71909  22072747.160    90384196.18148
  21143457.040   111109616.02209  21143460.500    86578935.22348
  22125105.580   116268217.00709  22125107.880    90598623.92048
  20397790.880   107191112.11109  20397792.980    83525547.45349
  22105570.340   116165553.84308  22105572.160    90518623.31847
  23960325.780   125912338.18808  23960330.760    98113520.65146
  21480248.080   112879464.38909  21480248.100    87958022.65748
  21164536.240   111220384.08509  21164534.580    86665225.13048
  24421902.320   128337989.00308  24421914.300   100003660.00746
 15 03 02 09 12  0.0000000  0 11G01G02G03G06G07G09G10G17G20G23G30
  24397201.940   128208123.07708  24397213.840    99902464.80846
  24643347.680   129501668.15407  24643347.720   100910382.35046
  22083415.900   116049122.58909  22083420.700    90427901.63448
  21134954.320   111064933.80809  21134957.780    86544117.88848
  22108343.100   116180129.92209  22108345.320    90529984.68848
  20398031.700   107192377.35609  20398033.780    83526533.30349
  22091939.180   116093921.57509  22091940.960    90462805.95447
  23975067.860   125989806.99908  23975073.060    98173885.60846
  21468167.720   112815981.39809  21468167.720    87908555.36947
  21173553.240   111267768.66309  21173551.660    86702148.10748
  24400752.520   128226847.33108  24400764.460    99917056.39145
 15 03 02 09 12 30.0000000  0 11G01G02G03G06G07G09G10G17G20G23G30
  24418178.420   128318352.68308  24418190.300    99988357.48845
  24624285.720   129401496.86508  24624285.820   100832326.76346
  22094130.780   116105429.06709  22094135.620    90471776.64848
  21126550.000   111020768.47509  21126553.400    86509703.32048
  22091636.060   116092333.98109  22091638.220    90461572.31648
  20398340.080   107193997.36009  20398342.120    83527795.60149
  22078334.300   116022426.37609  22078336.020    90407095.40747
  23989832.540   126067394.30808  23989837.840    98234342.88946
  21456118.680   112752663.26809  21456118.700    87859216.54648
  21182613.240   111315379.11609  21182611.680    86739247.09648
  24379604.200   128115713.52108  24379616.100    99830458.89545
 15 03 02 09 13  0.0000000  0 11G01G02G03G06G07G09G10G17G20G23G30
  24439171.220   128428668.15908  24439183.200   100074316.98846
  24605252.160   129301474.65108  24605252.160   100754387.30645
  22104887.560   116161955.80509  22104892.440    90515823.29248
  21118244.860   110977124.37309  21118248.200    86475694.88548
  22074985.380   116004834.01209  22074987.500    90393390.55948
  20398716.240   107195973.57909  20398718.280    83529335.46549
  22064756.220   115951071.90409  22064757.740    90351494.51247
  24004619.620   126145099.35408  24004624.960    98294891.94546
  21444101.700   112689513.89509  21444101.920    87810009.21848
  21191716.480   111363216.76609  21191714.920    86776523.11248
  24358458.360   128004592.58508  24358470.160    99743871.41946
 15 03 02 09 13 30.0000000  0 11G01G02G03G06G07G09G10G17G20G23G30
  24460179.120   128539062.64108  24460190.940   100160338.19645
  24586246.600   129201599.29108  24586246.500   100676562.28345
  22115685.440   116218698.21709  22115690.280    90560037.99548
  21110038.380   110933998.61409  21110041.680    86442090.36348
  22058390.660   115917628.16709  22058392.760    90325437.99548
  20399159.060   107198300.07809  20399161.020    83531148.26749
  22051204.140   115879854.25009  22051205.400    90296000.23247
  24019427.640   126222914.65008  24019433.120    98355526.87946
  21432116.160   112626529.85709  21432116.440    87760930.72248
  21200861.760   111411275.24809  21200860.200    86813971.19648
  24337314.660   127893482.64808  24337326.400    99657292.56746
 15 03 02 09 14  0.0000000  0 11G01G02G03G06G07G09G10G17G20G23G30
  24481202.080   128649536.66608  24481214.020   100246421.27245
  24567269.960   129101876.34107  24567269.820   100598856.02944
  22126524.940   116275659.23309  22126529.700    90604423.04748
  21101931.340   110891395.79209  21101934.700    86408893.32848
  22041852.900   115830722.19009  22041855.080    90257719.10648
  20399668.800   107200978.56409  20399670.680    83533235.35549
  22037678.740   115808777.30709  22037679.920    90240615.60147
  24034256.580   126300839.65008  24034262.180    98416247.32846
  21420162.960   112563715.15709  21420163.220    87711984.16647
  21210049.360   111459555.91709  21210047.780    86851592.41748
  24316173.960   127782388.73608  24316185.600    99570726.21245
 15 03 02 09 14 30.0000000  0 11G01G02G03G06G07G09G10G17G20G23G30
  24502240.340   128760091.52208  24502252.180   100332567.34645
  24548323.380   129002311.69508  24548323.240   100521273.13144
  22137406.780   116332842.65309  22137411.460    90648981.39448
  21093924.820   110849321.38709  21093928.240    86376108.04348
  22025373.200   115744121.47909  22025375.460    90190238.08748
  20400245.960   107204011.56309  20400247.820    83535598.69649
  22024180.880   115737845.80809  22024182.200    90185344.31147
  24049106.400   126378874.97208  24049112.120    98477053.70046
  21408242.880   112501074.59809  21408243.200    87663173.32848
  21219279.660   111508060.69109  21219278.000    86889388.26748
  24295037.580   127671317.20008  24295049.060    99484177.26046
 15 03 02 09 15  0.0000000  0 11G01G02G03G06G07G09G10G17G20G23G30
  24523292.060   128870716.56108  24523304.160   100418767.98145
  24529405.980   128902899.55908  24529405.720   100443809.00045
  22148329.400   116390240.26009  22148333.980    90693706.64348
  21086017.520   110807768.85209  21086021.100    86343729.39548
  22008950.540   115657820.49809  22008952.840    90122990.61148
  20400888.760   107207389.57809  20400890.640    83538230.86849
  22010709.180   115667052.44809  22010710.760    90130180.65847
  24063975.080   126457009.25108  24063980.900    98537937.19846
  21396354.600   112438601.32809  21396355.020    87614492.82148
  21228550.760   111556779.85109  21228548.960    86927351.16148
  24273904.400   127560262.26708  24273915.800    99397641.21146
 15 03 02 09 15 30.0000000  0 11G01G02G03G06G07G09G10G17G20G23G30
  24544358.720   128981420.64908  24544370.880   100505030.39145
  24510520.020   128803652.64908  24510519.780   100366473.65945
  22159294.740   116447862.74909  22159299.360    90738607.12648
  21078211.900   110766750.51309  21078215.540    86311767.00848
  21992587.440   115571832.47909  21992589.780    90055987.00648
  20401599.020   107211122.05409  20401600.960    83541139.24649
  21997266.040   115596408.96109  21997267.760    90075133.78347
  24078863.980   126535250.05008  24078869.840    98598903.68846
  21384500.420   112376307.27309  21384500.840    87565951.96348
  21237864.420   111605722.74009  21237862.580    86965488.39148
  24252776.880   127449237.11808  24252788.220    99311128.35545
 15 03 02 09 16  0.0000000  0 11G01G02G03G06G07G09G10G17G20G23G30
  24565438.160   129092192.42707  24565450.780   100591345.52645
  24491664.220   128704564.59708  24491663.880   100289262.12445
  22170301.140   116505701.31409  22170305.880    90783675.97648
  21070506.620   110726259.19309  21070510.300    86280215.27448
  21976282.740   115486151.04409  21976285.180    89989222.29548
  20402374.800   107215198.89009  20402376.820    83544315.95449
  21983849.920   115525907.43109  21983851.880    90020197.52947
  24093770.840   126613585.13508  24093776.860    98659943.64146
  21372678.720   112314184.42509  21372679.240    87517544.51748
  21247218.560   111654878.71509  21247216.700    87003791.65648
  24231653.860   127338235.44208  24231665.000    99224633.75645
 15 03 02 09 16 30.0000000  0 11G01G02G03G06G07G09G10G17G20G23G30
  24586531.100   129203034.74107  24586543.760   100677715.67545
  24472840.040   128605643.27808  24472839.780   100212180.52045
  22181349.680   116563761.42409  22181354.500    90828917.46648
  21062903.000   110686301.94709  21062906.780    86249079.71348
  21960037.920   115400784.09609  21960040.380    89922702.64248
  20403216.920   107219624.23409  20403218.980    83547764.23149
  21970462.100   115455554.32809  21970464.160    89965376.93247
  24108696.060   126692016.71808  24108702.160    98721058.80446
  21360891.000   112252239.83009  21360891.620    87469275.97348
  21256613.940   111704251.62009  21256612.160    87042263.95948
  24210536.800   127227265.12108  24210547.740    99138163.61146
 15 03 02 09 17  0.0000000  0 11G01G02G03G06G07G09G10G17G20G23G30
  24607636.380   129313942.12808  24607649.460   100764136.24146
  24454047.600   128506888.41808  24454047.560   100135228.63245
  22192439.840   116622040.20309  22192444.680    90874329.33848
  21055400.740   110646877.54109  21055404.700    86218359.33849
  21943852.960   115315731.44409  21943855.420    89856427.88648
  20404124.620   107224393.97509  20404126.660    83551480.86549
  21957102.200   115385347.59309  21957104.200    89910670.37947
  24123638.540   126770539.03208  24123644.920    98782244.63146
  21349136.880   112190471.69909  21349137.480    87421144.92548
  21266049.780   111753837.05509  21266048.040    87080901.85448
  24189425.620   127116325.87308  24189436.480    99051717.65745
 15 03 02 09 17 30.0000000  0 11G01G02G03G06G07G09G10G17G20G23G30
  24628753.900   129424913.38708  24628767.220   100850606.66445
  24435287.420   128408302.71008  24435287.400   100058408.55245
  22203571.720   116680538.35409  22203576.660    90919912.14747
  21048000.340   110607988.22909  21048004.460    86188055.94148
  21927728.380   115230996.19709  21927730.840    89790400.46548
  20405097.760   107229507.51609  20405099.780    83555465.39749
  21943770.460   115315288.97809  21943772.420    89856079.25447
  24138597.820   126849149.09708  24138604.280    98843498.86945
  21337416.740   112128881.69009  21337417.340    87373152.67647
  21275525.980   111803634.41009  21275524.280    87119704.90048
  24168320.860   127005420.82508  24168331.680    98965298.35345
 15 03 02 09 18  0.0000000  0 11G01G02G03G06G07G09G10G17G20G23G30
  24649883.440   129535947.21508  24649897.040   100937126.07246
  24416560.040   128309889.18608  24416559.980    99981722.64845
  22214745.480   116739256.59409  22214750.520    90965666.45448
  21040702.300   110569636.29209  21040706.460    86158171.26548
  21911664.640   115146580.89709  21911667.100    89724622.34648
  20406136.240   107234964.30009  20406138.240    83559717.38849
  21930467.320   115245380.26409  21930469.180    89801604.91647
  24153573.380   126927844.64308  24153579.800    98904819.69345
  21325730.880   112067471.67609  21325731.340    87325300.67848
  21285042.240   111853642.54909  21285040.580    87158672.17848
  24147223.180   126894553.17108  24147234.000    98878908.20145
 15 03 02 09 18 30.0000000  0 11G01G02G03G06G07G09G10G17G20G23G30
  24671024.540   129647042.22808  24671038.240   101023693.09646
  24397866.100   128211651.72608  24397866.100    99905173.94846
  22225961.340   116798196.32309  22225966.540    91011593.36848
  21033507.120   110531824.69909  21033511.260    86128707.63749
  21895662.640   115062489.89809  21895665.040    89659096.94148
  20407240.020   107240764.44309  20407242.020    83564236.93549
  21917193.200   115175623.80909  21917194.880    89747249.23747
  24168564.900   127006623.55208  24168571.280    98966205.51245
  21314079.860   112006244.51409  21314080.240    87277591.17348
  21294598.680   111903861.46009  21294597.100    87197803.70148
  24126133.280   126783726.84608  24126144.240    98792550.28646
 15 03 02 09 19  0.0000000  0 11G01G02G03G06G07G09G10G17G20G23G30
  24692176.160   129758191.92208  24692189.980   101110302.70546
  24379205.320   128113588.62608  24379205.440    99828761.10645
  22237218.640   116857353.55809  22237223.880    91057689.75148
  21026414.260   110494551.00809  21026418.300    86099663.14749
  21879722.040   114978721.54509  21879724.400    89593822.93948
  20408408.120   107246902.68109  20408410.120    83569019.93349
  21903947.360   115106016.36909  21903948.940    89693009.67347
  24183571.000   127085479.16208  24183577.300    99027651.10846
  21302463.220   111945197.75509  21302463.460    87230022.23748
  21304194.180   111954285.46209  21304192.580    87237095.03348
  24105051.000   126672940.44308  24105062.060    98706223.45446
 15 03 02 09 19 30.0000000  0 11G01G02G03G06G07G09G10G17G20G23G30
  24713338.620   129869398.59608  24713352.460   101196956.60146
  24360578.940   128015706.67208  24360579.080    99752489.39445
  22248518.260   116916732.77109  22248523.580    91103959.10447
  21019424.880   110457821.22909  21019428.820    86071042.49148
  21863844.180   114895282.72809  21863846.500    89528805.72048
  20409641.180   107253382.21409  20409643.180    83574068.87449
  21890730.980   115036563.83109  21890732.500    89638890.80247
  24198591.940   127164412.88408  24198598.220    99089157.52046
  21290881.880   111884336.98809  21290882.160    87182598.24048
  21313829.180   112004917.16909  21313827.520    87276548.21948
  24083977.680   126562200.95108  24083988.800    98619933.19346
 15 03 02 09 20  0.0000000  0 11G01G02G03G06G07G09G10G17G20G23G30
  24734511.040   129980657.81808  24734525.020   101283651.47945
  24341987.100   127918006.20308  24341987.240    99676359.11645
  22259859.740   116976331.74609  22259865.140    91150399.70248
  21012538.880   110421634.63709  21012542.740    86042845.10049
  21848029.100   114812173.58809  21848031.300    89464045.38248
  20410938.540   107260199.53209  20410940.480    83579381.02149
  21877543.680   114967264.81109  21877545.380    89584891.57447
  24213626.600   127243419.00808  24213633.000    99150720.36346
  21279335.620   111823660.96609  21279335.880    87135318.20048
  21323503.120   112055753.44109  21323501.440    87316160.80548
  24062913.400   126451508.58708  24062924.540    98533679.66346
 15 03 02 09 20 30.0000000  0 11G01G02G03G06G07G09G10G17G20G23G30
  24755693.160   130091968.09608  24755707.160   101370386.23144
  24323430.380   127820490.42308  24323430.700    99600372.75446
  22271243.140   117036151.23909  22271248.560    91197012.12847
  21005756.600   110385993.51509  21005760.440    86015072.75048
  21832277.220   114729397.05509  21832279.360    89399544.23048
  20412300.060   107267354.11509  20412302.000    83584955.98049
  21864386.000   114898121.17509  21864387.760    89531013.41447
  24228674.660   127322495.21308  24228681.020    99212337.82945
  21267824.980   111763171.82909  21267825.220    87088183.77748
  21333215.840   112106793.46209  21333214.160    87355932.14548
  24041858.740   126340866.73008  24041869.840    98447465.50746
 15 03 02 09 21  0.0000000  0 11G01G02G03G06G07G09G10G17G20G23G30
  24776884.460   130203327.10608  24776898.480   101457159.03544
  24304909.340   127723161.80908  24304909.780    99524532.24146
  22282668.480   117096191.28909  22282673.940    91243796.42948
  20999078.320   110350899.34809  20999082.240    85987726.60748
  21816589.100   114646955.97409  21816591.300    89335304.47248
  20413725.560   107274844.71109  20413727.480    83590792.76749
  21851258.060   114829133.87609  21851259.920    89477257.07947
  24243735.360   127401638.19908  24243741.960    99274007.31746
  21256350.120   111702871.02809  21256350.480    87041196.12548
  21342967.040   112158035.69109  21342965.400    87395861.06048
  24020814.240   126230277.93408  24020825.240    98361292.68246
 15 03 02 09 21 30.0000000  0 11G01G02G03G06G07G09G10G17G20G23G30
  24798084.740   130314733.10307  24798098.340   101543968.42543
  24286424.520   127626023.08008  24286425.040    99448839.66545
  22294136.000   117156452.53009  22294141.440    91290753.07448
  20992504.580   110316354.24009  20992508.580    85960808.28948
  21800965.380   114564853.25509  21800967.660    89271328.35848
  20415214.880   107282670.68409  20415216.720    83596890.87049
  21838160.160   114760304.32309  21838162.140    89423623.65547
  24258808.220   127480845.81208  24258815.200    99335727.13246
  21244911.440   111642760.24009  21244911.800    86994356.51848
  21352756.440   112209479.13009  21352754.880    87435946.75548
  23999780.360   126119745.31608  23999791.320    98275163.63646
 15 03 02 09 22  0.0000000  0 10G02G03G06G07G09G10G17G20G23G30
  24267976.100   127529075.85708  24267976.500    99373296.31645
  22305645.420   117216934.08409  22305650.860    91337881.40448
  20986035.480   110282358.77409  20986039.540    85934318.27548
  21785406.420   114483090.29209  21785408.640    89207616.99148
  20416767.540   107290829.86209  20416769.400    83603248.62449
  21825092.420   114691633.08209  21825094.440    89370113.60247
  24273892.600   127560113.90708  24273899.960    99397494.11246
  21233508.980   111582839.80609  21233509.320    86947665.25648
  21362583.580   112261121.24709  21362582.100    87476187.27948
  23978757.600   126009270.63408  23978768.360    98189079.71646
 15 03 02 09 22 30.0000000  0 10G02G03G06G07G09G10G17G20G23G30
  24249564.940   127432324.23808  24249565.240    99297905.38245
  22317197.100   117277637.66809  22317202.520    91385182.74747
  20979671.600   110248916.09409  20979675.660    85908259.00748
  21769912.940   114401671.12209  21769915.000    89144173.51648
  20418383.640   107299322.68009  20418385.560    83609866.36149
  21812055.340   114623122.99309  21812057.380    89316729.12547
  24288988.180   127639440.72508  24288995.800    99459306.83446
  21222143.480   111523113.17509  21222143.740    86901125.00848
  21372448.580   112312962.59509  21372447.220    87516583.05148
  23957746.660   125898858.15508  23957757.200    98103044.28346
 15 03 02 09 23  0.0000000  0 10G02G03G06G07G09G10G17G20G23G30
  24231190.660   127335766.17208  24231191.080    99222665.28045
  22328790.100   117338558.45409  22328795.500    91432653.31548
  20973412.320   110216022.84009  20973416.340    85882627.84748
  21754484.440   114320593.55509  21754486.360    89080996.21448
  20420062.080   107308143.07809  20420064.060    83616739.34449
  21799048.320   114554770.56809  21799050.360    89263467.48547
  24304093.560   127718818.91108  24304101.160    99521159.57346
  21210814.000   111463576.31909  21210814.320    86854732.63248
  21382350.360   112364996.77609  21382349.120    87557129.07848
  23936747.180   125788505.64508  23936757.500    98017055.54546
 15 03 02 09 23 30.0000000  0 10G02G03G06G07G09G10G17G20G23G30
  24212854.580   127239408.91208  24212855.040    99147581.65145
  22340425.380   117399701.53209  22340430.820    91480297.10848
  20967258.820   110183685.46209  20967262.720    85857429.83749
  21739122.300   114239864.85909  21739124.160    89018090.77048
  20421803.640   107317294.82709  20421805.580    83623870.53249
  21786072.460   114486581.77709  21786074.460    89210333.35847
  24319209.080   127798250.23308  24319216.720    99583053.73746
  21199521.880   111404236.06709  21199522.240    86808493.45848
  21392289.580   112417227.28809  21392288.300    87597828.09948
  23915760.540   125678220.70908  23915770.600    97931119.48046
 15 03 02 09 24  0.0000000  0 10G02G03G06G07G09G10G17G20G23G30
  24194557.200   127143255.51208  24194557.720    99072656.88146
  22352103.040   117461067.56609  22352108.500    91528114.63447
  20961211.480   110151906.00509  20961215.300    85832666.57748
  21723827.120   114159488.24009  21723828.980    88955459.67148
  20423608.180   107326777.30209  20423610.100    83631259.43349
  21773128.100   114418558.14109  21773130.160    89157327.92947
  24334334.300   127877732.19508  24334342.140    99644987.33846
  21188267.580   111345094.42409  21188267.900    86762409.04348
  21402266.040   112469653.47209  21402264.720    87638679.59248
  23894787.360   125568006.63508  23894797.320    97845238.62846
 15 03 02 09 24 30.0000000  0 10G02G03G06G07G09G10G17G20G23G30
  24176298.400   127047304.53208  24176298.880    98997889.84046
  22363822.320   117522652.40709  22363827.780    91576102.66548
  20955269.740   110120681.72009  20955273.560    85808335.92249
  21708598.560   114079461.97509  21708600.460    88893101.57948
  20425474.640   107336585.13309  20425476.480    83638901.85549
  21760214.680   114350696.85709  21760216.720    89104449.00747
  24349467.820   127957257.64508  24349475.560    99706954.85145
  21177050.460   111286148.46809  21177050.820    86716477.11648
  21412278.600   112522269.57509  21412277.320    87679679.07748
  23873827.340   125457861.85308  23873837.260    97759411.77046
 15 03 02 09 25  0.0000000  0 10G02G03G06G07G09G10G17G20G23G30
  24158078.960   126951559.97408  24158079.540    98923283.66146
  22375583.540   117584457.61209  22375589.100    91624262.40047
  20949434.160   110090015.51609  20949438.080    85784440.13849
  21693437.320   113999789.51509  21693439.260    88831019.17148
  20427403.020   107346718.55409  20427404.820    83646797.98049
  21747332.680   114283000.63109  21747334.560    89051698.69247
  24364609.260   128036824.77608  24364616.940    99768954.83945
  21165871.180   111227401.13609  21165871.620    86670699.95848
  21422327.280   112575075.81009  21422326.060    87720826.71848
  23852881.340   125347790.56408  23852891.140    97673642.17346
 15 03 02 09 25 30.0000000  0 10G02G03G06G07G09G10G17G20G23G30
  24139899.740   126856027.07108  24139900.460    98848842.40546
  22387387.360   117646486.54009  22387393.000    91672596.44748
  20943705.720   110059912.09309  20943709.700    85760982.86949
  21678344.580   113920476.98009  21678346.560    88769217.22148
  20429393.740   107357179.64509  20429395.460    83654949.42949
  21734482.800   114215473.90309  21734484.600    88999080.45347
  24379758.760   128116434.06508  24379766.400    99830987.67145
  21154730.600   111168856.96709  21154731.020    86625081.10748
  21432412.420   112628073.91009  21432411.400    87762123.85248
  23831950.420   125237798.66408  23831960.200    97587934.44546
 15 03 02 09 26  0.0000000  0 10G02G03G06G07G09G10G17G20G23G30
  24121760.820   126760705.99108  24121761.460    98774566.19146
  22399233.200   117708736.21609  22399238.920    91721102.50047
  20938084.120   110030369.78909  20938088.080    85737962.84349
  21663320.160   113841523.51409  21663322.240    88707695.07448
  20431445.960   107367964.20009  20431447.720    83663352.93549
  21721664.740   114148114.87509  21721666.440    88946592.87747
  24394915.120   128196079.36908  24394922.700    99893048.57745
  21143628.420   111110514.60109  21143628.800    86579619.49748
  21442533.360   112681259.80809  21442532.400    87803567.33248
  23811034.520   125127885.84308  23811044.280    97502288.33646
 15 03 02 09 26 30.0000000  0 10G02G03G06G07G09G10G17G20G23G30
  24103662.520   126665598.12308  24103662.980    98700456.10946
  22411120.860   117771205.83109  22411126.640    91769779.94448
  20932569.380   110001389.09909  20932573.320    85715380.44249
  21648364.400   113762930.80709  21648366.500    88646454.03248
  20433559.280   107379070.07609  20433561.160    83672006.82349
  21708878.620   114080923.81009  21708880.320    88894236.18747
  24410077.600   128275757.08408  24410085.260    99955134.76045
  21132564.620   111052374.35509  21132565.040    86534315.39248
  21452689.660   112734631.15509  21452688.680    87845155.32648
  23790133.980   125018053.88608  23790143.780    97416705.23146
 15 03 02 09 27  0.0000000  0 10G02G03G06G07G09G10G17G20G23G30
  24085605.560   126570707.86908  24085605.940    98626515.63546
  22423050.740   117833897.37409  22423056.620    91818630.32547
  20927162.100   109972973.32209  20927165.980    85693238.24248
  21633478.120   113684703.34209  21633480.260    88585497.59948
  20435733.960   107390498.07309  20435735.880    83680911.72149
  21696125.140   114013903.98309  21696126.860    88842012.93547
  24425246.040   128355466.02408  24425253.660   100017245.30345
  21121540.000   110994439.90409  21121540.460    86489171.64848
  21462881.380   112788188.64709  21462880.360    87886888.36648
  23769249.680   124908307.40208  23769259.500    97331188.73446
 15 03 02 09 27 30.0000000  0 10G02G03G06G07G09G10G17G20G23G30
  24067590.320   126476037.11708  24067590.800    98552746.19845
  22435022.760   117896810.25409  22435028.760    91867653.16447
  20921862.420   109945123.16309  20921866.300    85671536.78049
  21618661.640   113606842.57209  21618663.820    88524826.89548
  20437969.600   107402246.26709  20437971.540    83690066.11949
  21683404.380   113947056.06109  21683406.180    88789923.63247
  24440419.760   128435202.77908  24440427.480   100079377.48945
  21110554.660   110936711.83909  21110555.140    86444188.71948
  21473108.040   112841929.83809  21473107.040    87928764.53648
  23748382.080   124798648.49808  23748391.860    97245740.49546
 15 03 02 09 28  0.0000000  0 10G02G03G06G07G09G10G17G20G23G30
  24049617.560   126381589.67108  24049618.040    98479150.76246
  22447037.100   117959945.51909  22447043.240    91916849.28448
  20916670.760   109917840.88509  20916674.640    85650277.81949
  21603915.640   113529352.14709  21603917.840    88464444.77548
  20440266.180   107414314.48309  20440268.120    83699469.88049
  21670716.780   113880382.10309  21670718.580    88737969.87547
  24455598.240   128514965.30508  24455606.240   100141529.70945
  21099609.120   110879192.67009  21099609.640    86399368.56548
  21483369.600   112895854.70709  21483368.620    87970783.82748
  23727531.880   124689080.82008  23727541.500    97160363.33346
 15 03 02 09 28 30.0000000  0 10G02G03G06G07G09G10G17G20G23G30
  24031687.260   126287365.39508  24031687.740    98405729.21246
  22459093.280   118023300.45009  22459099.500    91966216.56847
  20911586.820   109891125.05409  20911590.800    85629460.24449
  21589240.080   113452231.56109  21589242.200    88404350.83748
  20442622.840   107426698.72209  20442624.800    83709119.88649
  21658062.040   113813880.55609  21658063.800    88686150.45747
  24470780.460   128594747.35608  24470788.540   100203697.18345
  21088703.140   110821881.12109  21088703.600    86354710.19348
  21493665.420   112949959.27009  21493664.420    88012943.13748
  23706699.000   124579604.31008  23706708.540    97075057.21646
 15 03 02 09 29  0.0000000  0 10G02G03G06G07G09G10G17G20G23G30
  24013800.220   126193368.38908  24013800.600    98332484.76146
  22471191.660   118086877.13308  22471197.940    92015756.65948
  20906611.340   109864978.94009  20906615.400    85609086.61449
  21574635.660   113375484.84309  21574637.740    88344548.23348
  20445039.800   107439399.80909  20445041.740    83719016.78449
  21645440.740   113747554.80409  21645442.420    88634468.03347
  24485966.300   128674548.37808  24485974.520   100265879.43545
  21077837.340   110764780.59709  21077837.880    86310216.26248
  21503995.580   113004244.25709  21503994.620    88055243.04448
  23685884.320   124470223.64008  23685893.840    96989825.76746
 15 03 02 09 29 30.0000000  0 10G02G03G06G07G09G10G17G20G23G30
  23995957.120   126099601.97408  23995957.420    98259420.00546
  22483332.380   118150676.19609  22483338.640    92065470.03247
  20901744.740   109839404.37009  20901748.800    85589158.34849
  21560103.040   113299115.39909  21560105.100    88285039.60748
  20447516.900   107452417.16009  20447518.840    83729160.12349
  21632853.220   113681406.86609  21632854.980    88582924.16747
  24501155.360   128754366.06608  24501163.700   100328074.69645
  21067012.160   110707893.42209  21067012.700    86265888.57848
  21514359.940   113058708.83209  21514359.020    88097682.89748
  23665088.520   124360942.13008  23665098.020    96904671.59346
 15 03 02 09 30  0.0000000  0 10G02G03G06G07G09G10G17G20G23G30
  23978157.740   126006065.40108  23978158.020    98186534.35046
  22495514.760   118214694.27108  22495521.000    92115354.05347
  20896986.520   109814399.22409  20896990.540    85569673.78049
  21545642.040   113223122.16009  21545644.060    88225824.12948
  20450053.320   107465746.05109  20450055.240    83739546.21649
  21620299.060   113615434.51309  21620300.920    88531517.11547
  24516346.320   128834193.93308  24516354.940   100390277.85445
  21056227.260   110651217.70109  21056227.740    86221725.66748
  21524757.500   113113348.04809  21524756.580    88140258.81948
  23644311.480   124251759.17208  23644320.920    96819594.22346
 15 03 02 09 30 30.0000000  0 10G02G03G06G07G09G10G17G20G23G30
  23960403.900   125912767.71708  23960404.020    98113834.81546
  22507740.020   118278937.65509  22507746.240    92165413.65547
  20892338.020   109789970.90509  20892342.020    85550638.69049
  21531254.200   113147513.59209  21531256.260    88166908.39248
  20452650.040   107479391.58309  20452651.980    83750179.04549
  21607779.760   113549645.16009  21607781.620    88480252.65847
  24531539.880   128914035.28708  24531548.640   100452491.54046
  21045484.040   110594761.03209  21045484.440    86177733.44548
  21535189.260   113168167.23209  21535188.460    88182974.97948
  23623554.900   124142683.61908  23623564.180    96734600.53446
 15 03 02 09 31  0.0000000  0 10G02G03G06G07G09G10G17G20G23G30
  23942694.420   125819703.77108  23942694.440    98041317.43845
  22520006.740   118343398.87809  22520012.960    92215642.99747
  20887798.040   109766113.17609  20887802.080    85532048.21648
  21516938.580   113072284.48609  21516940.600    88108288.33648
  20455305.280   107493345.04009  20455307.320    83761051.81349
  21595294.120   113484032.72709  21595296.000    88429126.07247
  24546734.040   128993879.83108  24546742.980   100514707.68546
  21034781.340   110538517.49109  21034781.720    86133907.29348
  21545653.680   113223157.55809  21545652.820    88225824.50348
  23602817.840   124033710.75008  23602827.020    96649686.86446
 15 03 02 09 31 30.0000000  0  9G02G03G06G07G09G10G20G23G30
  23925030.320   125726878.70408  23925030.540    97968986.21946
  22532315.420   118408080.52409  22532321.580    92266044.10047
  20883367.300   109742829.68509  20883371.380    85513905.19549
  21502696.080   112997439.71709  21502698.080    88049967.76348
  20458019.400   107507607.77609  20458021.480    83772165.57749
  21582843.020   113418601.11109  21582844.680    88378140.36947
  21024119.840   110482490.98009  21024120.280    86090250.26148
  21556150.900   113278320.16409  21556150.060    88268808.25448
  23582101.340   123924845.75408  23582110.500    96564857.24046
 15 03 02 09 32  0.0000000  0  9G02G03G06G07G09G10G20G23G30
  23907412.520   125634296.65808  23907412.720    97896844.34545
  22544666.460   118472984.46909  22544672.560    92316618.42447
  20879046.440   109720123.45709  20879050.500    85496212.00048
  21488527.560   112922983.64709  21488529.580    87991950.07548
  20460792.560   107522180.39909  20460794.620    83783520.80449
  21570426.860   113353353.50509  21570428.460    88327298.06647
  21013500.200   110426685.10209  21013500.760    86046765.15948
  21566681.100   113333655.59309  21566680.000    88311926.68648
  23561406.220   123816093.25508  23561415.320    96480115.27146
 15 03 02 09 32 30.0000000  0  9G02G03G06G07G09G10G20G23G30
  23889841.780   125541962.45008  23889842.040    97824895.61346
  22557060.120   118538112.55409  22557066.220    92367367.40147
  20874836.000   109697997.48509  20874840.020    85478970.95849
  21474433.780   112848920.32809  21474435.740    87934238.42548
  20463624.820   107537063.59009  20463626.880    83795118.03849
  21558046.240   113288293.14209  21558047.840    88276601.68147
  21002923.160   110371103.17209  21002923.880    86003454.56148
  21577244.300   113389164.61709  21577243.080    88355180.38148
  23540733.400   123707457.81408  23540742.420    96395464.52846
 15 03 02 09 33  0.0000000  0  9G02G03G06G07G09G10G20G23G30
  23872317.820   125449873.69208  23872318.220    97753138.12346
  22569495.460   118603460.12109  22569501.640    92418287.40147
  20870735.300   109676448.14209  20870739.340    85462179.23649
  21460414.120   112775246.83509  21460416.080    87876830.53948
  20466515.060   107552251.36009  20466517.140    83806952.60049
  21545700.680   113223416.62109  21545702.120    88226048.52547
  20992388.200   110315742.09409  20992389.000    85960316.05048
  21587839.420   113444841.07409  21587838.060    88398564.55748
  23520082.440   123598937.41408  23520091.420    96310903.41547
 15 03 02 09 33 30.0000000  0  9G02G03G06G07G09G10G20G23G30
  23854841.600   125358035.91208  23854842.260    97681576.23546
  22581973.100   118669030.06009  22581979.360    92469380.67347
  20866745.140   109655479.37909  20866749.160    85445839.90749
  21446469.680   112701968.72609  21446471.680    87819730.74948
  20469463.540   107567745.41909  20469465.700    83819025.83249
  21533390.880   113158727.82509  21533392.220    88175641.64947
  20981896.140   110260605.83109  20981896.940    85917352.71348
  21598466.540   113500686.52009  21598465.220    88442080.39348
  23499454.480   123490537.70608  23499463.400    96226436.34146
 15 03 02 09 34  0.0000000  0  9G02G03G06G07G09G10G20G23G30
  23837413.420   125266449.95808  23837414.000    97610210.53846
  22594492.780   118734820.71309  22594499.080    92520645.92347
  20862865.340   109635090.67409  20862869.280    85429952.57249
  21432600.580   112629086.68109  21432602.660    87762939.58448
  20472469.780   107583542.90709  20472471.860    83831335.50449
  21521116.800   113094226.73709  21521118.160    88125381.05147
  20971446.920   110205694.63609  20971447.700    85874564.75748
  21609125.240   113556698.30909  21609124.040    88485725.84448
  23478849.700   123382259.75808  23478858.600    96142064.14146
 15 03 02 09 34 30.0000000  0  9G02G03G06G07G09G10G20G23G30
  23820033.540   125175117.47608  23820033.920    97539042.35046
  22607054.240   118800830.92609  22607060.580    92572082.26347
  20859095.900   109615281.85509  20859099.780    85414517.09849
  21418807.080   112556601.90709  21418809.260    87706457.98648
  20475533.240   107599641.45609  20475535.300    83843879.77249
  21508878.380   113029913.40509  21508879.740    88075266.75447
  20961040.580   110151008.72109  20961041.240    85831952.34848
  21619815.060   113612873.96809  21619813.980    88529498.98748
  23458268.400   123274105.08508  23458277.200    96057788.00446
 15 03 02 09 35  0.0000000  0  9G02G03G06G07G09G10G20G23G30
  23802702.840   125084043.34508  23802703.080    97468075.47646
  22619657.940   118867063.09409  22619664.320    92623691.55647
  20855437.400   109596056.32309  20855441.320    85399536.13549
  21405090.100   112484519.04509  21405092.320    87650289.56148
  20478654.180   107616042.21209  20478656.280    83856659.53049
  21496676.380   112965791.60209  21496677.900    88025301.70447
  20950677.880   110096552.25709  20950678.520    85789518.73148
  21630536.340   113669214.74009  21630535.420    88573400.78748
  23437711.560   123166078.89208  23437720.320    95973611.96946
 15 03 02 09 35 30.0000000  0  9G02G03G06G07G09G10G20G23G30
  23785421.640   124993229.36908  23785421.760    97397311.32846
  22632303.660   118933516.35208  22632310.160    92675473.11647
  20851889.860   109577414.18509  20851893.940    85385009.76149
  21391449.820   112412839.05509  21391452.020    87594435.06148
  20481832.240   107632743.09809  20481834.440    83869673.16149
  21484510.920   112901861.94909  21484512.500    87975486.38647
  20940358.980   110042325.84609  20940359.480    85747264.37548
  21641288.620   113725718.29209  21641287.800    88617429.43548
  23417179.480   123058182.95608  23417188.160    95889537.42046
 15 03 02 09 36  0.0000000  0  9G02G03G06G07G09G10G20G23G30
  23768190.200   124902676.99608  23768190.240    97326751.01646
  22644991.340   119000189.95609  22644997.880    92727426.38447
  20848453.380   109559355.73409  20848457.620    85370938.21049
  21377886.540   112341563.63509  21377888.720    87538895.81348
  20485067.060   107649742.17609  20485069.340    83882919.15549
  21472382.100   112838124.99209  21472383.820    87925821.22347
  20930083.980   109988330.30109  20930084.400    85705189.91448
  21652071.500   113782382.79309  21652070.820    88661583.48548
  23396672.640   122950419.35208  23396681.160    95805565.97546
 15 03 02 09 36 30.0000000  0  9G02G03G06G07G09G10G20G23G30
  23751009.560   124812391.67208  23751009.460    97256398.79046
  22657721.500   119067086.42708  22657728.080    92779553.30747
  20845128.680   109541884.44109  20845132.960    85357324.17449
  21364401.160   112270697.52409  21364403.360    87483675.51448
  20488358.860   107667040.79409  20488361.200    83896398.55649
  21460290.760   112774584.78209  21460292.480    87876309.36547
  20919853.600   109934569.63609  20919854.020    85663298.47248
  21662885.340   113839209.60409  21662884.660    88705864.02548
  23376191.960   122842793.33708  23376200.420    95721701.74747
 15 03 02 09 37  0.0000000  0  9G02G03G06G07G09G10G20G23G30
  23733879.760   124722373.83708  23733879.540    97186255.00446
  22670493.580   119134203.62108  22670500.260    92831852.20547
  20841915.540   109524999.10009  20841919.760    85344166.72549
  21350993.740   112200241.15909  21350995.920    87428774.49148
  20491707.000   107684635.59109  20491709.440    83910108.75149
  21448236.780   112711240.67909  21448238.620    87826950.31647
  20909667.820   109881043.47609  20909668.360    85621589.76248
  21673729.400   113896195.25309  21673728.720    88750268.31647
  23355737.560   122735305.50508  23355745.920    95637945.17047
 15 03 02 09 37 30.0000000  0  9G02G03G06G07G09G10G20G23G30
  23716801.040   124632624.49408  23716800.840    97116320.43746
  22683307.360   119201539.91408  22683314.180    92884321.82847
  20838813.760   109508699.02309  20838817.940    85331465.32849
  21337664.300   112130194.51109  21337666.420    87374192.73548
  20495111.000   107702523.75209  20495113.480    83924047.54749
  21436220.100   112648092.40009  21436221.940    87777743.86447
  20899526.620   109827751.85709  20899527.360    85580063.82548
  21684603.240   113953337.45809  21684602.600    88794794.61748
  23335309.640   122627956.98808  23335317.980    95554297.16047
 15 03 02 09 38  0.0000000  0  9G02G03G06G07G09G10G20G23G30
  23699775.120   124543153.02508  23699774.960    97046602.38946
  22696164.200   119269102.18208  22696171.080    92936967.53247
  20835824.820   109492991.99809  20835829.020    85319226.04849
  21324414.620   112060567.03509  21324416.680    87319937.60248
  20498571.960   107720710.96209  20498574.480    83938219.36949
  21424242.300   112585148.17909  21424244.100    87728696.40548
  20889431.740   109774703.17809  20889432.520    85538727.17948
  21695507.860   114010641.21609  21695507.180    88839446.79648
  23314910.020   122520757.47508  23314918.440    95470765.26047
 15 03 02 09 38 30.0000000  0  9G02G03G06G07G09G10G20G23G30
  23682800.760   124453952.94408  23682800.780    96977095.82045
  22709062.260   119336881.15308  22709069.200    92989782.09247
  20832947.160   109477869.60109  20832951.400    85307442.31949
  21311243.320   111991351.25009  21311245.300    87266003.26748
  20502087.820   107739186.76909  20502090.400    83952616.06049
  21412301.820   112522400.00009  21412303.460    87679801.70947
  20879381.740   109721889.67209  20879382.480    85497573.76948
  21706441.220   114068096.44209  21706440.640    88884216.98748
  23294537.520   122413700.42408  23294546.000    95387344.36147
 15 03 02 09 39  0.0000000  0  9G02G03G06G07G09G10G20G23G30
  23665879.540   124365032.05308  23665879.680    96907806.78545
  22722002.500   119404882.02708  22722009.560    93042769.56547
  20830181.920   109463337.90409  20830186.200    85296118.87449
  21298151.800   111922554.78509  21298153.660    87212395.66748
  20505659.320   107757955.14109  20505661.960    83967240.72949
  21400399.860   112459854.60409  21400401.420    87631065.03047
  20869377.860   109669318.15009  20869378.500    85456608.92748
  21717404.240   114125706.99109  21717403.660    88929108.22648
  23274193.700   122306793.83508  23274202.160    95304040.72047
 15 03 02 09 39 30.0000000  0  9G02G03G06G07G09G10G20G23G30
  23649011.680   124276390.97108  23649011.920    96838735.78846
  22734984.620   119473102.94808  22734991.800    93095928.50647
  20827528.900   109449395.96409  20827533.200    85285254.97949
  21285140.160   111854178.25209  21285141.900    87159115.29748
  20509285.960   107777013.11309  20509288.620    83982091.06249
  21388536.360   112397511.44109  21388537.980    87582485.93947
  20859420.060   109616988.69609  20859420.560    85415832.70448
  21728396.300   114183470.23809  21728395.780    88974118.44247
  23253878.760   122200038.65109  23253887.160    95220855.05747
 15 03 02 09 40  0.0000000  0  9G02G03G06G07G09G10G20G23G30
  23632197.260   124188030.80008  23632197.460    96769883.68646
  22748008.340   119541542.35408  22748015.560    93149257.68347
  20824987.900   109436043.00309  20824992.260    85274850.01949
  21272208.360   111786221.88109  21272210.180    87106162.32148
  20512967.200   107796357.93609  20512969.840    83997164.90749
  21376711.240   112335370.47809  21376712.860    87534064.40048
  20849508.260   109564901.10509  20849508.680    85375244.94448
  21739416.880   114241383.27809  21739416.320    89019245.38148
  23233592.900   122093436.04208  23233601.120    95137788.27147
 15 03 02 09 40 30.0000000  0  9G02G03G06G07G09G10G20G23G30
  23615437.400   124099956.62108  23615437.700    96701254.43746
  22761074.160   119610202.69809  22761081.400    93202759.02847
  20822559.680   109423282.30009  20822563.960    85264906.56149
  21259357.400   111718690.41309  21259359.380    87053540.43548
  20516703.280   107815990.89609  20516705.860    84012463.27249
  21364925.360   112273435.79409  21364927.060    87485803.60948
  20839643.160   109513059.48109  20839643.620    85334848.85148
  21750466.280   114299447.62809  21750465.700    89064490.23048
  23213337.060   121986991.32008  23213345.200    95054844.52347
 15 03 02 09 41  0.0000000  0  9G02G03G06G07G09G10G20G23G30
  23598732.620   124012171.80308  23598732.780    96632850.64646
  22774182.160   119679084.49909  22774189.420    93256432.93247
  20820244.420   109411115.19809  20820248.680    85255425.64849
  21246587.860   111651586.59509  21246589.940    87001251.77648
  20520494.000   107835911.36409  20520496.600    84027985.66549
  21353179.100   112211709.44909  21353180.920    87437705.16247
  20829825.260   109461466.26009  20829825.820    85294646.31748
  21761544.320   114357662.53509  21761543.740    89109852.38648
  23193111.860   121880707.75808  23193119.900    94972026.34147
 15 03 02 09 41 30.0000000  0  9G02G03G06G07G09G10G20G23G30
  23582082.620   123924675.37808  23582082.740    96564671.57746
  22787331.680   119748184.25609  22787338.960    93310276.67147
  20818041.560   109399538.89409  20818045.820    85246405.10149
  21233899.420   111584908.86909  21233901.580    86949295.14148
  20524338.580   107856114.69209  20524341.220    84043728.46549
  21341472.200   112150189.35809  21341474.080    87389767.43147
  20820054.220   109410119.12209  20820054.840    85254635.52948
  21772650.140   114416023.39909  21772649.540    89155328.27547
  23172917.200   121774584.68108  23172925.220    94889333.21647
 15 03 02 09 42  0.0000000  0  9G02G03G06G07G09G10G20G23G30
  23565488.980   123837475.06108  23565489.180    96496723.26646
  22800523.600   119817506.96309  22800530.860    93364294.14147
  20815952.260   109388559.29809  20815956.540    85237849.52649
  21221293.480   111518664.63009  21221295.720    86897676.28848
  20528237.780   107876604.79009  20528240.380    84059694.72849
  21329805.780   112088882.10709  21329807.600    87341995.55747
  20810331.400   109359025.26109  20810332.060    85214822.11248
  21783784.540   114474534.37409  21783783.940    89200921.14947
  23152754.500   121668629.95808  23152762.500    94806771.28946
 15 03 02 09 42 30.0000000  0  9G02G03G06G07G09G10G20G23G30
  23548951.020   123750566.98308  23548951.240    96429002.65646
  22813756.760   119887046.54508  22813764.040    93418480.59147
  20813975.480   109378170.90509  20813979.760    85229754.61649
  21208769.240   111452849.77709  21208771.580    86846392.02148
  20532190.180   107897374.30309  20532192.700    84075878.69949
  21318178.920   112027782.87909  21318180.760    87294385.76948
  20800655.860   109308180.00709  20800656.500    85175202.40448
  21794946.140   114533188.01709  21794945.460    89246625.18648
  23132623.160   121562840.19808  23132631.220    94724337.89647
 15 03 02 09 43  0.0000000  0  9G02G03G06G07G09G10G20G23G30
  23532470.180   123663959.15608  23532470.300    96361516.00546
  22827032.100   119956807.92908  22827039.380    93472839.89247
  20812112.260   109368379.39509  20812116.540    85222124.81948
  21196328.100   111387471.11109  21196330.320    86795447.64048
  20536196.460   107918427.11809  20536198.960    84092283.42749
  21306592.980   111966898.31109  21306594.760    87246943.25347
  20791028.880   109257590.08009  20791029.440    85135781.66748
  21806135.720   114591988.61309  21806134.920    89292443.75347
  23112524.680   121457223.17808  23112532.780    94642039.11847
 15 03 02 09 43 30.0000000  0  9G02G03G06G07G09G10G20G23G30
  23516046.600   123577652.56608  23516046.700    96294264.10446
  22840349.300   120026789.55408  22840356.720    93527370.79147
  20810362.520   109359183.95509  20810366.760    85214959.48449
  21183970.180   111322529.51409  21183972.240    86744843.82348
  20540256.220   107939760.55509  20540258.620    84108906.82249
  21295047.980   111906228.53809  21295049.760    87199668.10947
  20781450.580   109207255.87709  20781451.180    85096560.18948
  21817352.580   114650933.32109  21817351.840    89338374.60047
  23092459.360   121351780.20308  23092467.480    94559875.95347
 15 03 02 09 44  0.0000000  0  9G02G03G06G07G09G10G20G23G30
  23499680.720   123491648.95708  23499680.840    96227248.27946
  22853708.280   120096990.46408  22853715.740    93582072.56247
  20808726.140   109350584.30009  20808730.380    85208258.39649
  21171695.720   111258026.03509  21171697.620    86694581.39248
  20544369.020   107961372.57709  20544371.360    84125747.29949
  21283543.940   111845773.95809  21283545.600    87152560.64547
  20771921.060   109157178.00009  20771921.680    85057538.44948
  21828596.420   114710020.37009  21828595.820    89384416.36647
  23072427.560   121246513.14608  23072435.620    94477849.85747
 15 03 02 09 44 30.0000000  0  9G02G03G06G07G09G10G20G23G30
  23483372.920   123405951.02108  23483373.120    96160470.65446
  22867109.040   120167410.81709  22867116.460    93636945.33047
  20807203.280   109342581.24009  20807207.500    85202022.19149
  21159505.000   111193962.86709  21159506.820    86644662.06548
  20548534.600   107983262.16209  20548536.900    84142804.05549
  21272081.120   111785536.35909  21272082.800    87105622.25147
  20762440.700   109107358.13109  20762441.280    85018717.75348
  21839867.080   114769248.65809  21839866.680    89430568.18948
  23052429.780   121141424.96708  23052437.740    94395963.14147
 15 03 02 09 45  0.0000000  0  9G02G03G06G07G09G10G20G23G30
  23467123.540   123320560.32608  23467123.700    96093932.43846
  22880551.280   120238049.42409  22880558.720    93691988.16747
  20805793.840   109335174.19409  20805798.000    85196250.42249
  21147398.200   111130340.98009  21147399.960    86595086.60648
  20552752.520   108005427.02609  20552754.780    84160075.33149
  21260659.700   111725516.21609  21260661.340    87058853.31147
  20753009.580   109057796.87209  20753010.120    84980098.57648
  21851164.220   114828616.01609  21851164.000    89476828.38947
  23032466.420   121036517.30709  23032474.260    94314217.09446
 15 03 02 09 45 30.0000000  0  9G02G03G06G07G09G10G20G23G30
  23450933.500   123235481.60108  23450933.720    96027637.30746
  22894035.400   120308908.20708  22894042.940    93747202.57847
  20804498.380   109328365.78109  20804502.460    85190945.11649
  21135376.000   111067164.02409  21135377.800    86545857.83348
  20557022.920   108027868.04009  20557025.200    84177561.79149
  21249280.320   111665716.89709  21249281.940    87012256.44148
  20743628.460   109008498.30109  20743628.960    84941684.09748
  21862488.040   114888123.40709  21862488.000    89523197.70948
  23012538.320   120931794.96009  23012546.060    94232615.43147
 15 03 02 09 46  0.0000000  0  9G02G03G06G07G09G10G20G23G30
  23434802.760   123150714.67608  23434802.980    95961585.14446
  22907560.920   120379984.56608  22907568.600    93802586.52347
  20803316.460   109322153.95109  20803320.460    85186104.68549
  21123438.460   111004431.94909  21123440.260    86496975.72348
  20561345.100   108050581.51509  20561347.500    84195260.54749
  21237942.800   111606137.61709  21237944.380    86965831.03248
  20734297.100   108959461.14809  20734297.540    84903473.32248
  21873837.880   114947767.26309  21873837.980    89569673.36048
  22992645.600   120827258.18709  22992653.220    94151158.35947
 15 03 02 09 46 30.0000000  0  9G02G03G06G07G09G10G20G23G30
  23418731.880   123066262.10208  23418732.180    95895777.91446
  22921127.760   120451277.98508  22921135.520    93858139.61147
  20802248.000   109316538.83009  20802251.960    85181729.21549
  21111585.800   110942146.06609  21111587.660    86448441.29648
  20565718.900   108073565.85309  20565721.300    84213170.37349
  21226647.300   111546779.31909  21226648.860    86919577.81748
  20725015.660   108910686.68409  20725016.080    84865467.24648
  21885213.480   115007546.16109  21885213.520    89616254.23547
  22972788.640   120722909.31509  22972796.220    94069847.70247
 15 03 02 09 47  0.0000000  0  9G02G03G06G07G09G10G20G23G30
  23402721.860   122982128.82908  23402722.140    95830219.50046
  22934736.400   120522790.93508  22934744.200    93913863.76547
  20801293.560   109311523.41109  20801297.620    85177821.04349
  21099818.980   110880311.24109  21099820.860    86400258.35248
  20570144.500   108096822.42209  20570146.900    84231292.33249
  21215394.560   111487646.07609  21215396.160    86873499.98648
  20715785.040   108862179.28209  20715785.500    84827669.27148
  21896615.120   115067461.68209  21896615.120    89662941.57048
  22952968.380   120618753.63509  22952975.920    93988687.58947
 15 03 02 09 47 30.0000000  0  9G02G03G06G07G09G10G20G23G30
  23386772.480   122898313.89308  23386772.640    95764909.14346
  22948386.120   120594519.76008  22948393.960    93969756.13247
  20800452.620   109307104.59809  20800456.780    85174377.76649
  21088137.620   110818925.30809  21088139.460    86352425.18848
  20574620.940   108120346.53309  20574623.400    84249622.77049
  21204184.240   111428735.70209  21204185.880    86827595.80648
  20706604.800   108813936.93809  20706605.260    84790077.83648
  21908041.940   115127509.29809  21908041.840    89709731.83247
  22933184.700   120514790.43309  22933192.240    93907677.45747
 15 03 02 09 48  0.0000000  0  9G02G03G06G07G09G10G20G23G30
  23370884.660   122814822.32908  23370884.760    95699850.75546
  22962077.340   120666466.94208  22962085.260    94025818.64247
  20799725.800   109303285.41209  20799730.000    85171401.73649
  21076542.540   110757992.96709  21076544.340    86304945.46748
  20579148.520   108144139.57809  20579151.120    84268162.76449
  21193017.180   111370052.63209  21193018.960    86781868.74348
  20697475.740   108765963.84509  20697476.240    84752696.20748
  21919494.180   115187690.46909  21919494.020    89756626.16348
  22913438.680   120411025.03109  22913446.180    93826821.45347
 15 03 02 09 48 30.0000000  0  9G02G03G06G07G09G10G20G23G30
  23355058.980   122731657.54808  23355059.120    95635047.01346
  22975810.260   120738633.31708  22975818.300    94082051.95447
  20799113.380   109300067.15009  20799117.560    85168893.96249
  21065034.300   110697517.08909  21065036.100    86257821.45148
  20583727.220   108168201.38009  20583729.980    84286912.18749
  21181893.820   111311599.19009  21181895.680    86736320.62148
  20688398.440   108718262.94509  20688398.980    84715526.68548
  21930971.840   115248004.90509  21930971.600    89803624.35147
  22893731.040   120307461.15909  22893738.460    93746122.48247
 15 03 02 09 49  0.0000000  0  9G02G03G06G07G09G10G20G23G30
  23339295.920   122648821.89608  23339296.220    95570499.73846
  22989584.780   120811018.03608  22989592.920    94138455.40747
  20798615.300   109297449.50309  20798619.420    85166854.19249
  21053613.080   110637498.88509  21053614.940    86211054.05048
  20588356.720   108192530.02909  20588359.660    84305869.53349
  21170814.380   111253376.18509  21170816.220    86690952.04848
  20679373.200   108670835.24309  20679373.780    84678570.02848
  21942474.560   115308451.39909  21942474.300    89850725.41947
  22874062.100   120204100.79709  22874069.420    93665582.09147
 15 03 02 09 49 30.0000000  0  9G02G03G06G07G09G10G20G23G30
  23323595.120   122566313.49608  23323595.440    95506207.46146
  23003400.020   120883616.81808  23003408.220    94195025.66447
  20798230.780   109295428.63009  20798234.880    85165279.44249
  21042278.540   110577936.11109  21042280.480    86164641.53348
  20593036.000   108217120.17609  20593039.080    84325030.64849
  21159778.280   111195381.06709  21159780.000    86645761.05948
  20670399.440   108623678.03209  20670400.020    84641824.15148
  21954001.340   115369024.50409  21954001.120    89897925.14748
  22854431.640   120100942.59509  22854438.940    93585199.22247
 15 03 02 09 50  0.0000000  0  9G02G03G06G07G09G10G20G23G30
  23307958.400   122484141.94608  23307958.740    95442177.66446
  23017257.360   120956436.64908  23017265.600    94251768.16647
  20797961.240   109294011.98209  20797965.360    85164175.51449
  21031032.360   110518837.56909  21031034.380    86118590.76348
  20597766.240   108241977.82109  20597769.340    84344400.20049
  21148787.200   111137622.47609  21148788.780    86600754.37448
  20661478.840   108576800.18009  20661479.440    84605295.95348
  21965553.320   115429730.50309  21965553.180    89945228.42847
  22834841.520   119997996.41909  22834848.840    93504981.58047
 15 03 02 09 50 30.0000000  0  9G02G03G06G07G09G10G20G23G30
  23292385.000   122402302.85408  23292385.260    95378406.92646
  23031155.320   121029470.24108  23031163.620    94308677.22747
  20797805.300   109293192.69609  20797809.560    85163537.06049
  21019873.560   110460197.96309  21019875.600    86072897.60448
  20602545.880   108267094.62309  20602548.940    84363971.68949
  21137840.100   111080094.80109  21137841.500    86555927.62548
  20652610.380   108530196.25009  20652611.040    84568981.20448
  21977128.960   115490560.96709  21977128.880    89992628.69248
  22815290.860   119895257.80309  22815298.260    93424925.68047
 15 03 02 09 51  0.0000000  0  9G02G03G06G07G09G10G20G23G30
  23276876.440   122320804.72608  23276876.680    95314901.89247
  23045095.080   121102723.49408  23045103.440    94365757.45147
  20797764.200   109292977.09309  20797768.660    85163369.01549
  21008803.780   110402025.70609  21008805.700    86027568.60748
  20607375.800   108292475.49809  20607378.760    84383748.95649
  21126938.360   111022805.58909  21126939.700    86511286.68948
  20643795.480   108483873.60909  20643796.200    84532885.63848
  21988729.300   115551521.14409  21988729.300    90040130.04147
  22795781.360   119792735.65309  22795788.840    93345038.45047
 15 03 02 09 51 30.0000000  0  9G02G03G06G07G09G10G20G23G30
  23261432.420   122239645.82208  23261432.660    95251661.18946
  23059075.860   121176192.00808  23059084.220    94423005.42147
  20797837.280   109293361.16709  20797841.820    85163668.25349
  20997822.360   110344317.91209  20997824.220    85982601.52848
  20612254.960   108318115.07409  20612257.840    84403727.80349
  21116081.460   110965752.30009  21116082.960    86466829.59148
  20635033.740   108437830.30709  20635034.440    84497007.74448
  22000353.240   115612605.76109  22000353.400    90087728.35147
  22776312.720   119690428.41309  22776320.240    93265318.69247
 15 03 02 09 52  0.0000000  0  9G02G03G06G07G09G10G20G23G30
  23246053.460   122158828.66508  23246053.640    95188686.78646
  23073097.600   121249875.52008  23073105.940    94480420.92547
  20798024.480   109294344.99409  20798029.080    85164434.83049
  20986929.540   110287075.98809  20986931.400    85937997.47648
  20617183.060   108344011.98309  20617185.920    84423907.17049
  21105269.680   110908936.51409  21105271.320    86422557.56248
  20626325.460   108392067.91609  20626326.140    84461348.74648
  22012000.700   115673813.72609  22012001.040    90135422.77348
  22756885.460   119588338.71508  22756893.040    93185768.46147
 15 03 02 09 52 30.0000000  0  9G02G03G06G07G09G10G20G23G30
  23230740.380   122078357.63708  23230740.440    95125982.07246
  23087160.600   121323775.64608  23087168.920    94538005.20647
  20798326.240   109295930.57509  20798330.920    85165670.30449
  20976126.080   110230303.63009  20976127.960    85893759.31448
  20622160.300   108370166.97809  20622163.140    84444287.63649
  21094503.680   110852361.41709  21094505.520    86378473.08348
  20617671.260   108346589.60209  20617671.860    84425911.10148
  22023671.820   115735145.79909  22023672.300    90183213.90747
  22737500.440   119486471.03308  22737508.060    93106391.22847
 15 03 02 09 53  0.0000000  0  9G02G03G06G07G09G10G20G23G30
  23215493.440   121998234.69708  23215493.580    95063548.60846
  23101264.660   121397891.68608  23101273.000    94595757.73947
  20798742.460   109298117.56609  20798747.140    85167374.40849
  20965412.280   110174002.17109  20965414.100    85849888.08048
  20627186.340   108396578.36109  20627189.100    84464867.88349
  21083783.700   110796028.16509  21083785.640    86334577.04948
  20609071.340   108301396.86709  20609071.980    84390695.98148
  22035366.340   115796600.88509  22035366.880    90231100.88247
  22718158.160   119384827.72109  22718165.780    93027188.83247
 15 03 02 09 53 30.0000000  0  9G02G03G06G07G09G10G20G23G30
  23200313.000   121918461.33808  23200313.320    95001387.55547
  23115409.540   121472222.38408  23115417.860    94653677.53647
  20799272.960   109300904.96009  20799277.560    85169546.35449
  20954788.280   110118172.23009  20954789.980    85806384.25948
  20632260.800   108423243.85009  20632263.420    84485646.13149
  21073109.940   110739937.26709  21073111.920    86290869.86648
  20600525.840   108256489.96909  20600526.520    84355703.60348
  22047083.940   115858176.58509  22047084.420    90279081.85947
  22698858.980   119283410.27709  22698866.440    92948162.43447
 15 03 02 09 54  0.0000000  0  9G02G03G06G07G09G10G20G23G30
  23185199.960   121839042.18708  23185200.480    94939502.49847
  23129595.600   121546769.62908  23129603.920    94711766.05747
  20799918.060   109304294.98909  20799922.620    85172187.89048
  20944254.800   110062817.67809  20944256.340    85763250.86448
  20637383.760   108450164.45109  20637386.300    84506623.17449
  21062483.040   110684092.36809  21062484.980    86247354.35848
  20592035.480   108211872.78709  20592036.180    84320936.96848
  22058824.760   115919874.31909  22058825.180    90327157.91747
  22679603.780   119182223.61309  22679611.060    92869315.87147
 15 03 02 09 54 30.0000000  0  9G02G03G06G07G09G10G20G23G30
  23170154.120   121759975.91908  23170154.800    94877892.42146
  23143822.140   121621529.69508  23143830.440    94770020.41047
  20800677.160   109308284.12009  20800681.720    85175296.24348
  20933811.400   110007936.55809  20933812.800    85720486.37148
  20642554.300   108477335.43609  20642556.780    84527795.31849
  21051902.580   110628491.45409  21051904.500    86204028.96748
  20583599.840   108167543.31509  20583600.500    84286394.51448
  22070587.960   115981689.44109  22070588.220    90375325.44447
  22660392.340   119081266.84509  22660399.400    92790648.42847
 15 03 02 09 55  0.0000000  0  9G02G03G06G07G09G10G20G23G30
  23155176.620   121681268.61008  23155177.280    94816562.05246
  23158089.680   121696505.52708  23158098.020    94828442.89947
  20801550.960   109312875.68409  20801555.520    85178874.03448
  20923458.960   109953533.67909  20923460.240    85678094.53448
  20647772.740   108504758.84109  20647775.300    84549164.15249
  21041369.460   110573139.21509  21041371.320    86160897.35148
  20575219.940   108123506.79609  20575220.540    84252080.34748
  22082373.820   116043624.06709  22082374.120    90423586.09147
  22641225.760   118980545.87409  22641232.600    92712164.73947
 15 03 02 09 55 30.0000000  0  9G02G03G06G07G09G10G20G23G30
  23140267.440   121602920.13008  23140268.000    94755511.29146
  23172397.720   121771694.46208  23172406.180    94887031.42547
  20802538.940   109318067.13309  20802543.500    85182919.26649
  20913197.340   109899608.58409  20913198.580    85636074.99848
  20653038.480   108532431.06209  20653041.180    84570726.87549
  21030883.440   110518034.87109  21030885.320    86117958.91048
  20566895.700   108079762.33009  20566896.220    84217993.74648
  22094181.760   116105674.80309  22094182.060    90471937.21247
  22622104.060   118880060.98109  22622110.700    92633864.99847
 15 03 02 09 56  0.0000000  0  9G02G03G06G07G09G10G20G23G30
  23125427.140   121524933.63808  23125427.560    94694742.59847
  23186746.500   121847096.90608  23186755.080    94945786.32447
  20803641.220   109323859.19109  20803645.700    85187432.49449
  20903026.960   109846163.13109  20903028.220    85594429.19649
  20658351.500   108560351.59109  20658354.400    84592483.07649
  21020445.000   110463180.60609  21020446.900    86075215.31948
  20558627.460   108036312.23909  20558627.940    84184136.52848
  22106011.800   116167841.53609  22106012.000    90520378.72047
  22603027.840   118779815.42709  22603034.380    92555751.74647
 15 03 02 09 56 30.0000000  0  9G02G03G06G07G09G10G20G23G30
  23110656.040   121447310.38208  23110656.300    94634256.94846
  23201135.720   121922711.49008  23201144.360    95004706.53647
  20804857.520   109330250.60509  20804861.960    85192412.76148
  20892947.940   109793197.93909  20892949.240    85553157.63248
  20663711.420   108588518.13209  20663714.400    84614430.98949
  21010054.240   110408576.86509  21010056.140    86032666.94448
  20550415.340   107993157.19609  20550415.820    84150509.23148
  22117863.500   116230122.30109  22117863.840    90568909.07447
  22583997.380   118679810.81009  22584003.940    92477826.24247
 15 03 02 09 57  0.0000000  0  9G02G03G06G07G09G10G20G23G30
  23095955.200   121370056.75908  23095955.360    94574059.31247
  23215565.940   121998541.58408  23215574.620    95063794.66147
  20806188.580   109337244.96209  20806193.000    85197862.84449
  20882961.380   109740718.45609  20882962.700    85512264.53948
  20669118.660   108616933.17309  20669121.660    84636572.52849
  20999712.200   110354228.91509  20999714.080    85990317.88948
  20542260.300   107950302.35109  20542260.820    84117115.83648
  22129737.480   116292519.63309  22129737.740    90617530.27347
  22565013.960   118580053.46009  22565020.640    92400093.40147
 15 03 02 09 57 30.0000000  0  9G02G03G06G07G09G10G20G23G30
  23081324.620   121293172.37208  23081324.760    94514149.38547
  23230036.580   122074584.31708  23230045.320    95123048.48247
  20807633.800   109344839.52109  20807638.240    85203780.62349
  20873067.000   109688723.27509  20873068.400    85471748.82648
  20674572.440   108645592.91709  20674575.460    84658904.74349
  20989418.680   110300135.68909  20989420.460    85948167.31548
  20534162.100   107907746.50909  20534162.680    84083955.43648
  22141632.900   116355030.11209  22141633.120    90666239.62047
  22546077.560   118480543.37509  22546084.400    92322553.23147
 15 03 02 09 58  0.0000000  0  9G02G03G06G07G09G10G20G23G30
  23066764.540   121216658.43808  23066764.680    94454528.11847
  23244547.420   122150838.29208  23244556.200    95182466.90247
  20809193.020   109353033.05409  20809197.520    85210165.13549
  20863264.860   109637212.87609  20863266.340    85431610.86749
  20680072.420   108674495.12609  20680075.340    84681425.89749
  20979173.660   110246297.72209  20979175.360    85906215.65748
  20526121.100   107865490.85209  20526121.680    84051028.94048
  22153549.520   116417651.47109  22153549.720    90715035.37047
  22527188.600   118381282.15109  22527195.540    92245206.97847
 15 03 02 09 58 30.0000000  0  9G02G03G06G07G09G10G20G23G30
  23052275.980   121140520.56008  23052276.240    94395199.89547
  23259098.960   122227306.30008  23259107.820    95242052.11147
  20810866.740   109361828.42509  20810871.340    85217018.61649
  20853555.900   109586191.97309  20853557.380    85391854.33148
  20685618.880   108703641.67309  20685621.720    84704137.45249
  20968978.040   110192719.58809  20968979.700    85864466.47148
  20518138.100   107823539.72609  20518138.700    84018339.75648
  22165487.720   116480386.28409  22165487.900    90763919.52747
  22508348.120   118282275.52709  22508355.140    92168059.10948
 15 03 02 09 59  0.0000000  0  9G02G03G06G07G09G10G20G23G30
  23037858.940   121064758.58208  23037859.300    94336164.57547
  23273690.640   122303985.27608  23273699.580    95301801.70247
  20812654.500   109371222.68709  20812659.080    85224338.76449
  20843939.860   109535659.29709  20843941.260    85352478.23748
  20691211.040   108733028.65909  20691213.840    84727036.36349
  20958831.580   110139400.02709  20958833.260    85822918.76848
  20510212.920   107781892.12209  20510213.480    83985887.07648
  22177446.760   116543230.51009  22177446.860    90812888.93947
  22489556.160   118183523.35309  22489563.140    92091109.50648
 15 03 02 09 59 30.0000000  0  9G02G03G06G07G09G10G20G23G30
  23023513.800   120989374.86208  23023514.240    94277423.99547
  23288322.380   122380875.04208  23288331.500    95361715.54647
  20814556.220   109381215.74109  20814560.740    85232125.50649
  20834416.980   109485616.33509  20834418.360    85313483.73548
  20696848.760   108762655.04309  20696851.580    84750121.81849
  20948734.640   110086340.94309  20948736.500    85781574.03748
  20502345.860   107740549.82009  20502346.380    83953672.28748
  22189426.540   116606183.62209  22189426.580    90861943.18547
  22470813.180   118085028.41709  22470820.040    92014360.34548
 15 03 02 10 00  0.0000000  0  9G02G03G06G07G09G10G20G23G30
  23009241.700   120914374.94308  23009242.240    94218982.46947
  23302994.820   122457978.48608  23303004.000    95421795.88347
  20816572.380   109391810.52609  20816576.960    85240381.11549
  20824988.160   109436067.82009  20824989.560    85274874.51348
  20702532.420   108792522.86209  20702535.240    84773395.39649
  20938688.120   110033547.04409  20938690.140    85740435.93648
  20494537.800   107699517.55709  20494538.260    83921699.08148
  22201427.380   116669247.77609  22201427.460    90911083.94347
  22452120.220   117986796.52009  22452127.020    91937816.13548
 15 03 02 10 00 30.0000000  0  9G02G03G06G07G09G10G20G23G30
  22995042.360   120839756.90208  22995042.940    94160838.52547
  23317707.060   122535290.76208  23317716.360    95482038.95747
  20818702.180   109403002.27509  20818706.760    85249101.91149
  20815652.860   109387010.73909  20815654.280    85236648.23948
  20708261.000   108822626.43009  20708263.800    84796852.69149
  20928691.520   109981015.16309  20928693.600    85699502.01148
  20486788.240   107658792.62709  20486788.620    83889965.35948
  22213448.200   116732417.23609  22213448.360    90960306.77247
  22433476.920   117888825.82409  22433483.660    91861475.47648
 15 03 02 10 01  0.0000000  0  9G02G03G06G07G09G10G20G23G30
  22980916.640   120765525.97908  22980917.320    94102996.22747
  23332459.500   122612814.47208  23332468.920    95542446.76547
  20820946.080   109414793.55509  20820950.580    85258289.86849
  20806411.860   109338449.12509  20806413.300    85198808.03448
  20714034.800   108852967.54409  20714037.600    84820495.07549
  20918745.740   109928749.90709  20918747.880    85658775.83648
  20479098.060   107618379.74409  20479098.260    83858474.78448
  22225489.440   116795694.44009  22225489.760    91009613.54347
  22414884.380   117791121.85309  22414891.040    91785342.64948
 15 03 02 10 01 30.0000000  0  9G02G03G06G07G09G10G20G23G30
  22966864.660   120691682.27908  22966865.380    94045455.66547
  23347251.740   122690547.04908  23347261.240    95603017.33747
  20823303.520   109427181.84909  20823308.060    85267943.02149
  20797265.100   109290382.55309  20797266.520    85161353.58348
  20719853.100   108883542.81509  20719855.940    84844319.91448
  20908850.700   109876750.56409  20908852.700    85618256.86548
  20471466.940   107578278.01909  20471467.080    83827226.67948
  22237550.600   116859076.35309  22237551.020    91059001.90547
  22396342.660   117693684.96909  22396349.200    91709417.93148
 15 03 02 10 02  0.0000000  0  9G02G03G06G07G09G10G20G23G30
  22952886.960   120618228.62508  22952887.600    93988219.02147
  23362083.760   122768488.58908  23362093.300    95663750.72747
  20825774.580   109440167.21509  20825779.140    85278061.42149
  20788212.920   109242812.77609  20788214.280    85124286.24148
  20725715.740   108914351.52909  20725718.720    84868326.64949
  20899006.720   109825019.37209  20899008.580    85577946.84148
  20463895.320   107538489.62809  20463895.560    83796222.72648
  22249631.680   116922562.59709  22249632.200    91108471.56247
  22377852.340   117596518.29409  22377858.760    91633703.76047
 15 03 02 10 02 30.0000000  0  9G02G03G06G07G09G10G20G23G30
  22938984.000   120545168.04008  22938984.720    93931288.68947
  23376955.580   122846639.50808  23376965.200    95724647.27147
  20828359.400   109453749.96309  20828363.960    85288645.33549
  20779255.520   109195741.47909  20779256.920    85087607.33548
  20731622.700   108945393.28709  20731625.760    84892514.98048
  20889214.300   109773558.71209  20889215.940    85537847.62548
  20456383.780   107499017.13309  20456384.200    83765464.91748
  22261732.540   116986152.70409  22261733.100    91158022.15047
  22359414.080   117499625.11709  22359420.380    91558202.70847
 15 03 02 10 03  0.0000000  0  9G02G03G06G07G09G10G20G23G30
  22925156.540   120472504.35508  22925157.200    93874667.61747
  23391867.360   122925000.82908  23391877.200    95785707.74147
  20831058.100   109467931.16509  20831062.620    85299695.57149
  20770393.560   109149171.70409  20770395.000    85051319.21548
  20737574.140   108976668.38609  20737577.200    84916885.13849
  20879473.840   109722371.24609  20879475.280    85497961.28248
  20448933.060   107459863.70809  20448933.560    83734955.73648
  22273853.260   117049847.53809  22273853.920    91207654.34547
  22341028.700   117403009.49309  22341034.940    91482917.92448
 15 03 02 10 03 30.0000000  0  9G02G03G06G07G09G10G20G23G30
  22911404.240   120400235.79108  22911404.860    93818354.44047
  23406818.440   123003567.95308  23406828.360    95846928.58847
  20833869.700   109482706.09109  20833874.220    85311208.45049
  20761626.560   109103100.73509  20761627.940    85015419.77949
  20743569.040   109008171.38809  20743572.040    84941432.88749
  20869784.780   109671454.40309  20869786.140    85458285.82448
  20441542.560   107421026.54809  20441543.140    83704692.99948
  22285992.900   117113641.65609  22285993.680    91257363.90847
  22322695.860   117306669.77109  22322702.000    91407848.13448
 15 03 02 10 04  0.0000000  0  9G02G03G06G07G09G10G20G23G30
  22897728.380   120328368.92508  22897729.040    93762354.26447
  23421809.420   123082344.43908  23421819.280    95908312.55847
  20836794.920   109498078.20509  20836799.420    85323186.65748
  20752955.320   109057533.24209  20752956.740    84979912.65248
  20749607.860   109039905.13109  20749610.780    84966160.41049
  20860148.220   109620813.88109  20860149.580    85418825.66248
  20434213.220   107382511.09509  20434213.960    83674680.92548
  22298152.100   117177538.10009  22298152.860    91307153.19947
  22304416.700   117210612.40509  22304422.840    91332998.34348
 15 03 02 10 04 30.0000000  0  9G02G03G06G07G09G10G20G23G30
  22884128.860   120256903.04108  22884129.540    93706666.55247
  23436839.680   123161327.38608  23436849.500    95969857.42546
  20839833.260   109514044.49309  20839837.700    85335627.87148
  20744379.700   109012468.49109  20744381.220    84944797.28848
  20755689.900   109071865.96509  20755692.800    84991064.89448
  20850564.060   109570448.75109  20850565.460    85379580.10548
  20426944.960   107344316.62409  20426945.840    83644918.98248
  22310330.300   117241534.01109  22310331.000    91357020.01047
  22286191.280   117114837.53609  22286197.440    91258368.69848
 15 03 02 10 05  0.0000000  0  9G02G03G06G07G09G10G20G23G30
  22870606.140   120185840.55708  22870606.700    93651293.16447
  23451909.200   123240516.61108  23451919.020    96031563.03047
  20842984.620   109530604.61809  20842988.960    85348531.81349
  20735899.980   108967907.65609  20735901.560    84910074.57449
  20761814.980   109104052.95009  20761817.880    85016145.60449
  20841032.620   109520360.84809  20841034.060    85340550.56048
  20419738.220   107306445.12409  20419739.140    83615408.69748
  22322527.240   117305628.49409  22322527.980    91406963.63447
  22268020.100   117019347.89309  22268026.280    91183961.29248
 15 03 02 10 05 30.0000000  0  9G02G03G06G07G09G10G20G23G30
  22857160.920   120115185.06009  22857161.500    93596236.92647
  23467018.060   123319912.69008  23467027.900    96093429.80846
  20846249.020   109547759.01609  20846253.380    85361898.81949
  20727516.600   108923853.16709  20727518.240    84875746.41748
  20767983.080   109136465.94509  20767985.980    85041402.42449
  20831554.360   109470552.57909  20831555.980    85301738.91748
  20412593.500   107268898.99109  20412594.280    83586151.94048
  22334742.960   117369821.91009  22334743.640    91456984.33247
  22249903.860   116924147.05809  22249910.080    91109778.93448
 15 03 02 10 06  0.0000000  0  9G02G03G06G07G09G10G20G23G30
  22843794.040   120044940.94109  22843794.560    93541501.22847
  23482166.560   123399517.27608  23482176.400    96155459.07047
  20849626.760   109565509.16009  20849631.180    85375730.04349
  20719230.200   108880308.07509  20719231.840    84841815.20149
  20774194.420   109169105.85609  20774197.260    85066836.06649
  20822130.060   109421027.75809  20822131.800    85263148.14248
  20405511.440   107231682.03109  20405512.020    83557151.67448
  22346977.840   117434115.34609  22346978.300    91507082.98747
  22231843.420   116829239.61509  22231849.700    91035825.19648
 15 03 02 10 06 30.0000000  0  9G02G03G06G07G09G10G20G23G30
  22830505.200   119975106.60409  22830505.720    93487084.83747
  23497353.980   123479326.29308  23497363.860    96217647.61446
  20853117.120   109583850.80509  20853121.580    85390022.17449
  20711040.280   108837269.98909  20711041.920    84808279.04449
  20780447.980   109201967.96809  20780450.860    85092442.83749
  20812759.320   109371784.27709  20812761.120    85224776.58848
  20398491.620   107194792.36209  20398492.160    83528406.44548
  22359230.780   117498504.19509  22359231.220    91557255.98847
  22213838.580   116734624.48509  22213844.960    90962099.23048
 15 03 02 10 07  0.0000000  0  9G02G03G06G07G09G10G20G23G30
  22817295.020   119905685.49909  22817295.340    93432990.45347
  23512580.380   123559340.32208  23512590.360    96279995.89546
  20856720.060   109602784.25909  20856724.620    85404775.46649
  20702947.340   108794741.20509  20702948.960    84775139.74649
  20786743.740   109235052.08709  20786746.680    85118222.61049
  20803442.580   109322824.75309  20803444.440    85186626.30448
  20391534.600   107158232.81309  20391535.160    83499918.46448
  22371501.840   117562988.45609  22371502.340    91607503.33847
  22195890.000   116640305.17209  22195896.480    90888603.78448
 15 03 02 10 07 30.0000000  0  9G02G03G06G07G09G10G20G23G30
  22804163.920   119836680.40609  22804164.280    93379220.23147
  23527845.800   123639559.55308  23527855.880    96342504.07347
  20860435.600   109622309.55309  20860440.260    85419989.92049
  20694951.620   108752723.28909  20694953.220    84742398.53649
  20793081.620   109268357.81109  20793084.620    85144175.05949
  20794180.240   109274151.41709  20794182.140    85148699.02248
  20384640.740   107122005.17609  20384641.380    83471689.11048
  22383791.160   117627568.57509  22383791.640    91657825.37847
  22177998.320   116546284.87809  22178004.920    90815341.33048
 15 03 02 10 08  0.0000000  0  9G02G03G06G07G09G10G20G23G30
  22791112.620   119768095.37008  22791112.960    93325777.30847
  23543150.460   123719985.31908  23543160.680    96405173.18046
  20864263.980   109642427.72609  20864268.660    85435666.35249
  20687053.680   108711219.16609  20687055.260    84710057.67149
  20799461.780   109301885.70209  20799464.800    85170300.62549
  20784973.060   109225767.62709  20784974.960    85110997.34748
  20377810.720   107086112.95509  20377811.400    83443721.11148
  22396098.760   117692244.73509  22396099.260    91708222.25847
  22160164.400   116452567.86909  22160171.020    90742315.19748
 15 03 02 10 08 30.0000000  0  9G02G03G06G07G09G10G20G23G30
  22778140.920   119699929.01309  22778141.300    93272660.64447
  23558493.640   123800613.56508  23558503.980    96468000.06946
  20868204.380   109663134.45209  20868209.000    85451801.40248
  20679253.040   108670226.51609  20679254.620    84678115.36048
  20805883.300   109335631.10109  20805886.360    85196595.68649
  20775820.660   109177671.33309  20775822.520    85073519.69948
  20371044.080   107050554.23009  20371044.860    83416012.98948
  22408423.880   117757013.21809  22408424.540    91758691.07147
  22142388.100   116359153.10709  22142394.680    90669524.58348
 15 03 02 10 09  0.0000000  0  9G02G03G06G07G09G10G20G23G30
  22765249.440   119632184.43009  22765249.880    93219872.62647
  23573875.440   123881444.61108  23573885.820    96530984.98446
  20872256.700   109684429.85809  20872261.400    85468395.14949
  20671550.020   108629747.14309  20671551.640    84646572.99649
  20812346.180   109369593.69709  20812349.300    85223059.99149
  20766723.460   109129865.08009  20766725.220    85036268.05748
  20364341.400   107015331.50309  20364342.220    83388566.67148
  22420766.520   117821873.94809  22420767.300    91809231.75847
  22124669.920   116266043.88209  22124676.440    90596972.04448
 15 03 02 10 09 30.0000000  0  9G02G03G06G07G09G10G20G23G30
  22752438.840   119564864.82408  22752439.380    93167415.76047
  23589295.980   123962479.04708  23589306.380    96594128.40446
  20876421.120   109706314.11209  20876425.860    85485447.75148
  20663945.000   108589783.11109  20663946.700    84615432.20048
  20818850.300   109403773.43309  20818853.540    85249693.49448
  20757681.860   109082351.37209  20757683.700    84999244.38048
  20357703.220   106980447.53209  20357704.040    83361384.32848
  22433126.740   117886826.97209  22433127.420    91859844.36947
  22107010.640   116173243.72109  22107016.960    90524660.33548
 15 03 02 10 10  0.0000000  0  9G02G03G06G07G09G10G20G23G30
  22739709.380   119497971.36808  22739710.000    93115290.96847
  23604754.860   124043714.99508  23604765.380    96657428.83146
  20880697.260   109728785.05609  20880702.000    85502957.50648
  20656437.980   108550334.14509  20656439.820    84584692.75448
  20825395.240   109438167.75509  20825398.640    85276494.20548
  20748695.960   109035130.41409  20748697.880    84962448.81448
  20351129.420   106945901.99009  20351130.220    83334465.70348
  22445504.140   117951869.93009  22445504.740    91910527.06147
  22089410.400   116080753.72009  22089416.500    90452590.30048
 15 03 02 10 10 30.0000000  0  9G02G03G06G07G09G10G20G23G30
  22727061.120   119431504.32108  22727061.720    93063498.42947
  23620251.800   124125150.64008  23620262.440    96720884.86146
  20885084.620   109751840.52009  20885089.420    85520922.72749
  20649028.880   108511399.48209  20649030.780    84554354.06049
  20831980.560   109472774.24209  20831984.120    85303460.24449
  20739765.800   108988202.33509  20739767.820    84925881.46848
  20344620.160   106911695.54809  20344620.960    83307811.31248
  22457898.240   118017001.08409  22457898.880    91961278.46047
  22071869.400   115988575.01109  22071875.300    90380762.83148
 15 03 02 10 11  0.0000000  0  9G02G03G06G07G09G10G20G23G30
  22714495.480   119365471.45808  22714496.100    93012044.22647
  23635787.740   124206790.85908  23635798.400    96784500.28846
  20889584.060   109775485.04309  20889588.960    85539346.95149
  20641719.060   108472985.89309  20641720.880    84524421.38349
  20838607.160   109507597.19209  20838610.700    85330594.95049
  20730892.760   108941574.24509  20730894.800    84889547.86248
  20338176.780   106877835.16309  20338177.600    83281426.57048
  22470309.980   118082224.76109  22470310.620    92012101.96747
  22054389.080   115896715.45909  22054394.880    90309184.05448
 15 03 02 10 11 30.0000000  0  9G02G03G06G07G09G10G20G23G30
  22702011.880   119299869.56808  22702012.480    92960925.83247
  23651361.540   124288629.69908  23651372.140    96848270.49146
  20894194.440   109799712.25409  20894199.320    85558225.21349
  20634507.540   108435088.97409  20634509.340    84494891.30849
  20845273.800   109542630.02509  20845277.180    85357893.21149
  20722076.000   108895242.19709  20722078.120    84853444.95048
  20331798.560   106844316.99409  20331799.380    83255308.49448
  22482738.240   118147535.02509  22482738.960    92062992.93047
  22036968.880   115805172.06609  22036974.660    90237851.63048
 15 03 02 10 12  0.0000000  0  9G02G03G06G07G09G10G20G23G30
  22689611.360   119234704.46708  22689612.000    92910147.81047
  23666973.720   124370670.39608  23666984.380    96912197.98447
  20898916.300   109824525.00709  20898921.160    85577559.75049
  20627395.140   108397713.13609  20627396.980    84465767.27449
  20851980.900   109577875.38309  20851984.220    85385357.07749
  20713316.720   108849211.74909  20713318.820    84817577.04848
  20325486.380   106811146.28609  20325487.240    83229461.17048
  22495183.400   118212934.67209  22495184.300    92113953.54347
  22019609.980   115713951.00109  22019615.800    90166770.37748
 15 03 02 10 12 30.0000000  0  9G02G03G06G07G09G10G20G23G30
  22677294.200   119169977.16708  22677294.740    92859710.92347
  23682623.900   124452911.41708  23682634.660    96976281.56746
  20903749.240   109849921.39809  20903754.020    85597349.06049
  20620381.920   108360858.45809  20620383.800    84437049.33549
  20858728.060   109613331.23809  20858731.280    85412984.95749
  20704614.960   108803483.04809  20704616.960    84781944.27348
  20319240.420   106778323.89409  20319241.320    83203885.26248
  22507645.380   118278422.45609  22507646.300    92164982.83547
  22002312.760   115623053.80609  22002318.560    90095941.48048
 15 03 02 10 13  0.0000000  0  9G02G03G06G07G09G10G20G23G30
  22665060.480   119105688.08309  22665060.960    92809615.50047
  23698311.760   124535350.35908  23698322.560    97040519.38847
  20908692.640   109875898.56809  20908697.380    85617590.92449
  20613467.740   108324524.01509  20613469.520    84408736.77049
  20865514.680   109648994.60709  20865517.800    85440774.54249
  20695970.700   108758056.20909  20695972.580    84746546.70848
  20313060.760   106745849.61109  20313061.660    83178580.60548
  22520123.640   118343994.92009  22520124.520    92216078.12347
  21985077.260   115532480.97409  21985083.060    90025365.33148
 15 03 02 10 13 30.0000000  0  9G02G03G06G07G09G10G20G23G30
  22652910.760   119041840.26709  22652911.220    92759863.91547
  23714037.320   124617987.39708  23714048.180    97104911.55347
  20913746.500   109902456.19809  20913751.200    85638285.09148
  20606652.800   108288711.15909  20606654.500    84380830.64448
  20872340.680   109684865.07809  20872343.860    85468725.49448
  20687384.200   108712933.26109  20687385.960    84711385.93848
  20306947.700   106713725.15609  20306948.560    83153548.54248
  22532617.960   118409652.45509  22532619.060    92267239.67947
  21967904.060   115442235.65809  21967909.920    89955044.38348
 15 03 02 10 14  0.0000000  0  9G02G03G06G07G09G10G20G23G30
  22640845.760   118978437.78009  22640846.100    92710459.33747
  23729800.880   124700824.29208  23729811.860    97169459.44947
  20918910.980   109929595.60809  20918915.740    85659432.60449
  20599937.820   108253423.34309  20599939.420    84353333.64549
  20879206.260   109720943.89109  20879209.520    85496838.79449
  20678856.260   108668118.20109  20678857.920    84676465.08348
  20300902.000   106681954.64909  20300902.840    83128792.28448
  22545128.700   118475396.32809  22545129.960    92318468.50247
  21950794.040   115352322.55309  21950799.960    89884982.31448
 15 03 02 10 14 30.0000000  0  9G02G03G06G07G09G10G20G23G30
  22628865.600   118915481.57509  22628866.020    92661402.51947
  23745602.040   124783859.36008  23745613.260    97234161.75846
  20924185.740   109957314.65909  20924190.580    85681031.76849
  20593322.760   108218660.26709  20593324.220    84326245.52549
  20886111.080   109757228.87109  20886114.340    85525112.74549
  20670386.960   108623611.46909  20670388.520    84641784.48048
  20294923.700   106650538.48909  20294924.560    83104312.14348
  22557655.660   118541225.32409  22557656.880    92369763.67347
  21933747.460   115262743.00109  21933753.480    89815180.14748
 15 03 02 10 15  0.0000000  0  9G02G03G06G07G09G10G20G23G30
  22616970.520   118852972.38909  22616970.940    92612694.01847
  23761440.560   124867090.75808  23761452.040    97299017.04547
  20929570.300   109985610.95409  20929575.280    85703080.73949
  20586807.320   108184421.32209  20586808.760    84299565.83449
  20893054.660   109793717.63009  20893057.980    85553545.47449
  20661976.400   108579413.53809  20661977.960    84607344.51248
  20289012.980   106619477.20909  20289013.820    83080108.53648
  22570198.340   118607136.88009  22570199.540    92421123.16547
  21916764.580   115173498.04509  21916770.640    89745638.70748
 15 03 02 10 15 30.0000000  0  9G02G03G06G07G09G10G20G23G30
  22605160.640   118790910.62809  22605161.080    92564334.17147
  23777315.980   124950516.21408  23777327.700    97364023.53446
  20935064.220   110014481.74909  20935069.320    85725577.37448
  20580391.280   108150705.57709  20580392.880    84273293.83549
  20900036.520   109830407.44409  20900039.860    85582134.87248
  20653624.520   108535524.02609  20653626.100    84573144.86548
  20283169.840   106588770.66509  20283170.600    83056181.33348
  22582756.320   118673128.81709  22582757.600    92472545.29347
  21899845.560   115084588.43609  21899851.600    89676358.57248
 15 03 02 10 16  0.0000000  0  9G02G03G06G07G09G10G20G23G30
  22593437.080   118729302.68909  22593437.560    92516327.94847
  23793229.080   125034139.28108  23793240.960    97429184.00046
  20940668.120   110043929.99309  20940673.200    85748523.97049
  20574075.720   108117518.06809  20574077.520    84247433.44549
  20907057.220   109867301.33809  20907060.580    85610883.29748
  20645332.400   108491948.74109  20645334.040    84539190.06348
  20277395.260   106558424.59909  20277396.000    83032535.02948
  22595330.120   118739204.38209  22595331.520    92524032.57347
  21882991.620   114996020.63909  21882997.600    89607344.77548
 15 03 02 10 16 30.0000000  0  9G02G03G06G07G09G10G20G23G30
  22581800.160   118668150.37209  22581800.640    92468676.76147
  23809179.700   125117959.35708  23809191.720    97494497.98246
  20946381.720   110073954.55409  20946386.780    85771919.64448
  20567860.960   108084859.33609  20567862.780    84221985.08049
  20914116.560   109904398.24609  20914119.920    85639789.92248
  20637100.380   108448689.48909  20637102.160    84505481.53048
  20271689.460   106528440.46209  20271690.260    83009170.74648
  22607919.720   118805363.12109  22607921.140    92575584.68847
  21866203.240   114907797.03809  21866209.140    89538599.19048
 15 03 02 10 17  0.0000000  0  9G02G03G06G07G09G10G20G23G30
  22570249.480   118607451.35409  22570249.980    92421378.78747
  23825166.920   125201971.29908  23825178.940    97559961.45046
  20952203.940   110104549.71709  20952208.880    85795759.93449
  20561746.180   108052725.76109  20561747.980    84196945.93349
  20921213.480   109941692.57609  20921216.880    85668850.37348
  20628927.900   108405743.12709  20628929.740    84472016.79948
  20266051.940   106498815.09709  20266052.800    82986086.00948
  22620524.180   118871599.89509  22620525.720    92627197.57847
  21849479.900   114819915.41609  21849485.740    89470120.07648
 15 03 02 10 17 30.0000000  0  9G02G03G06G07G09G10G20G23G30
  22558786.140   118547211.38308  22558786.640    92374438.50447
  23841191.300   125286178.27108  23841203.220    97625576.92346
  20958135.200   110135718.01809  20958140.040    85820046.83049
  20555732.200   108021121.61809  20555733.860    84172319.32449
  20928348.480   109979187.02309  20928351.900    85698066.75048
  20620816.060   108363115.08609  20620817.920    84438800.11548
  20260483.720   106469553.82509  20260484.600    82963284.98748
  22633144.020   118937917.47909  22633145.700    92678873.43947
  21832822.820   114732381.91809  21832828.560    89401912.21548
 15 03 02 10 18  0.0000000  0  9G02G03G06G07G09G10G20G23G30
  22547410.480   118487432.10109  22547411.000    92327857.21147
  23857252.760   125370579.56608  23857264.480    97691343.81446
  20964175.240   110167458.23009  20964180.120    85844779.36748
  20549819.220   107990047.68909  20549820.640    84148105.87749
  20935521.420   110016880.46009  20935524.760    85727438.20548
  20612765.220   108320806.87609  20612766.920    84405832.65148
  20254985.100   106440658.36309  20254985.980    82940769.01648
  22645779.080   119004314.99409  22645780.820    92730611.58447
  21816232.420   114645198.77709  21816238.060    89333977.37048
 15 03 02 10 18 30.0000000  0  9G02G03G06G07G09G10G20G23G30
  22536122.480   118428113.18209  22536123.060    92281634.64447
  23873350.660   125455172.23908  23873362.240    97757259.85545
  20970323.400   110199766.68009  20970328.280    85869954.68348
  20544006.820   107959502.13409  20544008.000    84124304.15349
  20942731.580   110054769.52609  20942734.900    85756962.09148
  20604775.080   108278817.62209  20604776.660    84373113.73548
  20249555.980   106412127.89009  20249556.820    82918537.45248
  22658428.960   119070789.61109  22658430.660    92782409.80947
  21799708.680   114558366.00309  21799714.280    89266315.53948
 15 03 02 10 19  0.0000000  0  9G02G03G06G07G09G10G20G23G30
  22524922.600   118369257.48609  22524923.280    92235773.02647
  23889485.040   125539956.66608  23889496.500    97823325.28045
  20976579.620   110232643.11409  20976584.520    85895572.58848
  20538295.280   107929486.86409  20538296.300    84100915.62749
  20949978.880   110092854.13409  20949982.220    85786638.33448
  20596846.020   108237149.82809  20596847.540    84340645.29848
  20244196.740   106383964.61309  20244197.520    82896592.00048
  22671093.540   119137341.64509  22671095.360    92834268.34246
  21783252.180   114471886.85909  21783257.800    89198929.25748
 15 03 02 10 19 30.0000000  0  9G02G03G06G07G09G10G20G23G30
  22513811.260   118310866.90909  22513812.080    92190273.85047
  23905655.720   125624931.74608  23905667.080    97889539.28646
  20982943.600   110266085.80509  20982948.560    85921631.73048
  20532684.480   107900001.60609  20532685.500    84077940.09749
  20957263.040   110131132.86109  20957266.480    85816465.85448
  20588978.240   108195804.70409  20588979.880    84308428.30248
  20238907.560   106356169.66109  20238908.300    82874933.56948
  22683772.740   119203970.31809  22683774.520    92886186.61547
  21766863.280   114385763.27509  21766868.940    89131820.04048
 15 03 02 10 20  0.0000000  0  9G02G03G06G07G09G10G20G23G30
  22502788.660   118252942.61008  22502789.560    92145138.00047
  23921862.320   125710096.15708  23921873.820    97955900.81246
  20989415.000   110300092.76609  20989419.980    85948130.55048
  20527174.460   107871046.53409  20527175.560    84055377.70249
  20964583.860   110169603.96909  20964587.380    85846443.26948
  20581171.880   108154783.03809  20581173.800    84276463.33848
  20233688.620   106328743.85109  20233689.300    82853562.77448
  22696466.220   119270673.78909  22696467.840    92938163.18247
  21750542.400   114299996.81109  21750548.060    89064989.08748
 15 03 02 10 20 30.0000000  0  9G02G03G06G07G09G10G20G23G30
  22491855.860   118195490.42908  22491856.740    92100370.04247
  23938105.540   125795453.46408  23938117.260    98022412.63346
  20995994.320   110334666.82409  20995999.280    85975071.27648
  20521766.220   107842626.58509  20521767.440    84033232.29349
  20971941.960   110208270.62809  20971945.460    85876573.07648
  20573428.140   108114090.61809  20573430.380    84244754.94548
  20228541.020   106301693.02309  20228541.680    82832484.17648
  22709174.560   119337455.62609  22709176.200    92990200.79947
  21734290.720   114214593.98709  21734296.380    88998441.49748
 15 03 02 10 21  0.0000000  0  9G02G03G06G07G09G10G20G23G30
  22481012.460   118138507.90408  22481013.300    92055968.04647
  23954384.460   125880998.34208  23954396.380    98089070.61746
  21002680.320   110369801.97309  21002685.400    86002449.20349
  20516458.940   107814737.31309  20516460.280    84011500.38449
  20979336.120   110247127.14309  20979339.700    85906850.80649
  20565746.620   108073724.60209  20565749.020    84213300.87348
  20223464.200   106275014.02809  20223464.840    82811695.31148
  22721896.920   119404310.76009  22721898.600    93042295.53047
  21718107.800   114129552.39709  21718113.380    88932175.37948
 15 03 02 10 21 30.0000000  0  9G02G03G06G07G09G10G20G23G30
  22470259.200   118081998.91509  22470259.900    92011935.03747
  23970699.300   125966732.38508  23970711.440    98155876.00147
  21009473.200   110405498.99809  21009478.420    86030264.96149
  20511253.220   107787381.41909  20511254.580    83990184.09749
  20986766.620   110286174.75809  20986770.320    85937277.44149
  20558128.080   108033688.78109  20558130.440    84182104.09748
  20218458.900   106248710.62809  20218459.460    82791199.12348
  22734633.580   119471240.76009  22734635.140    93094448.60947
  21701994.500   114044876.57109  21701999.960    88866194.26048
 15 03 02 10 22  0.0000000  0  9G02G03G06G07G09G10G20G23G30
  22459597.040   118025968.56909  22459597.760    91968274.99447
  23987050.560   126052658.09008  23987062.960    98222830.71746
  21016373.340   110441759.74909  21016378.720    86058519.98348
  20506149.800   107760562.88409  20506151.180    83969286.53449
  20994233.920   110325415.65509  20994237.660    85967854.67449
  20550573.300   107993987.87309  20550575.600    84151168.30048
  20213525.980   106222787.64309  20213526.540    82770999.35648
  22747384.880   119538248.19509  22747386.460    93146662.00547
  21685951.820   113960571.93709  21685957.280    88800502.38648
 15 03 02 10 22 30.0000000  0  9G02G03G06G07G09G10G20G23G30
  22449025.120   117970412.82209  22449026.000    91924984.76947
  24003436.980   126138768.70708  24003449.660    98289929.51246
  21023379.340   110478576.71209  21023384.860    86087208.42148
  20501147.680   107734276.26909  20501149.000    83948803.44949
  21001736.680   110364842.78609  21001740.460    85998577.02949
  20543081.360   107954617.35709  20543083.620    84120489.94848
  20208664.520   106197240.49109  20208665.160    82751092.44548
  22760149.480   119605326.27209  22760151.200    93198930.43747
  21669979.060   113876634.69009  21669984.500    88735096.78248
 15 03 02 10 23  0.0000000  0  9G02G03G06G07G09G10G20G23G30
  22438544.280   117915335.58109  22438545.200    91882067.40647
  24019858.940   126225065.93008  24019871.800    98357173.71846
  21030491.320   110515950.76309  21030497.020    86116330.95448
  20496247.260   107708524.10409  20496248.520    83928736.82749
  21009275.180   110404457.50309  21009278.980    86029445.55448
  20535653.080   107915580.92309  20535655.200    84090071.92448
  20203875.160   106172072.54409  20203875.900    82731481.01948
  22772927.940   119672476.85409  22772929.760    93251255.39047
  21654077.100   113793069.44109  21654082.520    88669981.05048
 15 03 02 10 23 30.0000000  0  9G02G03G06G07G09G10G20G23G30
  22428155.000   117860739.15709  22428155.820    91839524.68947
  24036316.360   126311549.52808  24036329.480    98424563.13146
  21037709.180   110553880.84409  21037714.980    86145886.75348
  20491448.640   107683307.34109  20491449.960    83909087.38349
  21016849.260   110444259.24909  21016853.100    86060459.80748
  20528288.860   107876880.76309  20528290.800    84059915.93148
  20199158.440   106147286.11609  20199159.260    82712166.87248
  22785720.120   119739699.73809  22785722.060    93303636.66647
  21638246.400   113709878.81909  21638251.820    88605157.23148
 15 03 02 10 24  0.0000000  0  9G02G03G06G07G09G10G20G23G30
  22417857.520   117806625.08009  22417858.320    91797357.83047
  24052809.100   126398218.19808  24052822.380    98492096.75646
  21045032.500   110592364.88509  21045038.320    86175874.20448
  20486751.860   107658625.67709  20486753.260    83889854.89949
  21024458.600   110484246.48009  21024462.500    86091618.59248
  20520988.800   107838517.82209  20520990.540    84030022.69548
  20194514.580   106122882.44809  20194515.480    82693150.98848
  22798525.800   119806993.75509  22798527.820    93356073.37347
  21622487.220   113627064.49209  21622492.680    88540626.62848
 15 03 02 10 24 30.0000000  0  9G02G03G06G07G09G10G20G23G30
  22407652.120   117752994.76109  22407652.860    91755567.93847
  24069336.980   126485070.96208  24069350.320    98559773.85446
  21052461.000   110631401.11209  21052466.780    86206291.94548
  20482156.980   107634479.47009  20482158.420    83871039.65849
  21032103.000   110524417.94209  21032106.880    86122920.94048
  20513753.060   107800493.04809  20513754.720    84000392.97248
  20189943.660   106098861.88609  20189944.600    82674433.62648
  22811344.820   119874357.65509  22811346.800    93408564.53247
  21606800.060   113544628.39309  21606805.540    88476390.75848
 15 03 02 10 25  0.0000000  0  9G02G03G06G07G09G10G20G23G30
  22397538.980   117699849.21309  22397539.680    91714155.77147
  24085899.700   126572106.57008  24085913.020    98627593.41946
  21059994.160   110670987.40009  21059999.860    86237138.28248
  20477663.880   107610868.51609  20477665.380    83852641.49449
  21039782.160   110564772.12909  21039786.080    86154365.66148
  20506581.920   107762807.93509  20506583.520    83971027.91548
  20185446.000   106075226.24709  20185446.920    82656016.19849
  22824177.100   119941790.96109  22824179.020    93461109.75846
  21591185.260   113462572.18409  21591190.740    88412450.89148
 15 03 02 10 25 30.0000000  0  9G02G03G06G07G09G10G20G23G30
  22387518.780   117647192.26809  22387519.360    91673124.34547
  24102497.480   126659326.34608  24102510.640    98695556.48846
  21067632.120   110711124.23109  21067637.700    86268413.62448
  20473273.140   107587795.26109  20473274.580    83834662.32449
  21047496.400   110605310.08209  21047500.380    86185953.58848
  20499476.000   107725466.01509  20499477.700    83941930.29248
  20181022.120   106051978.43509  20181023.060    82637900.97548
  22837022.800   120009294.76909  22837024.720    93513709.93647
  21575643.600   113380900.07509  21575649.040    88348810.33048
 15 03 02 10 26  0.0000000  0  9G02G03G06G07G09G10G20G23G30
  22377591.580   117595024.02509  22377592.100    91632473.71147
  24119129.780   126746727.65408  24119142.820    98763661.01945
  21075374.140   110751808.05609  21075379.620    86300115.19648
  20468984.400   107565257.80409  20468985.820    83817100.65149
  21055245.120   110646028.99009  21055249.080    86217682.50748
  20492435.240   107688466.89009  20492437.100    83913099.78048
  20176671.980   106029118.11109  20176672.940    82620087.68648
  22849881.460   120076866.70009  22849883.460    93566363.20046
  21560175.020   113299612.29109  21560180.460    88285469.23448
 15 03 02 10 26 30.0000000  0  9G02G03G06G07G09G10G20G23G30
  22367757.800   117543346.87609  22367758.200    91592205.75947
  24135796.620   126834310.39308  24135809.480    98831906.94245
  21083220.040   110793037.98709  21083225.480    86332242.30648
  20464797.840   107543257.34809  20464799.320    83799957.42649
  21063028.220   110686928.54709  21063032.040    86249552.21448
  20485460.220   107651812.98309  20485462.080    83884538.27248
  20172396.040   106006647.56709  20172396.980    82602578.12648
  22862753.040   120144507.09409  22862755.220    93619069.80446
  21544780.120   113218711.71409  21544785.600    88222429.86848
 15 03 02 10 27  0.0000000  0  9G02G03G06G07G09G10G20G23G30
  22358018.180   117492164.79309  22358018.600    91552323.57247
  24152498.320   126922076.48708  24152511.120    98900295.73845
  21091169.980   110834814.92809  21091175.520    86364795.65248
  20460714.040   107521796.89709  20460715.540    83783234.98349
  21070846.020   110728010.35209  21070849.740    86281563.91448
  20478551.660   107615508.34009  20478553.580    83856248.91948
  20168195.040   105984570.73709  20168195.920    82585375.35248
  22875638.040   120212217.53009  22875640.300    93671831.00546
  21529459.820   113138203.08109  21529465.320    88159695.90948
 15 03 02 10 27 30.0000000  0  9G02G03G06G07G09G10G20G23G30
  22348372.520   117441476.57109  22348373.000    91512826.21547
  24169234.180   127010022.17008  24169246.960    98968824.46945
  21099223.160   110877134.26209  21099228.820    86397771.64248
  20456732.460   107500873.51709  20456733.980    83766931.03349
  21078697.740   110769270.56809  21078701.420    86313714.63948
  20471709.260   107579551.16909  20471711.200    83828230.32648
  20164068.580   105962885.98309  20164069.460    82568478.10248
  22888535.760   120279994.51309  22888537.960    93724644.04846
  21514213.920   113058085.54009  21514219.420    88097266.70048
 15 03 02 10 28  0.0000000  0  9G02G03G06G07G09G10G20G23G30
  22338821.000   117391283.17009  22338821.620    91473714.43147
  24186003.860   127098145.72308  24186016.660    99037491.81445
  21107379.120   110919993.31909  21107384.760    86431168.19348
  20452853.020   107480486.77209  20452854.580    83751045.24649
  21086582.980   110810707.21909  21086586.620    86346002.84648
  20464933.100   107543942.09809  20464935.020    83800482.97748
  20160016.800   105941593.76709  20160017.700    82551886.72848
  22901445.880   120347836.59509  22901447.960    93777507.82347
  21499042.640   112978360.23609  21499048.140    88035143.13148
 15 03 02 10 28 30.0000000  0  9G02G03G06G07G09G10G20G23G30
  22329364.580   117341589.60509  22329365.340    91434992.13047
  24202807.860   127186449.81808  24202820.840    99106299.80545
  21115638.140   110963393.76709  21115643.680    86464986.60548
  20449076.380   107460640.16109  20449077.960    83735580.33249
  21094502.280   110852322.81709  21094505.940    86378430.48148
  20458224.280   107508686.55109  20458226.100    83773011.09448
  20156040.640   105920698.98609  20156041.600    82535605.03248
  22914368.840   120415746.67009  22914371.020    93830424.57046
  21483947.100   112899032.70109  21483952.580    87973329.50348
 15 03 02 10 29  0.0000000  0  9G02G03G06G07G09G10G20G23G30
  22320003.320   117292395.65009  22320004.160    91396659.13447
  24219645.700   127274931.90808  24219659.020    99175246.50146
  21123999.540   111007332.21609  21124005.000    86499224.23548
  20445402.160   107441332.04709  20445403.780    83720535.02949
  21102455.040   110894114.72909  21102458.740    86410995.50548
  20451582.700   107473784.17909  20451584.360    83745814.42648
  20152140.080   105900201.30309  20152141.020    82519632.76449
  22927304.360   120483722.80209  22927306.720    93883392.79147
  21468927.360   112820103.31309  21468932.840    87911826.12948
 15 03 02 10 29 30.0000000  0  9G02G03G06G07G09G10G20G23G30
  22310736.920   117243700.15009  22310737.840    91358714.55847
  24236516.720   127363588.51607  24236530.320    99244329.15046
  21132462.400   111051804.08109  21132467.840    86533877.51548
  20441829.880   107422559.88309  20441831.540    83705907.34949
  21110440.640   110936079.19809  21110444.320    86443695.00148
  20445007.980   107439233.66609  20445009.560    83718891.94148
  20148314.880   105880099.38609  20148315.840    82503968.89849
  22940251.880   120551761.52009  22940254.380    93936409.78147
  21453983.280   112741571.36409  21453988.660    87850632.44648
 15 03 02 10 30  0.0000000  0  9G02G03G06G07G09G10G20G23G30
  22301566.600   117195509.84309  22301567.560    91321163.63147
  24253421.700   127452424.06007  24253435.700    99313551.20446
  21141027.360   111096812.87409  21141032.920    86568949.18348
  20438360.620   107404329.14009  20438362.300    83691701.56349
  21118459.880   110978220.62309  21118463.620    86476532.37748
  20438501.480   107405041.64909  20438503.020    83692248.80248
  20144566.300   105860400.22909  20144567.340    82488618.86549
  22953212.180   120619867.35309  22953214.740    93989479.06246
  21439116.260   112663444.21109  21439121.480    87789754.18348
 15 03 02 10 30 30.0000000  0  9G02G03G06G07G09G10G20G23G30
  22292492.320   117147824.70809  22292493.380    91284006.34847
  24270360.200   127541435.72507  24270374.540    99382910.49846
  21149693.760   111142354.69309  21149699.400    86604436.19848
  20434994.140   107386637.79509  20434995.780    83677916.07549
  21126512.220   111020536.00009  21126516.060    86509505.30048
  20432063.060   107371207.72109  20432064.640    83665884.69448
  20140894.120   105841102.66209  20140895.220    82473581.76649
  22966184.660   120688037.70709  22966187.280    94042598.61646
  21424326.280   112585721.78209  21424331.320    87729191.28848
 15 03 02 10 31  0.0000000  0  9G02G03G06G07G09G10G20G23G30
  22283514.260   117100644.79709  22283515.400    91247242.75047
  24287331.960   127630621.50608  24287346.520    99452405.48346
  21158461.040   111188426.60609  21158466.760    86640336.27348
  20431730.180   107369484.84709  20431731.700    83664550.11249
  21134597.320   111063023.29009  21134601.160    86542612.18948
  20425692.740   107337732.00709  20425694.500    83639799.72248
  20137298.500   105822207.02509  20137299.600    82458857.86749
  22979169.140   120756271.10009  22979171.900    94095767.29947
  21409613.480   112508405.05709  21409618.380    87668944.52648
 15 03 02 10 31 30.0000000  0  9G02G03G06G07G09G10G20G23G30
  22274632.960   117053973.24809  22274634.140    91210875.27147
  24304337.060   127719982.10808  24304351.720    99522036.70447
  21167329.180   111235028.22409  21167334.900    86676649.09948
  20428568.920   107352871.80909  20428570.400    83651604.85949
  21142715.240   111105683.07709  21142719.100    86575853.48348
  20419391.200   107304617.76109  20419393.100    83613996.40448
  20133779.980   105803716.19509  20133780.940    82444449.40849
  22992165.820   120824568.51509  22992168.820    94148985.85447
  21394978.420   112431497.49509  21394983.300    87609016.59148
 15 03 02 10 32  0.0000000  0  9G02G03G06G07G09G10G20G23G30
  22265847.720   117007806.62909  22265848.960    91174901.25147
  24321374.400   127809511.74008  24321388.980    99591799.64446
  21176296.840   111282152.75209  21176302.560    86713369.39248
  20425509.380   107336793.85209  20425510.900    83639076.55449
  21150864.860   111148509.51709  21150868.800    86609224.62848
  20413157.820   107271861.45409  20413159.880    83588471.99848
  20130337.740   105785626.40809  20130338.600    82430353.44748
  23005173.780   120892924.55309  23005176.760    94202250.08846
  21380420.500   112354996.17309  21380425.580    87549405.21248
 15 03 02 10 32 30.0000000  0  9G02G03G06G07G09G10G20G23G30
  22257159.940   116962152.17109  22257161.220    91139326.30847
  24338444.840   127899215.35508  24338459.360    99661698.17746
  21185364.740   111329804.04409  21185370.400    86750500.15148
  20422552.780   107321256.81709  20422554.320    83626969.74149
  21159047.200   111191507.41809  21159051.140    86642729.39048
  20406994.020   107239470.35909  20406996.100    83563232.17148
  20126973.120   105767944.98009  20126973.980    82416575.68849
  23018193.920   120961344.36809  23018196.740    94255564.03346
  21365941.280   112278908.82209  21365946.620    87490116.41448
 15 03 02 10 33  0.0000000  0  9G02G03G06G07G09G10G20G23G30
  22248569.980   116917011.76809  22248571.300    91104151.93147
  24355548.280   127989092.49508  24355562.740    99731731.91246
  21194532.500   111377980.57209  21194538.160    86788040.17848
  20419699.260   107306261.32909  20419700.760    83615284.90649
  21167262.120   111234676.33309  21167266.060    86676367.40648
  20400900.140   107207446.48309  20400902.160    83538278.48948
  20123686.480   105750673.50709  20123687.340    82403117.36549
  23031226.020   121029827.94909  23031228.860    94308927.65946
  21351541.360   112203237.83209  21351546.880    87431152.04648
 15 03 02 10 33 30.0000000  0  9G02G03G06G07G09G10G20G23G30
  22240077.160   116872381.82409  22240078.480    91069375.31047
  24372683.540   128079137.22808  24372697.980    99801896.24646
  21203798.820   111426675.35009  21203804.560    86825984.02748
  20416947.720   107291801.94409  20416949.280    83604017.81249
  21175508.520   111278010.29409  21175512.400    86710134.03048
  20394875.460   107175786.33409  20394877.420    83513608.22348
  20120477.200   105733808.38509  20120478.000    82389975.67649
  23044269.160   121098369.60709  23044272.000    94362336.54746
  21337220.100   112127980.11509  21337225.760    87372509.70548
 15 03 02 10 34  0.0000000  0  9G02G03G06G07G09G10G20G23G30
  22231682.860   116828269.67708  22231684.240    91035002.17647
  24389851.620   128169354.66608  24389866.080    99872195.17645
  21213164.480   111475892.33309  21213170.380    86864334.79448
  20414299.360   107277884.73409  20414301.000    83593173.20249
  21183787.260   111321514.37309  21183791.000    86744033.21248
  20388921.360   107144497.11709  20388923.280    83489226.99948
  20117346.640   105717356.95009  20117347.420    82377156.35049
  23057324.480   121166974.87309  23057327.260    94415795.00646
  21322979.040   112053143.53609  21322984.800    87314195.52848
 15 03 02 10 34 30.0000000  0  9G02G03G06G07G09G10G20G23G30
  22223386.460   116784671.92409  22223387.860    91001029.85647
  24407051.420   128259739.08708  24407065.840    99942624.21645
  21222628.180   111525624.69309  21222634.280    86903087.14148
  20411753.340   107264504.88309  20411754.980    83582747.31549
  21192097.280   111365182.84009  21192100.960    86778060.48548
  20383037.240   107113575.60009  20383039.120    83465132.29048
  20114294.120   105701315.47809  20114294.860    82364656.47149
  23070390.860   121235638.34409  23070393.560    94469298.82946
  21308817.720   111978725.25209  21308823.440    87256207.29248
 15 03 02 10 35  0.0000000  0  9G02G03G06G07G09G10G20G23G30
  22215188.940   116741593.42709  22215190.260    90967462.16947
  24424283.500   128350293.00708  24424297.880   100013185.35044
  21232190.240   111575873.86009  21232196.500    86942242.20148
  20409310.140   107251665.49109  20409311.760    83572742.57849
  21200439.040   111409018.19409  21200442.760    86812217.79748
  20377223.960   107083026.52109  20377225.840    83441327.78448
  20111320.560   105685688.82109  20111321.240    82352479.82949
  23083468.880   121304363.09309  23083471.560    94522850.39946
  21294737.060   111904730.51409  21294742.680    87198549.10048
 15 03 02 10 35 30.0000000  0  9G02G03G06G07G09G10G20G23G30
  22207089.820   116699031.50209  22207090.960    90934297.00247
  24441546.860   128441011.43307  24441561.240   100083874.69444
  21241849.600   111626633.63509  21241855.840    86981795.13148
  20406969.000   107239362.37309  20406970.580    83563155.70849
  21208811.580   111453015.46109  21208815.300    86846501.26748
  20371480.980   107052847.29609  20371482.920    83417811.47848
  20108425.360   105670474.06909  20108425.980    82340624.13749
  23096557.600   121373144.17409  23096560.260    94576445.86946
  21280736.560   111831157.09309  21280742.100    87141219.20048
 15 03 02 10 36  0.0000000  0 10G02G03G05G06G07G09G10G20G23G30
  22199089.560   116656989.06909  22199090.580    90901536.63647
  24458841.640   128531895.20607  24458856.180   100154692.85344
  24675305.260   129669602.99108  24675312.060   101041269.91945
  21251606.100   111677903.70509  21251612.280    87021745.69648
  20404730.200   107227597.01909  20404731.700    83553987.88649
  21217215.000   111497175.48109  21217218.680    86880911.56648
  20365808.940   107023040.99209  20365810.980    83394585.76948
  20105609.000   105655674.21009  20105609.680    82329091.74149
  23109657.320   121441982.94809  23109660.080    94630086.28546
  21266816.960   111758008.60709  21266822.420    87084220.41548
 15 03 02 10 36 30.0000000  0 10G02G03G05G06G07G09G10G20G23G30
  22191191.000   116615481.00509  22191191.940    90869192.67147
  24476170.220   128622956.85207  24476185.140   100225649.58645
  24657114.760   129574010.69008  24657121.400   100966782.34046
  21261461.920   111729695.48809  21261467.980    87062102.79648
  20402596.240   107216382.86709  20402597.640    83545249.58049
  21225651.660   111541510.87609  21225655.440    86915458.53248
  20360210.760   106993622.66009  20360212.900    83371662.37648
  20102874.320   105641303.90909  20102875.120    82317894.07249
  23122770.640   121510892.77709  23122773.400    94683782.08646
  21252981.100   111685300.42009  21252986.520    87027564.73448
 15 03 02 10 37  0.0000000  0 10G02G03G05G06G07G09G10G20G23G30
  22183389.280   116574482.56809  22183390.260    90837245.80747
  24493527.600   128714169.42207  24493542.780   100296723.87646
  24638919.880   129478394.88108  24638926.400   100892276.44145
  21271411.660   111781980.85209  21271417.660    87102844.48948
  20400562.200   107205693.95709  20400563.600    83536920.54449
  21234116.620   111585994.77709  21234120.520    86950121.21048
  20354681.660   106964567.53509  20354683.960    83349021.99048
  20100216.760   105627338.58409  20100217.640    82307011.94749
  23135892.360   121579847.06909  23135895.120    94737512.50246
  21239224.400   111613008.36809  21239229.800    86971233.29448
 15 03 02 10 37 30.0000000  0 10G02G03G05G06G07G09G10G20G23G30
  22175687.480   116534009.65109  22175688.580    90805708.44747
  24510916.440   128805546.57208  24510931.920   100367926.44946
  24620723.480   129382771.37608  24620729.900   100817764.52946
  21281457.640   111834772.25309  21281463.680    87143980.50848
  20398630.840   107195544.42409  20398632.280    83529011.81949
  21242612.440   111630640.89109  21242616.520    86984910.28148
  20349224.760   106935891.70509  20349227.180    83326677.17348
  20097639.280   105613793.89309  20097640.200    82296457.60449
  23149025.140   121648859.77609  23149028.020    94791288.44146
  21225550.040   111541148.81709  21225555.360    86915238.88148
 15 03 02 10 38  0.0000000  0 10G02G03G05G06G07G09G10G20G23G30
  22168086.280   116494065.17009  22168087.320    90774582.85147
  24528336.820   128897089.05308  24528352.520   100439257.84146
  24602526.000   129287142.76308  24602532.400   100743248.68146
  21291599.780   111888069.20809  21291605.980    87185510.45448
  20396802.360   107185935.59909  20396803.840    83521524.41949
  21251139.360   111675449.99809  21251143.480    87019826.36648
  20343840.720   106907598.25809  20343843.200    83304630.31348
  20095142.400   105600672.65009  20095143.320    82286233.22249
  23162169.240   121717932.02509  23162172.220    94845110.77046
  21211958.660   111469725.25209  21211963.880    86859584.19248
 15 03 02 10 38 30.0000000  0 10G02G03G05G06G07G09G10G20G23G30
  22160585.400   116454647.38609  22160586.380    90743867.68047
  24545787.920   128988793.00608  24545803.660   100510715.07146
  24584327.260   129191507.83908  24584333.740   100668727.90145
  21301837.220   111941866.69909  21301843.480    87227430.43548
  20395076.140   107176864.56509  20395077.700    83514456.08549
  21259696.680   111720418.38209  21259700.860    87054866.56948
  20338529.240   106879685.93709  20338531.700    83282880.44348
  20092725.800   105587973.12309  20092726.680    82276337.45049
  23175324.080   121787060.71109  23175327.100    94898977.07246
  21198450.000   111398736.59109  21198455.160    86804268.39748
 15 03 02 10 39  0.0000000  0 10G02G03G05G06G07G09G10G20G23G30
  22153184.980   116415757.33809  22153185.900    90713563.72847
  24563269.520   129080657.24308  24563285.180   100582297.20246
  24566127.640   129095868.09008  24566134.140   100594203.38745
  21312169.460   111996162.30109  21312175.660    87269738.54748
  20393452.120   107168330.65509  20393453.760    83507806.27949
  21268284.140   111765544.96709  21268288.260    87090030.05148
  20333290.520   106852155.97309  20333292.860    83261428.51248
  20090389.680   105575696.52009  20090390.560    82266771.23149
  23188489.560   121856245.08209  23188492.600    94952886.77046
  21185024.400   111328184.38209  21185029.420    86749292.68948
 15 03 02 10 39 30.0000000  0 10G02G03G05G06G07G09G10G20G23G30
  22145884.980   116377395.09109  22145885.820    90683671.05347
  24580781.220   129172679.54308  24580796.820   100654002.48546
  24547927.080   129000223.17108  24547933.600   100519674.84646
  21322595.840   112050952.51409  21322601.960    87312432.08148
  20391930.040   107160332.30209  20391931.740    83501573.79049
  21276901.200   111810827.66009  21276905.280    87125315.17748
  20328124.540   106825008.26509  20328126.820    83240274.44648
  20088133.980   105563842.65209  20088134.860    82257534.41449
  23201665.300   121925483.28809  23201668.540    95006838.41046
  21171681.880   111258069.11809  21171686.840    86694657.46648
 15 03 02 10 40  0.0000000  0 10G02G03G05G06G07G09G10G20G23G30
  22138686.380   116339565.69309  22138687.140    90654193.57247
  24598323.540   129264862.92108  24598339.140   100725833.28347
  24529726.520   128904578.42208  24529733.080   100445146.45046
  21333116.700   112106239.15509  21333122.780    87355512.44548
  20390510.600   107152873.38609  20390512.320    83495761.63549
  21285548.580   111856269.56709  21285552.720    87160724.37848
  20323032.240   106798248.04009  20323034.500    83219422.32748
  20085959.720   105552416.57909  20085960.520    82248630.95349
  23214851.980   121994779.03309  23214855.420    95060834.87046
  21158423.560   111188396.52309  21158428.520    86640367.18548
 15 03 02 10 40 30.0000000  0  9G02G05G06G07G09G10G20G23G30
  22131590.160   116302274.27709  22131590.920    90625135.29947
  24511526.780   128808938.80008  24511533.480   100370622.06145
  21343732.440   112162023.92409  21343738.400    87398980.95748
  20389194.480   107145957.36009  20389196.180    83490372.51249
  21294226.840   111901873.86909  21294231.100    87196260.12348
  20318014.740   106771880.73209  20318016.980    83198876.36648
  20083867.940   105541423.60909  20083868.580    82240064.97149
  23228050.300   122064135.85609  23228053.880    95114878.94546
  21145250.480   111119172.32209  21145255.520    86586426.29048
 15 03 02 10 41  0.0000000  0  9G02G05G06G07G09G10G20G23G30
  22124593.920   116265508.75109  22124594.760    90596486.81348
  24493325.880   128713292.88708  24493332.600   100296092.75645
  21354439.980   112218291.43109  21354445.920    87442825.62648
  20387979.180   107139570.88909  20387980.840    83485396.02949
  21302933.260   111947626.59909  21302937.660    87231911.52548
  20313069.800   106745894.82809  20313072.040    83178627.61448
  20081856.240   105530851.68709  20081856.840    82231827.07649
  23241257.680   122133539.94509  23241261.240    95168959.83846
  21132160.580   111050385.08009  21132165.640    86532825.87448
 15 03 02 10 41 30.0000000  0  9G02G05G06G07G09G10G20G23G30
  22117699.520   116229278.52609  22117700.440    90568255.44047
  24475125.520   128617650.08608  24475132.520   100221565.90345
  21365240.420   112275047.52709  21365246.400    87487051.02248
  20386866.060   107133721.35109  20386867.740    83480837.94149
  21311669.340   111993535.04009  21311673.820    87267684.28048
  20308199.240   106720299.62909  20308201.440    83158683.31348
  20079926.400   105520710.23809  20079927.040    82223924.63449
  23254475.580   122202999.22809  23254479.020    95223083.74046
  21119155.720   110982044.60509  21119160.820    86479573.60548
 15 03 02 10 42  0.0000000  0  9G02G05G06G07G09G10G20G23G30
  22110907.020   116193583.96309  22110908.040    90540441.46447
  24456925.920   128522011.12808  24456933.140   100147042.04445
  21376133.280   112332289.33809  21376139.240    87531654.89448
  20385854.940   107128407.83009  20385856.620    83476697.51949
  21320434.820   112039597.82309  21320439.300    87303577.28948
  20303403.140   106695095.83009  20303405.260    83139043.99348
  20078078.480   105510999.44009  20078079.180    82216357.75449
  23267703.780   122272512.67709  23267707.140    95277249.83646
  21106236.120   110914152.02709  21106241.260    86426670.34148
 15 03 02 10 42 30.0000000  0  9G02G05G06G07G09G10G20G23G30
  22104216.860   116158427.18009  22104217.980    90513046.54747
  24438727.620   128426378.68408  24438734.920   100072523.27346
  21387118.240   112390015.56109  21387124.280    87576636.23348
  20384946.000   107123631.18909  20384947.640    83472975.44349
  21329229.720   112085815.14009  21329234.180    87339590.73048
  20298681.980   106670285.95309  20298684.080    83119711.63048
  20076312.940   105501721.65109  20076313.720    82209128.28749
  23280942.360   122342081.01209  23280945.760    95331458.70346
  21093402.240   110846710.02109  21093407.500    86374118.16948
 15 03 02 10 43  0.0000000  0  9G02G05G06G07G09G10G20G23G30
  22097628.620   116123805.88409  22097629.700    90486068.90248
  24420530.180   128330750.43608  24420537.400    99998007.76445
  21398194.320   112448220.51809  21398200.440    87621990.61648
  20384138.500   107119387.38309  20384140.140    83469668.57049
  21338053.260   112132182.85609  21338057.700    87375721.36648
  20294035.360   106645868.06309  20294037.480    83100684.70548
  20074629.360   105492874.55709  20074630.200    82202234.42749
  23294190.660   122411700.31509  23294194.080    95385707.30346
  21080653.740   110779716.87909  21080659.100    86321915.76448
 15 03 02 10 43 30.0000000  0  9G02G05G06G07G09G10G20G23G30
  22091142.960   116089723.46609  22091144.040    90459511.15548
  24402334.280   128235130.15508  24402341.360    99923498.45645
  21409361.520   112506904.00609  21409367.740    87667717.87848
  20383432.760   107115678.30809  20383434.380    83466778.36649
  21346905.740   112178702.30009  21346910.160    87411970.24348
  20289464.020   106621845.69609  20289466.200    83081965.97748
  20073028.400   105484461.63409  20073029.280    82195678.87249
  23307448.980   122481372.31709  23307452.440    95439996.95246
  21067991.440   110713176.40909  21067996.840    86270066.08048
 15 03 02 10 44  0.0000000  0  9G02G05G06G07G09G10G20G23G30
  22084760.140   116056181.50209  22084761.220    90433374.54647
  24384140.280   128139519.74308  24384147.260    99848996.84446
  21420619.520   112566064.55409  21420625.800    87713816.87848
  20382828.780   107112504.17709  20382830.380    83464305.00049
  21355787.120   112225373.57609  21355791.440    87448337.43448
  20284968.440   106598220.99009  20284970.540    83063557.12048
  20071510.460   105476484.67709  20071511.360    82189463.03749
  23320717.380   122551097.59109  23320721.060    95494328.09546
  21055415.820   110647091.06409  21055421.140    86218571.03248
 15 03 02 10 44 30.0000000  0  9G02G05G06G07G09G10G20G23G30
  22078480.280   116023180.81009  22078481.460    90407659.71647
  24365948.460   128043920.65308  24365955.300    99774504.07146
  21431967.740   112625699.41209  21431974.060    87760285.47548
  20382326.420   107109863.91309  20382327.940    83462247.64849
  21364697.060   112272195.53009  21364701.360    87484822.03548
  20280548.760   106574995.08409  20280550.780    83045459.01748
  20070075.640   105468944.35209  20070076.580    82183587.43749
  23333995.740   122620875.24409  23333999.540    95548700.06646
  21042927.040   110581462.13209  21042932.320    86167431.63648
 15 03 02 10 45  0.0000000  0  9G02G05G06G07G09G10G20G23G30
  22072303.560   115990722.26809  22072304.780    90382367.35547
  24347759.040   127948334.25108  24347765.860    99700021.20946
  21443405.720   112685806.14709  21443412.100    87807121.76348
  20381925.600   107107757.39809  20381927.080    83460606.19749
  21373635.460   112319167.31009  21373639.860    87521423.37448
  20276205.180   106552169.20409  20276207.120    83027672.61748
  20068724.100   105461841.78109  20068725.080    82178052.93749
  23347284.060   122690705.10409  23347287.940    95603112.71046
  21030525.320   110516291.10809  21030530.680    86116649.05048
 15 03 02 10 45 30.0000000  0  9G02G05G06G07G09G10G20G23G30
  22066230.040   115958805.96809  22066231.260    90357497.50847
  24329572.160   127852761.47508  24329578.880    99625548.97246
  21454932.900   112746381.78709  21454939.400    87854323.43848
  20381626.040   107106183.30209  20381627.540    83459379.61549
  21382602.220   112366287.64109  21382606.700    87558140.46748
  20271937.740   106529743.67909  20271939.640    83010198.18248
  20067455.920   105455177.36309  20067456.860    82172859.86249
  23360582.140   122760586.21909  23360585.980    95657565.31046
  21018211.000   110451579.08309  21018216.340    86066224.12848
 15 03 02 10 46  0.0000000  0  9G02G05G06G07G09G10G20G23G30
  22060259.960   115927433.23609  22060261.180    90333051.23548
  24311388.080   127757203.64508  24311394.700    99551088.40146
  21466548.900   112807423.87709  21466555.480    87901888.58648
  20381427.760   107105141.57609  20381429.280    83458567.87649
  21391597.040   112413555.72109  21391601.540    87594972.69248
  20267746.800   106507720.16209  20267748.680    82993037.00848
  20066271.340   105448952.30809  20066272.220    82168009.15349
  23373889.980   122830518.32109  23373893.700    95712057.65246
  21005984.360   110387327.54309  21005989.620    86016158.02448
 15 03 02 10 46 30.0000000  0  9G02G05G06G07G09G10G20G23G30
  22054393.100   115896602.70509  22054394.260    90309027.45348
  24293206.640   127661659.94308  24293213.220    99476638.83046
  21478252.840   112868927.85109  21478259.440    87949813.64148
  20381330.080   107104628.72309  20381331.680    83458168.24249
  21400619.300   112460968.65109  21400623.860    87631917.77648
  20263632.260   106486097.81409  20263634.040    82976188.42748
  20065170.160   105443165.45309  20065171.000    82163499.88449
  23387207.000   122900498.59309  23387210.660    95766587.50946
  20993845.280   110323535.89209  20993850.420    85966450.27549
 15 03 02 10 47  0.0000000  0  9G02G05G06G07G09G10G20G23G30
  22048630.820   115866321.54309  22048631.900    90285431.74547
  24275029.380   127566138.14108  24275035.920    99402206.35646
  21490045.380   112930897.53609  21490052.020    87998101.58948
  20381334.160   107104650.36109  20381335.820    83458185.09549
  21409670.220   112508532.02409  21409674.880    87668980.08648
  20259595.480   106464884.12709  20259597.220    82959658.27148
  20064153.760   105437824.01109  20064154.540    82159337.69649
  23400534.320   122970532.96609  23400538.060    95821159.51646
  20981795.080   110260211.99509  20981800.320    85917107.00748
 15 03 02 10 47 30.0000000  0  9G02G05G06G07G09G10G20G23G30
  22042972.240   115836585.17309  22042973.220    90262260.54347
  24256855.660   127470634.86308  24256862.180    99327788.32246
  21501925.060   112993325.33909  21501931.800    88046746.51448
  20381438.940   107105201.22809  20381440.680    83458614.34049
  21418748.760   112556239.91909  21418753.440    87706155.00548
  20255635.620   106444075.23509  20255637.460    82943443.54848
  20063221.380   105432923.91709  20063222.080    82155519.42249
  23413870.840   123040615.81109  23413874.700    95875769.29846
  20969833.180   110197352.18809  20969838.540    85868125.37849
 15 03 02 10 48  0.0000000  0  9G02G05G06G07G09G10G20G23G30
  22037417.820   115807396.59409  22037418.880    90239516.20448
  24238686.140   127375153.28808  24238692.560    99253387.20946
  21513891.720   113056210.65409  21513898.600    88095747.93548
  20381644.680   107106282.35209  20381646.360    83459456.75749
  21427855.120   112604093.52509  21427859.780    87743443.46848
  20251753.440   106423674.53509  20251755.340    82927546.90148
  20062373.440   105428468.14109  20062374.240    82152047.35849
  23427216.980   123110749.11509  23427220.980    95930418.39646
  20957960.260   110134959.88209  20957965.640    85819508.03249
 15 03 02 10 48 30.0000000  0  9G02G05G06G07G09G10G20G23G30
  22031967.580   115778755.46809  22031968.720    90217198.44647
  24220520.760   127279693.80908  24220527.200    99179003.30446
  21525944.780   113119549.80409  21525951.740    88145103.00448
  20381951.020   107107891.98809  20381952.620    83460711.01349
  21436988.900   112652090.89609  21436993.420    87780843.95048
  20247948.900   106403681.94509  20247950.900    82911968.25748
  20061609.980   105424456.51009  20061610.880    82148921.39149
  23440572.360   123180931.15909  23440576.420    95985105.48146
  20946176.380   110073035.35609  20946181.720    85771255.18948
 15 03 02 10 49  0.0000000  0  9G02G05G06G07G09G10G20G23G30
  22026622.020   115750664.40809  22026623.200    90195309.30447
  24202360.120   127184259.36408  24202366.580    99104638.89146
  21538084.020   113183342.05909  21538091.100    88194811.13248
  20382358.160   107110031.11309  20382359.680    83462377.84549
  21446150.200   112700233.17409  21446154.680    87818357.34248
  20244222.720   106384100.80709  20244224.740    82896710.23248
  20060931.580   105420891.79609  20060932.520    82146143.66749
  23453937.240   123251163.44209  23453941.420    96039831.70546
  20934482.180   110011581.87109  20934487.500    85723369.39349
 15 03 02 10 49 30.0000000  0  9G02G05G06G07G09G10G20G23G30
  22021381.300   115723124.13809  22021382.500    90173849.33748
  24184204.600   127088851.86408  24184211.080    99030295.45546
  21550309.060   113247585.03109  21550316.220    88244870.46148
  20382865.900   107112699.07309  20382867.340    83464456.75349
  21455338.940   112748519.78809  21455343.440    87855983.20048
  20240575.100   106364932.24109  20240577.100    82881773.68548
  20060338.440   105417775.13109  20060339.420    82143715.07349
  23467311.700   123321445.86009  23467315.880    96094597.00146
  20922877.920   109950601.02009  20922883.200    85675851.88649
 15 03 02 10 50  0.0000000  0  9G02G05G06G07G09G10G20G23G30
  22016244.880   115696132.14309  22016246.160    90152816.59748
  24166053.860   126993469.58108  24166060.380    98955971.64946
  21562618.860   113312272.77009  21562626.000    88295276.37548
  20383473.500   107115892.01409  20383474.960    83466944.74149
  21464554.320   112796946.60309  21464558.760    87893718.32248
  20237005.540   106346174.07309  20237007.580    82867156.93148
  20059830.120   105415103.85809  20059831.120    82141633.54549
  23480695.020   123391774.50709  23480699.180    96149398.32146
  20911363.200   109890090.84709  20911368.420    85628701.15048
 15 03 02 10 50 30.0000000  0  9G02G05G06G07G09G10G20G23G30
  22011213.100   115669690.13909  22011214.440    90132212.43648
  24147908.240   126898114.48708  24147914.840    98881669.05845
  21575013.080   113377403.70809  21575020.060    88346027.63348
  20384181.100   107119610.22809  20384182.620    83469842.02749
  21473796.400   112845513.93509  21473800.940    87931562.92648
  20233514.500   106327828.59209  20233516.600    82852861.74948
  20059407.000   105412880.22609  20059408.020    82139900.82248
  23494087.300   123462150.21509  23494091.420    96204236.30746
  20899938.560   109830053.75109  20899943.680    85581919.04248
 15 03 02 10 51  0.0000000  0  9G02G05G06G07G09G10G20G23G30
  22006286.880   115643802.53109  22006288.200    90112040.26447
  24129768.920   126802792.57408  24129775.600    98807392.29245
  21587491.860   113442979.12009  21587498.760    88397125.23848
  20384989.220   107123856.64609  20384990.780    83473150.90849
  21483065.840   112894224.94809  21483070.480    87969519.49648
  20230102.960   106309900.91009  20230105.060    82838892.13648
  20059069.900   105411108.73009  20059070.940    82138520.41948
  23507489.180   123532576.58709  23507493.380    96259113.77346
  20888604.840   109770494.92109  20888609.920    85535509.61948
 15 03 02 10 51 30.0000000  0  9G02G05G06G07G09G10G20G23G30
  22001466.120   115618469.20109  22001467.380    90092300.00947
  24111636.160   126707504.68408  24111642.880    98733142.03546
  21600054.560   113508995.56109  21600061.420    88448566.48748
  20385897.500   107128629.20909  20385899.000    83476869.76649
  21492362.300   112943078.04109  21492366.940    88007586.76648
  20226771.060   106292391.68109  20226773.100    82825248.58348
  20058818.860   105409789.43009  20058819.880    82137492.37348
  23520900.340   123603052.40908  23520904.780    96314029.75646
  20877362.180   109711414.89409  20877367.280    85489473.28548
 15 03 02 10 52  0.0000000  0  9G02G05G06G07G09G10G20G23G30
  21996750.280   115593687.66509  21996751.500    90072989.72347
  24093509.520   126612248.88208  24093516.280    98658916.80446
  21612700.060   113575447.14009  21612706.860    88500346.81648
  20386905.160   107133924.19309  20386906.620    83480995.68749
  21501685.100   112992069.32809  21501689.680    88045761.71748
  20223518.400   106275298.93209  20223520.380    82811929.56248
  20058653.500   105408920.15209  20058654.420    82136815.00149
  23534320.180   123673574.00508  23534324.860    96368981.42646
  20866210.320   109652811.77609  20866215.460    85443808.56548
 15 03 02 10 52 30.0000000  0  9G02G05G06G07G09G10G20G23G30
  21992139.900   115569460.69809  21992141.220    90054111.56347
  24075389.580   126517028.58808  24075396.440    98584719.24046
  21625428.280   113642333.50509  21625435.040    88552465.92648
  20388012.480   107139743.27809  20388013.980    83485530.00549
  21511034.540   113041200.35709  21511039.020    88084045.56248
  20220345.600   106258625.77909  20220347.560    82798937.50148
  20058574.400   105408503.95409  20058575.260    82136490.67249
  23547749.140   123744143.38208  23547754.000    96423970.32246
  20855149.860   109594689.12609  20855155.100    85398518.24249
 15 03 02 10 53  0.0000000  0  9G02G05G06G07G09G10G20G23G30
  21987635.440   115545789.79209  21987636.860    90035666.68548
  24057276.840   126421846.10408  24057283.680    98510551.13846
  21638238.880   113709652.80609  21638245.620    88604922.38748
  20389219.400   107146086.12909  20389221.020    83490472.44849
  21520410.600   113090471.25709  21520415.000    88122438.38748
  20217252.960   106242374.11209  20217254.980    82786273.86048
  20058581.780   105408542.45209  20058582.640    82136520.64649
  23561187.280   123814761.02408  23561192.280    96478996.81046
  20844181.200   109537049.01509  20844186.600    85353603.92349
 15 03 02 10 53 30.0000000  0  9G02G05G06G07G09G10G20G23G30
  21983236.440   115522672.36109  21983237.840    90017653.10048
  24039171.200   126326700.82808  24039178.000    98436412.03246
  21651130.780   113777399.52509  21651137.540    88657711.90748
  20390525.280   107152948.94309  20390526.960    83495820.07549
  21529812.520   113139878.48609  21529816.980    88160937.45148
  20214240.240   106226542.31609  20214242.260    82773937.39248
  20058675.280   105409033.73209  20058676.160    82136903.45449
  23574634.040   123885423.84908  23574639.140    96534058.54146
  20833304.120   109479889.96809  20833309.560    85309064.46149
 15 03 02 10 54  0.0000000  0  9G02G05G06G07G09G10G20G23G30
  21978943.120   115500110.01809  21978944.440    90000072.03548
  24021073.040   126231594.84108  24021079.780    98362303.55546
  21664103.620   113845571.76809  21664110.380    88710832.99848
  20391930.160   107160331.65009  20391931.840    83501572.81549
  21539240.360   113189422.17409  21539244.940    88199542.82448
  20211307.820   106211132.36309  20211309.880    82761929.63548
  20058855.280   105409979.54409  20058856.160    82137640.43649
  23588089.580   123956132.28809  23588094.660    96589155.83546
  20822518.980   109423213.98409  20822524.440    85264901.41049
 15 03 02 10 54 30.0000000  0  9G02G05G06G07G09G10G20G23G30
  21974756.120   115478106.56209  21974757.380    89982926.47148
  24002983.400   126136533.32308  24002990.000    98288229.73846
  21677157.540   113914170.26509  21677164.320    88764286.23548
  20393434.520   107168236.99209  20393436.160    83507732.80149
  21548694.720   113239105.08509  21548699.440    88238256.69448
  20208456.580   106196149.05909  20208458.740    82750254.33148
  20059122.540   105411383.99909  20059123.460    82138734.80849
  23601554.420   124026889.58609  23601559.540    96644291.19546
  20811826.600   109367025.71809  20811832.100    85221118.40549
 15 03 02 10 55  0.0000000  0  9G02G05G06G07G09G10G20G23G30
  21970674.400   115456656.92909  21970675.680    89966212.44047
  23984901.400   126041511.86608  23984907.900    98214187.13346
  21690291.000   113983186.84209  21690297.860    88818065.24748
  20395037.120   107176658.29709  20395038.660    83514294.84749
  21558174.340   113288921.09509  21558179.240    88277074.27248
  20205685.720   106181588.01809  20205687.940    82738908.05748
  20059476.160   105413242.46409  20059477.180    82140182.95449
  23615027.420   124097689.78809  23615032.560    96699459.97346
  20801226.320   109311320.94509  20801231.780    85177712.15149
 15 03 02 10 55 30.0000000  0  9G02G05G06G07G09G10G20G23G30
  21966699.500   115435768.97709  21966700.800    89949936.07948
  23966828.740   125946539.53608  23966835.120    98140182.82046
  21703504.900   114052626.05609  21703511.760    88872173.58448
  20396739.100   107185602.01509  20396740.600    83521263.97849
  21567680.620   113338876.83409  21567685.600    88316000.73648
  20202996.880   106167457.63009  20202999.080    82727897.36648
  20059917.680   105415562.80109  20059918.780    82141991.00149
  23628509.940   124168540.00709  23628515.040    96754667.72546
  20790719.660   109256108.13709  20790725.040    85134689.24449
 15 03 02 10 56  0.0000000  0  9G02G05G06G07G09G10G20G23G30
  21962830.400   115415437.37909  21962831.780    89934093.24348
  23948764.720   125851612.39608  23948771.120    98066213.70946
  21716797.660   114122479.57709  21716804.560    88926604.76848
  20398539.280   107195061.75709  20398540.780    83528635.21949
  21577212.380   113388966.00009  21577217.300    88355031.19248
  20200389.160   106153753.29109  20200391.240    82717218.67148
  20060446.240   105418340.40009  20060447.360    82144155.36449
  23642000.900   124239434.36709  23642005.980    96809909.89146
  20780305.760   109201382.85409  20780311.060    85092046.24849
 15 03 02 10 56 30.0000000  0  9G02G05G06G07G09G10G20G23G30
  21959067.580   115395663.80309  21959069.080    89918685.21448
  23930709.800   125756733.05908  23930716.160    97992281.85246
  21730168.900   114192745.53909  21730175.880    88981357.32048
  20400437.640   107205037.19109  20400439.020    83536408.29149
  21586769.520   113439188.89409  21586774.420    88394165.83548
  20197862.840   106140476.92709  20197864.800    82706873.45048
  20061062.160   105421576.95509  20061063.300    82146677.34349
  23655500.420   124310373.45909  23655505.480    96865186.91146
  20769985.120   109147147.20709  20769990.220    85049784.75649
 15 03 02 10 57  0.0000000  0  9G02G05G06G07G09G10G20G23G30
  21955411.180   115376448.99409  21955412.720    89903712.59148
  23912664.400   125661903.58808  23912670.580    97918388.82646
  21743618.200   114263421.68809  21743625.220    89036429.50548
  20402433.960   107215527.63409  20402435.260    83544582.68149
  21596352.000   113489545.36409  21596356.980    88433404.58548
  20195418.280   106127630.51709  20195420.260    82696863.26548
  20061765.640   105425273.67609  20061766.860    82149557.90249
  23669008.540   124381357.83509  23669013.580    96920499.21346
  20759757.960   109093402.81609  20759762.920    85007906.07849
 15 03 02 10 57 30.0000000  0  9G02G05G06G07G09G10G20G23G30
  21951861.120   115357792.94009  21951862.660    89889175.35348
  23894628.740   125567125.68608  23894634.860    97844535.98646
  21757145.040   114334505.25509  21757152.080    89091819.15448
  20404528.080   107226532.09609  20404529.340    83553157.59749
  21605959.740   113540034.77809  21605964.920    88472746.91148
  20193055.720   106115215.19409  20193057.700    82687188.98748
  20062556.780   105429430.93909  20062557.960    82152797.30649
  23682525.080   124452386.67809  23682530.220    96975846.16746
  20749624.400   109040150.76509  20749629.320    84966411.03649
 15 03 02 10 58  0.0000000  0  9G02G05G06G07G09G10G20G23G30
  21948418.040   115339698.97809  21948419.520    89875076.12148
  23876603.560   125472403.24908  23876609.720    97770726.37246
  21770749.340   114405995.95009  21770756.440    89147526.04448
  20406720.280   107238052.00609  20406721.480    83562134.15649
  21615593.180   113590658.96709  21615598.460    88512194.26948
  20190775.800   106103234.07809  20190777.720    82677853.06348
  20063436.280   105434052.45909  20063437.320    82156398.47649
  23696050.540   124523462.51508  23696055.660    97031229.73146
  20739585.180   108987394.70209  20739590.140    84925302.47549
 15 03 02 10 58 30.0000000  0  9G02G05G06G07G09G10G20G23G30
  21945081.620   115322165.36809  21945083.000    89861413.52748
  23858588.900   125377736.17008  23858595.100    97696959.87946
  21784430.180   114477888.92909  21784437.440    89203546.40248
  20409010.020   107250084.61909  20409011.220    83571510.23049
  21625251.840   113641415.31309  21625257.100    88551744.60548
  20188578.360   106091686.41409  20188580.220    82668854.89748
  20064403.740   105439136.83009  20064404.780    82160360.31349
  23709584.460   124594582.97708  23709589.500    97086648.07145
  20729640.180   108935133.68709  20729645.160    84884579.66349
 15 03 02 10 59  0.0000000  0  9G02G05G06G07G09G10G20G23G30
  21941851.480   115305190.21109  21941852.700    89848186.08948
  23840584.580   125283123.74508  23840590.940    97623235.98746
  21798186.680   114550179.36709  21798194.020    89259876.47648
  20411396.600   107262626.38609  20411397.880    83581283.05049
  21634935.260   113692301.20109  21634940.400    88591395.90148
  20186463.260   106080571.16709  20186465.060    82660193.68748
  20065458.980   105444682.54709  20065460.100    82164681.63749
  23723126.440   124665745.78708  23723131.440    97142099.41845
  20719789.160   108883366.75309  20719794.220    84844241.85849
 15 03 02 10 59 30.0000000  0  9G02G05G06G07G09G10G20G23G30
  21938728.420   115288778.55909  21938729.720    89835397.76048
  23822591.900   125188572.58508  23822598.540    97549559.86346
  21812019.260   114622869.22009  21812026.600    89316517.78248
  20413880.720   107275681.02109  20413882.100    83591455.51049
  21644644.100   113743320.75909  21644649.140    88631151.37248
  20184431.560   106069894.21509  20184433.320    82651874.01248
  20066603.060   105450694.99409  20066604.240    82169366.65649
  23736677.320   124736955.47508  23736682.340    97197587.31945
  20710033.220   108832099.70409  20710038.380    84804293.57849
 15 03 02 11 00  0.0000000  0  9G02G05G06G07G09G10G20G23G30
  21935711.560   115272925.74409  21935713.140    89823044.87648
  23804610.400   125094080.07608  23804617.180    97475929.44746
  21825926.400   114695950.89309  21825933.780    89373464.39148
  20416461.280   107289242.59909  20416462.760    83602022.97949
  21654377.220   113794468.64709  21654382.280    88671006.82248
  20182482.600   106059652.12709  20182484.300    82643893.17948
  20067835.340   105457170.38509  20067836.520    82174412.39949
  23750236.200   124808207.10808  23750241.320    97253107.88246
  20700371.720   108781328.85409  20700376.960    84764731.92649
 15 03 02 11 00 30.0000000  0  9G02G05G06G07G09G10G20G23G30
  21932801.880   115257635.80009  21932803.560    89811130.59948
  23786641.120   124999651.25308  23786647.800    97402348.65346
  21839908.340   114769425.42709  21839915.700    89430717.13048
  20419138.880   107303314.07909  20419140.460    83612987.77349
  21664135.500   113845748.13709  21664140.520    88710964.83348
  20180617.160   106049849.58409  20180618.900    82636254.85248
  20069156.580   105464113.09609  20069157.680    82179822.29649
  23763803.780   124879504.32409  23763808.940    97308663.98845
  20690805.580   108731059.08709  20690810.820    84725560.73049
 15 03 02 11 01  0.0000000  0  9G02G05G06G07G09G10G20G23G30
  21929998.960   115242906.52209  21930000.600    89799653.20448
  23768683.840   124905285.28608  23768690.500    97328816.85146
  21853963.960   114843287.37109  21853971.300    89488271.74448
  20421912.880   107317891.65209  20421914.500    83624346.92749
  21673918.260   113897156.04509  21673923.220    88751022.90848
  20178835.000   106040484.94009  20178836.840    82628957.74548
  20070566.340   105471521.15109  20070567.400    82185594.79849
  23777379.480   124950844.31309  23777384.600    97364253.43846
  20681334.560   108681288.79409  20681339.760    84686778.74349
 15 03 02 11 01 30.0000000  0  9G02G05G06G07G09G10G20G23G30
  21927303.160   115228739.71309  21927304.700    89788614.09648
  23750739.180   124810985.34808  23750745.700    97255336.49946
  21868093.040   114917535.43809  21868100.360    89546127.23348
  20424783.220   107332975.54309  20424784.840    83636100.61449
  21683725.600   113948693.37009  21683730.500    88791181.82648
  20177136.740   106031560.86209  20177138.620    82622003.92948
  20072065.080   105479396.72109  20072066.100    82191731.59949
  23790963.600   125022228.64109  23790968.800    97419877.44445
  20671959.140   108632020.49509  20671964.260    84648387.92049
 15 03 02 11 02  0.0000000  0  9G02G05G06G07G09G10G20G23G30
  21924714.320   115215134.68109  21924715.800    89778012.73248
  23732807.340   124716752.70408  23732813.660    97181908.58747
  21882294.880   114992165.99609  21882302.300    89604280.76348
  20427749.540   107348563.73609  20427751.160    83648247.26049
  21693557.240   114000358.76909  21693562.040    88831440.55248
  20175522.380   106023077.47709  20175524.220    82615393.50148
  20073652.660   105487739.59909  20073653.740    82198232.52949
  23804555.840   125093655.68508  23804561.060    97475534.72645
  20662679.300   108583254.43309  20662684.320    84610388.44349
 15 03 02 11 02 30.0000000  0  9G02G05G06G07G09G10G20G23G30
  21922232.660   115202093.07309  21922234.080    89767850.39748
  23714888.780   124622590.40308  23714895.100    97108535.51346
  21896569.280   115067177.74209  21896576.720    89662731.32048
  20430811.880   107364656.87509  20430813.540    83660787.36049
  21703413.400   114052153.24709  21703418.260    88871799.85748
  20173992.360   106015037.27009  20173994.200    82609128.40748
  20075329.520   105496551.86309  20075330.720    82205099.20949
  23818156.500   125165127.12008  23818161.840    97531226.57346
  20653495.480   108534993.09709  20653500.400    84572782.25949
 15 03 02 11 03  0.0000000  0  9G02G05G06G07G09G10G20G23G30
  21919857.840   115189613.03409  21919859.240    89758125.64648
  23696983.440   124528498.01108  23696989.780    97035216.92147
  21910915.260   115142565.71309  21910922.680    89721475.03748
  20433969.680   107381251.67009  20433971.380    83673718.36149
  21713293.640   114104074.17009  21713298.600    88912257.68648
  20172546.520   106007439.44509  20172548.340    82603208.02848
  20077095.520   105505832.51809  20077096.800    82212330.87549
  23831765.180   125236640.85108  23831770.740    97586951.37646
  20644407.500   108487235.34209  20644412.300    84535568.47849
 15 03 02 11 03 30.0000000  0  9G02G05G06G07G09G10G20G23G30
  21917590.440   115177697.38809  21917591.840    89748840.67848
  23679092.320   124434480.51808  23679098.600    96961956.68947
  21925332.840   115218329.98009  21925340.280    89780511.98648
  20437223.240   107398349.54009  20437225.040    83687041.37149
  21723198.460   114156123.97409  21723203.320    88952815.94448
  20171185.620   106000287.94609  20171187.460    82597635.44348
  20078951.240   105515584.63409  20078952.540    82219929.91249
  23845382.440   125308199.70208  23845388.280    97642711.36646
  20635416.100   108439985.03509  20635420.800    84498750.11849
 15 03 02 11 04  0.0000000  0  9G02G05G06G07G09G10G20G23G30
  21915430.260   115166344.80909  21915431.600    89739994.45948
  23661215.460   124340538.05708  23661221.820    96888754.92247
  21939821.120   115294466.04209  21939828.680    89839838.63348
  20440572.060   107415947.88409  20440573.920    83700754.35249
  21733127.400   114208300.50409  21733132.080    88993472.95248
  20169909.500   105993582.22409  20169911.360    82592410.20748
  20080896.540   105525807.38609  20080897.820    82227895.68849
  23859007.880   125379801.74908  23859013.960    97698504.97046
  20626521.220   108393241.47309  20626525.720    84462326.61949
 15 03 02 11 04 30.0000000  0  9G02G05G06G07G09G10G20G23G30
  21913377.240   115155555.20209  21913378.480    89731586.91748
  23643353.120   124246671.85408  23643359.540    96815612.58846
  21954379.500   115370970.65609  21954387.120    89899452.46248
  20444015.760   107434045.00209  20444017.700    83714855.99649
  21743080.220   114260602.87409  21743084.860    89034228.00848
  20168718.400   105987322.76809  20168720.140    82587532.71148
  20082931.420   105536500.80009  20082932.740    82236228.20249
  23872641.360   125451446.23308  23872647.680    97754331.64846
  20617722.840   108347005.15709  20617727.200    84426298.37249
 15 03 02 11 05  0.0000000  0  9G02G05G06G07G09G10G20G23G30
  21911431.240   115145328.31709  21911432.460    89723617.87148
  23625505.740   124152884.06108  23625512.060    96742531.33746
  21969007.480   115447841.02109  21969015.180    89959351.29448
  20447554.080   107452639.34309  20447556.060    83729345.09149
  21753056.920   114313030.69909  21753061.580    89075080.82348
  20167612.400   105981510.40109  20167614.020    82583003.59848
  20085056.040   105547665.66109  20085057.360    82244928.08049
  23886283.000   125523133.30108  23886289.380    97810191.51946
  20609021.160   108301277.12609  20609025.420    84390666.19549
 15 03 02 11 05 30.0000000  0  9G02G05G06G07G09G10G20G23G30
  21909591.860   115135661.73409  21909593.060    89716085.42848
  23607673.240   124059174.16108  23607679.480    96669510.78746
  21983704.120   115525072.02509  21983711.920    90019531.13148
  20451186.580   107471728.01509  20451188.520    83744219.39149
  21763057.000   114365581.28009  21763061.740    89116029.28248
  20166591.260   105976144.07209  20166592.840    82578822.04748
  20087270.140   105559300.44709  20087271.400    82253994.13649
  23899932.340   125594860.41308  23899938.680    97866082.58045
  20600415.840   108256055.99009  20600420.080    84355428.99749
 15 03 02 11 06  0.0000000  0  9G02G05G06G07G09G10G20G23G30
  21907859.820   115126559.66909  21907861.000    89708992.87347
  23589856.640   123965547.82508  23589862.820    96596555.36446
  21998469.620   115602664.55809  21998477.460    90079992.69648
  20454913.640   107491313.46409  20454915.480    83759480.80249
  21773080.940   114418257.93409  21773085.840    89157075.96848
  20165655.820   105971228.42009  20165657.440    82574991.68548
  20089574.480   105571409.39409  20089575.680    82263429.67749
  23913590.200   125666631.65309  23913596.460    97922008.04445
  20591907.840   108211346.34509  20591912.060    84320590.37149
 15 03 02 11 06 30.0000000  0  9G02G05G06G07G09G10G20G23G30
  21906234.520   115118018.83609  21906235.700    89702337.63948
  23572055.660   123872003.52908  23572061.720    96523663.85746
  22013302.780   115680612.64409  22013310.700    90140731.29448
  20458734.420   107511391.26009  20458736.140    83775125.85649
  21783128.220   114471057.10209  21783133.280    89198218.11348
  20164805.720   105966761.44509  20164807.420    82571510.93248
  20091968.520   105583989.73009  20091969.560    82273232.53349
  23927255.880   125738443.81809  23927262.000    97977965.39945
  20583496.720   108167146.01109  20583500.980    84286148.60349
 15 03 02 11 07  0.0000000  0  9G02G05G06G07G09G10G20G23G30
  21904716.720   115110042.98709  21904718.020    89696122.66848
  23554271.360   123778547.05608  23554277.400    96450840.79746
  22028203.660   115758916.89409  22028211.600    90201747.41748
  20462649.220   107531963.40209  20462650.900    83791156.12349
  21793199.460   114523981.85909  21793204.560    89239458.12548
  20164041.880   105962747.84109  20164043.640    82568383.45448
  20094453.080   105597045.69309  20094454.040    82283406.00449
  23940929.820   125810299.55409  23940935.780    98033956.72845
  20575183.280   108123459.30109  20575187.620    84252107.05849
 15 03 02 11 07 30.0000000  0  9G02G05G06G07G09G10G20G23G30
  21903305.940   115102629.12809  21903307.300    89690345.60448
  23536503.680   123685177.31809  23536509.700    96378085.31247
  22043171.240   115837571.74809  22043179.220    90263036.73748
  20466657.380   107553025.96009  20466659.000    83807568.53949
  21803294.000   114577029.15909  21803299.080    89280793.61548
  20163363.940   105959185.60509  20163365.780    82565607.68248
  20097027.700   105610575.16809  20097028.600    82293948.45049
  23954611.600   125882196.41909  23954617.340    98089980.12444
  20566967.140   108080284.36809  20566971.600    84218464.30048
 15 03 02 11 08  0.0000000  0  9G02G05G06G07G09G10G20G23G30
  21902002.320   115095778.31209  21902003.680    89685007.28348
  23518753.140   123591897.28009  23518759.040    96305399.72247
  22058205.160   115916575.31009  22058213.280    90324597.77048
  20470758.820   107574578.72309  20470760.380    83824362.94149
  21813412.040   114630199.53209  21813417.000    89322225.01948
  20162772.320   105956076.75009  20162774.180    82563185.19348
  20099692.620   105624579.78209  20099693.620    82304861.13249
  23968301.420   125954135.66309  23968306.960    98146036.54745
  20558848.760   108037623.02309  20558853.300    84185221.74349
 15 03 02 11 08 30.0000000  0  9G02G05G06G07G09G10G20G23G30
  21900805.420   115089488.69909  21900806.800    89680106.26148
  23501019.700   123498707.42608  23501025.540    96232784.39947
  22073304.680   115995923.10609  22073312.940    90386427.03348
  20474952.940   107596618.72809  20474954.480    83841537.02049
  21823553.140   114683491.04909  21823558.100    89363750.82148
  20162266.880   105953420.51609  20162268.760    82561115.40748
  20102447.700   105639058.28809  20102448.840    82316143.07049
  23981998.940   126026115.61809  23982004.420    98202124.68345
  20550827.960   107995474.47809  20550832.660    84152378.77849
 15 03 02 11 09  0.0000000  0  9G02G05G06G07G09G10G20G23G30
  21899715.780   115083762.78109  21899717.220    89675644.48848
  23483304.120   123405611.88708  23483309.940    96160242.58247
  22088469.720   116075614.74209  22088478.000    90448524.23348
  20479239.960   107619147.21009  20479241.460    83859091.74649
  21833717.660   114736905.81509  21833722.700    89405372.66648
  20161848.300   105951220.72409  20161850.200    82559401.29548
  20105293.540   105654013.43309  20105294.760    82327796.42649
  23995704.640   126098138.64308  23995710.160    98258246.37545
  20542905.420   107953842.07709  20542910.260    84119938.01149
 15 03 02 11 09 30.0000000  0  9G02G05G06G07G09G10G20G23G30
  21898733.160   115078598.74409  21898734.580    89671620.53748
  23465606.560   123312611.13908  23465612.300    96087774.62047
  22103699.260   116155645.58709  22103707.560    90510885.74148
  20483619.240   107642161.15709  20483620.780    83877024.74549
  21843905.240   114790441.70909  21843910.340    89447088.88248
  20161516.340   105949476.21509  20161518.260    82558041.94848
  20108229.980   105669444.32409  20108231.140    82339820.48749
  24009418.060   126170202.85508  24009423.720    98314400.12445
  20535080.960   107912724.74309  20535085.900    84087898.59649
 15 03 02 11 10  0.0000000  0  9G02G05G06G07G09G10G20G23G30
  21897858.280   115074000.64809  21897859.580    89668037.56948
  23447928.180   123219711.43708  23447933.800    96015385.39146
  22118993.560   116236016.98709  22119001.940    90573512.61048
  20488091.340   107665663.32309  20488093.020    83895338.16549
  21854116.660   114844102.60009  21854121.760    89488902.50348
  20161272.020   105948192.33909  20161273.880    82557041.52748
  20111257.820   105685355.52309  20111258.920    82352218.81049
  24023140.020   126242312.41508  24023146.020    98370589.19545
  20527355.480   107872127.50809  20527360.440    84056264.45449
 15 03 02 11 10 30.0000000  0  9G02G05G06G07G09G10G20G23G30
  21897089.860   115069962.03809  21897091.000    89664890.56548
  23430268.120   123126908.10408  23430273.640    95943071.26047
  22134350.900   116316719.67609  22134359.300    90636397.62748
  20492654.960   107689646.04409  20492656.680    83914026.05649
  21864350.580   114897881.82609  21864355.680    89530808.33348
  20161114.320   105947363.62209  20161116.080    82556395.78448
  20114375.920   105701741.17309  20114376.980    82364986.83249
  24036869.440   126314461.09108  24036875.800    98426808.73145
  20519727.940   107832044.80609  20519732.840    84025031.25049
 15 03 02 11 11  0.0000000  0  9G02G05G06G07G09G10G20G23G30
  21896428.300   115066485.48309  21896429.460    89662181.53048
  23412627.300   123034206.09408  23412632.860    95870836.08947
  22149771.260   116397753.51109  22149779.660    90699540.68448
  20497310.320   107714110.64309  20497312.080    83933089.42849
  21874607.460   114951781.76409  21874612.540    89572808.22448
  20161043.960   105946993.78309  20161045.660    82556107.60848
  20117584.980   105718604.79709  20117586.000    82378127.30849
  24050606.800   126386651.69908  24050613.520    98483060.93246
  20512199.080   107792480.04609  20512203.860    83994201.64249
 15 03 02 11 11 30.0000000  0  9G02G05G06G07G09G10G20G23G30
  21895873.240   115063568.89109  21895874.540    89659908.81648
  23395005.740   122941605.76908  23395011.400    95798680.14346
  22165253.760   116479113.80609  22165262.180    90762938.12148
  20502056.800   107739054.00509  20502058.580    83952525.84949
  21884886.940   115005800.30409  21884892.020    89614900.53848
  20161060.760   105947081.74009  20161062.380    82556176.15648
  20120884.680   105735944.84009  20120885.720    82391639.01449
  24064351.880   126458882.42208  24064358.720    98539344.38745
  20504768.600   107753432.17709  20504773.300    83963774.80549
 15 03 02 11 12  0.0000000  0  9G02G05G06G07G09G10G20G23G30
  21895425.200   115061214.49809  21895426.560    89658074.17148
  23377404.380   122849111.29808  23377409.960    95726606.65746
  22180798.300   116560800.01709  22180806.720    90826589.51548
  20506894.620   107764477.17909  20506896.400    83972336.13649
  21895189.420   115059939.50609  21895194.400    89657086.87248
  20161165.260   105947630.73109  20161166.860    82556603.94748
  20124275.560   105753764.03809  20124276.620    82405524.07849
  24078105.080   126531155.33408  24078111.900    98595660.70946
  20497437.040   107714904.23809  20497441.620    83933753.10849
 15 03 02 11 12 30.0000000  0  9G02G05G06G07G09G10G20G23G30
  21895083.840   115059420.40009  21895085.160    89656676.12148
  23359823.280   122756722.94808  23359828.800    95654615.86546
  22196404.080   116642807.60409  22196412.440    90890491.33048
  20511823.200   107790377.00709  20511825.000    83992517.82949
  21905514.540   115114197.42909  21905519.360    89699365.72048
  20161357.280   105948640.06809  20161358.940    82557390.44448
  20127757.360   105772061.05209  20127758.440    82419781.47349
  24091866.120   126603468.94708  24091872.900    98652008.75246
  20490204.180   107676895.29909  20490208.680    83904135.83149
 15 03 02 11 13  0.0000000  0  9G02G05G06G07G09G10G20G23G30
  21894848.420   115058183.36709  21894849.800    89655712.15748
  23342262.340   122664440.01408  23342267.740    95582707.21446
  22212069.840   116725130.66409  22212078.180    90954638.96348
  20516841.760   107816749.20309  20516843.420    84013067.59449
  21915861.540   115168570.80509  21915866.260    89741734.51948
  20161636.520   105950107.76509  20161638.220    82558534.11448
  20131329.620   105790833.43609  20131330.740    82434409.28549
  24105634.480   126675820.39408  24105641.060    98708386.30645
  20483069.600   107639403.03109  20483074.020    83874921.15249
 15 03 02 11 13 30.0000000  0 10G02G05G06G07G09G10G13G20G23G30
  21894720.260   115057510.48909  21894721.840    89655187.78547
  23324723.320   122572271.60809  23324728.500    95510887.79246
  22227796.360   116807773.61209  22227804.820    91019035.86448
  20521951.360   107843599.82809  20521952.880    84033990.15449
  21926231.780   115223066.65309  21926236.420    89784198.76148
  20162004.540   105952041.96509  20162006.260    82560041.29148
  24751300.780   130068960.35207  24751309.780   101352457.31543
  20134993.880   105810088.94009  20134994.980    82449413.56749
  24119411.360   126748216.69009  24119417.780    98764798.79345
  20476034.860   107602435.34109  20476039.200    83846115.24249
 15 03 02 11 14  0.0000000  0 10G02G05G06G07G09G10G13G20G23G30
  21894697.700   115057392.38009  21894699.460    89655095.71048
  23307204.880   122480211.24009  23307209.940    95439152.55947
  22243581.540   116890724.66509  22243590.080    91083672.85148
  20527149.960   107870918.35009  20527151.420    84055277.29449
  21936623.560   115277675.86209  21936628.280    89826751.34248
  20162459.840   105954434.69809  20162461.540    82561905.77348
  24736496.480   129991164.16108  24736505.720   101291837.07844
  20138748.400   105829819.17809  20138749.580    82464787.77349
  24133195.080   126820649.25308  24133201.420    98821239.55545
  20469098.420   107565984.04509  20469102.700    83817711.71649
 15 03 02 11 14 30.0000000  0 10G02G05G06G07G09G10G13G20G23G30
  21894782.220   115057836.70909  21894784.020    89655441.90447
  23289708.840   122388268.59809  23289713.880    95367509.07347
  22259426.200   116973988.72109  22259434.940    91148553.71948
  20532438.780   107898711.16309  20532440.260    84076933.99348
  21947038.260   115332405.96909  21947043.220    89869398.12748
  20163004.000   105957294.67209  20163005.760    82564134.32448
  24721706.720   129913444.56708  24721716.040   101231276.50343
  20142594.740   105850032.17009  20142596.020    82480538.14649
  24146987.140   126893125.94008  24146993.460    98877714.65445
  20462261.820   107530057.55309  20462266.060    83789717.11949
 15 03 02 11 15  0.0000000  0 10G02G05G06G07G09G10G13G20G23G30
  21894973.160   115058840.05809  21894974.960    89656223.70847
  23272235.000   122296442.73609  23272240.000    95295956.58047
  22275329.360   117057559.83109  22275338.200    91213673.86448
  20537816.900   107926973.75309  20537818.480    84098956.75549
  21957475.260   115387253.70709  21957480.500    89912136.58348
  20163636.660   105960619.62509  20163638.520    82566725.21148
  24706931.000   129835798.08608  24706940.140   101170772.85444
  20146532.460   105870725.37809  20146533.800    82496662.72348
  24160787.080   126965644.08408  24160793.440    98934222.09645
  20455524.580   107494653.46509  20455528.800    83762129.60449
 15 03 02 11 15 30.0000000  0 10G02G05G06G07G09G10G13G20G23G30
  21895270.440   115060401.69109  21895272.140    89657440.53648
  23254783.680   122204735.76209  23254788.660    95224496.72147
  22291290.400   117141434.66609  22291299.200    91279030.67248
  20543284.060   107955704.22009  20543285.760    84121344.07549
  21967934.620   115442218.40109  21967940.000    89954966.16248
  20164357.940   105964410.12209  20164359.820    82569678.84248
  24692169.060   129758224.30908  24692178.420   101110325.85144
  20150561.620   105891898.93809  20150562.960    82513161.58948
  24174594.760   127038203.06808  24174601.220    98990761.38345
  20448886.720   107459771.89009  20448890.940    83734949.23049
 15 03 02 11 16  0.0000000  0 10G02G05G06G07G09G10G13G20G23G30
  21895674.220   115062522.56609  21895675.760    89659093.13148
  23237355.500   122113150.67808  23237360.580    95153131.84347
  22307308.980   117225611.64309  22307317.720    91344622.92448
  20548840.320   107984902.68709  20548842.100    84144096.07749
  21978416.600   115497301.12309  21978421.980    89997887.71648
  20165168.260   105968668.42409  20165170.120    82572997.01248
  24677421.260   129680725.21608  24677431.000   101049937.08544
  20154682.420   105913554.19809  20154683.800    82530035.81849
  24188410.400   127110804.06308  24188416.940    99047333.37045
  20442348.660   107425414.77009  20442352.860    83708177.52049
 15 03 02 11 16 30.0000000  0 10G02G05G06G07G09G10G13G20G23G30
  21896183.960   115065200.41109  21896185.380    89661179.73548
  23219950.460   122021687.76008  23219955.720    95081862.17747
  22323384.160   117310086.05409  22323392.760    91410446.93448
  20554485.060   108014566.01909  20554486.900    84167210.31349
  21988920.680   115552499.89209  21988926.060    90040899.70348
  20166067.360   105973393.09009  20166069.180    82576678.57848
  24662687.240   129603298.85008  24662697.180   100989604.98544
  20158894.620   105935689.70009  20158896.040    82547284.25749
  24202233.760   127183445.62708  24202240.360    99103936.98645
  20435910.200   107391580.78909  20435914.340    83681813.44849
 15 03 02 11 17  0.0000000  0 10G02G05G06G07G09G10G13G20G23G30
  21896799.600   115068434.96709  21896801.020    89663700.13748
  23202569.120   121930349.35108  23202574.500    95010689.51947
  22339515.380   117394855.05509  22339523.940    91476500.49848
  20560217.960   108044692.47009  20560219.820    84190685.42949
  21999446.800   115607814.62709  21999452.220    90084002.04348
  20167055.400   105978585.07609  20167057.180    82580724.28548
  24647967.120   129525945.42208  24647977.140   100929329.74844
  20163198.360   105958306.15909  20163199.840    82564907.46548
  24216064.860   127256127.79408  24216071.560    99160572.24445
  20429571.400   107358270.62209  20429575.560    83655857.55249
 15 03 02 11 17 30.0000000  0 10G02G05G06G07G09G10G13G20G23G30
  21897520.840   115072225.00909  21897522.280    89666653.38247
  23185211.760   121839136.85908  23185217.220    94939614.96947
  22355701.940   117479914.94009  22355710.520    91542780.72448
  20566038.540   108075279.89309  20566040.460    84214519.73748
  22009994.740   115663244.26809  22010000.140    90127193.92448
  20168132.440   105984244.82809  20168134.180    82585134.48648
  24633260.700   129448664.26608  24633270.840   100869110.82944
  20167593.540   105981403.01209  20167595.040    82582905.00549
  24229903.540   127328849.85708  24229910.220    99217238.61545
  20423332.180   107325483.96509  20423336.380    83630309.57549
 15 03 02 11 18  0.0000000  0 11G02G05G06G07G09G10G13G20G23G28G30
  21898348.120   115076572.58409  21898349.620    89670041.07248
  23167879.280   121748055.47308  23167884.940    94868642.62047
  22371943.860   117565265.88109  22371952.560    91609287.74848
  20571947.160   108106329.91409  20571949.060    84238714.52449
  22020565.140   115718791.70309  22020570.540    90170477.60148
  20169299.080   105990375.82009  20169300.840    82589911.89148
  24618568.680   129371458.58508  24618578.960   100808950.76144
  20172080.780   106004983.44109  20172082.240    82601279.36149
  24243750.420   127401614.98308  24243757.220    99273938.55145
  24276892.680   127575935.80008                                
  20417193.280   107293224.42109  20417197.500    83605172.33849
 15 03 02 11 18 30.0000000  0 11G02G05G06G07G09G10G13G20G23G28G30
  21899279.840   115081469.19909  21899281.460    89673856.58248
  23150570.640   121657098.74408  23150576.220    94797767.35947
  22388238.840   117650896.00909  22388247.700    91676012.30548
  20577941.820   108137831.92509  20577943.600    84263261.51149
  22031156.160   115774447.85009  22031161.620    90213845.97348
  20170553.860   105996969.91409  20170555.640    82595050.14448
  24603889.380   129294319.52808  24603899.600   100748842.59144
  20176658.420   106029038.69509  20176659.820    82620023.70649
  24257603.800   127474414.42608  24257610.540    99330665.26145
  24259551.440   127484807.14708  24259567.880    99338849.07545
  20411153.140   107261483.54509  20411157.380    83580439.24649
 15 03 02 11 19  0.0000000  0 11G02G05G06G07G09G10G13G20G23G28G30
  21900318.800   115086929.05009  21900320.460    89678110.98848
  23133288.960   121566283.43608  23133294.480    94727002.32147
  22404589.320   117736817.47009  22404598.260    91742963.89548
  20584025.140   108169799.75409  20584026.840    84288171.49149
  22041770.680   115830227.59409  22041776.240    90257310.67948
  20171899.860   106004043.01909  20171901.660    82600561.65648
  24589225.720   129217262.10008  24589236.020   100688798.06344
  20181329.380   106053584.32409  20181330.680    82639150.16949
  24271466.560   127547263.35408  24271473.340    99387430.54944
  24242203.960   127393648.09908  24242220.520    99267816.90545
  20405214.620   107230276.81109  20405218.880    83556122.38749
 15 03 02 11 19 30.0000000  0 11G02G05G06G07G09G10G13G20G23G28G30
  21901462.220   115092937.93909  21901464.000    89682793.19448
  23116032.080   121475598.11108  23116037.520    94656338.54747
  22420992.140   117823013.86509  22421001.120    91810129.70848
  20590194.280   108202218.48309  20590195.920    84313432.81449
  22052406.080   115886117.29809  22052411.680    90300861.05048
  20173334.580   106011582.33909  20173336.400    82606436.44348
  24574575.000   129140273.00308  24574585.280   100628806.74444
  20186091.120   106078607.15309  20186092.320    82658648.46549
  24285336.220   127620148.54908  24285342.920    99444224.06844
  24224848.620   127302448.40708  24224865.120    99196752.98745
  20399375.300   107199591.23209  20399379.580    83532211.60149
 15 03 02 11 20  0.0000000  0 11G02G05G06G07G09G10G13G20G23G28G30
  21902710.920   115099500.13809  21902712.760    89687906.56048
  23098801.280   121385050.02508  23098806.540    94585781.71747
  22437447.520   117909486.62709  22437456.480    91877510.87647
  20596449.720   108235090.54309  20596451.320    84339047.39449
  22063063.240   115942121.14409  22063068.840    90344500.36148
  20174859.020   106019593.24109  20174860.820    82612678.70048
  24559938.080   129063356.68608  24559948.120   100568872.16044
  20190944.440   106104111.63709  20190945.660    82678522.08548
  24299213.600   127693074.26908  24299220.420    99501049.18344
  24207486.800   127211214.74308  24207503.500    99125662.57645
  20393636.100   107169431.60109  20393640.320    83508710.66249
 15 03 02 11 20 30.0000000  0 11G02G05G06G07G09G10G13G20G23G28G30
  21904064.620   115106614.27109  21904066.600    89693449.99947
  23081596.980   121294640.87609  23081602.200    94515333.15447
  22453954.860   117996232.60909  22453963.900    91945104.93948
  20602791.080   108268414.51709  20602792.780    84365014.10449
  22073742.180   115998238.74509  22073747.660    90388228.32248
  20176473.240   106028076.07509  20176475.080    82619288.68848
  24545315.040   128986513.08608  24545325.120   100508994.21844
  20195889.380   106130098.09309  20195890.700    82698771.25948
  24313098.700   127766040.49708  24313105.600    99557905.86544
  24190119.020   127119950.28908  24190135.720    99054548.09345
  20387997.040   107139798.08009  20388001.160    83485619.67049
 15 03 02 11 21  0.0000000  0 11G02G05G06G07G09G10G13G20G23G28G30
  21905523.520   115114281.10209  21905525.560    89699424.12248
  23064419.740   121204373.95409  23064424.860    94444995.43547
  22470513.880   118083250.06109  22470522.940    92012910.53948
  20609218.440   108302190.07209  20609220.140    84391332.71149
  22084443.000   116054471.20109  22084448.380    90432045.76848
  20178177.640   106037032.82509  20178179.540    82626267.96248
  24530706.100   128909743.37907  24530716.060   100449173.88444
  20200926.300   106156567.59109  20200927.680    82719396.82949
  24326991.800   127839048.84108  24326998.860    99614795.38644
  24172746.240   127028659.11907  24172763.040    98983412.86245
  20382458.320   107110692.25909  20382462.440    83462939.87549
 15 03 02 11 21 30.0000000  0 11G02G05G06G07G09G10G13G20G23G28G30
  21907087.060   115122497.82809  21907089.160    89705826.74048
  23047269.660   121114249.58909  23047274.580    94374768.77147
  22487123.560   118170533.84309  22487132.600    92080923.67547
  20615730.920   108336413.14409  20615732.620    84418000.04449
  22095165.140   116110816.11409  22095170.580    90475950.84248
  20179971.980   106046461.91509  20179973.820    82633615.29248
  24516110.780   128833045.48408  24516120.720   100389409.51844
  20206054.820   106183518.04309  20206056.200    82740397.17749
  24340892.340   127912096.71408  24340899.500    99671715.66344
  24155368.360   126937341.31508  24155385.020    98912256.77045
  20377019.640   107082112.31809  20377023.740    83440669.85949
 15 03 02 11 22  0.0000000  0 11G02G05G06G07G09G10G13G20G23G28G30
  21908755.460   115131265.21109  21908757.540    89712658.44648
  23030147.280   121024270.79609  23030152.120    94304655.55947
  22503783.580   118258082.21409  22503792.700    92149142.98448
  20622328.480   108371083.43809  20622330.160    84445015.85948
  22105908.960   116167274.58409  22105914.380    90519944.39848
  20181856.580   106056365.25809  20181858.400    82641332.17248
  24501529.460   128756420.71108  24501539.360   100329702.09944
  20211275.120   106210950.75509  20211276.540    82761773.30248
  24354800.760   127985185.52108  24354807.940    99728667.82945
  24137986.320   126846001.61407  24138003.040    98841083.58744
  20371681.380   107054059.77509  20371685.440    83418810.79349
 15 03 02 11 22 30.0000000  0 11G02G05G06G07G09G10G13G20G23G28G30
  21910527.960   115140579.31009  21910530.020    89719916.16948
  23013052.560   120934437.39409  23013057.220    94234655.62847
  22520492.860   118345889.60209  22520502.140    92217564.10947
  20629010.260   108406196.71009  20629011.980    84472376.85048
  22116673.900   116223843.82709  22116679.200    90564024.26848
  20183830.980   106066740.73109  20183832.760    82649416.94348
  24486961.620   128679866.76008  24486971.440   100270049.86444
  20216586.720   106238863.41709  20216588.220    82783523.41049
  24368716.560   128058312.73908  24368723.720    99785649.97345
  24120600.440   126754640.61307  24120616.820    98769893.69444
  20366443.020   107026532.31709  20366447.100    83397360.88849
 15 03 02 11 23  0.0000000  0 11G02G05G06G07G09G10G13G20G23G28G30
  21912405.100   115150442.98809  21912407.040    89727602.13148
  22995986.500   120844754.49109  22995990.860    94164772.95147
  22537251.540   118433956.05109  22537260.880    92286187.10148
  20635776.580   108441754.51309  20635778.400    84500084.22949
  22127460.400   116280526.76709  22127465.740    90608192.72548
  20185895.880   106077592.13509  20185897.700    82657872.57248
  24472407.860   128603386.56108  24472417.660   100210455.12744
  20221990.280   106267259.49209  20221991.840    82805650.20649
  24382640.300   128131481.62509  24382647.520    99842664.60346
  24103211.560   126663263.93108  24103227.900    98698691.68745
  20361305.240   106999533.26409  20361309.320    83376322.72649
 15 03 02 11 23 30.0000000  0 11G02G05G06G07G09G10G13G20G23G28G30
  21914386.040   115160852.55409  21914387.900    89735713.45248
  22978948.820   120755221.17809  22978953.220    94095006.86647
  22554058.460   118522275.74309  22554067.780    92355007.42147
  20642626.620   108477752.17109  20642628.520    84528134.35448
  22138267.920   116337320.39209  22138273.340    90652447.42748
  20188050.900   106088917.27509  20188052.800    82666697.34648
  24457867.640   128526977.47608  24457877.260   100150915.79544
  20227485.280   106296136.03309  20227486.840    82828151.38648
  24396571.480   128204689.76009  24396578.780    99899709.79745
  24085819.760   126571871.64608  24085835.860    98627477.37045
  20356267.560   106973060.02709  20356271.640    83355694.28749
 15 03 02 11 24  0.0000000  0 11G02G05G06G07G09G10G13G20G23G28G30
  21916471.300   115171810.61609  21916473.160    89744252.18448
  22961940.840   120665843.75509  22961945.060    94025362.22447
  22570913.520   118610848.89808  22570922.920    92424025.24047
  20649560.740   108514191.48009  20649562.640    84556528.62948
  22149097.040   116394227.72609  22149102.500    90696790.73848
  20190296.800   106100719.82509  20190298.800    82675894.13248
  24443341.440   128450642.43408  24443350.820   100091434.20444
  20233072.340   106325496.21309  20233073.900    82851029.43249
  24410510.680   128277940.05709  24410517.980    99956787.83346
  24068426.240   126480469.51408  24068442.080    98556255.25844
  20351330.520   106947115.99809  20351334.600    83335478.21449
 15 03 02 11 24 30.0000000  0 11G02G05G06G07G09G10G13G20G23G28G30
  21918660.260   115183314.24909  21918662.220    89753216.03948
  22944962.320   120576622.02109  22944966.540    93955838.91747
  22587815.860   118699670.78409  22587825.380    92493236.87547
  20656578.220   108551068.83109  20656580.120    84585264.25048
  22159947.420   116451246.95009  22159952.880    90741221.23448
  20192633.420   106112998.73309  20192635.460    82685462.10248
  24428829.060   128374380.02108  24428838.260   100032009.22744
  20238751.100   106355338.48209  20238752.680    82874283.13649
  24424457.680   128351231.35608  24424465.000   100013897.84846
  24051031.320   126389059.42808  24051046.940    98485026.90544
  20346493.900   106921699.69109  20346497.940    83315673.35249
 15 03 02 11 25  0.0000000  0 11G02G05G06G07G09G10G13G20G23G28G30
  21920953.000   115195362.77109  21920954.980    89762604.46748
  22928013.940   120487558.60509  22928018.280    93886438.96047
  22604764.940   118788738.30209  22604774.520    92562639.88947
  20663678.740   108588382.45709  20663680.640    84614339.81748
  22170819.040   116508377.78009  22170824.480    90785738.69048
  20195060.820   106125754.45909  20195062.840    82695401.61448
  24414330.420   128298190.01308  24414339.640    99972640.67444
  20244521.600   106385662.53009  20244523.160    82897912.24848
  24438412.380   128424563.20308  24438419.780   100071039.43946
  24033635.360   126297644.11508  24033650.660    98413794.59544
  20341757.740   106896811.19109  20341761.720    83296279.75549
 15 03 02 11 25 30.0000000  0 11G02G05G06G07G09G10G13G20G23G28G30
  21923349.200   115207954.31109  21923351.020    89772416.02547
  22911095.700   120398654.36409  22911100.200    93817163.03847
  22621760.100   118878047.60609  22621769.620    92632231.32647
  20670861.800   108626129.96509  20670863.740    84643753.47648
  22181711.820   116565619.23909  22181717.200    90830342.34948
  20197578.900   106138986.54109  20197580.780    82705712.30948
  24399845.480   128222072.06508  24399854.640    99913328.26544
  20250383.640   106416467.72709  20250385.200    82921916.27748
  24452374.600   128497934.88608  24452382.040   100128212.09345
  24016238.720   126206225.30608  24016253.960    98342559.48345
  20337121.840   106872449.76609  20337125.840    83277296.86649
 15 03 02 11 26  0.0000000  0 11G02G05G06G07G09G10G13G20G23G28G30
  21925848.400   115221086.99709  21925850.040    89782649.25847
  22894208.140   120309910.70409  22894212.740    93748012.23747
  22638800.540   118967594.56909  22638810.000    92702007.94647
  20678126.840   108664308.42109  20678128.840    84673502.93448
  22192625.440   116622970.11309  22192630.760    90875031.26848
  20200187.600   106152694.80609  20200189.380    82716394.06448
  24385373.920   128146024.61808  24385382.900    99854070.82944
  20256337.020   106447752.92109  20256338.600    82946294.32348
  24466344.180   128571345.61708  24466351.820   100185415.15745
  23998841.960   126114805.34108  23998856.800    98271323.40645
  20332585.980   106848614.48109  20332590.080    83258723.95149
 15 03 02 11 26 30.0000000  0 11G02G05G06G07G09G10G13G20G23G28G30
  21928450.940   115234763.09009  21928452.580    89793305.93148
  22877352.160   120221333.17709  22877356.860    93678990.90447
  22655886.240   119057379.42709  22655895.740    92771969.93047
  20685474.220   108702919.40509  20685476.300    84703589.43248
  22203560.440   116680433.47909  22203565.760    90919807.84448
  20202887.560   106166882.66009  20202889.280    82727449.51048
  24370916.340   128070050.95908  24370925.100    99794870.89744
  20262382.320   106479521.21109  20262383.920    82971048.80448
  24480321.820   128644798.68108  24480329.600   100242651.19345
  23981446.060   126023390.04908  23981460.860    98200091.04345
  20328150.880   106825308.65609  20328155.080    83240563.58849
 15 03 02 11 27  0.0000000  0 11G02G05G06G07G09G10G13G20G23G28G30
  21931156.680   115248981.67709  21931158.440    89804385.32448
  22860528.340   120132923.79309  22860533.040    93610100.56647
  22673016.640   119147399.12609  22673026.240    92842114.90047
  20692903.640   108741961.23109  20692905.720    84734011.64448
  22214516.760   116738009.20309  22214522.140    90964671.96448
  20205678.820   106181550.44709  20205680.540    82738878.93248
  24356472.780   127994151.28608  24356481.360    99735728.62144
  20268519.580   106511772.71409  20268521.200    82996179.81949
  24494307.520   128718293.95708  24494315.360   100299920.12644
  23964051.640   125931982.49908  23964066.280    98128864.67345
  20323816.640   106802532.37309  20323820.840    83222815.86049
 15 03 02 11 27 30.0000000  0 11G02G05G06G07G09G10G13G20G23G28G30
  21933964.640   115263737.35409  21933966.400    89815883.24048
  22843736.140   120044680.82209  22843740.900    93541339.94947
  22690190.420   119237646.46709  22690200.020    92912437.24747
  20700413.920   108781427.64309  20700415.900    84764764.71148
  22225493.620   116795692.91609  22225499.000    91009620.24448
  20208560.680   106196694.53409  20208562.360    82750679.50748
  24342042.540   127918321.39008  24342051.280    99676640.70344
  20274748.000   106544503.10609  20274749.620    83021683.99248
  24508300.560   128791827.75307  24508308.180   100357219.08744
  23946658.460   125840581.23308  23946673.000    98057643.21345
  20319582.440   106780281.51009  20319586.620    83205477.54649
 15 03 02 11 28  0.0000000  0 11G02G05G06G07G09G10G13G20G23G28G30
  21936875.200   115279032.30009  21936876.960    89827801.35648
  22826976.800   119956609.41509  22826981.300    93472712.97147
  22707407.440   119328121.34008  22707417.120    92982936.89347
  20708005.320   108821320.05209  20708007.120    84795849.72648
  22236491.520   116853487.49109  22236497.000    91054654.89848
  20211533.760   106212318.33609  20211535.440    82762853.88148
  24327626.180   127842564.26508  24327635.040    99617609.49245
  20281068.060   106577715.06409  20281069.640    83047563.40148
  24522301.460   128865402.76608  24522308.860   100414550.16243
  23929267.640   125749192.57708  23929282.020    97986431.56645
  20315448.800   106758559.02509  20315452.980    83188550.95049
 15 03 02 11 28 30.0000000  0 11G02G05G06G07G09G10G13G20G23G28G30
  21939888.040   115294864.99109  21939889.900    89840138.48747
  22810250.340   119868711.39509  22810254.800    93404221.12847
  22724667.040   119418820.48108  22724676.900    93053611.26347
  20715677.400   108861636.53209  20715679.040    84827265.17748
  22247510.360   116911392.49809  22247516.100    91099775.61348
  20214598.140   106228422.08409  20214599.860    82775402.23748
  24313223.580   127766879.78108  24313232.480    99558634.90344
  20287479.760   106611408.50209  20287481.320    83073817.97848
  24536310.160   128939018.85008  24536317.540   100471913.29943
  23911879.580   125657819.03008  23911893.980    97915231.77045
  20311415.640   106737364.67309  20311419.840    83172035.87949
 15 03 02 11 29  0.0000000  0 11G02G05G06G07G09G10G13G20G23G28G30
  21943002.900   115311233.86709  21943004.820    89852893.43748
  22793557.280   119780988.46809  22793561.480    93335865.70347
  22741968.580   119509740.07708  22741978.580    93124457.42447
  20723429.560   108902374.41609  20723431.160    84859008.99648
  22258550.100   116969407.09409  22258556.000    91144981.72048
  20217753.760   106245005.37309  20217755.560    82788324.26448
  24298834.720   127691267.34008  24298843.760    99499716.43645
  20293982.940   106645582.48609  20293984.480    83100447.01449
  24550326.600   129012675.40008  24550333.800   100529307.93244
  23894494.780   125566462.89508  23894509.220    97844045.57046
  20307482.860   106716697.71409  20307487.060    83155931.76449
 15 03 02 11 29 30.0000000  0 11G02G05G06G07G09G10G13G20G23G28G30
  21946219.600   115328137.83409  21946221.520    89866065.33948
  22776897.860   119693442.57209  22776901.820    93267648.23347
  22759311.560   119600877.05109  22759321.560    93195472.95747
  20731261.480   108943531.81909  20731263.160    84891079.70548
  22269610.820   117027531.04709  22269616.700    91190273.04148
  20221000.740   106262068.71009  20221002.620    82801620.34448
  24284459.540   127615726.59708  24284468.620    99440853.79144
  20300577.600   106680237.02509  20300579.120    83127450.49249
  24564350.880   129086372.89308  24564358.220   100586734.44744
  23877113.780   125475126.96008  23877128.300    97772875.12945
  20303650.460   106696558.04309  20303654.580    83140238.51549
 15 03 02 11 30  0.0000000  0 10G02G05G06G07G09G10G13G20G28G30
  21949539.000   115345581.14709  21949540.760    89879657.51848
  22760273.620   119606081.70409  22760277.500    93199574.95247
  22776696.440   119692233.75708  22776706.400    93266659.72647
  20739173.920   108985112.43709  20739175.740    84923480.18048
  22280693.340   117085769.73909  22280699.180    91235653.75548
  20224340.180   106279617.77209  20224342.080    82815294.91948
  24270099.000   127540262.95808  24270108.100    99382051.26145
  20307264.600   106715376.88009  20307266.120    83154832.14749
  23859738.120   125383819.51508  23859752.660    97701726.92245
  20299919.460   106676951.09309  20299923.460    83124960.38349
 15 03 02 11 30 30.0000000  0 10G02G05G06G07G09G10G13G20G28G30
  21952958.920   115363552.43009  21952960.440    89893661.10348
  22743682.940   119518897.79609  22743686.700    93131639.56647
  22794120.560   119783797.00109  22794130.620    93338007.40747
  20747164.620   109027104.04309  20747166.500    84956200.90648
  22291795.760   117144112.83709  22291801.560    91281115.83048
  20227770.260   106297642.84109  20227772.100    82829340.41548
  24255751.220   127464866.28408  24255760.380    99323300.89045
  20314041.980   106750991.78409  20314043.460    83182583.96448
  23842366.600   125292533.71108  23842381.040    97630595.64245
  20296287.880   106657866.55509  20296291.800    83110089.32649
 15 03 02 11 31  0.0000000  0 10G02G05G06G07G09G10G13G20G28G30
  21956479.440   115382052.28609  21956480.780    89908076.54848
  22727126.800   119431894.96409  22727130.520    93063845.26447
  22811583.760   119875565.56208  22811593.820    93409515.08247
  20755233.700   109069506.95609  20755235.500    84989242.12948
  22302918.400   117202562.06609  22302924.160    91326660.60648
  20231291.400   106316146.00709  20231293.140    82843758.45448
  24241416.520   127389538.16808  24241425.620    99264603.90445
  20320910.040   106787083.59109  20320911.540    83210707.38848
  23825000.020   125201273.79008  23825014.280    97559484.45445
  20292756.040   106639306.20509  20292759.880    83095626.73049
 15 03 02 11 31 30.0000000  0 10G02G05G06G07G09G10G13G20G28G30
  21960101.620   115401086.77809  21960103.020    89922908.59048
  22710606.860   119345082.90009  22710610.640    92996199.63347
  22829086.800   119967543.62208  22829096.900    93481185.98547
  20763382.120   109112326.67709  20763383.780    85022608.13348
  22314062.520   117261124.61509  22314068.360    91372293.68348
  20234904.920   106335134.94709  20234906.620    82858555.02448
  24227096.420   127314286.40708  24227105.360    99205966.41645
  20327870.160   106823659.31909  20327871.700    83239207.89448
  23807640.460   125110050.57808  23807654.640    97488401.91745
  20289325.260   106621277.18009  20289329.060    83081578.16249
 15 03 02 11 32  0.0000000  0 10G02G05G06G07G09G10G13G20G28G30
  21963823.900   115420647.58409  21963825.440    89938150.71747
  22694122.280   119258456.61509  22694126.020    92928698.74647
  22846627.800   120059720.96208  22846637.960    93553012.16247
  20771608.040   109155553.79209  20771609.600    85056291.57948
  22325226.840   117319793.12409  22325232.680    91418009.33348
  20238609.500   106354602.69809  20238611.220    82873724.67848
  24212789.540   127239103.79608  24212798.180    99147382.78345
  20334920.980   106860711.48609  20334922.540    83268079.63748
  23790287.060   125018859.34908  23790300.820    97417344.22345
  20285994.140   106603772.12309  20285997.960    83067937.88449
 15 03 02 11 32 30.0000000  0 10G02G05G06G07G09G10G13G20G28G30
  21967646.420   115440734.89109  21967648.020    89953803.12548
  22677673.760   119172019.67609  22677677.560    92861345.42947
  22864206.400   120152095.87308  22864216.640    93624992.30247
  20779911.340   109199188.00509  20779912.920    85090292.25748
  22336411.640   117378568.84909  22336417.460    91463808.52948
  20242405.480   106374550.72909  20242407.240    82889268.60048
  24198496.080   127163991.59608  24198504.500    99088854.01544
  20342062.680   106898241.14909  20342064.180    83297323.47349
  23772940.540   124927704.28408  23772954.000    97346314.63045
  20282762.960   106586792.22909  20282766.800    83054706.84549
 15 03 02 11 33  0.0000000  0 10G02G05G06G07G09G10G13G20G28G30
  21971569.560   115461350.74209  21971571.200    89969867.38348
  22661262.300   119085777.66509  22661266.020    92794143.98947
  22881822.620   120244668.73008  22881832.980    93697126.67947
  20788292.380   109243230.94309  20788294.060    85124611.41648
  22347617.460   117437455.15509  22347623.240    91509693.91148
  20246293.600   106394982.79609  20246295.360    82905189.68948
  24184216.620   127088953.40008  24184224.880    99030382.91044
  20349295.940   106936251.59309  20349297.300    83326941.94548
  23755602.120   124836591.87508  23755615.580    97275318.35745
  20279632.320   106570340.74909  20279636.180    83041887.56349
 15 03 02 11 33 30.0000000  0 10G02G05G06G07G09G10G13G20G28G30
  21975592.700   115482491.83109  21975594.260    89986340.90248
  22644888.060   118999731.00009  22644891.860    92727094.76648
  22899475.520   120337434.35708  22899486.020    93769411.24647
  20796750.480   109287678.45609  20796752.160    85159245.82148
  22358843.800   117496449.83309  22358849.600    91555663.73548
  20250273.540   106415897.04609  20250275.200    82921486.50148
  24169950.760   127013986.74308  24169958.960    98971967.54244
  20356620.180   106974740.35109  20356621.440    83356933.11348
  23738272.120   124745523.61608  23738285.480    97204356.51445
  20276601.760   106554415.36109  20276605.620    83029478.21949
 15 03 02 11 34  0.0000000  0 10G02G05G06G07G09G10G13G20G28G30
  21979715.180   115504155.32109  21979716.620    90003221.49847
  22628551.060   118913880.27609  22628554.880    92660198.23148
  22917164.240   120430388.02108  22917174.840    93841842.34647
  20805284.940   109332527.11209  20805286.560    85194192.81148
  22370090.380   117555551.09409  22370096.180    91601716.61748
  20254344.960   106437292.03209  20254346.540    82938157.91948
  24155698.160   126939089.99608  24155706.320    98913606.63145
  20364034.980   107013705.20609  20364036.260    83387295.27748
  23720950.680   124654500.59508  23720964.160    97133429.99645
  20273670.960   106539014.15809  20273674.820    83017477.34149
 15 03 02 11 34 30.0000000  0 10G02G05G06G07G09G10G13G20G28G30
  21983937.180   115526342.19909  21983938.580    90020509.92848
  22612252.340   118828230.16409  22612256.060    92593457.99448
  22934888.660   120523529.22809  22934899.380    93914419.57347
  20813895.820   109377777.67609  20813897.460    85229452.97148
  22381357.740   117614761.43409  22381363.500    91647854.48648
  20258508.380   106459170.78409  20258509.980    82955206.29148
  24141459.400   126864266.07108  24141467.480    98855302.44844
  20371540.840   107053148.60709  20371542.180    83418030.32948
  23703638.820   124563527.86408  23703652.160    97062542.63945
  20270840.360   106524139.48909  20270844.220    83005886.75149
 15 03 02 11 35  0.0000000  0 10G02G05G06G07G09G10G13G20G28G30
  21988258.260   115549049.76409  21988259.640    90038204.11047
  22595991.860   118742781.49809  22595995.720    92526874.76648
  22952647.940   120616853.46108  22952658.800    93987139.43147
  20822582.500   109423426.54009  20822584.160    85265023.49148
  22392645.620   117674079.33609  22392651.320    91694076.19448
  20262763.580   106481531.73509  20262765.160    82972630.41548
  24127234.260   126789513.38308  24127242.240    98797053.78744
  20379137.380   107093068.68309  20379138.820    83449136.81848
  23686336.860   124472607.39808  23686350.200    96991696.02445
  20268109.680   106509789.61109  20268113.480    82994705.10249
 15 03 02 11 35 30.0000000  0 10G02G05G06G07G09G10G13G20G28G30
  21992678.200   115572276.60109  21992679.600    90056302.91748
  22579770.320   118657536.87909  22579774.020    92460450.50647
  22970441.460   120710357.49508  22970452.420    94059999.38347
  20831344.620   109469471.68909  20831346.320    85300902.79848
  22403953.900   117733504.49609  22403959.620    91740381.47048
  20267110.580   106504375.08209  20267112.060    82990430.43648
  24113022.660   126714831.88308  24113030.600    98738860.60445
  20386824.520   107133464.69509  20386826.040    83480614.17749
  23669045.340   124381741.84108  23669058.640    96920892.19045
  20265478.800   106495964.03509  20265482.500    82983932.00249
 15 03 02 11 36  0.0000000  0 10G02G05G06G07G09G10G13G20G28G30
  21997196.560   115596020.79309  21997198.120    90074804.85048
  22563587.740   118572497.99809  22563591.640    92394186.60747
  22988268.500   120804037.75908  22988279.560    94132996.63947
  20840181.720   109515911.02109  20840183.460    85337089.26548
  22415282.440   117793036.35709  22415288.260    91786769.89048
  20271549.200   106527700.42709  20271550.720    83008606.03148
  24098824.540   126640220.91808  24098832.520    98680722.37345
  20394602.160   107174336.35109  20394603.780    83512462.15548
  23651764.820   124290933.84808  23651777.840    96850133.15945
  20262947.440   106482661.97709  20262951.140    82973566.83649
 15 03 02 11 36 30.0000000  0 10G02G05G06G07G09G10G13G20G28G30
  22001813.400   115620282.67109  22001815.080    90093710.16747
  22547445.140   118487668.56709  22547448.940    92328085.87047
  23006128.780   120897893.01808  23006140.000    94206130.22647
  20849093.740   109562743.97809  20849095.460    85373582.44648
  22426631.580   117852676.68208  22426637.540    91833242.83848
  20276079.920   106551509.82909  20276081.500    83027158.81848
  24084640.280   126565682.23408  24084648.200    98622640.44944
  20402470.500   107215684.63609  20402472.200    83544681.53648
  23634496.120   124200188.18008  23634509.060    96779422.71645
  20260515.920   106469884.90209  20260519.680    82963610.74549
 15 03 02 11 37  0.0000000  0 10G02G05G06G07G09G10G13G20G28G30
  22006527.980   115645058.15909  22006529.740    90113015.68647
  22531342.300   118403048.80709  22531346.260    92262148.54647
  23024021.400   120991917.97308  23024032.700    94279396.06547
  20858079.960   109609966.62809  20858081.660    85410379.28148
  22438000.900   117912423.15609  22438007.020    91879798.49848
  20280702.320   106575801.04609  20280703.960    83046087.04048
  24070469.280   126491213.77808  24070477.260    98564613.25545
  20410429.100   107257507.35409  20410430.880    83577270.60748
  23617239.320   124109505.32208  23617252.220    96708761.19945
  20258183.800   106457630.26209  20258187.660    82954061.74449
 15 03 02 11 37 30.0000000  0 10G02G05G06G07G09G10G13G20G28G30
  22011340.520   115670348.40809  22011342.400    90132722.32747
  22515280.340   118318643.23409  22515284.300    92196378.10347
  23041946.160   121086111.56508  23041957.380    94352793.29847
  20867140.300   109657578.85809  20867142.000    85447479.68548
  22449390.840   117972277.72709  22449397.040    91926438.39247
  20285416.760   106600576.19709  20285418.520    83065392.35848
  24056311.960   126416817.45508  24056319.960    98506642.28445
  20418478.180   107299805.47309  20418479.980    83610230.13648
  23599995.420   124018890.40508  23600008.360    96638152.62346
  20255951.400   106445899.68609  20255955.300    82944921.10749
 15 03 02 11 38  0.0000000  0 10G02G05G06G07G09G10G13G20G28G30
  22016250.580   115696150.69609  22016252.440    90152827.94647
  22499259.460   118234453.43509  22499263.480    92130775.79848
  23059902.240   121180469.64109  23059913.440    94426318.68747
  20876274.240   109705577.91509  20876275.960    85484881.52048
  22460801.180   118032239.22409  22460807.260    91973161.59148
  20290223.140   106625834.36009  20290224.980    83085074.04348
  24042168.100   126342492.32508  24042176.380    98448726.77945
  20426617.480   107342577.35709  20426619.240    83643558.82448
  23582764.900   123928345.35008  23582777.740    96567598.45146
  20253818.500   106434691.67209  20253822.400    82936187.65649
 15 03 02 11 38 30.0000000  0 10G02G05G06G07G09G10G13G20G28G30
  22021257.780   115722463.38909  22021259.680    90173331.28447
  22483280.000   118150481.17709  22483283.940    92065343.00848
  23077889.100   121274989.27108  23077900.280    94499969.96247
  20885481.400   109753961.91509  20885483.180    85522583.30348
  22472231.860   118092307.68409  22472237.820    92019968.14748
  20295121.460   106651575.68109  20295123.380    83105132.21348
  24028037.780   126268238.53408  24028046.120    98390866.87545
  20434846.920   107385822.89709  20434848.660    83677256.59848
  23565548.360   123837873.35908  23565561.060    96497101.19646
  20251785.060   106424005.92309  20251788.940    82927861.16349
 15 03 02 11 39  0.0000000  0 10G02G05G06G07G09G10G13G20G28G30
  22026361.360   115749282.47009  22026363.200    90194229.20047
  22467341.980   118066726.49209  22467345.880    92000079.74348
  23095905.660   121369664.79708  23095916.840    94573742.70847
  20894760.920   109802726.38709  20894762.760    85560581.56048
  22483682.400   118152480.50508  22483688.260    92066856.01448
  20300111.280   106677797.68509  20300113.260    83125564.94048
  24013920.580   126194053.44308  24013928.900    98333060.49445
  20443165.900   107429539.05109  20443167.640    83711321.07648
  23548345.840   123747474.74908  23548358.440    96426661.09646
  20249850.440   106413839.43209  20249854.280    82919939.27749
 15 03 02 11 39 30.0000000  0 10G02G05G06G07G09G10G13G20G28G30
  22031562.140   115776611.95709  22031563.820    90215524.82447
  22451446.740   117983197.21509  22451450.640    91934992.11947
  23113952.260   121464498.65108  23113963.540    94647638.80447
  20904113.500   109851874.50809  20904115.340    85598878.75448
  22495153.840   118212763.07109  22495159.620    92113829.39148
  20305193.620   106704505.90609  20305195.680    83146376.51848
  23999817.640   126119942.46608  23999825.980    98275311.86745
  20451575.400   107473731.01409  20451577.140    83745756.29848
  23531158.920   123657158.23608  23531171.320    96356284.95645
  20248015.580   106404197.20109  20248019.360    82912425.88549
 15 03 02 11 40  0.0000000  0 10G02G05G06G07G09G10G13G20G28G30
  22036858.600   115804444.33809  22036860.240    90237212.32847
  22435593.780   117899889.82309  22435597.640    91870077.38748
  23132027.240   121559481.88308  23132038.600    94721651.30547
  20913537.620   109901398.47809  20913539.480    85637468.84048
  22506645.060   118273149.51709  22506650.880    92160883.71947
  20310367.420   106731694.41609  20310369.500    83167562.36048
  23985727.820   126045899.88908  23985736.060    98217616.52745
  20460074.220   107518392.34909  20460075.900    83780557.29448
  23513987.020   123566920.68708  23513999.300    96285970.36945
  20246279.300   106395072.91209  20246282.980    82905316.09749
 15 03 02 11 40 30.0000000  0 10G02G05G06G07G09G10G13G20G28G30
  22042251.160   115832781.97509  22042252.800    90259293.53647
  22419784.180   117816810.52409  22419788.020    91805340.40048
  23150130.740   121654615.38508  23150142.200    94795780.89547
  20923033.700   109951300.42309  20923035.600    85676353.45248
  22518156.780   118333643.67709  22518162.700    92208021.97748
  20315633.480   106759367.44409  20315635.500    83189125.75248
  23971651.720   125971929.37408  23971659.720    98159977.34045
  20468662.920   107563526.27509  20468664.660    83815726.53748
  23496831.520   123476769.24508  23496843.580    96215722.87945
  20244642.200   106386470.00309  20244645.800    82898612.57749
 15 03 02 11 41  0.0000000  0 10G02G05G06G07G09G10G13G20G28G30
  22047739.220   115861621.89909  22047740.880    90281766.13847
  22404018.220   117733960.35709  22404022.000    91740781.94948
  23168262.000   121749894.70608  23168273.600    94870024.09247
  20932601.160   110001577.34209  20932603.080    85715530.24948
  22529688.740   118394244.12909  22529694.740    92255243.05148
  20320991.460   106787523.45109  20320993.420    83211065.47548
  23957589.100   125898029.75708  23957596.760    98102393.39945
  20477341.260   107609131.20709  20477343.080    83851262.79349
  23479692.640   123386705.27108  23479704.580    96145543.54945
  20243103.900   106378386.55009  20243107.480    82892313.81749
 15 03 02 11 41 30.0000000  0 10G02G05G06G07G09G10G13G20G28G30
  22053322.320   115890961.24809  22053324.000    90304627.90947
  22388296.140   117651340.59309  22388299.760    91676403.01848
  23186420.260   121845315.79508  23186431.960    94944377.74347
  20942239.340   110052225.69409  20942241.160    85754996.47848
  22541240.700   118454949.84209  22541246.760    92302546.13648
  20326441.120   106816161.30009  20326442.980    83233380.66248
  23943539.720   125824200.05808  23943547.080    98044863.92645
  20486108.760   107655204.67009  20486110.660    83887164.13148
  23462570.820   123296731.22808  23462582.600    96075434.29945
  20241664.120   106370821.05409  20241667.760    82886418.65049
 15 03 02 11 42  0.0000000  0 10G02G05G06G07G09G10G13G20G28G30
  22059000.640   115920801.22109  22059002.420    90327879.77947
  22372618.780   117568956.01909  22372622.340    91612207.38048
  23204605.460   121940878.00308  23204617.240    95018841.36747
  20951948.260   110103246.00309  20951949.940    85794752.55448
  22552813.200   118515763.25309  22552819.140    92349933.15148
  20331982.900   106845283.54309  20331984.760    83256073.30048
  23929504.040   125750442.84508  23929511.400    97987390.96745
  20494965.920   107701749.13709  20494967.820    83923432.50148
  23445467.060   123206852.23108  23445478.760    96005399.14045
  20240323.240   106363775.36009  20240326.980    82880928.53849
 15 03 02 11 42 30.0000000  0 10G02G05G06G07G09G10G13G20G28G30
  22064773.180   115951136.39409  22064775.120    90351517.51747
  22356986.000   117486805.61109  22356989.560    91548194.21148
  23222816.300   122036574.83508  23222828.080    95093409.88847
  20961726.840   110154632.65909  20961728.480    85834794.10048
  22564405.600   118576680.77809  22564411.400    92397401.28247
  20337616.160   106874886.63109  20337618.020    83279140.62848
  23915481.440   125676754.46008  23915488.760    97929971.63845
  20503911.940   107748760.27909  20503913.780    83960064.51848
  23428381.320   123117068.06908  23428392.940    95935437.91245
  20239080.600   106357245.47909  20239084.380    82875840.35449
 15 03 02 11 43  0.0000000  0 10G02G05G06G07G09G10G13G20G28G30
  22070640.340   115981968.46709  22070642.380    90375542.45447
  22341398.920   117404895.16309  22341402.400    91484368.00948
  23241052.820   122132406.67308  23241064.700    95168083.60847
  20971575.460   110206387.53609  20971577.120    85875122.57148
  22576018.440   118637705.88109  22576024.160    92444953.23347
  20343341.560   106904973.86109  20343343.400    83302585.20448
  23901472.600   125603138.28608  23901479.920    97872608.57345
  20512947.340   107796241.13309  20512949.120    83997062.54048
  23411314.820   123027384.93708  23411326.400    95865555.40545
  20237936.640   106351234.22609  20237940.420    82871156.28349
 15 03 02 11 43 30.0000000  0 10G02G05G06G07G09G10G13G20G28G30
  22076601.240   116013292.90909  22076603.360    90399951.05247
  22325857.420   117323224.18709  22325860.880    91420728.41848
  23259313.940   122228367.59608  23259325.940    95242857.89447
  20981493.160   110258505.51109  20981494.820    85915733.96948
  22587651.160   118698835.66209  22587656.860    92492586.74647
  20349158.560   106935542.15009  20349160.380    83326404.62148
  23887477.040   125529591.76108  23887484.300    97815299.78845
  20522071.440   107844188.25209  20522073.240    84034423.88748
  23394267.560   122937802.87108  23394279.120    95795751.68046
  20236890.720   106345738.13709  20236894.540    82866873.62849
 15 03 02 11 44  0.0000000  0 10G02G05G06G07G09G10G13G20G28G30
  22082656.200   116045111.51509  22082658.300    90424744.71247
  22310362.600   117241798.73109  22310366.080    91357280.14148
  23277599.780   122324458.19208  23277611.880    95317733.22147
  20991480.240   110310988.07309  20991481.940    85956629.45748
  22599304.400   118760073.72508  22599310.140    92540304.64048
  20355067.800   106966594.94909  20355069.580    83350601.58948
  23873495.420   125456118.36108  23873502.560    97758047.97545
  20531284.760   107892604.25309  20531286.560    84072150.59648
  23377240.800   122848328.72108  23377252.300    95726032.02545
  20235943.400   106340760.18409  20235947.300    82862994.72249
 15 03 02 11 44 30.0000000  0 10G02G05G06G07G09G10G13G20G28G30
  22088804.100   116077418.45909  22088806.120    90449918.90147
  22294914.100   117160617.10409  22294917.720    91294021.86548
  23295908.940   122420671.33408  23295921.220    95392704.02147
  21001535.560   110363829.10009  21001537.260    85997804.26748
  22610977.400   118821415.98309  22610983.300    92588103.71047
  20361068.440   106998128.30709  20361070.220    83375173.01448
  23859526.960   125382714.11008  23859533.900    97700850.06645
  20540586.420   107941484.34309  20540588.160    84110238.93548
  23360234.380   122758961.35908  23360245.800    95656395.61346
  20235093.820   106336295.66609  20235097.720    82859515.89149
 15 03 02 11 45  0.0000000  0 10G02G05G06G07G09G10G13G20G28G30
  22095044.780   116110213.26709  22095046.860    90475473.22947
  22279512.620   117079682.92609  22279516.320    91230956.40348
  23314241.120   122517005.57408  23314253.600    95467769.19047
  21011659.140   110417028.70409  21011660.740    86039258.49348
  22622670.580   118882863.98009  22622676.580    92635985.18048
  20367160.740   107030143.47009  20367162.580    83400119.88248
  23845571.800   125309380.42408  23845578.680    97643707.15544
  20549976.620   107990829.84609  20549978.320    84148689.93748
  23343249.260   122669705.91208  23343260.600    95586846.40645
  20234342.140   106332345.49809  20234345.980    82856437.85249
 15 03 02 11 45 30.0000000  0 10G02G05G06G07G09G10G13G20G28G30
  22101377.900   116143494.31809  22101380.100    90501406.45347
  22264158.640   116998998.23009  22264162.480    91168085.34548
  23332595.640   122613457.38308  23332608.280    95542925.96247
  21021850.400   110470584.13609  21021851.940    86080989.98748
  22634383.800   118944417.25908  22634389.900    92683948.67348
  20373344.600   107062640.04909  20373346.520    83425441.88448
  23831629.920   125236116.97908  23831636.940    97586618.97244
  20559455.060   108040639.46909  20559456.740    84187502.59148
  23326285.860   122580564.52208  23326297.100    95517386.09146
  20233688.100   106328908.52009  20233691.880    82853759.69049
 15 03 02 11 46  0.0000000  0 10G02G05G06G07G09G10G13G20G28G30
  22107803.340   116177260.31209  22107805.620    90527717.54747
  22248852.840   116918566.35509  22248856.560    91105411.27948
  23350972.100   122710024.55608  23350984.880    95618172.61747
  21032109.040   110524493.89009  21032110.640    86122997.56948
  22646117.240   119006076.63709  22646123.380    92731994.84548
  20379620.140   107095618.41309  20379622.080    83451139.29848
  23817701.560   125162924.65408  23817708.840    97529586.20844
  20569021.720   108090913.07409  20569023.480    84226676.78448
  23309344.940   122491541.01008  23309355.900    95448017.62846
  20233131.740   106325984.86009  20233135.420    82851481.52049
 15 03 02 11 46 30.0000000  0 10G02G05G06G07G09G10G13G20G28G30
  22114320.880   116211510.14009  22114323.140    90554405.66547
  22233595.840   116838390.70709  22233599.480    91042936.87348
  23369370.100   122806704.97808  23369383.000    95693507.51946
  21042434.900   110578757.04509  21042436.600    86165280.52048
  22657871.040   119067842.98608  22657877.140    92780124.38047
  20385987.480   107129079.33709  20385989.460    83477212.73548
  23803786.880   125089804.22708  23803794.300    97472609.47344
  20578676.760   108141650.72809  20578678.560    84266212.57748
  23292427.200   122402639.19408  23292437.920    95378743.98046
  20232673.140   106323574.70909  20232676.740    82849603.48049
 15 03 02 11 47  0.0000000  0 10G02G05G06G07G09G10G13G20G28G30
  22120929.460   116246238.48309  22120931.820    90581466.62647
  22218387.340   116758469.68709  22218390.800    90980660.85748
  23387788.400   122903491.86408  23387801.280    95768925.38446
  21052826.900   110633367.71209  21052828.660    86207834.24448
  22669644.460   119129712.61008  22669650.620    92828334.37347
  20392445.880   107163018.81009  20392447.940    83503659.05748
  23789885.160   125016752.19008  23789892.760    97415686.02545
  20588419.360   108192848.25809  20588421.140    84306106.69948
  23275532.440   122313858.50708  23275542.940    95309564.72146
  20232311.420   106321673.57709  20232314.960    82848122.06249
 15 03 02 11 47 30.0000000  0 10G02G05G06G07G09G10G13G20G28G30
  22127629.320   116281446.49109  22127631.760    90608901.35147
  22203228.360   116678809.02209  22203231.720    90918587.72348
  23406227.080   123000385.36908  23406239.860    95844426.33446
  21063285.280   110688326.92809  21063287.020    86250659.55948
  22681438.200   119191688.65709  22681444.300    92876627.29147
  20398995.960   107197439.93609  20398998.060    83530480.69948
  23775997.100   124943771.60008  23776004.800    97358818.27245
  20598250.000   108244507.92109  20598251.680    84346360.93748
  23258661.780   122225204.63708  23258672.080    95240484.27546
  20232047.060   106320283.89309  20232050.560    82847039.17949
 15 03 02 11 48  0.0000000  0 10G02G05G06G07G09G10G13G20G28G30
  22134420.340   116317133.05509  22134422.700    90636708.98247
  22188119.500   116599412.01809  22188122.780    90856720.04248
  23424685.600   123097383.60208  23424698.420    95920008.88546
  21073809.900   110743633.84609  21073811.620    86293755.81448
  22693252.440   119253772.20009  22693258.500    92925003.98847
  20405637.920   107232343.53709  20405640.020    83557678.29648
  23762122.980   124870863.60008  23762130.660    97302007.08345
  20608168.660   108296629.93809  20608170.240    84386975.45248
  23241816.140   122136682.35408  23241826.300    95171506.36246
  20231880.120   106319405.94209  20231883.520    82846355.05549
 15 03 02 11 48 30.0000000  0 10G02G05G06G07G09G10G13G20G28G30
  22141300.760   116353289.45209  22141303.140    90664882.71147
  22173059.980   116520274.28409  22173063.340    90795054.38048
  23443162.100   123194476.39908  23443175.100    95995665.11946
  21084399.000   110799279.42709  21084400.720    86337115.95248
  22705085.760   119315956.28308  22705091.820    92973459.02247
  20412370.300   107267722.40709  20412372.380    83585246.22648
  23748261.460   124798021.08608  23748268.980    97245246.90845
  20618173.720   108349206.69609  20618175.320    84427944.31048
  23224994.820   122048287.58908  23225004.840    95102627.81145
  20231809.040   106319031.94909  20231812.380    82846063.61849
 15 03 02 11 49  0.0000000  0 10G02G05G06G07G09G10G13G20G28G30
  22148271.340   116389919.56109  22148273.760    90693425.55747
  22158051.360   116441404.00309  22158054.640    90733597.12448
  23461657.200   123291666.73008  23461670.440    96071397.33046
  21095053.320   110855267.51809  21095055.060    86380742.97048
  22716939.280   119378246.80608  22716945.380    93021996.98347
  20419194.120   107303582.17009  20419196.280    83613188.86848
  23734413.580   124725250.11508  23734420.840    97188542.49045
  20628266.140   108402243.01009  20628267.820    84469271.25348
  23208199.420   121960028.98408  23208209.320    95033855.36446
  20231834.740   106319166.95609  20231838.040    82846168.81049
 15 03 02 11 49 30.0000000  0 10G02G05G06G07G09G10G13G20G28G30
  22155331.460   116427020.08509  22155333.820    90722334.97047
  22143093.800   116362801.95709  22143097.120    90672348.89448
  23480169.920   123388950.14308  23480183.460    96147202.06546
  21105772.160   110911594.56109  21105773.860    86424634.12048
  22728812.780   119440642.28108  22728819.020    93070616.73747
  20426109.080   107339920.92409  20426111.360    83641504.75648
  23720579.020   124652549.20808  23720586.040    97131892.65945
  20638445.620   108455736.54409  20638447.300    84510954.47948
  23191430.320   121871908.45808  23191440.040    94965190.49045
  20231956.880   106319808.75109  20231960.180    82846668.90649
 15 03 02 11 50  0.0000000  0 10G02G05G06G07G09G10G13G20G28G30
  22162481.300   116464591.81509  22162483.500    90751611.55747
  22128188.260   116284473.35909  22128191.580    90611313.72948
  23498700.300   123486326.23408  23498714.040    96223079.00246
  21116555.660   110968261.44309  21116557.240    86468790.07048
  22740706.740   119503145.47808  22740713.120    93119320.42347
  20433115.680   107376741.04209  20433118.000    83670195.72048
  23706758.360   124579921.35208  23706765.180    97075299.73145
  20648712.460   108509689.23409  20648714.160    84552995.47948
  23174688.520   121783931.48408  23174698.000    94896637.47345
  20232175.760   106320959.13409  20232179.100    82847565.29149
 15 03 02 11 50 30.0000000  0 10G02G05G06G07G09G10G13G20G28G30
  22169719.760   116502629.23609  22169721.880    90781251.02847
  22113334.480   116206416.87009  22113337.880    90550490.62048
  23517247.100   123583788.45808  23517260.960    96299023.04546
  21127402.700   111025262.31909  21127404.200    86513206.27948
  22752620.440   119565752.81508  22752627.020    93168105.26047
  20440213.280   107414039.07909  20440215.600    83699259.08948
  23692950.920   124507362.90708  23692957.620    97018760.90045
  20659065.800   108564096.66309  20659067.620    84595390.82548
  23157973.840   121696097.45508  23157983.260    94828195.84946
  20232490.520   106322613.67109  20232493.960    82848854.53149
 15 03 02 11 51  0.0000000  0 10G02G05G06G07G09G10G13G20G28G30
  22177046.540   116541130.87109  22177048.700    90811252.21647
  22098533.160   116128636.03709  22098536.560    90489882.30348
  23535809.980   123681334.53908  23535823.900    96375032.44047
  21138313.000   111082595.71209  21138314.420    86557881.59548
  22764554.180   119628465.06808  22764560.860    93216971.85747
  20447401.900   107451815.02309  20447404.140    83728694.84648
  23679156.760   124434874.32508  23679163.380    96962276.51645
  20669505.640   108618958.72609  20669507.600    84638140.42348
  23141287.080   121608410.11508  23141296.620    94759868.51746
  20232901.160   106324772.22909  20232904.760    82850536.52349
 15 03 02 11 51 30.0000000  0 10G02G05G06G07G09G10G13G20G28G30
  22184461.660   116580097.08209  22184463.840    90841615.41647
  22083785.220   116051135.48009  22083788.600    90429492.38848
  23554388.740   123778963.88308  23554402.800    96451106.70147
  21149286.580   111140262.20909  21149288.000    86602816.47748
  22776508.420   119691284.65508  22776515.080    93265922.09147
  20454681.860   107490070.72709  20454684.000    83758504.44948
  23665376.300   124362458.32808  23665382.860    96905848.69346
  20680032.300   108674276.82409  20680034.360    84681245.37948
  23124629.360   121520875.20508  23124638.920    94691659.94046
  20233408.020   106327436.31409  20233411.780    82852612.43749
 15 03 02 11 52  0.0000000  0 10G02G05G06G07G09G10G13G20G28G30
  22191963.560   116619519.35709  22191965.680    90872333.97747
  22069089.900   115973911.50709  22069093.240    90369317.97448
  23572981.580   123876667.31808  23572995.740    96527238.68147
  21160321.880   111198253.19609  21160323.400    86648004.20048
  22788482.020   119754205.37309  22788488.540    93314951.13347
  20462051.940   107528799.85009  20462053.940    83788682.93548
  23651608.380   124290108.60808  23651614.980    96849472.49145
  20690644.480   108730043.70709  20690646.520    84724700.03848
  23108000.060   121433489.42008  23108009.500    94623567.56146
  20234009.720   106330598.78409  20234013.620    82855076.70149
 15 03 02 11 52 30.0000000  0 10G02G05G06G07G09G10G13G20G28G30
  22199553.380   116659404.03609  22199555.580    90903412.87247
  22054449.080   115896974.09609  22054452.420    90309366.87648
  23591589.460   123974449.80508  23591603.700    96603432.26947
  21171420.100   111256575.06509  21171421.820    86693449.77348
  22800476.420   119817235.28809  22800482.820    93364065.27147
  20469513.520   107568009.97609  20469515.440    83819236.24148
  23637854.540   124217833.19108  23637861.260    96793154.18545
  20701343.480   108786266.54009  20701345.520    84768509.98948
  23091401.220   121346263.55108  23091410.540    94555599.77746
  20234707.660   106334266.73309  20234711.580    82857934.87049
 15 03 02 11 53  0.0000000  0 10G02G05G06G07G09G10G13G20G28G30
  22207229.520   116699742.39509  22207231.820    90934845.25947
  22039862.020   115820319.18809  22039865.360    90249635.88548
  23610210.580   124072301.94408  23610224.940    96679680.10246
  21182579.620   111315219.36609  21182581.540    86739146.57248
  22812490.400   119880367.99909  22812496.640    93413259.50347
  20477065.320   107607694.42509  20477067.180    83850159.13548
  23624113.680   124145625.70408  23624120.420    96736888.79845
  20712127.820   108842937.91809  20712129.800    84812669.43248
  23074832.300   121259194.48209  23074841.460    94487754.15446
  20235500.420   106338432.77609  20235504.280    82861181.15349
 15 03 02 11 53 30.0000000  0 10G02G05G06G07G09G10G13G20G28G30
  22214991.920   116740533.75709  22214994.280    90966630.64247
  22025329.440   115743950.88709  22025332.840    90190128.24148
  23628844.640   124170222.12308  23628859.020    96755980.96546
  21193800.280   111374184.80509  21193802.320    86785093.63248
  22824524.200   119943604.91809  22824530.360    93462534.93447
  20484707.500   107647854.07909  20484709.340    83881452.32048
  23610386.120   124073487.91608  23610392.740    96680677.71245
  20722997.540   108900058.28809  20722999.560    84857178.75148
  23058294.020   121172286.49009  23058303.020    94420034.04846
  20236388.060   106343097.29209  20236391.840    82864815.87049
 15 03 02 11 54  0.0000000  0 10G02G05G06G07G09G10G13G20G28G30
  22222840.720   116781779.27909  22222843.100    90998769.91647
  22010852.460   115667874.82109  22010855.940    90130848.30648
  23647491.560   124268210.32108  23647506.020    96832334.80046
  21205082.260   111433472.50209  21205084.420    86831291.80048
  22836578.360   120006949.05809  22836584.520    93511893.91447
  20492440.620   107688491.43909  20492442.380    83913117.74748
  23596672.340   124001422.41708  23596678.920    96624522.94945
  20733953.020   108957629.64709  20733955.120    84902039.48848
  23041787.520   121085545.68409  23041796.300    94352444.20946
  20237370.980   106348262.31709  20237374.700    82868840.60149
 15 03 02 11 54 30.0000000  0 10G02G05G06G07G09G10G13G20G28G30
  22230774.920   116823473.60309  22230777.340    91031258.88947
  21996431.120   115592090.63309  21996434.600    90071795.79248
  23666150.300   124366260.97408  23666164.980    96908737.28146
  21216424.720   111493077.74709  21216426.960    86877737.41348
  22848652.380   120070397.89108  22848658.580    93561334.47147
  20500264.040   107729603.36809  20500265.780    83945152.96148
  23582971.880   123929426.80008  23582978.360    96568422.62645
  20744993.580   109015648.35809  20744995.760    84947248.79948
  23025312.860   120998972.37709  23025321.420    94284984.85646
  20238448.440   106353924.23409  20238452.100    82873252.53249
 15 03 02 11 55  0.0000000  0 10G02G05G06G07G09G10G13G20G28G30
  22238794.600   116865617.00409  22238797.100    91064097.79447
  21982066.160   115516602.64509  21982069.640    90012974.09048
  23684820.740   124464373.26708  23684835.600    96985187.78546
  21227827.700   111553000.71409  21227829.920    86924430.61448
  22860746.560   120133953.53808  22860752.900    93610858.27047
  20508178.040   107771191.59509  20508179.820    83977559.32448
  23569285.160   123857503.36508  23569291.660    96512378.56145
  20756119.460   109074115.31509  20756121.660    84992807.39748
  23008871.000   120912571.65909  23008879.480    94217659.98846
  20239620.640   106360084.12309  20239624.220    82878052.49749
 15 03 02 11 55 30.0000000  0 10G02G05G06G07G09G10G13G20G28G30
  22246898.980   116908205.19609  22246901.460    91097283.28747
  21967757.640   115441411.30609  21967761.060    89954383.53348
  23703502.040   124562542.14308  23703517.020    97061682.36446
  21239290.420   111613237.38509  21239292.580    86971368.24948
  22872860.680   120197614.03108  22872867.140    93660463.76147
  20516182.220   107813253.46109  20516184.000    84010334.74948
  23555611.740   123785649.89608  23555618.180    96456389.00545
  20767330.220   109133027.78909  20767332.360    85038713.15348
  22992462.180   120826344.42509  22992470.560    94150470.28246
  20240887.040   106366738.90609  20240890.580    82883238.08749
 15 03 02 11 56  0.0000000  0 10G02G05G06G07G09G10G13G20G28G30
  22255087.280   116951234.62709  22255089.760    91130812.60647
  21953505.760   115366517.43909  21953509.180    89896024.77648
  23722193.320   124660763.27008  23722208.580    97138217.66646
  21250812.140   111673783.98309  21250814.180    87018547.39648
  22884994.540   120261377.98208  22885001.040    93710149.87747
  20524276.120   107855787.10909  20524277.940    84043477.80848
  23541951.460   123713865.26008  23541957.880    96400453.08045
  20778625.240   109192382.91509  20778627.300    85084963.83648
  22976086.680   120740292.23709  22976095.000    94083416.95846
  20242247.120   106373886.14609  20242250.620    82888807.42049
 15 03 02 11 56 30.0000000  0 10G02G05G06G07G09G10G13G20G28G30
  22263359.680   116994705.76209  22263362.060    91164686.11747
  21939311.480   115291926.10809  21939314.680    89837901.74848
  23740894.540   124759036.31408  23740909.980    97214793.39546
  21262392.960   111734641.06509  21262394.880    87065968.48448
  22897148.620   120325248.10608  22897155.180    93759918.71547
  20532460.140   107898794.65009  20532462.040    84076990.13148
  23528304.840   123642152.30108  23528311.260    96344573.02445
  20790004.800   109252182.22109  20790006.780    85131560.63048
  22959745.540   120654420.68008  22959753.820    94016504.37246
  20243701.160   106381527.39809  20243704.620    82894761.69249
 15 03 02 11 57  0.0000000  0 10G02G05G06G07G09G10G13G20G28G30
  22271715.200   117038613.75909  22271717.520    91198900.04347
  21925174.780   115217637.42409  21925177.860    89780014.55648
  23759604.620   124857355.65508  23759620.200    97291405.20947
  21274031.940   111795804.01009  21274033.820    87113627.89748
  22909322.440   120389221.80408  22909329.060    93809768.27247
  20540733.740   107942272.74609  20540735.720    84110869.12248
  23514671.360   123570508.00908  23514677.700    96288746.46045
  20801468.240   109312422.44509  20801470.160    85178501.00948
  22943438.960   120568730.66808  22943447.200    93949733.25146
  20245248.500   106389658.92209  20245251.940    82901097.99149
 15 03 02 11 57 30.0000000  0 10G02G05G06G07G09G10G13G20G28G30
  22280153.800   117082958.28709  22280156.060    91233454.10947
  21911096.500   115143655.69709  21911099.500    89722366.53548
  23778323.300   124955720.38908  23778339.120    97368052.36446
  21285729.080   111857272.96609  21285731.040    87161525.74948
  22921516.340   120453301.15808  22921523.000    93859700.13947
  20549097.180   107986223.09809  20549099.280    84145116.09248
  23501051.380   123498934.77808  23501057.620    96232975.25345
  20813015.640   109373104.29409  20813017.540    85225785.49548
  22927167.920   120483227.51308  22927176.260    93883107.73546
  20246889.300   106398281.65709  20246892.720    82907817.04249
 15 03 02 11 58  0.0000000  0 10G02G05G06G07G09G10G13G20G28G30
  22288675.360   117127738.81709  22288677.620    91268347.93947
  21897077.420   115069984.95509  21897080.320    89664960.85048
  23797050.460   125054129.30708  23797066.420    97444733.95646
  21297484.480   111919048.07309  21297486.480    87209662.18148
  22933730.780   120517487.99508  22933737.440    93909715.76947
  20557550.780   108030646.88509  20557552.880    84179731.99548
  23487445.240   123427434.31308  23487451.280    96177260.74745
  20824647.260   109434228.68309  20824649.180    85273414.83048
  22910933.220   120397915.20708  22910941.640    93816630.91546
  20248623.700   106407396.23809  20248627.140    82914919.35249
 15 03 02 11 58 30.0000000  0 10G02G05G06G07G09G10G13G20G28G30
  22297278.320   117172947.17009  22297280.600    91303575.11647
  21883116.900   114996621.78609  21883119.680    89607794.80848
  23815784.360   125152573.68408  23815800.500    97521443.15846
  21309296.440   111981120.41309  21309298.520    87258030.20148
  22945964.540   120581776.52508  22945971.220    93959810.62347
  20566093.320   108075537.71009  20566095.360    84214711.80848
  23473851.800   123356000.78208  23473857.680    96121598.41945
  20836361.780   109495788.69409  20836363.720    85321383.59748
  22894734.400   120312790.95809  22894742.760    93750300.60646
  20250450.440   106416995.68709  20250453.860    82922399.46149
 15 03 02 11 59  0.0000000  0 10G02G05G06G07G09G10G13G20G28G30
  22305963.300   117218586.99209  22305965.660    91339138.50847
  21869216.460   114923574.63009  21869219.160    89550875.03848
  23834525.540   125251056.42208  23834541.820    97598182.24346
  21321165.740   112043494.05009  21321167.860    87306633.01948
  22958218.800   120646172.73108  22958225.480    94009989.39647
  20574725.700   108120900.61109  20574727.680    84250059.48148
  23460272.280   123284640.18308  23460278.020    96065992.91945
  20848159.840   109557788.41909  20848161.940    85369695.01348
  22878573.220   120227864.04909  22878581.400    93684124.06546
  20252370.360   106427084.75409  20252373.740    82930261.10249
 15 03 02 11 59 30.0000000  0 10G02G05G06G07G09G10G13G20G28G30
  22314728.920   117264650.92009  22314731.440    91375032.34647
  21855375.560   114850840.63009  21855378.240    89494199.27648
  23853272.520   125349569.40608  23853288.940    97674944.86246
  21333091.060   112106161.89909  21333093.160    87355465.07448
  22970492.560   120710671.46708  22970499.320    94060248.04247
  20583446.780   108166729.78309  20583448.700    84285770.47648
  23446705.680   123213347.50008  23446711.320    96010440.33645
  20860040.360   109620221.50209  20860042.620    85418344.10248
  22862449.100   120143131.68109  22862457.080    93618099.10046
  20254382.220   106437657.11309  20254385.580    82938499.32249
 15 03 02 12 00  0.0000000  0 10G02G05G06G07G09G10G13G20G28G30
  22323575.660   117311140.90209  22323578.300    91411258.18447
  21841595.440   114778426.21009  21841598.160    89437772.52948
  23872025.560   125448114.10108  23872042.040    97751732.20146
  21345072.720   112169125.60509  21345074.800    87404527.67448
  22982786.680   120775277.13608  22982793.480    94110590.01347
  20592257.260   108213029.06809  20592259.220    84321847.79348
  23433152.880   123142127.26008  23433158.420    95954944.19945
  20872004.040   109683091.31109  20872006.440    85467333.50148
  22846363.460   120058601.69509  22846371.320    93552231.83246
  20256486.660   106448715.89109  20256489.920    82947116.56449
 15 03 02 12 00 30.0000000  0 10G02G05G06G07G09G10G13G20G28G30
  22332502.680   117358052.60109  22332505.360    91447812.63647
  21827876.300   114706332.11809  21827879.040    89381595.40348
  23890783.640   125546685.77608  23890800.320    97828540.55146
  21357110.020   112232381.53409  21357112.040    87453818.00248
  22995100.820   120839987.99208  22995107.640    94161013.94847
  20601156.700   108259796.06409  20601158.760    84358289.56448
  23419613.480   123070977.69508  23419618.940    95899503.13945
  20884050.280   109746394.95309  20884052.800    85516660.95448
  22830316.520   119974275.04209  22830324.220    93486522.99746
  20258683.060   106460258.09309  20258686.260    82956110.50449
 15 03 02 12 01  0.0000000  0 10G02G05G06G07G09G10G13G20G28G30
  22341509.560   117405383.84408  22341512.300    91484693.98647
  21814218.660   114634561.23009  21814221.460    89325670.10948
  23909546.380   125645281.50008  23909563.260    97905367.62546
  21369202.600   112295928.29509  21369204.600    87503334.92148
  23007435.020   120904804.08908  23007441.800    94211519.88047
  20610145.040   108307030.08909  20610147.120    84395095.23848
  23406087.440   122999898.54508  23406092.860    95844116.94045
  20896178.900   109810131.41509  20896181.520    85566325.65648
  22814308.880   119890155.15109  22814316.460    93420975.24346
  20260971.260   106472282.49909  20260974.400    82965480.16749
 15 03 02 12 01 30.0000000  0 10G02G05G06G07G09G10G13G20G28G30
  22350595.980   117453133.28808  22350598.880    91521901.19847
  21800623.140   114563116.56009  21800625.900    89269999.01448
  23928313.340   125743899.15908  23928330.420    97982211.77846
  21381350.160   112359764.06909  21381352.240    87553077.06148
  23019789.420   120969726.38608  23019796.240    94262108.56947
  20619222.280   108354731.29909  20619224.340    84432264.96348
  23392575.060   122928891.21608  23392580.600    95788786.71645
  20908389.900   109874300.18309  20908392.500    85616327.23648
  22798341.260   119806245.55309  22798348.840    93355591.36246
  20263351.140   106484788.75609  20263354.340    82975225.29649
 15 03 02 12 02  0.0000000  0 10G02G05G06G07G09G10G13G20G28G30
  22359761.280   117501297.37508  22359764.380    91559431.51447
  21787089.960   114491999.35909  21787092.760    89214583.08848
  23947083.780   125842535.03208  23947101.000    98059070.11146
  21393552.160   112423886.12009  21393554.280    87603042.25448
  23032163.940   121034754.11108  23032170.780    94312779.41047
  20628388.040   108402897.93709  20628390.160    84469797.34948
  23379076.080   122857954.64308  23379081.580    95733511.61545
  20920682.800   109938898.91809  20920685.300    85666663.85348
  22782414.060   119722548.49609  22782421.600    93290373.09346
  20265822.300   106497774.76009  20265825.560    82985344.26149
 15 03 02 12 02 30.0000000  0 10G02G05G06G07G09G10G13G20G28G30
  22369005.120   117549873.60908  22369008.260    91597282.98847
  21773619.540   114421211.90509  21773622.280    89159424.10748
  23965857.040   125941186.09408  23965874.440    98135940.27046
  21405808.240   112488292.27609  21405810.400    87653228.84148
  23044558.420   121099887.14108  23044565.280    94363532.31247
  20637642.200   108451528.93409  20637644.400    84507691.58548
  23365590.500   122787088.56408  23365596.020    95678291.45045
  20933057.300   110003926.34509  20933059.700    85717334.52348
  22766527.760   119639066.54509  22766535.360    93225322.44646
  20268384.460   106511239.09409  20268387.740    82995835.95549
 15 03 02 12 03  0.0000000  0 10G02G05G06G07G09G10G13G20G28G30
  22378327.120   117598860.52708  22378330.340    91635454.46447
  21760212.440   114350757.55509  21760215.280    89104524.69448
  23984632.780   126039850.32108  23984650.340    98212820.67946
  21418118.200   112552981.05809  21418120.300    87703635.65748
  23056973.080   121165126.49108  23056980.080    94414368.05547
  20646984.860   108500624.69409  20646987.120    84545947.97248
  23352118.560   122716294.22408  23352124.240    95623127.16846
  20945513.320   110069382.06309  20945515.560    85768338.92948
  22750683.160   119555803.89508  22750690.800    93160442.67546
  20271037.560   106525181.43109  20271040.860    83006700.11049
 15 03 02 12 03 30.0000000  0 10G02G05G06G07G09G10G13G20G28G30
  22387726.620   117648254.35709  22387729.840    91673943.01647
  21746868.960   114280637.66009  21746871.900    89049885.89448
  24003410.220   126138523.60908  24003427.940    98289708.16946
  21430481.400   112617949.19809  21430483.240    87754260.16248
  23069407.780   121230470.95708  23069414.840    94465285.71047
  20656415.520   108550183.03909  20656417.880    84584564.81348
  23338660.140   122645570.74008  23338665.880    95568018.10146
  20958050.320   110135263.58709  20958052.460    85819675.13048
  22734880.600   119472762.06108  22734888.200    93095734.98746
  20273781.180   106539599.18009  20273784.480    83017934.71449
 15 03 02 12 04  0.0000000  0 10G02G05G06G07G09G10G13G20G28G30
  22397203.040   117698051.91709  22397206.100    91712746.16847
  21733589.440   114210853.71009  21733592.400    88995508.86448
  24022188.720   126237202.20008  24022206.640    98366599.77947
  21442897.160   112683193.48509  21442898.880    87805099.83148
  23081862.420   121295919.77008  23081869.460    94516284.67547
  20665933.940   108600202.48209  20665936.320    84623540.95648
  23325214.980   122574916.91108  23325220.740    95512963.31545
  20970667.800   110201568.63109  20970669.980    85871341.34148
  22719120.380   119389942.85709  22719127.980    93031200.78846
  20276614.880   106554490.20609  20276618.160    83029538.10649
 15 03 02 12 04 30.0000000  0 10G02G05G06G07G09G10G13G20G28G30
  22406755.920   117748251.03209  22406758.780    91751862.21247
  21720374.380   114141408.61409  21720377.460    88941395.88448
  24040967.780   126335883.83908  24040985.960    98443493.72846
  21455365.140   112748712.56909  21455366.760    87856153.63648
  23094337.080   121361473.69208  23094344.080    94567365.55447
  20675540.100   108650682.95209  20675542.400    84662876.34848
  23311783.200   122504333.67408  23311789.140    95457963.53145
  20983365.640   110268296.56509  20983367.960    85923337.07248
  22703403.380   119307350.47609  22703410.880    92966843.35446
  20279538.500   106569853.93009  20279541.800    83041509.83949
 15 03 02 12 05  0.0000000  0  9G02G05G07G09G10G13G20G28G30
  22416385.500   117798853.60308  22416388.320    91791292.62747
  21707225.020   114072308.69209  21707228.000    88887551.86648
  21467885.700   112814508.63409  21467887.380    87907423.26048
  23106832.500   121427136.82908  23106839.480    94618531.52647
  20685234.580   108701627.54709  20685236.840    84702573.39548
  23298365.680   122433825.17308  23298371.720    95403022.00245
  20996144.460   110335450.26909  20996146.920    85975664.57248
  22687730.940   119224991.91609  22687738.300    92902668.11946
  20282552.580   106585692.97809  20282555.900    83053851.95449
 15 03 02 12 05 30.0000000  0  9G02G05G07G09G10G13G20G28G30
  22426089.700   117849848.72709  22426092.560    91831028.92447
  21694140.220   114003548.15009  21694143.140    88833972.31548
  21480456.920   112880571.29309  21480458.800    87958900.62648
  23119347.080   121492900.85408  23119354.040    94669776.11347
  20695015.620   108753027.14609  20695017.920    84742624.98848
  23284960.860   122363383.28108  23284966.820    95348132.35346
  21009002.400   110403019.91409  21009005.020    86028316.18348
  22672101.900   119142861.55809  22672109.200    92838670.72046
  20285655.300   106601997.68709  20285658.600    83066556.93149
 15 03 02 12 06  0.0000000  0  9G02G05G07G09G10G13G20G28G30
  22435869.620   117901241.69409  22435872.440    91871075.24047
  21681121.940   113935136.88709  21681124.780    88780664.91348
  21493079.860   112946906.24509  21493081.880    88010590.16248
  23131882.320   121558773.70708  23131889.260    94721105.50047
  20704884.560   108804888.64409  20704886.900    84783036.50448
  23271570.300   122293015.95208  23271576.100    95293300.79945
  21021940.820   110471011.99909  21021943.500    86081296.96648
  22656518.360   119060970.37409  22656525.540    92774859.71146
  20288847.860   106618774.45609  20288851.140    83079629.75249
 15 03 02 12 06 30.0000000  0  9G02G05G07G09G10G13G20G28G30
  22445723.800   117953025.05608  22445726.660    91911425.75047
  21668169.680   113867072.51909  21668172.360    88727627.80948
  21505753.360   113013506.66709  21505755.600    88062486.54648
  23144437.300   121624750.51408  23144444.280    94772515.87947
  20714840.300   108857206.39809  20714842.640    84823803.55048
  23258192.960   122222717.98108  23258198.620    95238523.29745
  21034958.480   110539420.24509  21034961.180    86134602.02448
  22640979.920   118979316.47209  22640987.040    92711233.60946
  20292129.020   106636017.01609  20292132.300    83093065.52349
 15 03 02 12 07  0.0000000  0  9G02G05G07G09G10G13G20G28G30
  22455652.180   118005198.64308  22455655.180    91952080.32547
  21655284.300   113799359.95809  21655287.000    88674864.84848
  21518477.300   113080372.27409  21518479.680    88114589.57748
  23157012.520   121690833.71808  23157019.540    94824009.18047
  20724883.100   108909981.76809  20724885.460    84864927.18048
  23244829.300   122152492.02308  23244834.920    95183801.90445
  21048055.520   110608245.43409  21048058.240    86188231.97648
  22625487.500   118897904.66109  22625494.540    92647796.16846
  20295498.960   106653726.36409  20295502.260    83106865.02649
 15 03 02 12 07 30.0000000  0  9G02G05G07G09G10G13G20G28G30
  22465654.280   118057759.58409  22465657.380    91993036.74147
  21642466.200   113732000.97409  21642468.900    88622377.40248
  21531251.400   113147500.82809  21531253.800    88166897.50048
  23169607.980   121757023.04108  23169615.000    94875585.16147
  20735012.840   108963213.56909  20735015.200    84906406.47848
  23231479.340   122082337.75908  23231484.880    95129136.37945
  21061231.640   110677485.91609  21061234.340    86242185.53648
  22610041.640   118816737.64009  22610048.600    92584549.48946
  20298957.320   106671900.68609  20298960.660    83121026.85449
 15 03 02 12 08  0.0000000  0  9G02G05G07G09G10G13G20G28G30
  22475729.500   118110704.73908  22475732.680    92034292.53247
  21629715.840   113664997.36109  21629718.440    88570166.86248
  21544075.120   113214889.82609  21544077.480    88219408.36948
  23182223.500   121823317.96208  23182230.640    94927243.42947
  20745229.100   109016900.17009  20745231.480    84948240.15448
  23218142.960   122012254.72508  23218148.480    95074526.35746
  21074486.440   110747139.74509  21074489.080    86296461.18248
  22594642.860   118735818.15509  22594649.740    92521495.69946
  20302503.760   106690537.98509  20302507.200    83135549.43249
 15 03 02 12 08 30.0000000  0  9G02G05G07G09G10G13G20G28G30
  22485877.560   118164032.69709  22485880.760    92075846.62747
  21617033.840   113598352.92009  21617036.400    88518236.19848
  21556948.240   113282538.27609  21556950.500    88272121.41048
  23194859.400   121889719.97508  23194866.600    94978985.14747
  20755531.980   109071042.05709  20755534.380    84990428.60448
  23204820.420   121942244.79608  23204825.860    95019973.31246
  21087819.860   110817206.62509  21087822.460    86351058.68948
  22579291.960   118655150.05809  22579298.700    92458637.81646
  20306138.300   106709638.22609  20306141.860    83150432.76549
 15 03 02 12 09  0.0000000  0  9G02G05G07G09G10G13G20G28G30
  22496097.460   118217738.28708  22496100.740    92117694.98147
  21604420.060   113532067.22209  21604422.640    88466585.07748
  21569869.860   113350441.45909  21569872.060    88325032.93448
  23207515.260   121956226.37708  23207522.460    95030808.22747
  20765920.800   109125635.29909  20765923.200    85032968.76648
  23191511.340   121872305.17708  23191516.720    94965475.03845
  21101231.120   110887682.52409  21101233.660    86405974.91048
  22563988.980   118574733.59009  22563995.680    92395976.01646
  20309860.140   106729197.23709  20309863.780    83165673.57249
 15 03 02 12 09 30.0000000  0  9G02G05G07G09G10G13G20G28G30
  22506388.600   118271818.39308  22506391.920    92159835.15647
  21591874.940   113466142.38709  21591877.500    88415215.13948
  21582839.560   113418597.04309  21582841.680    88378141.14148
  23220190.940   122022837.02908  23220198.040    95082712.52247
  20776395.300   109180678.87609  20776397.740    85075859.83748
  23178215.640   121802435.51508  23178220.800    94911031.27545
  21114719.760   110958565.58209  21114722.300    86461208.38848
  22548734.320   118494571.19809  22548740.980    92333512.21447
  20313668.940   106749213.26009  20313672.680    83181270.48949
 15 03 02 12 10  0.0000000  0  9G02G05G07G09G10G13G20G28G30
  22516751.460   118326275.30808  22516754.820    92202268.95447
  21579399.760   113400585.21009  21579402.400    88364131.69848
  21595857.800   113487007.61309  21595859.780    88431448.03948
  23232887.360   122089556.54608  23232894.440    95134701.63847
  20786956.180   109236176.61209  20786958.600    85119104.80148
  23164934.120   121732640.66708  23164939.160    94856645.81845
  21128286.500   111029858.99809  21128289.040    86516761.63648
  22533529.500   118414670.85109  22533536.060    92271252.59646
  20317565.360   106769689.38409  20317569.120    83197225.92749
 15 03 02 12 10 30.0000000  0  9G02G05G07G09G10G13G20G28G30
  22527184.860   118381102.86708  22527188.360    92244991.55947
  21566994.300   113335394.77309  21566997.000    88313334.02548
  21608923.460   113555667.62009  21608925.420    88484949.29848
  23245603.880   122156381.67708  23245610.980    95186773.05147
  20797602.600   109292124.06409  20797605.040    85162700.18948
  23151666.160   121662917.35308  23151671.160    94802316.10245
  21141930.500   111101557.97409  21141932.960    86572630.90348
  22518374.360   118335031.89209  22518380.940    92209196.65647
  20321548.440   106790620.79809  20321552.180    83213536.13849
 15 03 02 12 11  0.0000000  0  9G02G05G07G09G10G13G20G28G30
  22537689.000   118436301.78908  22537692.580    92288003.54447
  21554659.620   113270576.50709  21554662.480    88262826.35348
  21622036.760   113624578.14609  21622038.700    88538645.77348
  23258341.080   122223315.70708  23258348.220    95238929.31847
  20808335.040   109348523.55609  20808337.500    85206647.81348
  23138412.380   121593268.82608  23138417.420    94748044.65246
  21155651.920   111173663.97409  21155654.340    86628817.32648
  22503270.120   118255660.22809  22503276.660    92147349.00347
  20325618.540   106812009.23609  20325622.240    83230202.46849
 15 03 02 12 11 30.0000000  0  9G02G05G07G09G10G13G20G28G30
  22548262.300   118491863.93808  22548265.920    92331298.56047
  21542395.180   113206127.41509  21542398.220    88212606.34848
  21635196.300   113693731.81109  21635198.320    88592531.70348
  23271098.120   122290353.49608  23271105.220    95291166.44747
  20819152.320   109405368.54909  20819154.720    85250942.57848
  23125171.860   121523690.10708  23125176.900    94693827.60946
  21169449.500   111246170.37809  21169451.860    86685315.75048
  22488216.300   118176553.35209  22488222.720    92085707.66447
  20329774.280   106833847.90709  20329778.000    83247219.62249
 15 03 02 12 12  0.0000000  0  9G02G05G07G09G10G13G20G28G30
  22558904.580   118547788.76408  22558908.240    92374876.18447
  21530201.900   113142051.96609  21530205.000    88162677.48448
  21648402.160   113763128.74809  21648404.260    88646607.20148
  23283875.280   122357497.11508  23283882.360    95343486.02647
  20830054.620   109462660.03809  20830056.960    85295585.26248
  23111944.940   121454183.21408  23111950.060    94639666.53746
  21183323.320   111319077.75209  21183325.680    86742126.61548
  22473213.920   118097716.64809  22473220.220    92024276.83547
  20334015.780   106856137.34809  20334019.500    83264588.02649
 15 03 02 12 12 30.0000000  0  9G02G05G07G09G10G13G20G28G30
  22569616.060   118604077.48008  22569619.760    92418737.36647
  21518081.020   113078356.49009  21518084.100    88113044.71048
  21661654.600   113832770.68809  21661656.760    88700873.61948
  23296673.320   122424750.57808  23296680.480    95395891.20747
  20841042.420   109520400.71309  20841044.680    85340577.96948
  23098732.620   121384752.73708  23098737.640    94585564.99646
  21197273.900   111392388.52909  21197276.340    86799251.83248
  22458264.220   118019156.68409  22458270.380    91963061.65547
  20338343.580   106878879.90109  20338347.240    83282309.51649
 15 03 02 12 13  0.0000000  0  9G02G05G07G09G10G13G20G28G30
  22580395.340   118660722.41108  22580399.100    92462876.12247
  21506031.980   113015038.35509  21506034.960    88063705.96248
  21674952.400   113902650.80409  21674954.600    88755325.61748
  23309491.280   122492109.04008  23309498.520    95448378.21547
  20852114.460   109578584.59209  20852116.740    85385916.01548
  23085533.900   121315393.39708  23085538.820    94531518.87646
  21211299.980   111466095.97209  21211302.540    86856686.12548
  22443366.780   117940871.47009  22443372.740    91902060.52747
  20342756.400   106902069.10409  20342759.980    83300379.03549
 15 03 02 12 13 30.0000000  0  9G02G05G07G09G10G13G20G28G30
  22591241.540   118717718.97008  22591245.280    92507288.85546
  21494054.760   112952097.35809  21494057.500    88014661.07248
  21688294.780   113972764.95609  21688296.880    88809959.98448
  23322328.860   122559570.45308  23322336.140    95500945.45246
  20863270.120   109637208.33809  20863272.520    85431596.81148
  23072348.300   121246102.99508  23072353.140    94477526.46245
  21225400.820   111540196.43609  21225403.560    86914426.66548
  22428521.780   117862861.75809  22428527.600    91841274.06146
  20347253.480   106925701.25809  20347257.000    83318793.71148
 15 03 02 12 14  0.0000000  0  9G02G05G07G09G10G13G20G28G30
  22602155.280   118775070.14908  22602159.000    92551977.92347
  21482150.900   112889541.91709  21482153.480    87965916.62748
  21701682.400   114043116.78809  21701684.420    88864779.55548
  23335187.140   122627140.76508  23335194.460    95553597.52547
  20874510.500   109696277.13909  20874512.960    85477624.39948
  23059176.980   121176887.87208  23059181.840    94423592.70846
  21239577.340   111614694.36209  21239580.140    86972476.91748
  22413730.860   117785136.44709  22413736.600    91780709.19647
  20351835.640   106949780.70809  20351839.140    83337556.92349
 15 03 02 12 14 30.0000000  0  9G02G05G07G09G10G13G20G28G30
  22613136.000   118832773.09508  22613139.760    92596941.10647
  21470320.840   112827374.09109  21470323.300    87917474.22248
  21715114.760   114113704.09809  21715116.780    88919782.61548
  23348066.100   122694819.92808  23348073.480    95606334.43747
  20885835.360   109755789.84509  20885837.860    85523997.89148
  23046020.020   121107747.99108  23046024.880    94369717.56846
  21253829.080   111689587.87209  21253831.940    87030835.41848
  22398994.480   117707697.73709  22399000.200    91720367.63547
  20356502.560   106974305.70409  20356506.100    83356667.32049
 15 03 02 12 15  0.0000000  0  9G02G05G07G09G10G13G20G28G30
  22624182.260   118890820.91008  22624186.060    92642173.01547
  21458564.180   112765592.27609  21458566.600    87869332.60748
  21728590.680   114184520.41509  21728592.740    88974964.11748
  23360965.000   122762604.07608  23360972.480    95659153.15547
  20897243.620   109815740.98409  20897246.160    85570713.02448
  23032876.760   121038679.84308  23032881.600    94315898.32446
  21268155.040   111764871.33909  21268157.980    87089497.77248
  22384312.420   117630544.45209  22384318.160    91660248.46647
  20361253.260   106999270.71409  20361256.740    83376120.59149
 15 03 02 12 15 30.0000000  0  9G02G05G07G09G10G13G20G28G30
  22635293.900   118949212.47808  22635297.720    92687672.78047
  21446881.740   112704200.54009  21446884.060    87821494.94048
  21742110.160   114255565.53609  21742112.180    89030323.90148
  23373884.180   122830494.75508  23373891.740    95712054.86347
  20908735.420   109876131.03209  20908737.980    85617770.15148
  23019747.380   120969684.76708  23019752.140    94262136.01346
  21282555.280   111840544.59109  21282558.180    87148463.85648
  22369685.600   117553681.23909  22369691.300    91600355.31847
  20366087.720   107024675.56309  20366091.060    83395916.58749
 15 03 02 12 16  0.0000000  0  9G02G05G07G09G10G13G20G28G30
  22646470.780   119007946.94008  22646474.540    92733439.72447
  21435274.220   112643202.60809  21435276.480    87773964.14948
  21755673.140   114326839.41409  21755675.240    89085861.94448
  23386824.080   122898494.01008  23386831.660    95765041.18147
  20920310.920   109936960.62709  20920313.560    85665169.79048
  23006632.280   120900764.96608  23006637.060    94208432.36846
  21297029.820   111916608.04009  21297032.660    87207734.00448
  22355115.000   117477113.00009  22355120.640    91540692.01147
  20371005.960   107050520.62109  20371009.160    83416055.61249
 15 03 02 12 16 30.0000000  0  9G02G05G07G09G10G13G20G28G30
  22657712.120   119067019.75808  22657715.880    92779470.34147
  21423741.640   112582598.68809  21423743.840    87726740.38348
  21769278.920   114398338.15709  21769281.000    89141575.21248
  23399784.300   122966599.93708  23399791.840    95818110.65147
  20931969.540   109998226.53409  20931972.200    85712909.41148
  22993531.220   120831918.53609  22993536.000    94154785.90246
  21311577.940   111993058.09609  21311580.740    87267305.40548
  22340600.640   117400840.32509  22340606.120    91481258.99947
  20376007.240   107076802.25409  20376010.360    83436534.82549
 15 03 02 12 17  0.0000000  0  9G02G05G07G09G10G13G20G28G30
  22669017.220   119126427.44309  22669020.980    92825761.87047
  21412284.300   112522390.56709  21412286.480    87679825.02848
  21782926.920   114470058.81309  21782929.040    89197461.38248
  23412764.720   123034811.93108  23412772.280    95871262.76447
  20943710.820   110059926.99109  20943713.500    85760987.63448
  22980444.100   120763145.32208  22980448.820    94101196.48346
  21326199.060   112069892.07509  21326201.880    87327175.94648
  22326142.940   117324865.45009  22326148.260    91422058.02147
  20381091.140   107103518.20309  20381094.220    83457352.44749
 15 03 02 12 17 30.0000000  0  9G02G05G07G09G10G13G20G28G30
  22680386.100   119186170.39108  22680389.840    92872314.65447
  21400903.460   112462584.52909  21400905.700    87633222.98848
  21796617.360   114542002.78709  21796619.540    89253521.56448
  23425765.980   123103133.69108  23425773.500    95924500.40147
  20955535.300   110122064.40409  20955537.980    85809406.35248
  22967371.480   120694448.75008  22967376.120    94047666.79546
  21340893.600   112147112.10909  21340896.460    87387347.32648
  22311743.160   117249194.64909  22311748.320    91363093.97247
  20386258.040   107130670.33809  20386261.020    83478509.96149
 15 03 02 12 18  0.0000000  0  9G02G05G07G09G10G13G20G28G30
  22691817.500   119246241.83109  22691821.200    92919123.41347
  21389598.720   112403178.25809  21389600.980    87586932.45948
  21810349.160   114614163.92009  21810351.440    89309750.96748
  23438787.300   123171560.93708  23438794.980    95977820.23247
  20967441.900   110184633.20509  20967444.520    85858161.21548
  22954312.600   120625824.75308  22954317.180    93994193.66046
  21355660.440   112224712.28809  21355663.360    87447814.90748
  22297400.980   117173826.44709  22297405.960    91304365.71147
  20391506.760   107158252.71909  20391509.760    83500002.72549
 15 03 02 12 18 30.0000000  0  9G02G05G07G09G10G13G20G28G30
  22703311.240   119306641.03108  22703314.960    92966187.55547
  21378370.860   112344175.65809  21378373.120    87540956.46248
  21824122.320   114686542.43009  21824124.680    89366149.73448
  23451829.080   123240095.88508  23451836.900    96031223.98047
  20979430.820   110247634.31209  20979433.300    85907252.93948
  22941268.040   120557275.64709  22941272.560    93940778.88646
  21370499.660   112302692.92309  21370502.700    87508578.94448
  22283117.340   117098765.82009  22283122.180    91245877.10347
  20396837.400   107186265.78609  20396840.500    83521831.07749
 15 03 02 12 19  0.0000000  0  9G02G05G07G09G10G13G20G28G30
  22714866.360   119367363.06308  22714870.180    93013503.24647
  21367219.960   112285577.15209  21367222.160    87495295.35848
  21837936.060   114759133.88409  21837938.460    89422714.44548
  23464890.980   123308736.58008  23464898.900    96084710.13347
  20991501.160   110311064.18509  20991503.620    85956678.76548
  22928237.440   120488799.71609  22928241.980    93887421.14046
  21385410.600   112381050.23909  21385413.640    87569636.49948
  22268892.280   117024013.29009  22268897.080    91187628.58347
  20402249.220   107214705.78309  20402252.500    83543992.10449
 15 03 02 12 19 30.0000000  0  9G02G05G07G09G10G13G20G28G30
  22726482.780   119428407.53308  22726486.800    93061070.19247
  21356146.840   112227387.45809  21356149.020    87449952.80548
  21851790.440   114831938.85109  21851792.840    89479445.53248
  23477973.480   123377485.53508  23477981.440    96138280.64146
  21003653.300   110374924.26909  21003655.840    86006439.81548
  22915221.200   120420399.30209  22915225.760    93834122.24146
  21400393.300   112459784.79909  21400396.320    87630988.00648
  22254726.820   116949574.30909  22254731.660    91129624.37747
  20407742.420   107243573.51109  20407745.840    83566486.42149
 15 03 02 12 20  0.0000000  0  9G02G05G07G09G10G13G20G28G30
  22738159.660   119489769.93108  22738163.920    93108884.85047
  21345151.600   112169607.34709  21345153.760    87404929.41048
  21865684.720   114904953.65409  21865687.160    89536340.11048
  23491076.380   123446341.25008  23491084.240    96191934.33246
  21015886.720   110439211.48509  21015889.280    86056533.69048
  22902219.140   120352073.25509  22902223.640    93780881.27646
  21415447.180   112538893.48809  21415450.260    87692631.03648
  22240621.200   116875449.93709  22240626.120    91071865.31147
  20413316.440   107272865.66509  20413319.960    83589311.44749
 15 03 02 12 20 30.0000000  0  9G02G05G07G09G10G13G20G28G30
  22749896.840   119551449.15208  22749901.300    93156946.39347
  21334235.040   112112240.52909  21334237.180    87360228.05448
  21879618.860   114978177.91409  21879621.300    89593397.91848
  23504199.980   123515305.43508  23504207.740    96245672.56447
  21028201.560   110503926.09409  21028204.140    86106960.60448
  22889231.560   120283823.31809  22889236.020    93727699.63246
  21430572.260   112618376.05509  21430575.400    87754565.39548
  22226576.280   116801644.51909  22226581.240    91014354.78847
  20418971.320   107302582.12609  20418974.860    83612467.10649
 15 03 02 12 21  0.0000000  0  9G02G05G07G09G10G13G20G28G30
  22761693.740   119613441.69908  22761698.280    93205252.08547
  21323397.280   112055288.05009  21323399.460    87315849.55848
  21893592.320   115051609.06609  21893594.780    89650616.93248
  23517344.100   123584377.40608  23517351.800    96299494.78246
  21040597.400   110569066.21009  21040599.960    86157719.07548
  22876258.360   120215649.00509  22876262.620    93674576.90746
  21445768.040   112698230.03409  21445771.240    87816789.16648
  22212592.520   116728160.42909  22212597.440    90957094.65647
  20424706.540   107332720.46609  20424710.020    83635951.50149
 15 03 02 12 21 30.0000000  0  9G02G05G07G09G10G13G20G28G30
  22773548.940   119675740.41808  22773553.480    93253796.34747
  21312638.040   111998748.48209  21312640.340    87271792.82048
  21907603.980   115125240.63109  21907606.440    89707992.12248
  23530507.960   123653553.29508  23530515.740    96353397.95646
  21053073.240   110634626.47209  21053075.720    86208804.93648
  22863298.800   120147546.58609  22863302.920    93621510.20446
  21461033.360   112778449.44009  21461036.560    87879297.67648
  22198669.500   116654995.66809  22198674.440    90900083.36147
  20430520.940   107363275.01609  20430524.360    83659760.21049
 15 03 02 12 22  0.0000000  0  9G02G05G07G09G10G13G20G28G30
  22785463.160   119738348.81908  22785467.640    93302581.91747
  21301958.880   111942629.94809  21301961.260    87228064.15148
  21921654.640   115199077.01909  21921657.020    89765526.90948
  23543692.740   123722839.09008  23543700.540    96407386.76946
  21065629.820   110700611.42709  21065632.280    86260221.71748
  22850354.040   120079522.16909  22850358.200    93568504.27846
  21476369.040   112859038.56509  21476372.200    87942094.27748
  22184809.040   116582159.29009  22184813.980    90843327.95347
  20436415.260   107394249.92909  20436418.760    83683896.46549
 15 03 02 12 22 30.0000000  0  9G02G05G07G09G10G13G20G28G30
  22797435.380   119801261.99008  22797439.840    93351604.96347
  21291360.020   111886933.05409  21291362.420    87184664.03848
  21935743.600   115273114.69609  21935746.040    89823218.53948
  23556898.140   123792233.24408  23556905.780    96461460.02146
  21078266.520   110767018.05409  21078269.120    86311967.07748
  22837423.860   120011574.41609  22837428.080    93515558.10046
  21491774.540   112939994.33309  21491777.640    88005176.58048
  22171011.300   116509652.45209  22171016.180    90786829.34547
  20442388.940   107425641.80109  20442392.480    83708357.63749
 15 03 02 12 23  0.0000000  0  9G02G05G07G09G10G13G20G28G30
  22809465.300   119864478.56908  22809469.680    93400864.42847
  21280842.140   111831661.16109  21280844.460    87141595.08148
  21949870.740   115347352.71409  21949873.140    89881066.28248
  23570124.440   123861737.22608  23570132.000    96515618.84546
  21090983.460   110833846.41109  21090986.200    86364041.04848
  22824508.580   119943704.86309  22824512.860    93462672.86146
  21507249.740   113021315.98309  21507252.740    88068543.97748
  22157277.000   116437479.22709  22157281.840    90730590.70647
  20448441.980   107457450.35209  20448445.500    83733143.49049
 15 03 02 12 23 30.0000000  0  9G02G05G07G09G10G13G20G28G30
  22821551.580   119927991.30908  22821555.920    93450354.68047
  21270404.800   111776812.21709  21270406.940    87098855.68848
  21964034.740   115421784.60309  21964037.100    89939065.08748
  23583370.860   123931346.87908  23583378.360    96569860.01446
  21103779.560   110901090.85709  21103782.500    86416439.24548
  22811607.440   119875909.45909  22811611.740    93409845.40646
  21522793.400   113102997.33309  21522796.300    88132191.65048
  22143605.820   116365637.90509  22143610.640    90674610.69347
  20454573.180   107489669.53409  20454576.660    83758249.32049
 15 03 02 12 24  0.0000000  0  9G02G05G07G09G10G13G20G28G30
  22833694.380   119991801.27908  22833698.800    93500076.53247
  21260049.020   111722392.02609  21260050.980    87056450.40148
  21978236.020   115496412.69909  21978238.340    89997216.79948
  23596638.040   124001066.19908  23596645.660    96624186.66546
  21116655.320   110968753.92409  21116658.460    86469163.63948
  22798721.120   119808192.31808  22798725.480    93357078.93946
  21538405.880   113185040.62009  21538408.780    88196121.36448
  22129999.060   116294135.11309  22130003.860    90618894.48947
  20460782.820   107522301.48609  20460786.400    83783676.79749
 15 03 02 12 24 30.0000000  0  9G02G05G07G09G10G13G20G28G30
  22845892.760   120055903.64408  22845897.320    93550026.20747
  21249774.920   111668401.02709  21249776.720    87014379.53048
  21992473.900   115571232.61209  21992476.200    90055517.97448
  23609925.780   124070893.21908  23609933.420    96678597.21546
  21129610.080   111036831.93609  21129613.360    86522211.35548
  22785849.400   119740551.85308  22785853.840    93304372.22346
  21554086.460   113267441.95509  21554089.340    88260330.05648
  22116456.960   116222971.56209  22116461.560    90563442.61947
  20467070.260   107555342.38509  20467073.900    83809422.92349
 15 03 02 12 25  0.0000000  0  9G02G05G07G09G10G13G20G28G30
  22858146.320   120120295.86608  22858150.900    93600201.75046
  21239582.940   111614841.90809  21239584.640    86972645.19848
  22006747.940   115646242.76709  22006750.180    90113967.39748
  23623234.080   124140828.30608  23623241.720    96733091.96746
  21142643.700   111105323.89309  21142646.940    86575581.64348
  22772992.360   119672988.54208  22772996.860    93251725.62746
  21569834.900   113350199.72709  21569837.760    88324816.51448
  22102980.000   116152150.32109  22102984.480    90508257.49347
  20473435.240   107588790.81409  20473438.980    83835486.62449
 15 03 02 12 25 30.0000000  0  9G02G05G07G09G10G13G20G28G30
  22870454.720   120184976.28808  22870459.280    93650601.86447
  21229473.740   111561718.25009  21229475.440    86931250.17548
  22021058.160   115721443.09209  22021060.440    90172564.99948
  23636563.200   124210873.04608  23636570.940    96787672.15647
  21155756.200   111174230.00109  21155759.340    86629274.63348
  22760150.240   119605503.82908  22760154.800    93199140.27346
  21585651.060   113433313.67009  21585653.940    88389580.49448
  22089568.900   116081675.32109  22089573.280    90453342.18147
  20479877.680   107622646.36709  20479881.520    83861867.56449
 15 03 02 12 26  0.0000000  0  9G02G05G07G09G10G13G20G28G30
  22882816.980   120249939.37508  22882821.520    93701222.22446
  21219447.220   111509028.90209  21219448.980    86890193.57548
  22035403.580   115796828.78009  22035405.900    90231307.04748
  23649912.700   124281024.84008  23649920.520    96842335.78146
  21168946.800   111243546.14209  21168949.780    86683287.13548
  22747322.740   119538095.69708  22747327.380    93146614.59346
  21601534.020   113516779.19109  21601536.960    88454618.42948
  22076223.640   116011546.52609  22076227.980    90398696.62947
  20486396.760   107656904.63409  20486400.680    83888562.30849
 15 03 02 12 26 30.0000000  0  9G02G05G07G09G10G13G20G28G30
  22895232.900   120315184.28508  22895237.400    93752062.18446
  21209504.200   111456778.40309  21209506.080    86849478.93148
  22049784.140   115872399.50109  22049786.600    90290193.26748
  23663283.000   124351285.91308  23663290.920    96897084.55746
  21182215.540   111313272.84809  21182218.400    86737619.55548
  22734510.260   119470766.57208  22734515.040    93094150.48946
  21617483.920   113600596.48409  21617486.920    88519930.47448
  22062945.200   115941768.89109  22062949.420    90344324.70747
  20492992.620   107691565.93409  20492996.480    83915571.10849
 15 03 02 12 27  0.0000000  0  9G02G05G07G09G10G13G20G28G30
  22907701.800   120380707.53008  22907706.260    93803119.02947
  21199644.980   111404968.10909  21199646.880    86809107.31148
  22064199.560   115948153.11809  22064202.100    90349222.01548
  23676674.020   124421655.76408  23676682.000    96951918.09746
  21195562.020   111383408.14709  21195564.780    86792270.35948
  22721712.780   119403516.03608  22721717.560    93041747.61346
  21633500.380   113684763.30009  21633503.440    88585514.88148
  22049734.040   115872344.42009  22049738.060    90290227.97347
  20499664.820   107726627.88509  20499668.520    83942892.11349
 15 03 02 12 27 30.0000000  0  9G02G05G07G09G10G13G20G28G30
  22920222.920   120446505.50908  22920227.420    93854389.93146
  21189869.820   111353599.53109  21189871.720    86769079.87948
  22078649.280   116024086.72209  22078651.800    90408391.01648
  23690085.600   124492133.64308  23690093.680    97006835.81346
  21208985.800   111453949.63809  21208988.500    86847237.68548
  22708930.260   119336343.37209  22708934.900    92989405.40446
  21649582.880   113769276.93709  21649586.000    88651369.53148
  22036590.360   115803274.69909  22036594.240    90236407.65747
  20506412.760   107762087.84809  20506416.340    83970523.24949
 15 03 02 12 28  0.0000000  0  9G02G05G07G09G10G13G20G28G30
  22932795.620   120512574.52609  22932800.140    93905872.03746
  21180178.980   111302674.00909  21180180.880    86729397.69448
  22093132.840   116100197.79709  22093135.360    90467698.30148
  23703517.640   124562718.98808  23703525.680    97061837.24146
  21222486.420   111524895.31809  21222489.080    86902519.96048
  22696162.600   119269248.46609  22696167.040    92937123.77046
  21665730.760   113854134.19409  21665733.980    88717491.93348
  22023514.560   115734561.86009  22023518.460    90182865.41847
  20513235.920   107797943.38809  20513239.460    83998462.62949
 15 03 02 12 28 30.0000000  0  9G02G05G07G09G10G13G20G28G30
  22945419.520   120578912.75908  22945424.020    93957563.91746
  21170573.040   111252194.76709  21170574.940    86690063.25848
  22107650.000   116176485.88809  22107652.520    90527143.51348
  23716970.460   124633413.19108  23716978.540    97116923.51247
  21236063.800   111596244.86309  21236066.540    86958116.93448
  22683410.000   119202232.71709  22683414.240    92884903.81346
  21681944.100   113939335.14509  21681947.300    88783882.15247
  22010507.380   115666209.74509  22010511.260    90129604.25547
  20520134.220   107834193.91809  20520137.680    84026709.79549
 15 03 02 12 29  0.0000000  0  9G02G05G07G09G10G13G20G28G30
  22958094.260   120645518.34508  22958098.880    94009464.10747
  21161052.700   111202165.07909  21161054.580    86651079.11448
  22122200.680   116252950.19109  22122203.260    90586726.02948
  23730444.220   124704217.37408  23730452.180    97172095.48046
  21249717.980   111667997.76109  21249720.780    87014028.20348
  22670672.660   119135297.63309  22670676.860    92832746.70046
  21698222.520   114024878.55709  21698225.820    88850539.21547
  21997569.400   115598221.90109  21997573.400    90076626.92547
  20527107.520   107870838.66609  20527110.940    84055264.14649
 15 03 02 12 29 30.0000000  0  9G02G05G07G09G10G13G20G28G30
  22970818.960   120712386.45408  22970823.760    94061568.85946
  21151617.940   111152585.03809  21151619.800    86612445.35648
  22136784.060   116329586.50409  22136786.680    90646442.60248
  23743938.540   124775129.68708  23743946.520    97227351.69446
  21263448.280   111740150.64409  21263451.140    87070251.15148
  22657950.340   119068441.72909  22657954.460    92780651.29146
  21714565.400   114110760.89009  21714568.820    88917460.37247
  21984700.940   115530599.39809  21984705.020    90023934.27247
  20534155.120   107907873.91709  20534158.500    84084122.78949
 15 03 02 12 30  0.0000000  0  9G02G05G07G09G10G13G20G28G30
  22983593.560   120779516.46508  22983598.560    94113877.68447
  21142269.600   111103458.97809  21142271.420    86574165.33548
  22151400.140   116406394.81209  22151402.900    90706293.17248
  23757453.880   124846152.40308  23757461.800    97282693.96446
  21277254.780   111812704.03309  21277257.700    87126786.17848
  22645243.500   119001667.22609  22645247.580    92728619.30546
  21730972.860   114196982.20909  21730976.320    88984645.68048
  21971902.840   115463346.18709  21971906.960    89971529.35947
  20541277.060   107945299.91409  20541280.400    84113285.90249
 15 03 02 12 30 30.0000000  0  9G02G05G07G09G10G13G20G28G30
  22996416.980   120846902.55208  22996422.040    94166386.04747
  21133007.460   111054785.85709  21133009.180    86536238.25648
  22166048.180   116483370.69209  22166050.980    90766274.32648
  23770989.700   124917282.98908  23770997.640    97338120.27646
  21291136.700   111885653.79209  21291139.680    87183630.06448
  22632551.740   118934971.80309  22632555.680    92676648.93346
  21747443.940   114283537.59609  21747447.400    89052091.30347
  21959175.140   115396462.58609  21959179.300    89919412.43847
  20548472.500   107983112.23009  20548475.780    84142750.04249
 15 03 02 12 31  0.0000000  0  9G02G05G07G09G10G13G20G28G30
  23009289.060   120914544.66008  23009294.140    94219093.89647
  21123832.500   111006570.96109  21123834.120    86498668.23548
  22180728.260   116560515.37209  22180731.260    90826386.99748
  23784546.560   124988524.22508  23784554.480    97393632.81146
  21305094.200   111959001.02309  21305097.240    87240783.66448
  22619875.580   118868358.62909  22619879.420    92624742.65446
  21763978.880   114370428.12309  21763982.280    89119798.07648
  21946518.840   115329953.82009  21946522.900    89867587.59547
  20555741.620   108021311.72709  20555744.860    84172515.88849
 15 03 02 12 31 30.0000000  0  9G02G05G07G09G10G13G20G28G30
  23022208.500   120982436.09208  23022213.620    94271996.00846
  21114744.360   110958812.71809  21114746.020    86461454.04248
  22195439.480   116637823.27109  22195442.520    90886626.85248
  23798123.760   125059872.56508  23798131.700    97449228.80946
  21319126.340   112032740.51909  21319129.460    87298242.92648
  22607214.460   118801824.51709  22607218.200    92572897.98046
  21780576.500   114457648.16709  21780579.860    89187761.60947
  21933933.780   115263819.08509  21933937.700    89816054.19147
  20563083.340   108059892.93609  20563086.580    84202579.16449
 15 03 02 12 32  0.0000000  0  9G02G05G07G09G10G13G20G28G30
  23035175.020   121050575.07308  23035180.360    94325091.00946
  21105743.560   110911513.89109  21105745.400    86424597.83348
  22210181.680   116715293.48209  22210184.600    90946993.20348
  23811721.580   125131329.48608  23811729.660    97504909.40246
  21333233.080   112106871.87509  21333236.240    87356007.52348
  22594568.620   118735370.91009  22594572.380    92521116.04046
  21797236.680   114545196.97109  21797240.020    89255981.31647
  21921420.600   115198062.20609  21921424.440    89764815.22047
  20570497.620   108098855.28809  20570500.880    84232939.43049
 15 03 02 12 32 30.0000000  0  9G02G05G07G09G10G13G20G28G30
  23048188.960   121118963.14608  23048194.580    94378380.11546
  21096831.460   110864681.10709  21096833.480    86388104.76948
  22224955.260   116792928.81209  22224958.200    91007488.20048
  23825340.840   125202899.32508  23825349.120    97560677.98946
  21347415.000   112181398.04709  21347418.120    87414079.77848
  22581938.900   118669002.73109  22581942.920    92469400.67946
  21813959.920   114633077.13409  21813963.200    89324459.23447
  21908980.540   115132689.57309  21908984.240    89713875.65647
  20577984.960   108138201.31509  20577988.200    84263598.67649
 15 03 02 12 33  0.0000000  0  9G02G05G07G09G10G13G20G28G30
  23061248.760   121187592.42208  23061254.720    94431857.15147
  21088007.520   110818311.37309  21088009.620    86351972.52548
  22239759.080   116870722.63609  22239761.840    91068106.72148
  23838980.680   125274577.42008  23838989.120    97616530.90146
  21361670.820   112256312.63209  21361673.940    87472454.67948
  22569324.540   118602715.33808  22569328.840    92417748.27946
  21830744.820   114721281.84509  21830748.140    89393190.04348
  21896613.240   115067699.22809  21896616.840    89663233.96947
  20585544.060   108177924.33309  20585547.240    84294551.66649
 15 03 02 12 33 30.0000000  0  9G02G05G07G09G10G13G20G28G30
  23074353.840   121256459.10708  23074359.980    94485519.17046
  21079271.960   110772405.96309  21079274.060    86316202.08848
  22254592.400   116948672.02009  22254595.220    91128846.42548
  23852641.020   125346363.03808  23852649.520    97672467.62346
  21376000.120   112331613.08909  21376003.240    87531130.25648
  22556725.580   118536508.56208  22556730.040    92366158.69246
  21847590.840   114809808.12609  21847594.240    89462171.41448
  21884318.960   115003092.73409  21884322.460    89612891.37647
  20593174.360   108218021.61509  20593177.460    84325796.28949
 15 03 02 12 34  0.0000000  0  9G02G05G07G09G10G13G20G28G30
  23087504.000   121325561.71708  23087510.060    94539365.04046
  21070625.420   110726968.44109  21070627.540    86280796.24948
  22269455.280   117026776.66309  22269457.980    91189707.11848
  23866322.180   125418257.66008  23866330.680    97728489.28946
  21390402.800   112407299.16309  21390405.920    87590106.30948
  22544142.360   118470384.05209  22544146.820    92314633.21446
  21864497.940   114898655.41209  21864501.440    89531402.91748
  21872098.440   114938874.06709  21872101.920    89562850.98347
  20600875.820   108258492.72409  20600878.760    84357332.20649
 15 03 02 12 34 30.0000000  0  9G02G05G07G09G10G13G20G28G30
  23100698.600   121394897.83008  23100704.520    94593392.84646
  21062068.400   110682001.02609  21062070.480    86245756.72448
  22284347.400   117105035.30009  22284350.200    91250687.78548
  23880024.240   125490261.97708  23880032.780    97784596.43146
  21404878.680   112483369.81309  21404881.760    87649382.03848
  22531575.060   118404342.85708  22531579.380    92263172.65846
  21881465.900   114987822.30809  21881469.440    89600883.46347
  21859952.320   114875046.42209  21859955.760    89513115.28147
  20608648.100   108299336.41709  20608651.080    84389158.44548
 15 03 02 12 35  0.0000000  0  9G02G05G07G09G10G13G20G28G30
  23113936.740   121464462.83108  23113942.520    94647599.01346
  21053601.000   110637504.51009  21053603.060    86211084.13648
  22299268.220   117183444.35209  22299270.940    91311785.69448
  23893746.840   125562374.48008  23893755.320    97840787.86046
  21419427.080   112559821.83209  21419430.200    87708954.93948
  22519023.360   118338383.58008  22519027.540    92211775.94446
  21898494.020   115077305.33309  21898497.600    89670610.35047
  21847880.740   114811610.64509  21847884.260    89463684.94647
  20616490.540   108340549.18809  20616493.680    84421272.28449
 15 03 02 12 35 30.0000000  0  9G02G05G07G09G10G13G20G28G30
  23127218.120   121534255.11908  23127223.860    94701982.26846
  21045223.840   110593482.12209  21045225.860    86176780.99348
  22314217.580   117262003.40209  22314220.360    91373000.45448
  23907490.320   125634596.81308  23907498.840    97897064.87646
  21434048.000   112636655.03309  21434051.160    87768824.86248
  22506487.660   118272508.05809  22506491.640    92160444.49146
  21915582.180   115167103.82009  21915585.780    89740583.04647
  21835884.400   114748570.34609  21835887.980    89414562.76547
  20624403.060   108382130.63909  20624406.420    84453673.40048
 15 03 02 12 36  0.0000000  0  9G02G05G07G09G10G13G20G28G30
  23140542.520   121604273.63508  23140548.240    94756541.81546
  21036937.600   110549937.22109  21036939.560    86142849.91448
  22329195.440   117340712.40109  22329198.240    91434332.06147
  23921255.120   125706930.72608  23921263.680    97953428.79846
  21448741.540   112713869.76309  21448744.740    87828992.07548
  22493968.380   118206718.73209  22493972.280    92109180.19846
  21932730.300   115257217.37109  21932733.920    89810801.26247
  21823964.080   114685929.63009  21823967.680    89365751.95647
  20632385.680   108424080.69909  20632389.280    84486361.74248
 15 03 02 12 36 30.0000000  0  9G02G05G07G09G10G13G20G28G30
  23153908.240   121674509.53608  23153914.000    94811270.73846
  21028741.540   110506866.33909  21028743.440    86109288.20348
  22344200.580   117419564.36609  22344203.300    91495775.08748
  23935040.200   125779370.69908  23935048.580    98009875.38546
  21463506.240   112791458.29409  21463509.460    87889450.57048
  22481464.460   118141010.18109  22481468.240    92057978.83846
  21949937.020   115347638.54309  21949940.620    89881259.17147
  21812119.340   114623685.87309  21812122.940    89317250.46747
  20640437.040   108466391.76209  20640440.820    84519331.38749
 15 03 02 12 37  0.0000000  0  9G02G05G07G09G10G13G20G28G30
  23167316.100   121744967.09608  23167321.980    94866172.37746
  21020637.360   110464278.42809  21020639.220    86076102.83348
  22359233.780   117498564.03909  22359236.580    91557333.18648
  23948846.840   125851923.88908  23948855.060    98066410.22446
  21478343.120   112869426.24109  21478346.400    87950204.71648
  22468977.180   118075389.57309  22468980.880    92006846.02446
  21967203.160   115438372.21709  21967206.820    89951960.58947
  21800351.880   114561847.90309  21800355.380    89269065.18347
  20648558.200   108509069.00309  20648562.040    84552586.36849
 15 03 02 12 37 30.0000000  0  9G02G05G07G09G10G13G20G28G30
  23180764.420   121815637.45708  23180770.420    94921239.82046
  21012624.280   110422169.22909  21012626.040    86043290.47848
  22374293.760   117577704.08209  22374296.500    91619000.68548
  23962673.920   125924584.54108  23962682.040    98123028.78346
  21493250.660   112947766.11609  21493254.100    88011248.65248
  22456505.900   118009852.39709  22456509.420    91955778.19946
  21984527.240   115529410.61409  21984531.060    90022899.44147
  21788661.100   114500412.49709  21788664.480    89221193.57547
  20656747.700   108552104.74309  20656751.500    84586120.68649
 15 03 02 12 38  0.0000000  0  9G02G05G07G09G10G13G20G28G30
  23194253.220   121886520.23208  23194259.320    94976472.77846
  21004703.220   110380543.64109  21004704.900    86010854.97248
  22389380.540   117656985.22809  22389383.280    91680778.12648
  23976521.940   125997355.49508  23976530.020    98179733.29546
  21508229.160   113026479.01409  21508232.780    88072583.26748
  22444051.080   117944401.21909  22444054.480    91904777.38946
  22001909.380   115620754.04509  22001913.300    90094075.99147
  21777047.920   114439385.14209  21777051.240    89173639.95448
  20665005.680   108595499.80409  20665009.340    84619935.01948
 15 03 02 12 38 30.0000000  0  9G02G05G07G09G10G13G20G28G30
  23207782.080   121957613.46508  23207788.300    95031869.72646
  20996874.680   110339404.38309  20996876.320    85978798.42148
  22404494.120   117736407.01809  22404496.800    91742665.16347
  23990391.120   126070237.89208  23990399.340    98236524.64646
  21523278.600   113105564.00309  21523282.300    88134207.81948
  22431612.840   117879037.69509  22431616.220    91853844.89246
  22019349.540   115712401.86109  22019353.460    90165489.72847
  21765513.020   114378769.13109  21765516.320    89126406.85847
  20673331.840   108639253.31009  20673335.340    84654028.65149
 15 03 02 12 39  0.0000000  0  9G02G05G07G09G10G13G20G28G30
  23221350.340   122028913.47908  23221356.640    95087427.80246
  20989138.920   110298752.63509  20989140.560    85947121.75148
  22419633.820   117815966.68909  22419636.540    91804659.63648
  24004281.360   126143231.12508  24004289.700    98293402.37046
  21538398.460   113185018.75209  21538402.240    88196120.49848
  22419191.080   117813761.39709  22419194.480    91802980.35146
  22036847.060   115804351.07709  22036850.900    90237138.31647
  21754056.700   114318566.15109  21754059.980    89079495.59348
  20681725.680   108683362.65909  20681729.040    84688399.56449
 15 03 02 12 39 30.0000000  0  9G02G05G07G09G10G13G20G28G30
  23234956.720   122100414.14808  23234963.220    95143142.21846
  20981495.680   110258587.40009  20981497.380    85915824.16848
  22434798.900   117895659.47209  22434801.600    91866757.84547
  24018192.140   126216332.23708  24018200.660    98350364.14446
  21553587.740   113264838.33709  21553591.540    88258317.46548
  22406785.420   117748569.78709  22406788.720    91752181.80046
  22054401.020   115896596.81909  22054404.820    90309017.96747
  21742678.760   114258775.14909  21742681.980    89032905.35547
  20690186.220   108727822.80509  20690189.540    84723043.82949
 15 03 02 12 40  0.0000000  0  9G02G05G07G09G10G13G20G28G30
  23248601.120   122172114.44908  23248607.760    95199012.17946
  20973945.680   110218912.27709  20973947.440    85884908.49348
  22449989.400   117975485.78109  22449992.040    91928960.10247
  24032123.840   126289543.07608  24032132.440    98407411.41846
  21568846.420   113345022.73709  21568850.240    88320798.69048
  22394396.460   117683465.44909  22394399.620    91701451.24846
  22072011.360   115989138.93209  22072015.080    90381128.54947
  21731380.020   114199400.47609  21731383.240    88986639.52648
  20698713.460   108772633.83309  20698716.840    84757961.50749
 15 03 02 12 40 30.0000000  0  9G02G05G07G09G10G13G20G28G30
  23262283.100   122244011.86808  23262289.760    95255035.75746
  20966489.380   110179729.37709  20966491.180    85854376.36748
  22465204.960   118055443.97109  22465207.700    91991265.11947
  24046076.480   126362864.14508  24046085.120    98464544.56946
  21584174.340   113425570.86209  21584178.060    88383563.34448
  22382024.220   117618448.99709  22382027.360    91650789.18146
  22089677.740   116081975.62009  22089681.460    90453468.67047
  21720160.980   114140444.79609  21720164.180    88940700.17648
  20707307.140   108817794.14909  20707310.580    84793151.33949
 15 03 02 12 41  0.0000000  0  9G02G05G07G09G10G13G20G28G30
  23276002.220   122316104.39908  23276008.900    95311211.34246
  20959127.400   110141041.93709  20959129.260    85824230.32048
  22480445.500   118135533.56509  22480448.340    92053672.52647
  24060050.240   126436296.88407  24060059.020    98521764.73146
  21599571.440   113506482.40109  21599575.020    88446611.18448
  22369669.020   117553521.99909  22369672.140    91600196.82147
  22107400.020   116175105.81909  22107403.760    90526037.50947
  21709022.400   114081911.71209  21709025.600    88895090.12248
  20715967.180   108863303.19309  20715970.700    84828612.90949
 15 03 02 12 41 30.0000000  0  9G02G05G07G09G10G13G20G28G30
  23289757.580   122388387.36508  23289764.300    95367535.32346
  20951859.580   110102849.31909  20951861.500    85794469.84148
  22495710.400   118215750.84509  22495713.300    92116179.42847
  24074044.820   126509839.42108  24074053.800    98579070.42046
  21615036.940   113587753.46609  21615040.460    88509939.16648
  22357330.600   117488683.41909  22357333.800    91549673.35147
  22125177.380   116268525.67509  22125181.160    90598832.04247
  21697964.300   114023801.37709  21697967.460    88849809.47248
  20724692.900   108909157.10009  20724696.380    84864343.20049
 15 03 02 12 42  0.0000000  0  9G02G05G07G09G10G13G20G28G30
  23303548.440   122460856.91308  23303555.280    95424004.65746
  20944686.160   110065152.97909  20944688.120    85765096.07648
  22510999.100   118296093.68209  22511002.160    92178784.14647
  24088060.260   126583491.09208  24088069.340    98636461.17346
  21630570.440   113669381.55309  21630573.860    88573545.34948
  22345008.800   117423932.89509  22345012.080    91499218.49646
  22143009.260   116362232.45809  22143013.160    90671850.15147
  21686987.000   113966115.57909  21686990.060    88804859.62448
  20733483.740   108955353.21609  20733487.200    84900340.14448
 15 03 02 12 42 30.0000000  0  9G02G05G07G09G10G13G20G28G30
  23317374.600   122533511.78008  23317381.620    95480618.41346
  20937607.800   110027956.47209  20937609.820    85736111.79648
  22526311.700   118376561.74409  22526314.800    92241486.46647
  24102096.900   126657253.77808  24102106.080    98693938.41746
  21646171.840   113751366.59109  21646175.200    88637429.67448
  22332704.180   117359272.77909  22332707.420    91448834.08446
  22160895.660   116456225.79109  22160899.700    90745091.54547
  21676091.200   113908858.24709  21676094.140    88760243.64847
  20742339.680   109001891.43409  20742343.180    84936603.66548
 15 03 02 12 43  0.0000000  0  9G02G05G07G09G10G13G20G28G30
  23331235.100   122606347.14208  23331242.200    95537372.82746
  20930624.520   109991259.30609  20930626.480    85707516.61948
  22541647.460   118457151.37609  22541650.600    92304283.51247
  24116154.400   126731125.50908  24116163.580    98751500.64946
  21661840.460   113833704.82609  21661843.760    88701589.22648
  22320416.480   117294701.43609  22320419.740    91398518.86446
  22178835.780   116550501.57409  22178839.960    90818553.03147
  21665276.960   113852029.65709  21665279.820    88715961.75448
  20751259.940   109048767.82509  20751263.460    84973130.69149
 15 03 02 12 43 30.0000000  0  9G02G05G07G09G10G13G20G28G30
  23345129.580   122679361.31708  23345136.760    95594266.51846
  20923736.940   109955064.74709  20923738.820    85679313.07048
  22557006.360   118537862.40109  22557009.460    92367175.14147
  24130232.980   126805107.89508  24130242.120    98809149.08246
  21677576.140   113916395.77809  21677579.420    88766023.61348
  22308146.140   117230220.90509  22308149.360    91348274.40547
  22196829.500   116645058.94809  22196833.760    90892233.93547
  21654545.040   113795633.75709  21654547.900    88672017.01348
  20760244.460   109095981.94809  20760248.080    85009920.87948
