     2.11           OBSERVATION DATA    G                   RINEX VERSION / TYPE
SPIDER V4,0,0,3554                      2015 03 24 01:48    PGM / RUN BY / DATE 
CFKZ                                                        MARKER NAME         
CFKZ                                                        MARKER NUMBER       
                                                            OBSERVER / AGENCY   
496632              LEICA GRX1200+GNSS  8.10/4.007          REC # / TYPE / VERS 
10301036            LEIAR25         NONE                    ANT # / TYPE        
  5212138.8290   540257.5452  3624418.8863                  APPROX POSITION XYZ 
        0.0720        0.0000        0.0000                  ANTENNA: DELTA H/E/N
     1     1                                                WAVELENGTH FACT L1/2
     4    C1    L1    P2    L2                              # / TYPES OF OBSERV 
    30.000                                                  INTERVAL            
  2015    03    02    00    00    0.0000000     GPS         TIME OF FIRST OBS   
  2015    03    02    23    59   30.0000000     GPS         TIME OF LAST OBS    
    16                                                      LEAP SECONDS        
    30                                                      # OF SATELLITES     
   G 1   820   820   820   820                              PRN / # OF OBS      
   G 2   940   939   939   939                              PRN / # OF OBS      
   G 3   855   854   854   854                              PRN / # OF OBS      
   G 4   844   844   844   844                              PRN / # OF OBS      
   G 5   628   628   627   627                              PRN / # OF OBS      
   G 6   785   785   785   785                              PRN / # OF OBS      
   G 7   669   669   669   669                              PRN / # OF OBS      
   G 9   808   808   808   808                              PRN / # OF OBS      
   G10   757   757   757   757                              PRN / # OF OBS      
   G11   783   783   783   783                              PRN / # OF OBS      
   G12   807   807   807   807                              PRN / # OF OBS      
   G13   775   775   775   775                              PRN / # OF OBS      
   G14   906   903   902   902                              PRN / # OF OBS      
   G15   656   656   656   656                              PRN / # OF OBS      
   G16   673   673   673   673                              PRN / # OF OBS      
   G17   936   936   935   935                              PRN / # OF OBS      
   G18   904   899   897   897                              PRN / # OF OBS      
   G19   762   762   762   762                              PRN / # OF OBS      
   G20   778   778   778   778                              PRN / # OF OBS      
   G21   685   675   670   669                              PRN / # OF OBS      
   G22   661   659   657   655                              PRN / # OF OBS      
   G23   752   752   752   752                              PRN / # OF OBS      
   G24   816   815   815   815                              PRN / # OF OBS      
   G25   832   832   832   832                              PRN / # OF OBS      
   G27   815   815   815   815                              PRN / # OF OBS      
   G28   869   868   868   868                              PRN / # OF OBS      
   G29   729   729   728   728                              PRN / # OF OBS      
   G30   716   716   716   716                              PRN / # OF OBS      
   G31   851   851   851   851                              PRN / # OF OBS      
   G32   767   767   767   767                              PRN / # OF OBS      
BIT 2 OF LLI FLAGS DATA COLLECTED UNDER A/S CONDITION       COMMENT             
SNR is mapped to RINEX snr flag value [2-9]                 COMMENT             
Lx:     = 25dBHz -> 1; 26-27dBHz -> 2; 28-31dBHz -> 3       COMMENT             
       32-35dBHz -> 4; 36-38dBHz -> 5; 39-41dBHz -> 6       COMMENT             
       42-44dBHz -> 7; 45-48dBHz -> 8; >=49dBHz -> 9        COMMENT             
                                                            END OF HEADER       
 15 03 02 00 00  0.0000000  0  7G16G18G21G22G27G29G31
  21563587.580   113317425.72409  21563584.020    88299282.27548
  22277606.060   117069676.59709  22277603.200    91223166.60147
  21424146.140   112584801.09409  21424142.060    87728408.88048
  23515587.020   123575315.42508  23515586.460    96292502.33546
  22796180.240   119794760.48908  22796179.700    93346579.51447
  24124702.440   126776509.97708  24124700.340    98787029.20645
  23223908.500   122042434.28109  23223908.200    95097985.88847
 15 03 02 00 00 30.0000000  0  7G16G18G21G22G27G29G31
  21550700.040   113249701.30209  21550696.480    88246509.99848
  22267319.940   117015622.67409  22267317.060    91181046.70347
  21432544.440   112628934.27709  21432540.340    87762798.36948
  23497792.580   123481806.70408  23497792.080    96219638.59946
  22784148.940   119731535.97508  22784148.360    93297313.68347
  24138490.960   126848970.41507  24138488.580    98843491.86346
  23241399.500   122134349.41808  23241399.260    95169607.82347
 15 03 02 00 01  0.0000000  0  7G16G18G21G22G27G29G31
  21537869.900   113182278.49009  21537866.340    88193972.74648
  22257099.520   116961914.08609  22257096.640    91139195.91247
  21440997.380   112673354.45409  21440993.260    87797411.50448
  23480010.440   123388361.90808  23480010.000    96146824.68346
  22772134.660   119668400.76809  22772134.100    93248117.45947
  24152284.960   126921458.81108  24152283.000    98899976.25945
  23258915.600   122226396.10608  23258915.340    95241332.27847
 15 03 02 00 01 30.0000000  0  7G16G18G21G22G27G29G31
  21525096.800   113115155.40709  21525093.240    88141669.05148
  22246944.520   116908549.34309  22246941.560    91097613.04847
  21449503.740   112718055.56709  21449499.640    87832243.54448
  23462240.320   123294979.98508  23462239.740    96074059.75647
  22760136.680   119605350.98109  22760136.240    93198987.76147
  24166083.840   126993971.03008  24166081.660    98956479.24845
  23276455.380   122318567.14809  23276455.100    95313153.62147
 15 03 02 00 02  0.0000000  0  7G16G18G21G22G27G29G31
  21512382.260   113048339.98209  21512378.720    88089605.08248
  22236856.460   116855536.40609  22236853.420    91056304.31347
  21458064.400   112763042.00509  21458060.300    87867297.92248
  23444483.660   123201669.12908  23444483.160    96001350.34246
  22748156.040   119542392.40608  22748155.640    93149929.15947
  24179888.300   127066513.29208  24179885.480    99013005.68644
  23294019.320   122410865.64809  23294019.100    95385074.26047
 15 03 02 00 02 30.0000000  0  7G16G18G21G22G27G29G31
  21499726.180   112981831.80409  21499722.620    88037780.53348
  22226835.220   116802874.53709  22226832.060    91015269.12547
  21466678.480   112808308.95609  21466674.340    87902570.86948
  23426740.460   123108429.07208  23426739.960    95928696.01846
  22736192.180   119479522.08408  22736191.680    93100939.30648
  24193698.160   127139082.48608  24193695.000    99069553.11345
  23311606.400   122503285.52509  23311606.240    95457089.48347
 15 03 02 00 03  0.0000000  0  7G16G18G21G22G27G29G31
  21487129.920   112915637.89009  21487126.300    87986200.86448
  22216882.140   116750570.83509  22216878.900    90974513.03947
  21475346.360   112853859.14109  21475342.240    87938064.52448
  23409012.140   123015267.21408  23409011.620    95856102.62747
  22724246.040   119416744.99909  22724245.520    93052022.14747
  24207513.660   127211683.62808  24207510.380    99126125.37245
  23329216.920   122595828.60509  23329216.880    95529200.69747
 15 03 02 00 03 30.0000000  0  7G16G18G21G22G27G29G31
  21474592.780   112849754.67009  21474589.100    87934863.29448
  22206996.440   116698621.29109  22206993.140    90934032.92847
  21484066.800   112899685.63909  21484062.760    87973773.48748
  23391298.160   122922180.71708  23391297.560    95783567.96846
  22712316.580   119354055.36109  22712316.220    93003173.08847
  24221334.220   127284310.93308  24221331.220    99182718.10146
  23346849.240   122688485.96309  23346849.260    95601400.95346
 15 03 02 00 04  0.0000000  0  7G16G18G21G22G27G29G31
  21462115.960   112784188.43009  21462112.260    87883772.71848
  22197179.200   116647031.83309  22197176.020    90893833.38347
  21492840.200   112945790.61109  21492836.280    88009699.44748
  23373599.740   122829176.00108  23373599.120    95711097.08246
  22700404.540   119291457.01309  22700404.200    92954395.18148
  24235160.380   127356968.33008  24235157.940    99239334.15946
  23364503.580   122781258.82209  23364503.600    95673691.21647
 15 03 02 00 04 30.0000000  0  7G16G18G21G22G27G29G31
  21449699.100   112718937.30709  21449695.400    87832927.68848
  22187430.120   116595800.50009  22187427.060    90853912.91547
  21501665.340   112992167.57309  21501661.500    88045837.34048
  23355916.660   122736251.59808  23355916.040    95638688.75546
  22688509.160   119228946.00109  22688508.720    92905685.33147
  24248991.520   127429651.92608  24248989.240    99295970.73545
  23382178.420   122874139.50109  23382178.500    95746065.46646
 15 03 02 00 05  0.0000000  0  7G16G18G21G22G27G29G31
  21437343.820   112654009.74309  21437340.140    87782334.79848
  22177750.860   116544936.08209  22177747.940    90814278.35747
  21510543.100   113038821.16908  21510539.380    88082190.80348
  23338250.560   122643416.47208  23338249.820    95566349.94046
  22676631.640   119166528.76909  22676631.060    92857048.52647
  24262828.680   127502367.97808  24262826.520    99352632.58845
  23399874.500   122967132.06708  23399874.580    95818526.90146
 15 03 02 00 05 30.0000000  0  7G16G18G21G22G27G29G31
  21425049.660   112589403.24909  21425045.980    87731992.08048
  22168140.880   116494435.75309  22168138.040    90774927.48247
  21519472.380   113085745.29909  21519468.800    88118755.05048
  23320601.120   122550668.97408  23320600.260    95494079.41847
  22664771.040   119104200.56109  22664770.260    92808481.11247
  24276671.140   127575111.91508  24276669.360    99409316.11046
  23417590.340   123060228.62308  23417590.440    95891069.37546
 15 03 02 00 06  0.0000000  0  7G16G18G21G22G27G29G31
  21412816.600   112525118.24509  21412812.960    87681899.87148
  22158600.160   116444299.43009  22158597.380    90735860.26147
  21528452.420   113132935.96909  21528448.800    88155527.01348
  23302968.360   122458009.44008  23302967.620    95421877.48547
  22652926.980   119041959.69009  22652926.200    92759981.76347
  24290518.760   127647881.56507  24290516.900    99466019.73346
  23435325.040   123153424.19108  23435325.200    95963688.99346
 15 03 02 00 06 30.0000000  0  7G16G18G21G22G27G29G31
  21400646.240   112461162.92709  21400642.680    87632064.56248
  22149130.380   116394535.67609  22149127.540    90697083.36147
  21537484.060   113180397.63409  21537480.440    88192510.12948
  23285354.120   122365446.89608  23285353.360    95349751.12046
  22641100.640   118979812.09508  22641099.880    92711555.08648
  24304372.500   127720683.36808  24304370.660    99522748.35346
  23453079.200   123246721.82508  23453079.460    96036388.13347
 15 03 02 00 07  0.0000000  0  7G16G18G21G22G27G29G31
  21388538.100   112397534.19309  21388534.500    87582483.73048
  22139730.740   116345140.34809  22139727.820    90658593.53547
  21546565.840   113228122.69108  21546562.220    88229698.48348
  23267757.760   122272978.60608  23267756.940    95277698.15546
  22629291.000   118917752.32809  22629290.280    92663196.83648
  24318231.460   127793511.89608  24318229.840    99579497.82546
  23470851.240   123340113.12309  23470851.540    96109160.23946
 15 03 02 00 07 30.0000000  0  7G16G18G21G22G27G29G31
  21376493.440   112334239.08209  21376489.820    87533162.87348
  22130402.640   116296120.86409  22130399.620    90620396.57247
  21555698.260   113276113.86409  21555694.620    88267094.21548
  23250180.740   122180611.74708  23250179.860    95205724.28346
  22617498.960   118855785.29708  22617498.320    92614910.87947
  24332096.260   127866371.79608  24332094.420    99636271.72445
  23488641.460   123433599.66009  23488641.760    96182006.57846
 15 03 02 00 08  0.0000000  0  7G16G18G21G22G27G29G31
  21364511.580   112271273.86209  21364507.940    87484099.06548
  22121145.320   116247473.13809  22121142.140    90582489.28847
  21564879.920   113324363.99209  21564876.240    88304691.72548
  23232622.400   122088343.23208  23232621.420    95133827.11647
  22605723.520   118793905.25509  22605722.880    92566692.69147
  24345966.020   127939257.45108  24345964.060    99693065.71446
  23506448.200   123527172.72109  23506448.480    96254920.32847
 15 03 02 00 08 30.0000000  0  7G16G18G21G22G27G29G31
  21352593.580   112208644.18109  21352589.900    87435296.71548
  22111959.740   116199202.79709  22111956.540    90544876.07447
  21574111.260   113372875.28908  21574107.640    88342492.73848
  23215083.820   121996179.03808  23215082.820    95062011.20546
  22593965.340   118732115.67809  22593964.760    92518544.96048
  24359841.620   128012172.38008  24359839.560    99749882.52146
  23524271.520   123620832.94009  23524271.800    96327901.99347
 15 03 02 00 09  0.0000000  0  7G16G18G21G22G27G29G31
  21340740.400   112146355.14809  21340736.660    87386759.81348
  22102846.820   116151314.41009  22102843.700    90507560.49147
  21583392.240   113421647.40208  21583388.620    88380496.98848
  23197566.100   121904124.62209  23197565.020    94990280.77046
  22582224.960   118670419.38609  22582224.300    92470469.95448
  24373723.100   128085119.06908  24373720.840    99806724.06545
  23542111.300   123714579.96608  23542111.640    96400951.30147
 15 03 02 00 09 30.0000000  0  7G16G18G21G22G27G29G31
  21328952.060   112084407.15309  21328948.360    87338488.65248
  22093806.700   116103808.21709  22093803.620    90470542.72547
  21592722.440   113470677.71609  21592718.740    88418702.43148
  23180069.500   121812181.03608  23180068.340    94918636.66946
  22570502.020   118608814.73109  22570501.340    92422466.33348
  24387610.340   128158096.07308  24387607.860    99863589.23745
  23559966.640   123808408.99009  23559967.060    96474064.49847
 15 03 02 00 10  0.0000000  0  7G16G18G21G22G27G29G31
  21317228.840   112022801.49909  21317225.180    87290484.25848
  22084839.480   116056685.46809  22084836.500    90433823.72447
  21602101.200   113519963.31408  21602097.440    88457106.79248
  23162594.360   121720349.99308  23162593.140    94847080.26846
  22558796.340   118547300.99409  22558795.660    92374533.58048
  24401503.000   128231102.89308  24401500.960    99920477.61246
  23577836.820   123902316.31609  23577837.500    96547238.71247
 15 03 02 00 10 30.0000000  0  7G16G18G21G22G27G29G31
  21305571.400   111961541.74109  21305567.760    87242749.38748
  22075945.760   116009949.07709  22075942.800    90397405.78447
  21611528.340   113569503.34308  21611524.540    88495709.41748
  23145141.520   121628635.80308  23145140.240    94775614.93447
  22547108.180   118485879.53509  22547107.640    92326672.71948
  24415401.480   128304140.65208  24415399.780    99977390.14946
  23595721.560   123996300.42408  23595722.520    96620472.75047
 15 03 02 00 11  0.0000000  0  7G16G18G21G22G27G29G31
  21293980.380   111900630.96609  21293976.760    87195286.45448
  22067126.120   115963601.86309  22067123.180    90361291.11147
  21621003.860   113619296.94509  21620999.960    88534509.62548
  23127711.600   121537041.75708  23127710.100    94704243.18347
  22535437.740   118424551.10609  22535437.240    92278884.38048
  24429305.800   128377210.01307  24429304.400   100034327.26646
  23613620.380   124090358.88708  23613621.660    96693764.72847
 15 03 02 00 11 30.0000000  0  7G16G18G21G22G27G29G31
  21282455.920   111840069.83009  21282452.280    87148095.96448
  22058380.640   115917643.94009  22058377.620    90325479.78747
  21630527.180   113669341.34409  21630523.040    88573505.26948
  23110304.680   121445568.84408  23110303.180    94632965.86347
  22523784.700   118363314.22509  22523784.140    92231167.33648
  24443215.900   128450309.22208  24443214.900   100091287.63646
  23631532.420   124184486.93508  23631534.040    96767110.93946
 15 03 02 00 12  0.0000000  0  7G16G18G21G22G27G29G31
  21270997.720   111779856.73509  21270994.060    87101176.67248
  22049708.880   115872073.64709  22049705.840    90289970.49447
  21640097.040   113719630.27109  21640092.720    88612691.44348
  23092920.660   121354216.29808  23092919.280    94561782.29147
  22512148.480   118302165.45009  22512147.860    92183518.94448
  24457131.600   128523435.21608  24457130.660   100148268.91246
  23649456.500   124278678.26508  23649458.360    96840506.47347
 15 03 02 00 12 30.0000000  0  7G16G18G21G22G27G29G31
  21259606.500   111719995.53309  21259602.840    87054531.57548
  22041111.620   115826894.74309  22041108.580    90254766.17847
  21649713.380   113770163.84009  21649708.980    88652068.24948
  23075560.320   121262988.26308  23075559.040    94490695.74947
  22500529.360   118241106.58108  22500528.680    92135940.61648
  24471052.740   128596589.90308  24471051.540   100205272.57246
  23667392.460   124372931.64808  23667394.520    96913950.31846
 15 03 02 00 13  0.0000000  0  7G16G18G21G22G27G29G31
  21248283.340   111660491.87609  21248279.660    87008165.08748
  22032589.780   115782112.33709  22032586.780    90219870.85047
  21659376.520   113820943.49709  21659372.040    88691636.81148
  23058224.860   121171890.73808  23058223.580    94419710.90147
  22488927.980   118180140.94908  22488927.280    92088434.97248
  24484979.960   128669776.29108  24484978.380   100262300.85446
  23685340.400   124467247.33008  23685342.480    96987442.71546
 15 03 02 00 13 30.0000000  0  7G16G18G21G22G27G29G31
  21237028.400   111601346.68509  21237024.720    86962077.93848
  22024143.500   115737727.11709  22024140.520    90185285.00047
  21669085.880   113871966.58609  21669081.420    88731395.06248
  23040914.480   121080925.10709  23040913.160    94348828.83047
  22477344.140   118119267.47509  22477343.340    92041001.13748
  24498913.000   128742993.38908  24498910.860   100319353.15345
  23703299.500   124561621.18208  23703301.480    97060980.45046
 15 03 02 00 14  0.0000000  0  7G16G18G21G22G27G29G31
  21225842.260   111542563.22309  21225838.660    86916272.64848
  22015773.380   115693741.94809  22015770.360    90151010.88247
  21678841.280   113923231.85609  21678836.900    88771342.02148
  23023630.060   120990095.43509  23023628.540    94278052.69747
  22465778.080   118058487.46109  22465777.180    91993640.06947
  24512851.800   128816242.44508  24512848.940   100376430.29945
  23721269.360   124656051.34209  23721271.180    97134562.05246
 15 03 02 00 14 30.0000000  0  7G16G18G21G22G27G29G31
  21214725.520   111484144.41209  21214721.940    86870751.50548
  22007479.860   115650159.16109  22007476.740    90117050.30847
  21688642.680   113974738.83709  21688638.340    88811477.33348
  23006372.180   120899404.92609  23006370.380    94207384.99047
  22454229.880   117997801.47909  22454229.040    91946352.29748
  24526796.600   128889523.70207  24526793.600   100433532.56046
  23739249.420   124750535.36708  23739251.180    97208185.66446
 15 03 02 00 15  0.0000000  0  7G16G18G21G22G27G29G31
  21203678.500   111426091.85209  21203674.880    86825515.74648
  21999263.180   115606980.17709  21999260.040    90083404.36347
  21698489.460   114026484.37009  21698485.160    88851798.52748
  22989141.260   120808855.58309  22989139.100    94136827.26547
  22442699.500   117937209.14109  22442698.700    91899137.54548
  24540747.240   128962836.88807  24540744.760   100490659.68646
  23757239.140   124845069.98709  23757240.840    97281848.76447
 15 03 02 00 15 30.0000000  0  7G16G18G21G22G27G29G31
  21192701.620   111368407.88709  21192698.020    86780567.20648
  21991123.600   115564206.60009  21991120.560    90050074.34047
  21708381.420   114078467.19609  21708377.180    88892304.62448
  22971937.760   120718450.50409  22971935.260    94066381.95847
  22431187.020   117876710.78409  22431186.260    91851995.97947
  24554704.040   129036182.31407  24554702.300   100547811.87645
  23775237.780   124939651.90708  23775239.540    97355548.72047
 15 03 02 00 16  0.0000000  0  6G16G18G21G22G27G31
  21181802.280   111311131.24009  21181798.680    86735936.05748
  21983068.500   115521877.00309  21983065.500    90017090.27547
  21718325.200   114130722.20809  21718320.960    88933022.81948
  22954769.080   120628228.89709  22954766.440    93996079.62247
  22419699.460   117816343.38009  22419698.680    91804956.42147
  23793251.840   125034315.48808  23793253.720    97429312.33246
 15 03 02 00 16 30.0000000  0  6G16G18G21G22G27G31
  21170965.540   111254183.68409  21170961.960    86691561.33648
  21975083.000   115479913.10409  21975079.980    89984391.15847
  21728305.140   114183167.36409  21728300.960    88973889.16848
  22937620.440   120538113.10009  22937617.700    93925859.74147
  22408221.500   117756026.43308  22408220.700    91757956.24348
  23811265.500   125128977.20808  23811267.520    97503074.47946
 15 03 02 00 17  0.0000000  0  6G16G18G21G22G27G31
  21160200.100   111197610.83909  21160196.560    86647478.60448
  21967175.500   115438359.40209  21967172.580    89952011.67747
  21738329.120   114235843.65309  21738325.000    89014935.62948
  22920500.580   120448148.95309  22920497.820    93855758.01347
  22396761.420   117695803.45009  22396760.660    91711029.28947
  23829286.460   125223677.36208  23829288.540    97576866.57746
 15 03 02 00 17 30.0000000  0  6G16G18G21G22G27G31
  21149506.900   111141417.56009  21149503.380    86603691.63748
  21959347.000   115397220.83509  21959344.120    89919955.69347
  21748397.320   114288752.24109  21748393.220    89056163.10248
  22903410.680   120358342.15209  22903407.840    93785778.90347
  22385319.800   117635677.36809  22385319.060    91664177.79048
  23847314.580   125318415.54308  23847316.780    97650688.29346
 15 03 02 00 18  0.0000000  0  6G16G18G21G22G27G31
  21138885.840   111085603.35509  21138882.340    86560200.05548
  21951597.360   115356496.51209  21951594.500    89888222.49447
  21758508.980   114341889.18609  21758504.860    89097568.51448
  22886350.740   120268692.75809  22886347.860    93715922.41847
  22373896.120   117575645.79309  22373895.480    91617399.99048
  23865348.920   125413186.54808  23865351.300    97724535.66746
 15 03 02 00 18 30.0000000  0  6G16G18G21G22G27G31
  21128336.440   111030165.71609  21128332.880    86517001.90948
  21943926.000   115316183.58509  21943923.180    89856809.84147
  21768662.760   114395247.51109  21768658.600    89139146.43148
  22869320.340   120179198.58109  22869317.480    93646186.89547
  22362489.580   117515704.18609  22362488.980    91570692.24548
  23883388.100   125507982.63208  23883390.560    97798402.54346
 15 03 02 00 19  0.0000000  0  7G16G18G19G21G22G27G31
  21117860.320   110975113.20209  21117856.680    86474103.84448
  21936334.320   115276289.56309  21936331.560    89825723.63347
  24534320.480   128928738.06906  24534320.340   100463928.54346
  21778859.520   114448831.92009  21778855.360    89180900.51448
  22852321.160   120089868.38809  22852318.340    93576579.14347
  22351101.340   117455858.83309  22351100.800    91524059.51647
  23901432.720   125602807.21108  23901435.180    97872291.63746
 15 03 02 00 19 30.0000000  0  7G16G18G19G21G22G27G31
  21107460.420   110920461.16709  21107456.700    86431517.84948
  21928825.180   115236828.94509  21928822.320    89794975.11847
  24519504.840   128850882.69108  24519505.040   100403262.18046
  21789101.380   114502653.42809  21789097.280    89222839.36048
  22835356.280   120000718.46409  22835353.580    93507111.86647
  22339734.040   117396123.27309  22339733.500    91477512.34048
  23919484.820   125697670.56008  23919487.240    97946210.90046
 15 03 02 00 20  0.0000000  0  7G16G18G19G21G22G27G31
  21097127.360   110866160.46309  21097123.620    86389205.61048
  21921389.340   115197752.99509  21921386.360    89764526.35547
  24504693.700   128773045.41507  24504691.600   100342609.68044
  21799378.260   114556659.39609  21799374.320    89264921.93148
  22818416.540   119911700.37609  22818413.920    93437747.30647
  22328377.900   117336446.54909  22328377.360    91431011.01548
  23937534.080   125792518.87908  23937536.460    98020118.41746
 15 03 02 00 20 30.0000000  0  7G16G18G19G21G22G27G31
  21086871.880   110812267.39409  21086868.140    86347211.02148
  21914037.260   115159117.07009  21914034.200    89734420.47447
  24489895.540   128695280.03107  24489893.020   100282013.35945
  21809700.280   114610902.39209  21809696.480    89307189.19248
  22801512.720   119822870.68309  22801510.120    93368529.55247
  22317043.300   117276882.96609  22317042.700    91384597.87048
  23955590.120   125887402.87208  23955592.460    98094053.73046
 15 03 02 00 21  0.0000000  0  7G16G18G19G21G22G27G31
  21076690.360   110758762.82709  21076686.560    86305519.15548
  21906765.240   115120901.89809  21906762.160    89704642.44647
  24475107.440   128617565.85808  24475104.880   100221456.94446
  21820063.020   114665359.31609  21820059.300    89349623.15948
  22784641.400   119734211.45809  22784638.680    93299444.61447
  22305726.280   117217411.79009  22305725.620    91338256.70448
  23973648.480   125982299.23808  23973650.880    98167998.75746
 15 03 02 00 21 30.0000000  0  7G16G18G19G21G22G27G31
  21066585.380   110705660.68609  21066581.540    86264140.86148
  21899575.820   115083120.86209  21899572.660    89675202.69747
  24460330.720   128539913.87307  24460327.200   100160948.93644
  21830468.400   114720039.73109  21830464.660    89392231.27648
  22767805.140   119645736.43009  22767802.240    93230503.19347
  22294429.020   117158044.43509  22294428.380    91291996.46448
  23991710.720   126077216.03208  23991713.100    98241959.69846
 15 03 02 00 22  0.0000000  0  7G16G18G19G21G22G27G31
  21056554.460   110652947.60609  21056550.540    86223065.74048
  21892466.240   115045759.65709  21892463.000    89646090.10847
  24445563.200   128462308.92808  24445559.380   100100477.51046
  21840912.980   114774926.36909  21840909.260    89435000.07948
  22751001.500   119557432.93009  22750998.320    93161695.44747
  22283148.640   117098765.84109  22283148.100    91245805.35648
  24009773.440   126172135.25008  24009775.780    98315922.51546
 15 03 02 00 22 30.0000000  0  7G16G18G19G21G22G27G31
  21046600.680   110600639.91109  21046596.700    86182306.49548
  21885439.560   115008834.60409  21885436.340    89617317.36047
  24430807.200   128384765.13007  24430803.900   100040053.92146
  21851399.240   114830032.21908  21851395.540    89477939.69648
  22734233.660   119469317.82409  22734230.300    93093034.49647
  22271887.920   117039590.42909  22271887.440    91199694.66348
  24027838.760   126267068.07308  24027841.160    98389895.92046
 15 03 02 00 23  0.0000000  0  7G16G18G19G21G22G27G31
  21036722.480   110548729.44609  21036718.420    86141856.78648
  21878494.120   114972336.33809  21878490.880    89588877.16747
  24416060.980   128307272.15708  24416056.820    99979669.77145
  21861924.860   114885345.20408  21861921.280    89521040.72348
  22717500.260   119381383.60509  22717496.700    93024514.47247
  22260644.920   116980508.21509  22260644.480    91153656.56848
  24045904.260   126362001.31608  24045906.580    98463869.66746
 15 03 02 00 23 30.0000000  0  7G16G18G19G21G22G27G31
  21026920.500   110497219.64909  21026916.420    86101719.28248
  21871630.600   114936268.45709  21871627.340    89560772.35247
  24401324.980   128229831.83907  24401320.600    99919326.67946
  21872489.780   114940864.50609  21872486.200    89564302.51748
  22700802.120   119293634.58209  22700798.420    92956138.76747
  22249419.980   116921520.85909  22249419.540    91107692.41848
  24063969.640   126456933.71008  24063971.960    98537842.76146
 15 03 02 00 24  0.0000000  0  7G16G18G19G21G22G27G31
  21017196.920   110446122.14909  21017192.860    86061903.04848
  21864850.960   114900641.50309  21864847.680    89533011.11547
  24386600.240   128152453.14708  24386596.460    99859031.76045
  21883095.460   114996597.74709  21883091.880    89607731.01848
  22684141.420   119206082.48309  22684137.740    92887916.50047
  22238214.920   116862637.81609  22238214.400    91061809.55848
  24082036.020   126551871.83508  24082038.440    98611820.29146
 15 03 02 00 24 30.0000000  0  7G16G18G19G21G22G27G31
  21007549.560   110395425.27909  21007545.620    86022398.99848
  21858152.860   114865443.24409  21858149.620    89505583.92747
  24371884.980   128075122.51008  24371880.540    99798774.05745
  21893738.960   115052529.38009  21893735.260    89651314.11448
  22667516.100   119118716.56109  22667512.500    92819839.32147
  22227027.200   116803845.83509  22227026.640    91015997.63748
  24100100.180   126646798.94008  24100102.720    98685789.19046
 15 03 02 00 25  0.0000000  0  7G16G18G19G21G22G27G31
  20997981.680   110345146.26109  20997977.860    85983220.54648
  21851539.560   114830690.59609  21851536.440    89478503.97447
  24357181.140   127997854.83608  24357177.000    99738565.60346
  21904422.840   115108673.14909  21904418.960    89695062.51348
  22650929.580   119031554.64609  22650925.980    92751921.10147
  22215859.720   116745160.25309  22215859.100    90970268.64148
  24118164.500   126741727.35908  24118167.340    98759759.00347
 15 03 02 00 25 30.0000000  0  7G16G18G19G21G22G27G31
  20988490.860   110295272.01509  20988487.120    85944357.48948
  21845008.480   114796369.94409  21845005.400    89451760.63347
  24342486.760   127920635.29208  24342482.900    99678394.59645
  21915143.940   115165012.40509  21915139.980    89738963.23948
  22634379.480   118944584.36609  22634375.900    92684152.20347
  22204709.700   116686566.21409  22204709.020    90924610.94948
  24136225.720   126836639.19608  24136228.820    98833715.91246
 15 03 02 00 26  0.0000000  0  7G16G18G19G21G22G27G31
  20979079.480   110245815.41809  20979075.840    85905819.87948
  21838561.880   114762492.97709  21838558.680    89425363.02947
  24327803.200   127843474.43707  24327798.880    99618269.29546
  21925903.960   115221556.05109  21925899.900    89783023.21048
  22617868.420   118857818.94609  22617864.820    92616542.93247
  22193579.200   116628074.70209  22193578.440    90879033.15748
  24154285.380   126931542.25208  24154288.640    98907665.90946
 15 03 02 00 26 30.0000000  0  7G16G18G19G21G22G27G31
  20969746.720   110196771.90609  20969743.200    85867604.16148
  21832198.920   114729055.29409  21832195.600    89399307.72747
  24313129.920   127766366.05908  24313125.720    99558184.90446
  21936701.180   115278295.49909  21936697.020    89827235.77147
  22601395.600   118771254.40209  22601392.080    92549090.19447
  22182466.940   116569679.27409  22182466.120    90833530.24448
  24172341.620   127026427.05408  24172344.960    98981601.68346
 15 03 02 00 27  0.0000000  0  7G16G18G19G21G22G27G31
  20960493.640   110148147.04409  20960490.260    85829714.66148
  21825920.480   114696061.37509  21825917.080    89373598.20247
  24298467.020   127689313.21908  24298462.720    99498143.83045
  21947535.860   115335232.46309  21947531.740    89871602.23048
  22584962.220   118684897.03509  22584958.660    92481798.88347
  22171373.620   116511383.78109  22171372.800    90788105.20348
  24190394.640   127121294.34908  24190397.920    99055523.79646
 15 03 02 00 27 30.0000000  0  7G16G18G19G21G22G27G31
  20951319.560   110099937.12009  20951316.240    85792148.49248
  21819725.680   114663506.87709  21819722.260    89348231.08647
  24283814.100   127612310.51708  24283809.720    99438141.69346
  21958406.660   115392359.43609  21958402.700    89916116.75548
  22568567.640   118598743.77409  22568564.120    92414666.61747
  22160298.260   116453182.81009  22160297.540    90742753.80348
  24208442.760   127216135.53908  24208446.040    99129425.45345
 15 03 02 00 28  0.0000000  0  7G16G18G19G21G22G27G31
  20942227.340   110052157.28209  20942224.040    85754917.44348
  21813617.240   114631406.76109  21813613.860    89323218.01847
  24269172.780   127535370.80108  24269168.840    99378188.77146
  21969315.720   115449687.55608  21969311.840    89960788.02148
  22552214.920   118512810.24109  22552211.400    92347705.54747
  22149243.440   116395089.65209  22149242.760    90697486.43648
  24226487.860   127310960.99908  24226490.960    99203314.79345
 15 03 02 00 28 30.0000000  0  7G16G18G19G21G22G27G31
  20933215.480   110004799.57709  20933212.180    85718015.33848
  21807593.440   114599751.72509  21807590.080    89298551.78347
  24254541.740   127458484.10708  24254538.020    99318277.09845
  21980260.820   115507205.29108  21980257.100    90005607.02948
  22535902.620   118427089.16709  22535899.040    92280910.04047
  22138207.320   116337094.63409  22138206.680    90652295.50848
  24244527.600   127405757.69508  24244530.600    99277181.69746
 15 03 02 00 29  0.0000000  0  7G16G18G19G21G22G27G31
  20924284.360   109957866.27709  20924281.100    85681443.94848
  21801654.620   114568543.64309  21801651.400    89274233.83047
  24239920.800   127381651.07908  24239917.020    99258407.28446
  21991241.860   115564911.49509  21991238.300    90050572.89447
  22519631.340   118341583.76509  22519627.820    92214282.57947
  22127190.000   116279198.36509  22127189.440    90607181.54948
  24262561.580   127500523.62308  24262564.640    99351024.75145
 15 03 02 00 29 30.0000000  0  7G16G18G19G21G22G27G31
  20915434.840   109911361.62809  20915431.560    85645206.55348
  21795801.540   114537786.16509  21795798.520    89250266.98047
  24225310.540   127304873.48708  24225307.060    99198580.64446
  22002258.860   115622806.72008  22002255.480    90095686.05048
  22503401.860   118256298.63309  22503398.480    92147826.77247
  22116191.960   116221403.28609  22116191.420    90562146.43148
  24280589.480   127595258.16608  24280592.440    99424843.34346
 15 03 02 00 30  0.0000000  0  7G16G18G19G21G22G27G31
  20906667.740   109865289.75209  20906664.380    85609306.40048
  21790034.880   114507483.04509  21790032.040    89226654.19748
  24210711.180   127228153.62708  24210707.440    99138798.99045
  22013311.840   115680890.96608  22013308.580    90140946.50248
  22487215.200   118171238.70909  22487212.000    92081546.44847
  22105213.640   116163711.98209  22105213.140    90517192.18948
  24298611.180   127689960.50808  24298614.160    99498636.82145
 15 03 02 00 30 30.0000000  0  7G16G18G19G21G22G27G31
  20897982.840   109819649.70909  20897979.380    85573742.72548
  21784354.380   114477632.29109  21784351.580    89203393.88247
  24196122.300   127151488.83408  24196118.520    99079060.23146
  22024400.000   115739159.88708  22024396.780    90186350.85648
  22471071.400   118086403.61509  22471068.200    92015441.30347
  22094254.580   116106121.83009  22094254.040    90472316.75848
  24316625.640   127784625.00008  24316629.000    99572400.81446
 15 03 02 00 31  0.0000000  0  7G16G18G19G21G22G27G31
  20889379.860   109774440.31009  20889376.280    85538514.62548
  21778759.700   114448232.01809  21778756.860    89180484.60247
  24181543.380   127074875.77708  24181539.420    99019361.79746
  22035522.360   115797608.17609  22035518.980    90231894.98347
  22454970.380   118001792.71209  22454967.080    91949510.85247
  22083314.240   116048629.82409  22083313.640    90427517.79848
  24334631.720   127879245.47708  24334635.080    99646130.52945
 15 03 02 00 31 30.0000000  0  7G16G18G19G21G22G27G31
  20880860.060   109729668.44609  20880856.420    85503627.46448
  21773251.880   114419287.94209  21773248.920    89157930.79347
  24166975.140   126998319.14308  24166970.940    98959707.30846
  22046679.500   115856239.09208  22046675.980    90277581.41047
  22438913.620   117917413.87409  22438910.220    91883761.22147
  22072393.620   115991241.24309  22072392.980    90382799.41948
  24352629.740   127973823.84808  24352633.300    99719827.45146
 15 03 02 00 32  0.0000000  0  7G16G18G19G21G22G27G31
  20872423.560   109685334.17409  20872419.860    85469081.27648
  21767830.880   114390799.89609  21767827.800    89135732.33847
  24152417.440   126921817.11208  24152413.320    98900095.38646
  22057870.760   115915048.89308  22057867.160    90323407.22848
  22422901.080   117833267.28009  22422897.540    91818192.57347
  22061492.340   115933954.38009  22061491.640    90338160.33048
  24370618.980   128068355.81408  24370622.800    99793488.18746
 15 03 02 00 32 30.0000000  0  7G16G18G19G21G22G27G31
  20864071.680   109641444.54609  20864067.920    85434881.57248
  21762497.900   114362774.50509  21762494.740    89113894.38847
  24137870.880   126845375.00708  24137866.380    98840530.12046
  22069096.820   115974041.41209  22069093.120    90369375.42147
  22406934.320   117749361.07709  22406930.560    91752811.22948
  22050611.480   115876774.82209  22050610.780    90293604.84348
  24388599.800   128162843.70308  24388603.920    99867114.49146
 15 03 02 00 33  0.0000000  0  7G16G18G19G21G22G27G31
  20855803.260   109597993.51909  20855799.460    85401023.62948
  21757251.580   114335204.80009  21757248.380    89092411.52347
  24123334.380   126768985.07808  24123330.100    98781005.56646
  22080355.780   116033207.12608  22080351.980    90415478.56848
  22391012.280   117665689.97409  22391008.280    91687613.07748
  22039749.600   115819695.10309  22039748.880    90249127.14548
  24406570.180   128257276.75108  24406574.640    99940698.06046
 15 03 02 00 33 30.0000000  0  7G16G18G19G21G22G27G31
  20847620.600   109554992.70909  20847616.660    85367516.49648
  21752093.900   114308101.33209  21752090.700    89071291.97847
  24108809.480   126692657.12808  24108805.460    98721529.27246
  22091649.060   116092553.56308  22091645.280    90461722.54547
  22375137.340   117582266.34609  22375133.140    91622607.76847
  22028908.540   115762724.98509  22028907.820    90204734.84748
  24424531.480   128351661.78808  24424536.080   100014244.22046
 15 03 02 00 34  0.0000000  0  7G16G18G19G21G22G27G31
  20839521.940   109512433.68009  20839517.960    85334353.61448
  21747023.220   114281455.41409  21747020.140    89050528.94447
  24094294.440   126616380.55108  24094290.540    98662093.01046
  22102974.340   116152068.42908  22102970.540    90508097.76647
  22359308.020   117499082.51409  22359303.720    91557789.29148
  22018086.460   115705854.68909  22018085.760    90160420.34348
  24442481.120   128445985.73608  24442485.980   100087742.73146
 15 03 02 00 34 30.0000000  0  7G16G18G19G21G22G27G31
  20831509.100   109470325.92409  20831505.120    85301542.36948
  21742041.240   114255275.48709  21742038.320    89030129.02347
  24079790.540   126540162.82008  24079786.620    98602702.60346
  22114332.840   116211758.02508  22114329.200    90554609.12948
  22343526.100   117416148.13509  22343521.820    91493165.21747
  22007284.860   115649091.90309  22007284.160    90116189.60348
  24460420.100   128540253.36108  24460425.140   100161197.36346
 15 03 02 00 35  0.0000000  0  7G16G18G19G21G22G27G31
  20823581.700   109428667.37409  20823577.780    85269081.15548
  21737147.360   114229558.38609  21737144.560    89010089.74147
  24065297.080   126463999.93008  24065293.180    98543354.95446
  22125723.460   116271616.54208  22125719.980    90601252.12547
  22327791.360   117333461.98409  22327787.100    91428734.55448
  21996503.060   115592433.08009  21996502.380    90072039.88548
  24478347.160   128634458.05408  24478352.500   100234602.92446
 15 03 02 00 35 30.0000000  0  7G16G18G19G21G22G27G31
  20815740.080   109387459.77409  20815736.280    85236971.33348
  21732341.820   114204305.24809  21732339.080    88990411.98747
  24050814.380   126387892.20508  24050810.160    98484050.24446
  22137145.780   116331641.92508  22137142.400    90648025.14447
  22312104.360   117251026.84109  22312100.080    91364499.47447
  21985741.100   115535878.59309  21985740.380    90027971.46848
  24496261.740   128728596.75408  24496267.260   100307957.04446
 15 03 02 00 36  0.0000000  0  7G16G18G19G21G22G27G31
  20807984.780   109346705.76509  20807981.120    85205214.96548
  21727625.100   114179518.81909  21727622.340    88971097.91147
  24036342.120   126311840.21808  24036337.860    98424789.01746
  22148599.880   116391833.94408  22148596.500    90694928.02547
  22296465.780   117168846.27109  22296461.500    91300462.76048
  21974999.120   115479429.61209  21974998.440    89983985.26648
  24514163.480   128822668.11908  24514169.020   100381258.60246
 15 03 02 00 36 30.0000000  0  7G16G18G19G21G22G27G31
  20800315.760   109306405.24009  20800312.220    85173811.95448
  21722996.860   114155197.47009  21722994.120    88952146.22847
  24021880.320   126235842.28108  24021875.880    98365569.86846
  22160084.900   116452188.34708  22160081.500    90741957.43247
  22280875.720   117086920.31609  22280871.380    91236624.45047
  21964276.820   115423084.28109  21964276.220    89940079.81548
  24532051.400   128916666.98808  24532057.200   100454503.65746
 15 03 02 00 37  0.0000000  0  7G16G18G19G21G22G27G31
  20792734.760   109266567.14209  20792731.280    85142769.28448
  21718458.660   114131349.33309  21718455.980    88933563.28548
  24007430.060   126159905.10608  24007425.260    98306398.04546
  22171601.900   116512710.63809  22171598.480    90789117.65247
  22265335.980   117005258.86709  22265331.620    91172992.24448
  21953575.760   115366850.33509  21953575.160    89896261.17048
  24549926.400   129010597.63808  24549932.480   100527695.62645
 15 03 02 00 37 30.0000000  0  7G16G18G19G21G22G27G31
  20785240.860   109227186.65809  20785237.380    85112083.17848
  21714009.440   114107968.76609  21714006.720    88915344.67848
  23992990.060   126084022.31808  23992985.540    98247268.67746
  22183149.260   116573392.43008  22183145.880    90836402.16548
  22249845.720   116923857.83909  22249841.400    91109562.96848
  21942894.720   115310721.29109  21942894.120    89852524.27748
  24567786.700   129104451.02408  24567792.780   100600827.49845
 15 03 02 00 38  0.0000000  0  7G16G18G19G21G22G27G31
  20777835.000   109188269.11809  20777831.600    85081757.82348
  21709650.120   114085060.43709  21709647.320    88897494.05947
  23978561.260   126008197.70208  23978556.560    98188184.55346
  22194727.300   116634235.71908  22194724.020    90883812.51047
  22234406.280   116842723.80709  22234402.060    91046341.74947
  21932234.480   115254701.28309  21932233.840    89808872.32748
  24585632.400   129198228.25408  24585638.580   100673900.01545
 15 03 02 00 38 30.0000000  0  7G16G18G19G21G22G27G31
  20770517.700   109149816.67309  20770514.320    85051794.87748
  21705380.840   114062625.43509  21705378.060    88880012.25347
  23964143.420   125932431.69908  23964138.820    98129146.14846
  22206335.780   116695239.01608  22206332.520    90931347.53947
  22219018.140   116761859.15309  22219013.980    90983330.41847
  21921595.060   115198790.68809  21921594.320    89765305.63848
  24603463.160   129291926.60108  24603469.380   100746911.23746
 15 03 02 00 39  0.0000000  0  7G16G18G19G21G22G27G31
  20763288.700   109111827.99809  20763285.260    85022193.31448
  21701201.380   114040662.11609  21701198.580    88862898.00048
  23949736.160   125856720.93708  23949731.620    98070150.78246
  22217974.000   116756398.01008  22217970.680    90979003.90247
  22203681.260   116681263.48909  22203677.080    90920528.70048
  21910976.060   115142987.32209  21910975.180    89721822.49648
  24621277.720   129385540.24408  24621283.900   100819856.36245
 15 03 02 00 39 30.0000000  0  7G16G18G19G21G22G27G31
  20756149.080   109074308.87609  20756145.600    84992957.63748
  21697112.660   114019175.16509  21697109.780    88846154.93448
  23935340.240   125781069.83308  23935335.760    98011201.90046
  22229642.180   116817714.47008  22229638.900    91026782.95247
  22188396.800   116600943.29609  22188392.560    90857941.61748
  21900378.260   115087295.36809  21900377.280    89678426.18448
  24639076.380   129479070.59508  24639082.500   100892736.75145
 15 03 02 00 40  0.0000000  0  7G16G18G19G21G22G27G31
  20749098.760   109037258.90009  20749095.200    84964087.52948
  21693114.360   113998163.24409  21693111.380    88829782.02848
  23920955.060   125705475.89808  23920950.660    97952297.60546
  22241339.680   116879184.74608  22241336.300    91074681.86647
  22173164.780   116520898.96609  22173160.560    90795569.49848
  21889801.300   115031712.81809  21889800.260    89635115.11348
  24656858.260   129572513.08208  24656864.680   100965548.68545
 15 03 02 00 40 30.0000000  0  7G16G18G19G21G22G27G31
  20742137.840   109000678.43309  20742134.140    84935583.26948
  21689206.300   113977625.93209  21689203.240    88813778.94648
  23906580.620   125629938.00808  23906576.300    97893436.90546
  22253065.860   116940805.85208  22253062.400    91122698.31647
  22157985.420   116441131.56609  22157981.200    90733413.17448
  21879245.000   114976238.93809  21879243.940    89591888.73148
  24674622.600   129665863.09508  24674629.140   101038288.57745
 15 03 02 00 41  0.0000000  0  7G16G18G19G21G22G27G31
  20735267.260   108964572.91309  20735263.440    84907449.10448
  21685389.400   113957568.00609  21685386.300    88798149.40748
  23892217.440   125554459.86008  23892213.160    97834622.80146
  22264821.100   117002579.68208  22264817.600    91170833.75147
  22142860.040   116361647.65409  22142855.800    90671477.74448
  21868710.160   114920877.82209  21868709.120    89548750.21148
  24692369.500   129759121.84308  24692376.020   101110957.37545
 15 03 02 00 41 30.0000000  0  6G16G18G19G21G22G27
  20728486.180   108928937.99209  20728482.300    84879681.62348
  21681662.620   113937984.07309  21681659.600    88782889.21648
  23877864.480   125479035.32908  23877860.400    97775850.49646
  22276604.040   117064498.63508  22276600.440    91219082.27847
  22127787.820   116282443.24209  22127783.700    90609760.10948
  21858195.660   114865623.74909  21858194.640    89505695.09648
 15 03 02 00 42  0.0000000  0  6G16G18G19G21G22G27
  20721796.280   108893782.35409  20721792.480    84852287.61948
  21678027.500   113918881.92209  21678024.540    88768004.44647
  23863523.300   125403671.78008  23863518.940    97717125.62046
  22288415.520   117126567.86109  22288411.720    91267447.89847
  22112770.760   116203528.24009  22112766.620    90548267.97148
  21847702.960   114810484.29109  21847701.980    89462729.29648
 15 03 02 00 42 30.0000000  0  6G16G18G19G21G22G27
  20715197.940   108859107.84009  20715194.220    84825268.51448
  21674484.220   113900262.02009  21674481.220    88753495.46447
  23849193.440   125328368.86408  23849189.280    97658448.11146
  22300255.260   117188785.58908  22300251.440    91315929.24747
  22097809.160   116124904.64609  22097804.980    90487002.89447
  21837232.120   114755459.76109  21837231.220    89419853.04348
 15 03 02 00 43  0.0000000  0  6G16G18G19G21G22G27
  20708690.440   108824910.60209  20708686.760    84798621.30548
  21671032.080   113882120.60209  21671028.980    88739359.29147
  23834874.340   125253121.74608  23834870.180    97599813.98946
  22312122.000   117251145.32909  22312118.200    91364521.24047
  22082902.600   116046569.96909  22082898.280    90425962.96447
  21826782.280   114700545.36209  21826781.420    89377062.62548
 15 03 02 00 43 30.0000000  0  6G16G18G19G21G22G27
  20702274.520   108791194.79909  20702270.880    84772349.24248
  21667671.560   113864460.63009  21667668.380    88725598.30248
  23820566.480   125177932.78808  23820562.420    97541225.22146
  22324015.860   117313647.69108  22324011.980    91413224.38547
  22068051.980   115968529.59209  22068047.540    90365152.34448
  21816354.020   114645744.02609  21816353.100    89334360.28848
 15 03 02 00 44  0.0000000  0  6G16G18G19G21G22G27
  20695951.840   108757968.82909  20695948.200    84746458.87648
  21664403.980   113847289.35809  21664400.700    88712218.08747
  23806270.620   125102808.63008  23806266.640    97482686.95947
  22335937.720   117376297.84808  22335933.760    91462042.68847
  22053258.940   115890792.21709  22053254.500    90304577.84248
  21805948.540   114591062.81309  21805947.600    89291751.55248
 15 03 02 00 44 30.0000000  0  6G16G18G19G21G22G27
  20689720.180   108725221.21609  20689716.500    84720941.24748
  21661227.020   113830594.53309  21661223.740    88699209.15047
  23791985.020   125027736.32508  23791981.020    97424189.05646
  22347884.840   117439080.66109  22347880.920    91510964.34847
  22038521.440   115813346.97009  22038517.080    90244230.97848
  21795563.460   114536488.94109  21795562.520    89249226.46548
 15 03 02 00 45  0.0000000  0  6G16G18G19G21G22G27
  20683582.320   108692966.47009  20683578.620    84695807.67348
  21658143.260   113814389.69009  21658139.940    88686582.00847
  23777711.520   124952728.76008  23777707.300    97365741.62346
  22359859.440   117502007.50609  22359855.460    91559998.26347
  22023842.500   115736209.21409  22023838.220    90184123.69948
  21785201.340   114482035.82209  21785200.420    89206795.46348
 15 03 02 00 45 30.0000000  0  6G16G18G19G21G22G27
  20677537.120   108661198.86709  20677533.480    84671053.69248
  21655151.520   113798668.47409  21655148.220    88674331.72447
  23763448.960   124877779.10308  23763444.620    97307339.33446
  22371859.760   117565069.72608  22371855.780    91609137.65347
  22009221.340   115659374.77809  22009217.040    90124252.77748
  21774861.000   114427696.89509  21774860.040    89164453.44848
 15 03 02 00 46  0.0000000  0  6G16G18G19G21G22G27
  20671584.720   108629919.29009  20671581.200    84646679.99448
  21652251.860   113783430.84509  21652248.540    88662458.26247
  23749197.380   124802886.58708  23749193.140    97248981.56046
  22383885.400   117628265.05108  22383881.580    91658380.75247
  21994658.180   115582845.06809  21994653.840    90064619.30348
  21764542.300   114373471.86009  21764541.300    89122200.18948
 15 03 02 00 46 30.0000000  0  6G16G18G19G21G22G27
  20665726.220   108599133.11409  20665722.820    84622690.76449
  21649445.120   113768681.06909  21649441.780    88650964.95948
  23734957.400   124728055.22908  23734953.000    97190671.44546
  22395936.740   117691595.60709  22395933.000    91707729.22847
  21980154.140   115506626.17609  21980149.840    90005228.02048
  21754246.080   114319365.00409  21754245.080    89080039.00448
 15 03 02 00 47  0.0000000  0  6G16G18G19G21G22G27
  20659961.500   108568839.41609  20659958.140    84599085.27748
  21646730.800   113754417.07909  21646727.460    88639850.17248
  23720728.560   124653281.97808  23720724.240    97132406.58746
  22408013.020   117755056.77608  22408009.240    91757179.49047
  21965709.260   115430717.97109  21965704.960    89946078.82748
  21743971.880   114265373.93409  21743970.920    89037968.05348
 15 03 02 00 47 30.0000000  0  6G16G18G19G21G22G27
  20654291.620   108539044.15409  20654288.280    84575868.19148
  21644109.900   113740644.27209  21644106.580    88629118.14647
  23706511.820   124578571.91708  23706507.420    97074190.98546
  22420114.800   117818651.82009  22420111.120    91806734.06047
  21951324.860   115355127.72009  21951320.580    89887177.40048
  21733720.740   114211503.82109  21733719.820    88995991.34848
 15 03 02 00 48  0.0000000  0  6G16G18G19G21G22G27
  20648716.060   108509744.75309  20648712.760    84553037.48948
  21641581.840   113727359.17509  21641578.520    88618766.12048
  23692306.220   124503921.12408  23692301.780    97016021.57146
  22432240.940   117882374.87208  22432237.360    91856388.38347
  21937000.560   115279853.42609  21936996.300    89828522.16548
  21723491.980   114157751.21409  21723491.100    88954106.21648
 15 03 02 00 48 30.0000000  0  6G16G18G19G21G22G27
  20643234.860   108480941.31509  20643231.620    84530593.25848
  21639146.380   113714560.79909  21639143.080    88608793.38247
  23678111.760   124429328.05008  23678107.200    96957897.10246
  22444390.920   117946223.01409  22444387.300    91906140.17047
  21922736.560   115204896.14909  21922732.320    89770113.95948
  21713285.360   114104115.05109  21713284.500    88912311.80548
 15 03 02 00 49  0.0000000  0  6G16G18G19G21G22G27
  20637849.620   108452641.93509  20637846.400    84508541.78748
  21636804.900   113702256.58509  21636801.720    88599205.68348
  23663929.500   124354799.70308  23663924.920    96899823.08346
  22456565.660   118010201.40508  22456561.980    91955993.46047
  21908534.740   115130265.14109  21908530.420    89711959.97648
  21703102.260   114050602.50209  21703101.420    88870613.72348
 15 03 02 00 49 30.0000000  0  6G16G18G19G21G22G27
  20632559.860   108424844.05309  20632556.620    84486881.09648
  21634556.800   113690442.43209  21634553.580    88589999.86848
  23649758.640   124280331.98208  23649754.260    96841796.33346
  22468764.020   118074304.00109  22468760.240    92005943.52547
  21894394.660   115055958.28809  21894390.240    89654058.58148
  21692941.980   113997210.01509  21692941.160    88829009.19248
 15 03 02 00 50  0.0000000  0  6G16G18G19G21G22G27
  20627364.560   108397542.61509  20627361.340    84465607.24648
  21632401.000   113679112.95909  21632397.660    88581171.70748
  23635598.320   124205918.85908  23635593.800    96783812.05746
  22480984.500   118138522.91809  22480980.700    92055984.22547
  21880315.460   114981971.65909  21880310.980    89596406.71748
  21682803.440   113943931.73509  21682802.620    88787493.66848
 15 03 02 00 50 30.0000000  0  6G16G18G19G21G22G27
  20622267.340   108370756.22209  20622264.040    84444734.73648
  21630340.600   113668285.24509  21630337.220    88572734.54248
  23621451.500   124131576.78108  23621447.000    96725883.18046
  22493230.040   118202873.86209  22493226.240    92106127.81347
  21866300.900   114908324.70609  21866296.380    89539019.54548
  21672689.920   113890785.06809  21672689.140    88746080.69248
 15 03 02 00 51  0.0000000  0  6G16G18G19G21G22G27
  20617266.520   108344476.33409  20617263.080    84424256.89348
  21628373.800   113657950.03609  21628370.460    88564681.14448
  23607316.100   124057296.39508  23607311.800    96668002.42546
  22505498.560   118267345.46209  22505494.680    92156365.41747
  21852349.600   114835009.74909  21852344.940    89481891.04848
  21662599.740   113837760.86409  21662598.980    88704763.14148
 15 03 02 00 51 30.0000000  0  6G16G18G19G21G22G27
  20612361.340   108318699.13209  20612357.780    84404170.75348
  21626499.780   113648102.45109  21626496.460    88557007.71848
  23593191.640   123983072.01708  23593187.280    96610165.25947
  22517788.780   118331930.35709  22517784.740    92206691.31447
  21838461.000   114762024.21209  21838456.140    89425019.24648
  21652531.920   113784854.30009  21652531.200    88663537.25748
 15 03 02 00 52  0.0000000  0  6G16G18G19G21G22G27
  20607553.560   108293433.77509  20607549.940    84384483.45848
  21624720.240   113638751.27809  21624716.940    88549721.10848
  23579079.620   123908912.67808  23579075.240    96552378.77047
  22530101.920   118396635.56709  22530097.820    92257110.96047
  21824637.080   114689378.52209  21824632.000    89368412.25848
  21642488.080   113732073.85609  21642487.400    88622409.64048
 15 03 02 00 52 30.0000000  0  6G16G18G19G21G22G27
  20602842.820   108268678.66709  20602839.260    84365193.75949
  21623034.560   113629893.50909  21623031.300    88542818.96648
  23564979.340   123834814.90508  23564974.940    96494640.28647
  22542436.740   118461455.72508  22542432.720    92307620.17847
  21810877.600   114617071.77309  21810872.380    89312069.39448
  21632467.760   113679416.93709  21632467.160    88581378.28948
 15 03 02 00 53  0.0000000  0  6G16G18G19G21G22G27
  20598230.100   108244438.77809  20598226.600    84346305.52648
  21621443.560   113621533.06309  21621440.420    88536304.35648
  23550891.520   123760782.56908  23550886.940    96436952.76646
  22554793.840   118526393.17309  22554790.020    92358220.76747
  21797183.680   114545109.70809  21797178.380    89255995.10548
  21622471.780   113626887.74409  21622471.180    88540446.47648
 15 03 02 00 53 30.0000000  0  6G16G18G19G21G22G27
  20593715.180   108220712.97309  20593711.760    84327817.88249
  21619946.860   113613667.77209  21619943.780    88530175.56248
  23536815.620   123686813.49908  23536811.260    96379314.56247
  22567172.540   118591443.97808  22567168.700    92408909.69747
  21783555.260   114473492.28809  21783550.000    89200189.36248
  21612499.740   113574484.39409  21612499.120    88499612.69048
 15 03 02 00 54  0.0000000  0  6G16G18G19G21G22G27
  20589298.460   108197502.99009  20589295.100    84309732.17649
  21618544.600   113606298.61209  21618541.420    88524433.36848
  23522751.680   123612907.85208  23522747.300    96321725.75347
  22579572.520   118656607.05108  22579568.640    92459686.09947
  21769992.740   114402221.72609  21769987.640    89144653.90848
  21602551.860   113522207.73209  21602551.140    88458877.63348
 15 03 02 00 54 30.0000000  0  6G16G18G19G21G22G27
  20584980.260   108174810.60309  20584976.940    84292049.78748
  21617236.860   113599426.47109  21617233.700    88519078.46148
  23508699.960   123539066.54808  23508695.920    96264187.14446
  22591993.680   118721881.18608  22591989.840    92510549.05847
  21756496.820   114331301.35409  21756491.940    89089391.33248
  21592628.360   113470059.00109  21592627.520    88418242.25448
 15 03 02 00 55  0.0000000  0  6G16G18G19G21G22G27
  20580760.540   108152635.65709  20580757.220    84274770.60449
  21616023.380   113593049.65409  21616020.280    88514109.51448
  23494660.320   123465288.30708  23494656.180    96206697.58347
  22604435.360   118787263.30308  22604431.620    92561496.13947
  21743067.740   114260731.92709  21743063.000    89034402.20948
  21582728.980   113418037.29309  21582728.080    88377705.86648
 15 03 02 00 55 30.0000000  0  6G16G18G19G21G22G27
  20576639.500   108130979.26709  20576636.160    84257895.49149
  21614904.240   113587168.43909  21614901.080    88509526.76848
  23480632.700   123391572.89508  23480628.240    96149257.01246
  22616897.540   118852752.07509  22616893.720    92612526.35147
  21729705.940   114190515.49609  21729701.240    88979688.14648
  21572853.800   113366143.06909  21572852.880    88337268.80448
 15 03 02 00 56  0.0000000  0  6G16G18G19G21G22G27
  20572617.380   108109842.83109  20572614.060    84241425.53349
  21613879.560   113581783.71409  21613876.440    88505330.88948
  23466617.180   123317920.92408  23466613.160    96091865.92947
  22629379.600   118918345.50108  22629375.660    92663638.10647
  21716411.860   114120654.47709  21716407.120    88925251.02648
  21563003.000   113314376.98309  21563002.080    88296931.60948
 15 03 02 00 56 30.0000000  0  6G16G18G19G21G22G27
  20568694.780   108089229.11609  20568691.440    84225362.88948
  21612949.600   113576896.94909  21612946.580    88501523.03848
  23452614.160   123244334.17608  23452609.880    96034525.61947
  22641881.800   118984044.73709  22641877.800    92714832.31047
  21703186.180   114051152.79409  21703181.340    88871093.90448
  21553177.020   113262741.39409  21553176.120    88256696.08748
 15 03 02 00 57  0.0000000  0  6G16G18G19G21G22G27
  20564871.300   108069136.42509  20564867.940    84209706.24348
  21612113.900   113572505.26109  21612110.940    88498100.94748
  23438623.060   123170809.56709  23438618.600    95977233.74046
  22654403.240   119049844.72309  22654399.120    92766105.02647
  21690028.700   113982009.81709  21690023.860    88817216.29848
  21543375.440   113211233.81409  21543374.540    88216560.31348
 15 03 02 00 57 30.0000000  0  6G16G18G19G21G22G27
  20561148.680   108049573.92809  20561145.300    84194462.73448
  21611374.000   113568617.10209  21611371.060    88495071.23448
  23424645.240   123097355.40408  23424640.640    95919996.75247
  22666945.020   119115751.73908  22666940.800    92817461.14847
  21676941.340   113913235.46209  21676936.520    88763625.92948
  21533599.840   113159862.89409  21533599.000    88176531.02848
 15 03 02 00 58  0.0000000  0  6G16G18G19G21G22G27
  20557526.120   108030537.33609  20557522.740    84179629.03048
  21610728.840   113565227.03709  21610725.880    88492429.64348
  23410679.700   123023966.14308  23410675.260    95862810.36047
  22679505.640   119181758.90408  22679501.480    92868895.30747
  21663923.500   113844826.51709  21663918.700    88710320.30248
  21523849.340   113108623.59209  21523848.540    88136604.31048
 15 03 02 00 58 30.0000000  0  6G16G18G19G21G22G27
  20554003.740   108012027.06709  20554000.340    84165205.43248
  21610178.340   113562334.56309  21610175.380    88490175.76348
  23396726.600   122950641.60508  23396721.800    95805674.33247
  22692084.880   119247863.97409  22692080.880    92920405.72347
  21650975.520   113776784.67209  21650970.700    88657300.71648
  21514123.920   113057516.06509  21514123.140    88096780.27748
 15 03 02 00 59  0.0000000  0  6G16G18G19G21G22G27
  20550581.780   107994044.78509  20550578.380    84151193.26048
  21609722.720   113559940.16109  21609719.620    88488310.02647
  23382785.960   122877382.87708  23382781.220    95748589.62947
  22704682.700   119314066.11709  22704678.840    92971991.81647
  21638097.880   113709112.40109  21638093.040    88604569.11948
  21504423.800   113006541.34909  21504423.000    88057059.71548
 15 03 02 00 59 30.0000000  0  6G16G18G19G21G22G27
  20547261.060   107976594.62809  20547257.700    84137595.73548
  21609362.540   113558047.18709  21609359.240    88486834.98747
  23368858.160   122804192.24608  23368853.640    95691558.03447
  22717299.300   119380366.79809  22717295.560    93023654.67847
  21625291.580   113641815.07209  21625286.780    88552129.69148
  21494749.640   112955703.09509  21494748.820    88017445.51448
 15 03 02 01 00  0.0000000  0  6G16G18G19G21G22G27
  20544041.780   107959677.35009  20544038.420    84124413.43248
  21609097.780   113556655.42009  21609094.360    88485750.50847
  23354943.380   122731069.97208  23354938.580    95634579.64847
  22729934.220   119446764.31808  22729930.620    93075393.00647
  21612556.880   113574893.89809  21612552.100    88499983.35848
  21485101.500   112905001.55909  21485100.620    87977937.82748
 15 03 02 01 00 30.0000000  0  6G16G18G19G21G22G27
  20540923.320   107943289.70309  20540919.960    84111643.83148
  21608927.520   113555760.24509  21608924.040    88485052.99848
  23341040.960   122658012.19108  23341036.400    95577651.53347
  22742586.560   119513252.86909  22742582.920    93127202.25447
  21599893.600   113508347.86009  21599888.840    88448129.34248
  21475478.720   112854433.24609  21475477.760    87938533.95148
 15 03 02 01 01  0.0000000  0  6G16G18G19G21G22G27
  20537906.460   107927436.06009  20537903.100    84099290.33949
  21608852.520   113555365.62609  21608848.880    88484745.49048
  23327151.440   122585022.09208  23327146.820    95520776.15047
  22755256.640   119579834.32608  22755252.980    93179083.92347
  21587302.680   113442182.21009  21587297.980    88396571.73948
  21465882.100   112804002.14709  21465881.020    87899237.00848
 15 03 02 01 01 30.0000000  0  6G16G18G19G21G22G27
  20534991.580   107912118.35909  20534988.260    84087354.46648
  21608872.840   113555472.13809  21608869.140    88484828.50547
  23313275.040   122512101.18608  23313270.400    95463954.71447
  22767944.040   119646507.89108  22767940.560    93231037.33647
  21574784.600   113376399.55209  21574779.940    88345312.57148
  21456311.860   112753709.81809  21456310.640    87860048.17648
 15 03 02 01 02  0.0000000  0  6G16G18G19G21G22G27
  20532179.040   107897338.32709  20532175.700    84075837.55648
  21608988.560   113556080.17509  21608984.860    88485302.30647
  23299411.800   122439249.99608  23299407.360    95407187.58147
  22780648.920   119713272.93008  22780645.560    93283062.01947
  21562339.900   113311002.54909  21562335.240    88294353.90448
  21446768.200   112703557.35209  21446766.880    87820968.33648
 15 03 02 01 02 30.0000000  0  6G16G18G19G21G22G27
  20529468.520   107883094.19109  20529465.120    84064738.22349
  21609199.160   113557187.33409  21609195.460    88486165.04047
  23285561.480   122366466.32108  23285556.980    95350473.04347
  22793370.480   119780125.36008  22793367.180    93335154.81847
  21549968.540   113245990.88109  21549963.820    88243695.49848
  21437250.740   112653542.89109  21437249.440    87781996.03348
 15 03 02 01 03  0.0000000  0  6G16G18G19G21G22G27
  20526860.740   107869389.85209  20526857.260    84054059.51149
  21609505.240   113558796.83909  21609501.740    88487419.20948
  23271724.600   122293753.18808  23271720.140    95293813.48447
  22806109.000   119847066.82408  22806105.680    93387316.97747
  21537671.500   113181369.70009  21537666.660    88193341.35548
  21427760.260   112603670.21109  21427759.000    87743134.20648
 15 03 02 01 03 30.0000000  0  6G16G18G19G21G22G27
  20524355.060   107856222.05509  20524351.540    84043798.88249
  21609905.980   113560903.52509  21609902.720    88489060.80148
  23257900.420   122221106.60608  23257895.840    95237205.76847
  22818863.420   119914091.28608  22818859.920    93439543.82247
  21525448.280   113117136.35509  21525443.340    88143289.42548
  21418296.000   112553935.46209  21418294.820    87704379.86748
 15 03 02 01 04  0.0000000  0  6G16G18G19G21G22G27
  20521952.000   107843593.63209  20521948.480    84033958.54848
  21610401.840   113563509.47309  21610398.660    88491091.41947
  23244089.400   122148528.75908  23244084.620    95180651.61846
  22831633.680   119981199.54708  22831630.200    93491835.97147
  21513299.720   113053295.26509  21513294.760    88093543.16048
  21408858.520   112504341.39609  21408857.420    87665735.14848
 15 03 02 01 04 30.0000000  0  6G16G18G19G21G22G27
  20519652.380   107831509.02409  20519648.880    84024541.97249
  21610993.480   113566618.33909  21610990.340    88493513.93047
  23230292.060   122076023.38509  23230287.400    95124153.98346
  22844420.320   120048393.52508  22844416.880    93544194.90847
  21501226.880   112989851.88209  21501221.920    88044106.78648
  21399448.640   112454892.22209  21399447.540    87627203.33648
 15 03 02 01 05  0.0000000  0  6G16G18G19G21G22G27
  20517455.560   107819964.95409  20517452.140    84015546.59149
  21611680.060   113570226.09909  21611676.900    88496325.18048
  23216507.760   122003586.54608  23216502.980    95067709.70046
  22857222.280   120115667.67808  22857218.680    93596616.30047
  21489229.300   112926803.87909  21489224.280    87994978.50348
  21390065.680   112405584.50209  21390064.580    87588781.74548
 15 03 02 01 05 30.0000000  0  6G16G18G19G21G22G27
  20515362.260   107808964.80309  20515358.860    84006975.03949
  21612461.960   113574334.66709  21612458.680    88499526.66647
  23202737.080   121931220.84008  23202732.060    95011320.85046
  22870039.660   120183022.86008  22870035.940    93649100.86646
  21477307.740   112864155.79809  21477302.680    87946161.84948
  21380710.240   112356421.39409  21380709.120    87550472.83348
 15 03 02 01 06  0.0000000  0  6G16G18G19G21G22G27
  20513372.920   107798510.64609  20513369.500    83998828.94149
  21613339.360   113578945.27309  21613336.000    88503119.36348
  23188980.120   121858927.80408  23188975.260    94954988.63847
  22882872.580   120250459.34008  22882868.620    93701648.77347
  21465462.920   112801911.05309  21465457.880    87897659.49048
  21371382.660   112307404.69609  21371381.580    87512278.01848
 15 03 02 01 06 30.0000000  0  6G16G18G19G21G22G27
  20511487.380   107788602.10009  20511483.980    83991107.99248
  21614312.000   113584056.40909  21614308.500    88507102.06147
  23175236.780   121786706.56609  23175231.620    94898712.37846
  22895720.380   120317974.26008  22895716.380    93754257.80347
  21453694.960   112740070.55009  21453690.060    87849472.10948
  21362082.860   112258534.04609  21362081.820    87474196.99448
 15 03 02 01 07  0.0000000  0  6G16G18G19G21G22G27
  20509706.180   107779241.81809  20509702.820    83983814.26449
  21615380.220   113589669.72809  21615376.580    88511476.09647
  23161507.500   121714559.38009  23161502.540    94842493.83446
  22908583.040   120385567.98608  22908579.260    93806928.21947
  21442004.680   112678637.96109  21441999.820    87801602.59048
  21352811.360   112209812.28109  21352810.420    87436231.99748
 15 03 02 01 07 30.0000000  0  6G16G18G19G21G22G27
  20508028.180   107770423.85309  20508024.880    83976943.10949
  21616542.660   113595778.09709  21616538.860    88516235.87748
  23147791.160   121642479.50908  23147786.040    94786327.67046
  22921459.200   120453232.64008  22921455.520    93859653.90346
  21430391.240   112617608.62509  21430386.320    87754047.28848
  21343566.980   112161233.08109  21343566.140    87398378.07648
 15 03 02 01 08  0.0000000  0  6G16G18G19G21G22G27
  20506454.980   107762156.40509  20506451.600    83970500.93449
  21617800.620   113602388.92109  21617796.900    88521387.17847
  23134089.220   121570474.83408  23134084.160    94730220.16046
  22934350.020   120520974.30608  22934346.160    93912439.61046
  21418856.240   112556991.35209  21418851.180    87706813.06748
  21334351.280   112112804.60209  21334350.500    87360641.60848
 15 03 02 01 08 30.0000000  0  6G16G18G19G21G22G27
  20504986.340   107754438.26909  20504982.860    83964486.79848
  21619153.780   113609499.97709  21619150.140    88526928.26548
  23120401.220   121498543.90108  23120396.400    94674170.13147
  22947254.820   120588789.60908  22947250.980    93965282.69346
  21407399.820   112496787.12009  21407394.700    87659900.70748
  21325164.060   112064525.89509  21325163.360    87323021.84248
 15 03 02 01 09  0.0000000  0  6G16G18G19G21G22G27
  20503622.100   107747268.84809  20503618.560    83958900.23849
  21620601.860   113617109.92309  21620598.300    88532858.10748
  23106727.100   121426685.51808  23106722.260    94618176.59347
  22960173.180   120656675.91808  22960169.300    94018181.11146
  21396021.980   112436996.18809  21396016.860    87613310.40248
  21316005.280   112016396.39209  21316004.580    87285518.34748
 15 03 02 01 09 30.0000000  0  6G16G18G19G21G22G27
  20502363.360   107740653.66209  20502359.700    83953745.54249
  21622145.600   113625222.38109  21622142.120    88539179.51048
  23093067.660   121354904.53709  23093062.700    94562243.39346
  22973105.660   120724636.23308  22973101.700    94071137.20147
  21384724.000   112377624.85009  21384718.860    87567047.05448
  21306875.880   111968421.21009  21306875.160    87248135.09549
 15 03 02 01 10  0.0000000  0  6G16G18G19G21G22G27
  20501209.320   107734589.08309  20501205.620    83949019.89648
  21623784.140   113633833.29609  21623780.760    88545889.33148
  23079422.140   121283197.01909  23079417.280    94506367.41747
  22986051.200   120792665.23909  22986047.180    94124146.81346
  21373505.400   112318670.75109  21373500.220    87521108.83248
  21297775.260   111920597.10009  21297774.500    87210869.55548
 15 03 02 01 10 30.0000000  0  6G16G18G19G21G22G27
  20500160.340   107729076.93209  20500156.640    83944724.71148
  21625517.700   113642943.47809  21625514.380    88552988.18147
  23065790.880   121211564.62208  23065785.800    94450549.98746
  22999009.720   120860762.69309  22999005.700    94177209.75946
  21362366.820   112260137.21009  21362361.560    87475498.30548
  21288703.760   111872926.05909  21288702.960    87173723.30248
 15 03 02 01 11  0.0000000  0  6G16G18G19G21G22G27
  20499216.600   107724117.92009  20499212.920    83940860.54048
  21627346.200   113652552.54709  21627342.980    88560475.77347
  23052174.020   121140007.75009  23052169.100    94394791.39846
  23011981.000   120928927.20308  23011977.080    94230324.96046
  21351308.620   112202026.46809  21351303.340    87430217.23448
  21279661.520   111825408.91209  21279660.700    87136696.95748
 15 03 02 01 11 30.0000000  0  6G16G18G19G21G22G27
  20498378.380   107719713.45209  20498374.740    83937428.47448
  21629269.940   113662661.63709  21629266.600    88568352.99547
  23038571.780   121068528.01609  23038567.020    94339092.91547
  23024965.100   120997159.06708  23024961.160    94283492.62446
  21340331.340   112144340.94009  21340326.060    87385267.50548
  21270648.920   111778047.70509  21270648.120    87099792.12348
 15 03 02 01 12  0.0000000  0  7G04G16G18G19G21G22G27
  24577718.840   129156797.63607  24577718.100   100641654.82844
  20497645.620   107715863.13209  20497642.080    83934428.22949
  21631288.280   113673268.00209  21631284.880    88576617.70848
  23024983.900   120997123.58709  23024979.160    94283453.13747
  23037961.240   121065454.62708  23037957.240    94336709.95846
  21329435.120   112087081.22209  21329429.880    87340649.57848
  21261665.780   111730841.31709  21261665.000    87063007.94048
 15 03 02 01 12 30.0000000  0  7G04G16G18G19G21G22G27
  24559465.500   129060876.54908  24559466.540   100566911.42545
  20497026.500   107712609.57109  20497023.000    83931892.97349
  21633409.380   113684414.14509  21633405.940    88585303.01748
  23011418.580   120925837.55709  23011413.860    94227905.59347
  23050977.340   121133855.39108  23050973.400    94390009.24146
  21318628.340   112030291.45409  21318623.180    87296397.83548
  21252720.340   111683833.16909  21252719.620    87026378.22748
 15 03 02 01 13  0.0000000  0  7G04G16G18G19G21G22G27
  24541231.180   128965057.11708  24541232.560   100492247.21744
  20496504.480   107709866.03509  20496501.000    83929755.14949
  21635616.360   113696011.81109  21635612.860    88594340.17448
  22997859.180   120854582.51909  22997854.420    94172382.21147
  23063996.720   121202272.65508  23063992.800    94443321.41046
  21307894.540   111973885.59609  21307889.500    87252445.24348
  21243796.160   111636936.46609  21243795.460    86989835.34848
 15 03 02 01 13 30.0000000  0  7G04G16G18G19G21G22G27
  24523026.060   128869390.09307  24523028.180   100417701.81445
  20496089.140   107707682.93309  20496085.600    83928054.02249
  21637918.660   113708110.64209  21637915.260    88603767.84248
  22984315.340   120783409.13009  22984310.540    94116922.42647
  23077028.460   121270755.06108  23077024.660    94496684.30947
  21297243.800   111917916.36009  21297238.860    87208832.88248
  21234902.900   111590202.11109  21234902.160    86953418.97148
 15 03 02 01 14  0.0000000  0  7G04G16G18G19G21G22G27
  24504850.140   128773874.36008  24504851.680   100343274.04645
  20495780.180   107706058.86709  20495776.540    83926788.51048
  21640315.860   113720708.17309  21640312.540    88613584.11747
  22970786.680   120712315.77109  22970782.080    94061525.05447
  23090071.940   121339299.58908  23090068.300    94550095.59346
  21286676.020   111862382.85509  21286671.120    87165560.04848
  21226040.360   111543629.01509  21226039.580    86917128.25948
 15 03 02 01 14 30.0000000  0  7G04G16G18G19G21G22G27
  24486702.900   128678510.45708  24486704.620   100268964.80144
  20495577.560   107704993.95809  20495573.920    83925958.70049
  21642807.840   113733803.85809  21642804.580    88623788.54547
  22957273.300   120641302.59009  22957268.500    94006190.12047
  23103126.980   121407904.70208  23103123.380    94603554.10646
  21276191.540   111807286.98009  21276186.660    87122628.21748
  21217208.660   111497217.87109  21217207.800    86880963.73848
 15 03 02 01 15  0.0000000  0  7G04G16G18G19G21G22G27
  24468584.160   128583296.74208  24468586.120   100194772.55445
  20495481.080   107704486.71309  20495477.400    83925563.43649
  21645394.080   113747394.88009  21645390.840    88634378.96448
  22943774.840   120570367.65108  22943770.100    93950916.16347
  23116193.020   121476566.60909  23116189.260    94657056.88746
  21265790.220   111752627.92609  21265785.400    87080036.77848
  21208407.480   111450967.06609  21208406.580    86844924.15848
 15 03 02 01 15 30.0000000  0  7G04G16G18G19G21G22G27
  24450494.580   128488236.31408  24450496.440   100120699.70645
  20495491.160   107704539.57109  20495487.400    83925604.61649
  21648074.780   113761482.62909  21648071.640    88645356.45148
  22930291.740   120499513.61609  22930287.200    93895705.25547
  23129270.060   121545286.32208  23129266.220    94710604.71746
  21255472.780   111698409.46109  21255467.960    87037788.64748
  21199637.420   111404879.72709  21199636.460    86809011.94648
 15 03 02 01 16  0.0000000  0  7G04G16G18G19G21G22G27
  24432434.080   128393327.86108  24432435.940   100046745.30845
  20495607.480   107705150.78909  20495603.700    83926080.88249
  21650849.500   113776064.69109  21650846.540    88656719.09448
  22916823.640   120428738.39909  22916819.100    93840555.75647
  23142357.380   121614060.26108  23142353.560    94764194.78546
  21245239.240   111644631.77709  21245234.420    86995883.98548
  21190898.200   111358954.55409  21190897.220    86773226.09448
 15 03 02 01 16 30.0000000  0  7G04G16G18G19G21G22G27
  24414403.020   128298574.65308  24414404.500    99972911.81545
  20495830.720   107706323.78209  20495826.960    83926994.89349
  21653718.600   113791142.76409  21653715.740    88668468.23648
  22903371.220   120358045.51308  22903366.620    93785470.40847
  23155455.420   121682890.21609  23155451.320    94817828.50446
  21235090.400   111591299.00209  21235085.520    86954326.01648
  21182190.480   111313195.20509  21182189.540    86737569.47148
 15 03 02 01 17  0.0000000  0  7G04G16G18G19G21G22G27
  24396401.520   128203976.09308  24396402.800    99899198.89344
  20496160.600   107708057.01809  20496156.860    83928345.45749
  21656681.880   113806715.25009  21656679.000    88680602.66947
  22889934.220   120287433.59409  22889929.700    93730448.15647
  23168563.400   121751773.01908  23168559.140    94871503.41146
  21225026.300   111538411.27709  21225021.380    86913114.83248
  21173514.140   111267601.00109  21173513.260    86702041.51648
 15 03 02 01 17 30.0000000  0  7G04G16G18G19G21G22G27
  24378429.800   128109534.45008  24378431.000    99825608.21545
  20496597.400   107710352.39209  20496593.700    83930134.05249
  21659739.460   113822782.96209  21659736.440    88693122.96748
  22876513.020   120216904.55608  22876508.400    93675490.46347
  23181681.400   121820709.10808  23181677.160    94925219.83446
  21215047.460   111485972.04809  21215042.560    86872253.12448
  21164869.660   111222174.24709  21164868.880    86666644.05949
 15 03 02 01 18  0.0000000  0  7G04G16G18G19G21G22G27
  24360487.700   128015249.15308  24360488.960    99752139.38845
  20497141.000   107713209.29709  20497137.380    83932360.19749
  21662890.880   113839343.89409  21662887.720    88706027.59148
  22863107.440   120146457.78709  22863102.720    93620596.90747
  23194809.260   121889696.66909  23194805.180    94978976.33946
  21205154.040   111433981.75409  21205149.120    86831741.22348
  21156257.000   111176914.85409  21156256.340    86631377.00049
 15 03 02 01 18 30.0000000  0  7G04G16G18G19G21G22G27
  24342575.620   127921122.03708  24342576.900    99678793.82345
  20497791.740   107716629.26309  20497788.180    83935025.09449
  21666136.340   113856398.09509  21666133.000    88719316.59348
  22849717.740   120076094.65108  22849712.920    93565768.47547
  23207946.940   121958735.27108  23207942.920    95032772.64946
  21195346.480   111382442.72809  21195341.600    86791580.97448
  21147676.520   111131824.41409  21147675.920    86596241.59849
 15 03 02 01 19  0.0000000  0  7G04G16G18G19G21G22G27
  24324693.360   127827151.65607  24324694.840    99605570.39345
  20498549.260   107720610.15509  20498545.700    83938127.08348
  21669475.240   113873943.11809  21669471.680    88732988.05647
  22836343.700   120005813.61508  22836338.760    93511004.05847
  23221093.740   122027821.24108  23221089.620    95086605.87546
  21185624.760   111331354.77409  21185619.920    86751772.20048
  21139128.020   111086901.85609  21139127.440    86561237.02049
 15 03 02 01 19 30.0000000  0  7G04G16G18G19G21G22G27
  24306841.780   127733341.43007  24306843.220    99532471.67345
  20499414.140   107725155.13309  20499410.580    83941668.62049
  21672907.940   113891981.21709  21672904.220    88747043.72847
  22822985.780   119935617.66109  22822980.780    93456305.97347
  23234249.800   122096956.17008  23234245.540    95140477.25446
  21175989.660   111280722.15009  21175984.760    86712318.24048
  21130612.180   111042150.74909  21130611.560    86526366.04249
 15 03 02 01 20  0.0000000  0  7G04G16G18G19G21G22G27
  24289020.880   127639692.17608  24289021.820    99459498.40745
  20500386.420   107730264.37509  20500382.860    83945649.83049
  21676434.260   113910511.67009  21676430.500    88761483.03448
  22809644.200   119865507.34008  22809639.280    93401674.52147
  23247414.860   122166138.93508  23247410.460    95194385.88246
  21166441.500   111230546.54009  21166436.480    86673220.38148
  21122129.140   110997572.17809  21122128.500    86491629.49749
 15 03 02 01 20 30.0000000  0  7G04G16G18G19G21G22G27
  24271230.840   127546205.79408  24271231.940    99386652.14844
  20501466.320   107735939.29309  20501462.780    83950071.83849
  21680054.180   113929534.54909  21680050.500    88776306.07747
  22796319.200   119795484.27108  22796314.500    93347111.14447
  23260588.940   122235369.78608  23260584.580    95248331.96546
  21156980.740   111180830.46309  21156975.680    86634480.60348
  21113679.340   110953168.16609  21113678.660    86457028.97749
 15 03 02 01 21  0.0000000  0  7G04G16G18G19G21G22G27
  24253471.760   127452882.08408  24253472.840    99313932.55045
  20502653.740   107742179.04609  20502650.140    83954933.97949
  21683767.460   113949048.36409  21683763.900    88791511.66147
  22783010.640   119725547.60508  22783006.000    93292615.03447
  23273771.680   122304646.42008  23273767.400    95302313.74946
  21147607.660   111131574.76009  21147602.540    86596099.55748
  21105262.720   110908938.68209  21105262.020    86422564.43649
 15 03 02 01 21 30.0000000  0  7G04G16G18G19G21G22G27
  24235743.220   127359719.09708  24235744.200    99241338.20345
  20503948.200   107748981.15409  20503944.520    83960234.31248
  21687573.560   113969050.10109  21687570.160    88807097.43247
  22769718.200   119655695.73208  22769713.620    93238185.04447
  23286962.520   122373965.23808  23286958.340    95356328.42946
  21138322.060   111082778.57909  21138316.980    86558076.57548
  21096879.040   110864882.26209  21096878.360    86388234.75548
 15 03 02 01 22  0.0000000  0  7G04G16G18G19G21G22G27
  24218045.960   127266720.35808  24218047.040    99168871.87245
  20505350.320   107756349.00209  20505346.540    83965975.48549
  21691472.840   113989541.41809  21691469.580    88823064.69647
  22756442.580   119585932.06409  22756438.000    93183823.76347
  23300161.740   122443327.28908  23300157.660    95410376.77446
  21129124.740   111034446.23709  21129119.680    86520415.04248
  21088529.040   110821002.49809  21088528.300    86354042.73348
 15 03 02 01 22 30.0000000  0  7G04G16G18G19G21G22G27
  24200380.020   127173886.48608  24200380.980    99096533.99945
  20506860.080   107764282.60609  20506856.260    83972157.50949
  21695465.160   114010521.37409  21695461.980    88839412.73347
  22743183.680   119516256.34009  22743179.200    93129530.99747
  23313369.100   122512731.83308  23313365.040    95464458.22746
  21120015.940   110986579.10109  21120010.920    86483116.00048
  21080212.840   110777300.19109  21080212.040    86319988.99849
 15 03 02 01 23  0.0000000  0  7G04G16G18G19G21G22G27
  24182745.460   127081217.48008  24182746.340    99024324.58045
  20508477.340   107772781.34309  20508473.520    83978779.88448
  21699550.120   114031987.90509  21699546.980    88856139.89647
  22729941.640   119446668.81608  22729937.100    93075306.93647
  23326584.140   122582177.42308  23326580.360    95518571.65846
  21110995.800   110939177.99809  21110990.820    86446180.09248
  21071930.500   110733775.63309  21071929.600    86286073.75649
 15 03 02 01 23 30.0000000  0  7G04G16G18G19G21G22G27
  24165142.460   126988713.62408  24165143.180    98952243.83445
  20510202.040   107781844.79509  20510198.260    83985842.31149
  21703727.700   114053940.99209  21703724.560    88873246.21148
  22716716.360   119377169.38209  22716711.820    93021151.59547
  23339806.560   122651662.14308  23339802.920    95572715.58346
  21102064.520   110892243.87109  21102059.560    86409608.07548
  21063682.120   110690429.41809  21063681.140    86252297.50149
 15 03 02 01 24  0.0000000  0  7G04G16G18G19G21G22G27
  24147571.320   126896377.15708  24147571.980    98880293.53245
  20512034.440   107791474.14809  20512030.680    83993345.69548
  21707997.920   114076380.74509  21707994.680    88890731.73947
  22703508.360   119307760.29609  22703503.660    92967066.57047
  23353036.520   122721186.32508  23353032.820    95626890.28046
  21093222.680   110845779.68509  21093217.680    86373402.22748
  21055468.120   110647264.00409  21055467.100    86218662.12049
 15 03 02 01 24 30.0000000  0  7G04G16G18G19G21G22G27
  24130031.940   126804207.92808  24130032.680    98808473.54145
  20513974.540   107801669.62609  20513970.840    84001290.21648
  21712360.460   114099305.72709  21712357.100    88908595.35947
  22690317.480   119238441.13909  22690312.600    92913051.67547
  23366273.740   122790748.38108  23366269.900    95681094.46546
  21084470.420   110799786.17009  21084465.360    86337563.15448
  21047288.600   110604279.77709  21047287.500    86185167.92949
 15 03 02 01 25  0.0000000  0  7G04G16G18G19G21G22G27
  24112524.580   126712206.85908  24112524.940    98736784.54545
  20516022.300   107812430.77209  20516018.640    84009675.51649
  21716815.120   114122715.05209  21716811.660    88926836.40247
  22677143.820   119169212.57609  22677138.860    92859107.33647
  23379517.880   122860347.21608  23379514.200    95735327.33646
  21075808.040   110754264.97909  21075802.900    86302092.11748
  21039143.720   110561477.73109  21039142.560    86151815.68849
 15 03 02 01 25 30.0000000  0  7G04G16G18G19G21G22G27
  24095049.880   126620376.94008  24095050.240    98665228.96745
  20518178.200   107823760.18509  20518174.580    84018503.61549
  21721362.200   114146610.04509  21721358.560    88945455.89847
  22663987.980   119100077.70709  22663982.980    92805236.00247
  23392769.080   122929983.63308  23392765.520    95789589.44846
  21067236.320   110709220.41809  21067231.140    86266992.48048
  21031034.100   110518861.20909  21031032.900    86118608.01049
 15 03 02 01 26  0.0000000  0  7G04G16G18G19G21G22G27
  24077607.020   126528714.50208  24077607.420    98593803.82546
  20520441.320   107835653.20809  20520437.820    84027770.89649
  21726000.760   114170985.47009  21725996.900    88964449.73147
  22650849.120   119031032.47209  22650844.200    92751434.55047
  23406026.600   122999652.96208  23406023.180    95843877.20446
  21058754.600   110664648.94909  21058749.400    86232261.49048
  21022959.100   110476426.89209  21022957.940    86085542.30949
 15 03 02 01 26 30.0000000  0  7G04G16G18G19G21G22G27
  24060196.780   126437223.41708  24060196.960    98522512.20645
  20522812.460   107848113.65909  20522809.000    84037480.32849
  21730731.120   114195843.61109  21730727.200    88983819.71347
  22637728.040   118962080.85408  22637723.140    92697706.02048
  23419290.880   123069356.99508  23419287.400    95898192.02746
  21050363.840   110620555.45509  21050358.680    86197902.94148
  21014919.560   110434179.11109  21014918.460    86052621.96249
 15 03 02 01 27  0.0000000  0  7G04G16G18G19G21G22G27
  24042819.340   126345905.10808  24042819.720    98451355.26445
  20525291.700   107861141.89509  20525288.200    84047632.19449
  21735553.320   114221184.54509  21735549.360    89003565.90447
  22624624.900   118893224.04309  22624620.080    92644051.40947
  23432561.760   123139095.39408  23432558.280    95952533.64946
  21042064.460   110576942.11809  21042059.320    86163918.55448
  21006915.820   110392119.50209  21006914.820    86019848.25549
 15 03 02 01 27 30.0000000  0  7G04G16G18G19G21G22G27
  24025474.600   126254758.39908  24025475.060    98380332.03945
  20527878.660   107874736.09109  20527875.060    84058225.06049
  21740466.840   114247005.58509  21740463.040    89023686.19147
  22611539.660   118824461.04008  22611534.780    92590469.81947
  23445838.700   123208865.61708  23445835.080    96006900.03046
  21033856.400   110533808.51109  21033851.220    86130307.96948
  20998947.760   110350247.38409  20998946.860    85987220.61449
 15 03 02 01 28  0.0000000  0  7G04G16G18G19G21G22G27
  24008162.780   126163784.31808  24008163.320    98309443.29845
  20530573.180   107888895.51709  20530569.520    84069258.37848
  21745471.340   114273305.30309  21745467.800    89044179.48047
  22598472.360   118755792.31409  22598467.580    92536961.77647
  23459121.520   123278666.72108  23459117.820    96061290.49446
  21025739.860   110491155.91609  21025734.640    86097072.20348
  20991015.600   110308563.89409  20991014.760    85954739.98549
 15 03 02 01 28 30.0000000  0  7G04G16G18G19G21G22G27
  23990883.880   126072983.45108  23990884.140    98238689.52145
  20533375.520   107903621.66809  20533371.820    84080733.28548
  21750567.000   114300083.51609  21750563.540    89065045.62447
  22585423.280   118687218.93808  22585418.360    92483527.99347
  23472409.940   123348497.49208  23472406.280    96115704.07046
  21017715.160   110448986.07209  21017709.940    86064212.60148
  20983119.620   110267070.42309  20983118.800    85922407.41249
 15 03 02 01 29  0.0000000  0  7G04G16G18G19G21G22G27
  23973638.740   125982360.27508  23973638.640    98168074.20545
  20536286.240   107918917.53409  20536282.540    84092652.13048
  21755754.240   114327342.89609  21755750.900    89086286.70747
  22572393.080   118618744.78609  22572388.200    92430171.50547
  23485704.600   123418361.09208  23485700.940    96170143.22946
  21009783.240   110407303.86409  21009778.080    86031732.97548
  20975260.680   110225771.50609  20975259.820    85890226.43448
 15 03 02 01 29 30.0000000  0  7G04G16G18G19G21G22G27
  23956425.920   125891907.11808  23956426.000    98097591.37945
  20539303.780   107934774.92709  20539300.140    84105008.53549
  21761031.240   114355073.82909  21761027.960    89107895.23247
  22559380.380   118550362.54608  22559375.540    92376886.66948
  23499003.740   123488248.06608  23498999.960    96224600.59545
  21001942.780   110366102.19709  21001937.700    85999627.81248
  20967437.460   110184660.22409  20967436.560    85858191.67249
 15 03 02 01 30  0.0000000  0  7G04G16G18G19G21G22G27
  23939247.540   125801635.49808  23939247.660    98027249.99245
  20542430.060   107951204.16709  20542426.560    84117810.53549
  21766399.840   114383286.12809  21766396.620    89129878.86047
  22546387.360   118482083.61009  22546382.480    92323682.31447
  23512309.160   123558168.54708  23512305.280    96279084.11746
  20994196.180   110325393.55509  20994191.160    85967906.80748
  20959652.200   110143748.28009  20959651.260    85826312.24649
 15 03 02 01 30 30.0000000  0  7G04G16G18G19G21G22G27
  23922102.060   125711536.28308  23922101.980    97957042.93545
  20545663.200   107968195.05509  20545659.860    84131050.17349
  21771857.980   114411968.91009  21771854.740    89152229.08047
  22533412.160   118413898.50609  22533407.320    92270551.07048
  23525618.840   123628111.22708  23525614.980    96333584.88246
  20986541.820   110285169.34309  20986536.720    85936563.28048
  20951903.200   110103026.80809  20951902.180    85794581.22749
 15 03 02 01 31  0.0000000  0  7G04G16G18G19G21G22G27
  23904990.600   125621615.07208  23904990.620    97886974.57545
  20549004.260   107985752.70709  20549000.980    84144731.45449
  21777406.500   114441126.43809  21777403.180    89174949.24048
  22520455.920   118345813.17308  22520451.020    92217497.59648
  23538933.620   123698080.51908  23538929.800    96388106.41246
  20978980.780   110245435.37909  20978975.540    85905601.77448
  20944191.600   110062502.08209  20944190.540    85763003.51849
 15 03 02 01 31 30.0000000  0  7G04G16G18G19G21G22G27
  23887913.320   125531873.89908  23887913.360    97817046.53845
  20552453.480   108003878.22809  20552450.160    84158855.22748
  21783045.420   114470759.01509  21783042.160    89198039.56247
  22507519.040   118277829.80709  22507514.160    92164523.53648
  23552253.360   123768076.56908  23552249.700    96442648.74646
  20971513.620   110206195.04909  20971508.340    85875024.91248
  20936517.900   110022176.58209  20936516.820    85731581.04849
 15 03 02 01 32  0.0000000  0  7G04G16G18G19G21G22G27
  23870870.600   125442314.39508  23870870.800    97747260.03845
  20556010.920   108022572.11609  20556007.460    84173421.88249
  21788774.720   114500866.41409  21788771.280    89221499.88147
  22494601.880   118209949.92509  22494597.140    92111630.16547
  23565577.960   123838098.85808  23565574.560    96497211.54646
  20964140.620   110167450.10909  20964135.420    85844834.06748
  20928882.480   109982052.41009  20928881.420    85700315.46049
 15 03 02 01 32 30.0000000  0  7G04G16G18G19G21G22G27
  23853861.460   125352931.71708  23853861.680    97677611.32545
  20559675.480   108041829.04309  20559671.880    84188427.27648
  21794593.120   114531442.24709  21794589.620    89245325.19747
  22481703.480   118142168.57009  22481698.760    92058813.54348
  23578906.740   123908142.31408  23578903.320    96551790.86046
  20956861.140   110129196.32209  20956855.980    85815025.93948
  20921284.520   109942125.18909  20921283.520    85669203.33649
 15 03 02 01 33  0.0000000  0  7G04G16G18G19G21G22G27
  23836886.260   125263726.99608  23836886.120    97608101.24945
  20563447.160   108061649.04509  20563443.520    84203871.42648
  21800500.600   114562485.55409  21800496.920    89269514.80247
  22468824.100   118074487.08908  22468819.320    92006074.70148
  23592239.460   123978205.82808  23592236.020    96606385.79046
  20949675.520   110091435.40309  20949670.280    85785601.86448
  20913724.340   109902396.48509  20913723.400    85638245.90049
 15 03 02 01 33 30.0000000  0  7G04G16G18G19G21G22G27
  23819945.560   125174703.19508  23819945.640    97538732.17245
  20567326.360   108082034.47909  20567322.800    84219756.16549
  21806497.160   114593997.55009  21806493.400    89294069.61048
  22455964.340   118006908.57309  22455959.700    91953416.15848
  23605576.420   124048290.99608  23605572.760    96660997.60546
  20942584.400   110054171.08009  20942579.060    85756564.74748
  20906202.640   109862869.96109  20906201.780    85607446.01149
 15 03 02 01 34  0.0000000  0  7G04G16G18G19G21G22G27
  23803039.480   125085860.89608  23803039.460    97469504.50945
  20571312.920   108102984.28709  20571309.420    84236080.67449
  21812582.740   114625977.03509  21812578.940    89318988.68947
  22443124.200   117939433.19009  22443119.560    91900837.98048
  23618917.340   124118396.65608  23618913.400    96715625.38646
  20935587.860   110017404.14009  20935582.540    85727915.19448
  20898719.600   109823546.34109  20898718.760    85576804.23349
 15 03 02 01 34 30.0000000  0  7G04G16G18G19G21G22G27
  23786168.060   124997201.08008  23786167.820    97400419.03245
  20575406.840   108124498.45009  20575403.360    84252844.93448
  21818757.120   114658423.65709  21818753.420    89344271.77147
  22430304.000   117872062.57608  22430299.340    91848341.39248
  23632262.080   124188522.77908  23632257.940    96770269.10646
  20928686.320   109981136.37609  20928681.060    85699654.61348
  20891275.600   109784427.58609  20891274.740    85546322.08549
 15 03 02 01 35  0.0000000  0  7G04G16G18G19G21G22G27
  23769331.840   124908726.41208  23769331.320    97331477.81445
  20579608.660   108146579.52009  20579605.220    84270050.95148
  21825020.360   114691337.92309  21825016.860    89369919.24347
  22417504.220   117804799.20209  22417499.560    91795928.36948
  23645610.760   124258669.84108  23645606.280    96824929.16646
  20921880.300   109945370.67809  20921875.060    85671785.25548
  20883871.160   109745516.51309  20883870.220    85516001.76249
 15 03 02 01 35 30.0000000  0  7G04G16G18G19G21G22G27
  23752530.640   124820436.23008  23752530.140    97262680.38345
  20583917.980   108169225.41309  20583914.560    84287697.09248
  21831372.080   114724717.06709  21831368.740    89395928.98447
  22404724.740   117737642.68709  22404719.980    91743598.63548
  23658962.900   124328835.76508  23658958.360    96879603.91546
  20915169.840   109910107.09109  20915164.580    85644307.15748
  20876506.240   109706813.09309  20876505.200    85485843.25549
 15 03 02 01 36  0.0000000  0  7G04G16G18G19G21G22G27
  23735764.620   124732331.10108  23735764.060    97194027.16745
  20588334.760   108192435.59309  20588331.300    84305782.93149
  21837812.240   114758560.62309  21837808.940    89422300.58648
  22391965.680   117670593.57609  22391960.920    91691352.58548
  23672318.380   124399020.08508  23672314.060    96934292.97546
  20908555.080   109875346.42909  20908549.780    85617220.95048
  20869181.060   109668318.62909  20869179.940    85455847.56649
 15 03 02 01 36 30.0000000  0  7G04G16G18G19G21G22G27
  23719033.540   124644409.38208  23719033.140    97125516.86346
  20592858.360   108216206.94809  20592854.800    84324306.05349
  21844340.100   114792864.83209  21844336.800    89449031.13748
  22379226.800   117603650.53609  22379222.060    91639189.17548
  23685676.660   124469219.21408  23685672.580    96988993.57646
  20902035.840   109841087.73909  20902030.500    85590525.87948
  20861895.340   109630031.89609  20861894.220    85426013.76349
 15 03 02 01 37  0.0000000  0  7G04G16G18G19G21G22G27
  23702337.840   124556673.09908  23702337.420    97057151.00846
  20597488.980   108240540.69509  20597485.340    84343267.41048
  21850955.640   114827629.74009  21850952.260    89476120.69247
  22366508.500   117536815.54209  22366503.840    91587109.99647
  23699037.940   124539433.84708  23699034.180    97043706.25745
  20895612.680   109807333.67409  20895607.280    85564224.03148
  20854649.600   109591955.48809  20854648.540    85396343.84748
 15 03 02 01 37 30.0000000  0  7G04G16G18G19G21G22G27
  23685677.980   124469125.33808  23685677.460    96988932.05345
  20602227.120   108265439.55509  20602223.440    84362669.10649
  21857659.100   114862856.88609  21857655.760    89503570.40847
  22353811.440   117470092.27009  22353806.840    91535117.83248
  23712402.640   124609666.15308  23712398.880    97098432.71546
  20889286.220   109774087.67909  20889280.740    85538318.07148
  20847444.600   109554093.23609  20847443.620    85366840.80349
 15 03 02 01 38  0.0000000  0  7G04G16G18G19G21G22G27
  23669053.020   124381760.72508  23669052.620    96920855.82445
  20607071.400   108290896.38909  20607067.760    84382505.58848
  21864449.160   114898538.74809  21864445.800    89531374.46647
  22341134.580   117403475.03709  22341130.000    91483208.32648
  23725769.400   124679908.66508  23725765.500    97153167.14646
  20883055.420   109741344.42309  20883049.900    85512803.86548
  20840279.420   109516440.12409  20840278.460    85337500.71049
 15 03 02 01 38 30.0000000  0  7G04G16G18G19G21G22G27
  23652464.060   124294585.43308  23652463.620    96852927.11745
  20612022.800   108316916.41109  20612019.300    84402780.91348
  21871326.600   114934679.68409  21871323.220    89559536.22647
  22328479.160   117336970.54209  22328474.520    91431386.65648
  23739139.100   124750166.63708  23739135.140    97207913.62146
  20876921.600   109709110.85209  20876916.060    85487686.81448
  20833155.380   109479003.15109  20833154.440    85308329.03949
 15 03 02 01 39  0.0000000  0  7G04G16G18G19G21G22G27
  23635910.700   124207597.19708  23635910.260    96785144.17245
  20617080.680   108343496.07509  20617077.300    84423492.32448
  21878290.680   114971275.34909  21878287.200    89588052.34947
  22315844.820   117270576.44809  22315840.080    91379651.00348
  23752510.920   124820436.25408  23752507.100    97262669.14246
  20870884.340   109677384.87609  20870878.840    85462965.28449
  20826072.060   109441780.38509  20826071.180    85279324.29049
 15 03 02 01 39 30.0000000  0  7G04G16G18G19G21G22G27
  23619393.480   124120799.00908  23619393.020    96717509.32045
  20622245.360   108370637.09609  20622242.040    84444641.15748
  21885341.560   115008327.37509  21885337.960    89616924.05347
  22303232.260   117204296.36509  22303227.360    91328004.17648
  23765885.200   124890719.22608  23765881.580    97317435.06646
  20864944.320   109646169.90209  20864938.900    85438641.94348
  20819030.260   109404775.86009  20819029.420    85250489.60349
 15 03 02 01 40  0.0000000  0  7G04G16G18G19G21G22G27
  23602912.620   124034191.65408  23602912.000    96650023.14645
  20627517.020   108398339.70109  20627513.620    84466227.59448
  21892478.900   115045834.64909  21892475.280    89646150.49747
  22290641.520   117138130.93609  22290636.540    91276446.74448
  23779261.800   124961014.78708  23779258.600    97372210.82846
  20859101.720   109615467.32909  20859096.420    85414717.87448
  20812030.200   109367990.78509  20812029.420    85221825.90849
 15 03 02 01 40 30.0000000  0  7G04G16G18G19G21G22G27
  23586468.040   123947775.20508  23586467.360    96582685.73945
  20632895.280   108426602.16209  20632891.720    84488250.28348
  21899702.500   115083795.18609  21899698.900    89675730.15447
  22278072.540   117072080.17909  22278067.440    91224978.61648
  23792640.700   125031321.78108  23792637.560    97426995.48046
  20853356.600   109585277.24509  20853351.420    85391193.15948
  20805072.000   109331425.68609  20805071.320    85193333.61949
 15 03 02 01 41  0.0000000  0  7G04G16G18G19G21G22G27
  23570058.680   123861543.75208  23570057.880    96515492.45845
  20638378.820   108455417.73709  20638375.060    84510703.96548
  21907010.740   115122200.99809  21907007.260    89705656.74947
  22265524.380   117006138.97209  22265519.200    91173595.87648
  23806020.480   125101632.73608  23806017.380    97481783.25646
  20847708.040   109555594.48709  20847702.920    85368063.74448
  20798154.740   109295075.58109  20798154.120    85165008.86249
 15 03 02 01 41 30.0000000  0  7G04G16G18G19G21G22G27
  23553686.200   123775505.97808  23553685.520    96448450.11745
  20643968.940   108484793.61909  20643965.080    84533594.24948
  21914405.040   115161058.79509  21914401.720    89735935.56447
  22252998.780   116940316.33709  22252993.540    91122305.50548
  23819402.580   125171954.97508  23819399.380    97536579.77946
  20842157.800   109526427.74509  20842152.600    85345336.43348
  20791280.200   109258949.67409  20791279.580    85136858.80349
 15 03 02 01 42  0.0000000  0  7G04G16G18G19G21G22G27
  23537350.460   123689661.41108  23537349.680    96381558.34245
  20649665.320   108514728.26909  20649661.460    84556919.94248
  21921884.980   115200366.13709  21921881.660    89766564.67247
  22240495.620   116874611.81209  22240490.420    91071107.18748
  23832786.420   125242287.13208  23832783.080    97591384.03346
  20836705.800   109497776.97609  20836700.500    85323011.17548
  20784448.400   109223048.25409  20784447.760    85108883.67349
 15 03 02 01 42 30.0000000  0  7G04G16G18G19G21G22G27
  23521051.200   123604008.61508  23521050.280    96314815.96045
  20655467.520   108545219.09309  20655463.760    84580679.00748
  21929449.920   115240120.14709  21929446.660    89797541.82547
  22228014.760   116809024.52609  22228009.580    91020000.21948
  23846171.580   125312626.13608  23846168.280    97646193.63846
  20831351.780   109469641.36109  20831346.400    85301087.32348
  20777659.200   109187370.66709  20777658.520    85081082.95049
 15 03 02 01 43  0.0000000  0  7G04G16G18G19G21G22G27
  23504788.640   123518548.63008  23504787.760    96248223.86045
  20661375.480   108576265.56709  20661371.840    84604871.05348
  21937099.680   115280319.74709  21937096.340    89828866.19047
  22215556.380   116743555.44909  22215551.200    90968985.37348
  23859557.980   125382971.67008  23859554.620    97701008.28945
  20826095.860   109442021.35409  20826090.420    85279565.25648
  20770912.880   109151918.38009  20770912.160    85053457.79049
 15 03 02 01 43 30.0000000  0  7G04G16G18G19G21G22G27
  23488563.060   123433283.01208  23488562.160    96181783.19345
  20667389.240   108607868.15009  20667385.760    84629496.42749
  21944834.160   115320964.46709  21944830.620    89860537.40747
  22203120.880   116678206.64209  22203115.780    90918064.25848
  23872945.800   125453324.46908  23872942.300    97755828.66646
  20820938.460   109414919.12109  20820933.020    85258446.64948
  20764209.920   109116693.80109  20764209.180    85026010.06249
 15 03 02 01 44  0.0000000  0  7G04G16G18G19G21G22G27
  23472374.380   123348211.39008  23472373.400    96115493.69045
  20673508.400   108640024.86809  20673505.040    84654553.59848
  21952652.840   115362051.90709  21952649.280    89892553.60047
  22190708.300   116612978.10509  22190703.200    90867236.81348
  23886334.580   125523682.58408  23886331.040    97810653.12645
  20815879.620   109388334.92109  20815874.240    85237731.70148
  20757550.380   109081697.24109  20757549.600    84998740.01549
 15 03 02 01 44 30.0000000  0  7G04G16G18G19G21G22G27
  23456222.740   123263334.12208  23456221.860    96049355.60145
  20679732.900   108672735.23509  20679729.600    84680042.18248
  21960555.520   115403580.68409  21960551.900    89924913.68647
  22178318.720   116547870.60109  22178313.660    90816503.70048
  23899724.220   125594045.30108  23899720.740    97865481.18945
  20810919.440   109362269.22309  20810914.140    85217420.78148
  20750934.460   109046929.94409  20750933.620    84971648.60849
 15 03 02 01 45  0.0000000  0  7G04G16G18G19G21G22G27
  23440108.280   123178652.55008  23440107.600    95983370.05245
  20686062.740   108705998.94309  20686059.420    84705961.94348
  21968542.000   115445550.08809  21968538.420    89957617.12647
  22165952.440   116482885.74709  22165947.460    90765866.17848
  23913114.660   125664412.56208  23913111.240    97920312.83346
  20806058.240   109336723.47909  20806052.980    85197515.01948
  20744362.520   109012393.84609  20744361.640    84944737.36849
 15 03 02 01 45 30.0000000  0  7G04G16G18G19G21G22G27
  23424031.200   123094167.55408  23424030.620    95917537.64546
  20692497.840   108739815.76809  20692494.540    84732312.69848
  21976612.060   115487958.84409  21976608.560    89990662.90647
  22153609.740   116418024.90709  22153604.800    90715325.25948
  23926506.000   125734784.22408  23926502.620    97975147.86146
  20801296.180   109311698.72109  20801290.920    85178015.21248
  20737834.920   108978090.70609  20737834.000    84918007.64149
 15 03 02 01 46  0.0000000  0  7G04G16G18G19G21G22G27
  23407991.900   123009881.13908  23407991.440    95851859.99745
  20699038.240   108774185.64209  20699034.900    84759094.40248
  21984765.740   115530806.89009  21984762.260    90024050.98547
  22141291.040   116353290.24809  22141286.160    90664882.68948
  23939898.220   125805160.94708  23939894.560    98029986.84145
  20796633.700   109287197.15509  20796628.420    85158923.09748
  20731352.100   108944023.04209  20731351.140    84891461.41349
 15 03 02 01 46 30.0000000  0  7G04G16G18G19G21G22G27
  23391989.420   122925787.57108  23391988.920    95786332.61145
  20705682.680   108809102.00809  20705679.220    84786301.94348
  21993001.640   115574087.02109  21992998.140    90057775.78747
  22128995.360   116288676.57309  22128990.580    90614534.37348
  23953290.100   125875535.73508  23953286.420    98084824.31645
  20792069.660   109263213.20709  20792064.440    85140234.32148
  20724913.120   108910185.97609  20724912.160    84865094.86449
 15 03 02 01 47  0.0000000  0  7G04G16G18G19G21G22G27
  23376024.360   122841890.19908  23376023.740    95720958.09546
  20712431.560   108844567.07109  20712428.040    84813937.05148
  22001319.980   115617800.31909  22001316.540    90091838.08147
  22116723.480   116224187.48009  22116718.740    90564283.12948
  23966682.020   125945910.83608  23966678.120    98139662.06846
  20787604.780   109239750.31809  20787599.640    85121951.56648
  20718518.760   108876583.60309  20718517.800    84838911.19249
 15 03 02 01 47 30.0000000  0  7G04G16G18G19G21G22G27
  23360097.000   122758190.94508  23360096.080    95655737.96245
  20719284.860   108880580.96909  20719281.300    84841999.82048
  22009720.840   115661946.80509  22009717.260    90126237.94047
  22104475.840   116159825.57909  22104471.120    90514131.01548
  23980074.160   126016287.20708  23980070.300    98194500.78446
  20783239.520   109216810.98209  20783234.420    85104076.77948
  20712169.580   108843218.79909  20712168.680    84812912.64249
 15 03 02 01 48  0.0000000  0  7G04G16G18G19G21G22G27
  23344208.240   122674694.85808  23344207.320    95590676.13445
  20726243.240   108917147.19509  20726239.640    84870492.97148
  22018204.780   115706529.14909  22018201.100    90160977.44147
  22092253.400   116095596.28109  22092248.720    90464082.21948
  23993467.180   126086668.35408  23993463.180    98249343.19745
  20778974.740   109194399.85009  20778969.700    85086613.56848
  20705866.720   108810097.26409  20705865.840    84787103.65449
 15 03 02 01 48 30.0000000  0  7G04G16G18G19G21G22G27
  23328356.600   122591394.51908  23328355.640    95525766.84845
  20733305.020   108954257.22809  20733301.460    84899409.87048
  22026769.740   115751538.13609  22026766.060    90196049.39247
  22080054.900   116031492.90109  22080050.260    90414131.54048
  24006859.560   126157045.82308  24006855.520    98304182.81046
  20774809.220   109172509.96609  20774804.160    85069556.53448
  20699608.920   108777212.39309  20699608.040    84761479.08749
 15 03 02 01 49  0.0000000  0  7G04G16G18G19G21G22G27
  23312543.220   122508295.68108  23312542.240    95461014.57745
  20740471.000   108991915.01209  20740467.560    84928753.58648
  22035416.520   115796977.34309  22035412.880    90231456.55947
  22067881.420   115967520.95309  22067876.780    90364283.28548
  24020252.080   126227424.11408  24020247.860    98359023.02045
  20770744.020   109151146.80909  20770738.840    85052909.93348
  20693397.460   108744570.68709  20693396.560    84736043.99249
 15 03 02 01 49 30.0000000  0  7G04G16G18G19G21G22G27
  23296767.940   122425397.04208  23296767.080    95396418.31246
  20747740.660   109030117.72209  20747737.340    84958521.91548
  22044144.540   115842843.60509  22044140.900    90267196.51047
  22055732.920   115903680.00509  22055728.240    90314537.10248
  24033644.500   126297801.08908  24033640.440    98413862.21345
  20766778.860   109130309.43009  20766773.560    85036673.01748
  20687232.200   108712171.79109  20687231.280    84710798.10349
 15 03 02 01 50  0.0000000  0  7G04G16G18G19G21G22G27
  23281030.240   122342695.44108  23281029.400    95331975.57845
  20755113.160   109068860.84709  20755109.900    84988711.34848
  22052952.900   115889132.07009  22052949.220    90303265.45447
  22043608.840   115839967.31109  22043604.120    90264890.84548
  24047035.820   126368172.41408  24047031.720    98468697.00645
  20762913.100   109109994.52409  20762907.760    85020843.24348
  20681112.700   108680013.28409  20681111.720    84685739.52549
 15 03 02 01 50 30.0000000  0  7G04G16G18G19G21G22G27
  23265331.120   122260196.44508  23265330.380    95267690.70945
  20762589.320   109108148.43009  20762586.060    85019325.02748
  22061842.140   115935845.57809  22061838.420    90339665.58047
  22031510.380   115776389.14409  22031505.560    90215349.41048
  24060426.880   126438542.44408  24060422.740    98523530.80046
  20759147.740   109090207.67109  20759142.440    85005424.92448
  20675040.140   108648101.64209  20675039.160    84660873.30549
 15 03 02 01 51  0.0000000  0  7G04G16G18G19G21G22G27
  23249670.420   122177899.13408  23249669.740    95203563.01446
  20770168.640   109147978.04109  20770165.380    85050361.07748
  22070811.760   115982981.66409  22070808.120    90376394.99447
  22019437.380   115712944.99009  22019432.540    90165912.42748
  24073817.380   126508909.70808  24073813.500    98578362.37645
  20755482.800   109070948.45409  20755477.500    84990417.75948
  20669014.540   108616436.82109  20669013.540    84636199.42549
 15 03 02 01 51 30.0000000  0  7G04G16G18G19G21G22G27
  23234048.340   122095804.74908  23234047.520    95139593.46046
  20777851.000   109188348.98409  20777847.720    85081818.93848
  22079861.560   116030539.12809  22079857.980    90413452.76047
  22007390.180   115649636.45309  22007385.340    90116581.11848
  24087207.300   126579273.68908  24087202.860    98633191.48645
  20751918.380   109052217.74009  20751913.140    84975822.40748
  20663036.260   108585020.75109  20663035.260    84611719.37449
 15 03 02 01 52  0.0000000  0  7G04G16G18G19G21G22G27
  23218464.620   122013911.82408  23218463.840    95075780.85046
  20785635.920   109229258.76309  20785632.660    85113696.67848
  22088991.000   116078514.90909  22088987.540    90450836.50047
  21995368.600   115586462.66109  21995363.720    90067354.79948
  24100596.180   126649632.35008  24100591.760    98688016.38245
  20748454.280   109034014.21309  20748449.100    84961637.85748
  20657105.200   108553852.92509  20657104.220    84587432.75249
 15 03 02 01 52 30.0000000  0  7G04G16G18G19G21G22G27
  23202919.840   121932223.45908  23202919.040    95012127.64546
  20793523.620   109270708.62709  20793520.380    85145995.25748
  22098200.140   116126909.65009  22098196.840    90488546.66747
  21983373.400   115523427.40709  21983368.440    90018236.41948
  24113984.280   126719987.56908  24113980.220    98742838.61045
  20745091.060   109016340.65409  20745085.960    84947866.26148
  20651222.160   108522937.32809  20651221.160    84563342.68549
 15 03 02 01 53  0.0000000  0  7G04G16G18G19G21G22G27
  23187413.780   121850738.78508  23187413.000    94948633.15446
  20801513.620   109312695.93009  20801510.340    85178712.62148
  22107488.440   116175720.40809  22107485.200    90526581.03647
  21971404.520   115460530.37909  21971399.520    89969225.75848
  24127371.160   126790337.38607  24127367.340    98797656.63645
  20741828.580   108999196.17709  20741823.480    84934506.94248
  20645387.080   108492273.78909  20645386.100    84539449.01849
 15 03 02 01 53 30.0000000  0  7G04G16G18G19G21G22G27
  23171947.100   121769461.10608  23171946.180    94885299.94746
  20809606.300   109355222.97209  20809602.960    85211850.56448
  22116856.260   116224948.70809  22116853.000    90564940.76547
  21959462.740   115397775.77009  21959457.700    89920326.08548
  24140757.380   126860684.23108  24140753.860    98852472.32945
  20738667.560   108982584.68109  20738662.360    84921562.93648
  20639600.840   108461866.80809  20639599.820    84515755.26949
 15 03 02 01 54  0.0000000  0  7G04G16G18G19G21G22G27
  23156518.380   121688382.86608  23156517.420    94822122.16046
  20817799.800   109398280.25209  20817796.480    85245401.67748
  22126301.740   116274584.80409  22126298.540    90603618.22447
  21947546.640   115335156.06009  21947541.520    89871531.50048
  24154141.360   126931019.28108  24154137.720    98907278.82145
  20735606.460   108966498.17109  20735601.100    84909027.99848
  20633862.080   108431709.56809  20633861.080    84492256.11949
 15 03 02 01 54 30.0000000  0  7G04G16G18G19G21G22G27
  23141128.980   121607510.97608  23141127.820    94759105.13746
  20826095.080   109441872.77109  20826091.840    85279369.85948
  22135825.660   116324632.90509  22135822.420    90642616.74447
  21935657.480   115272678.43909  21935652.440    89822847.65848
  24167524.380   127001348.83208  24167520.780    98962081.04545
  20732646.440   108950942.99309  20732641.000    84896907.09048
  20628172.280   108401809.70109  20628171.300    84468957.52349
 15 03 02 01 55  0.0000000  0  7G04G16G18G19G21G22G27
  23125778.520   121526843.85108  23125777.240    94696247.68446
  20834491.620   109485997.21209  20834488.460    85313752.53048
  22145427.480   116375089.76209  22145423.960    90681933.78347
  21923795.240   115210342.61509  21923790.360    89774274.29548
  24180905.920   127071670.28707  24180902.780    99016876.95845
  20729787.360   108935918.00909  20729781.840    84885199.32248
  20622531.380   108372166.77909  20622530.420    84445859.14749
 15 03 02 01 55 30.0000000  0  7G04G16G18G19G21G22G27
  23110466.680   121446379.52808  23110465.460    94633548.28246
  20842988.760   109530650.03909  20842985.660    85348546.92748
  22155106.260   116425951.45809  22155102.560    90721566.26247
  21911959.720   115148147.04709  21911954.960    89725810.22648
  24194285.460   127141980.55908  24194282.480    99071664.13245
  20727028.800   108921421.07409  20727023.160    84873903.01548
  20616939.180   108342779.64909  20616938.220    84422960.07849
 15 03 02 01 56  0.0000000  0  7G04G16G18G19G21G22G27
  23095194.720   121366124.95008  23095193.640    94571012.31246
  20851587.600   109575836.74209  20851584.440    85383757.33648
  22164862.980   116477222.82609  22164859.140    90761517.98847
  21900152.460   115086099.78709  21900147.740    89677461.72648
  24207664.300   127212285.98708  24207661.280    99126447.60045
  20724371.960   108907458.99309  20724366.260    84863023.48748
  20611397.180   108313656.22409  20611396.200    84400266.50449
 15 03 02 01 56 30.0000000  0  7G04G16G18G19G21G22G27
  23079961.940   121286076.39808  23079960.780    94508636.83746
  20860287.020   109621551.79509  20860283.700    85419379.43548
  22174696.460   116528898.04709  22174692.660    90801784.37947
  21888372.780   115024197.21909  21888368.080    89629225.95748
  24221041.200   127282581.36908  24221038.140    99181223.19245
  20721816.080   108894027.72209  20721810.360    84852557.56748
  20605904.800   108284793.60909  20605903.820    84377776.15549
 15 03 02 01 57  0.0000000  0  7G04G16G18G19G21G22G27
  23064768.480   121206234.66508  23064767.320    94446422.54946
  20869086.740   109667794.13409  20869083.280    85455412.41248
  22184606.580   116580975.55109  22184602.740    90842364.28147
  21876620.920   114962440.80909  21876616.240    89581104.08948
  24234416.200   127352866.76208  24234412.760    99235991.00645
  20719361.320   108881128.08109  20719355.680    84842505.91348
  20600462.360   108256193.60409  20600461.400    84355490.43849
 15 03 02 01 57 30.0000000  0  7G04G16G18G19G21G22G27
  23049613.640   121126595.93708  23049612.620    94384366.45546
  20877985.560   109714557.75709  20877982.100    85491851.58248
  22194592.040   116633449.65509  22194588.260    90883253.17147
  21864896.380   114900827.79409  21864891.680    89533093.96248
  24247788.560   127423137.75608  24247784.820    99290747.62945
  20717006.880   108868755.97809  20717001.400    84832865.31748
  20595069.300   108227853.44209  20595068.440    84333407.19549
 15 03 02 01 58  0.0000000  0  7G04G16G18G19G21G22G27
  23034499.620   121047171.66008  23034498.740    94322477.45546
  20886985.520   109761853.05509  20886982.140    85528705.04748
  22204654.560   116686329.24609  22204650.820    90924458.03447
  21853201.420   114839369.96809  21853196.620    89485204.75948
  24261159.900   127493404.33308  24261156.020    99345500.77545
  20714755.020   108856922.89109  20714749.640    84823644.75148
  20589727.980   108199785.08309  20589727.200    84311535.74749
 15 03 02 01 58 30.0000000  0  8G04G16G18G19G21G22G27G32
  23019424.320   120967950.84708  23019423.420    94260747.00646
  20896084.140   109809666.90209  20896080.840    85565962.57848
  22214791.880   116739601.60809  22214788.260    90965968.97647
  21841534.100   114778057.23509  21841529.200    89437428.60448
  24274528.240   127563655.42507  24274524.500    99400241.89245
  20712603.580   108845617.26609  20712598.160    84814835.18148
  20584436.660   108171978.99309  20584435.920    84289868.66249
  24509611.280   128798882.82407  24509615.540   100362767.88945
 15 03 02 01 59  0.0000000  0  8G04G16G18G19G21G22G27G32
  23004389.080   120888940.24508  23004388.060    94199180.36146
  20905282.400   109858004.25209  20905279.140    85603628.03448
  22225004.800   116793271.20409  22225001.340    91007789.42847
  21829895.800   114716896.97609  21829890.840    89389771.26948
  24287894.620   127633896.25808  24287890.820    99454975.01345
  20710553.820   108834845.91209  20710548.400    84806441.93648
  20579196.740   108144442.74909  20579196.000    84268411.84749
  24486972.900   128679916.79908  24486977.540   100270067.65944
 15 03 02 01 59 30.0000000  0  8G04G16G18G19G21G22G27G32
  22989392.780   120810134.47008  22989391.660    94137773.30446
  20914578.960   109906857.97309  20914575.660    85641695.85648
  22235292.020   116847330.69209  22235288.380    91049913.71947
  21818285.580   114655884.34309  21818280.540    89342228.95948
  24301257.900   127704120.74708  24301254.300    99509695.34345
  20708604.620   108824602.79409  20708599.220    84798460.29848
  20574007.340   108117171.91109  20574006.580    84247161.84349
  24464338.980   128560975.85208  24464344.360   100177386.95345
 15 03 02 02 00  0.0000000  0  8G04G16G18G19G21G22G27G32
  22974437.340   120731543.47308  22974436.340    94076533.62446
  20923975.340   109956236.21809  20923971.980    85680172.39448
  22245654.840   116901787.57809  22245651.180    91092347.66047
  21806705.440   114595030.11809  21806700.340    89294810.08948
  24314620.020   127774338.32108  24314616.100    99564410.31545
  20706757.880   108814897.89209  20706752.420    84790898.04348
  20568870.480   108090177.28009  20568869.700    84226127.06549
  24441712.140   128442072.21207  24441717.960   100084735.30144
 15 03 02 02 00 30.0000000  0  9G04G11G16G18G19G21G22G27G32
  22959521.620   120653161.11608  22959520.600    94015456.51046
  24653434.480   129554671.97107  24653431.480   100951677.98045
  20933470.000   110006131.12209  20933466.700    85719051.52148
  22256091.720   116956633.74009  22256088.040    91135084.90947
  21795154.380   114534329.00309  21795149.260    89247510.52348
  24327979.380   127844541.48308  24327975.340    99619114.06145
  20705012.340   108805724.65709  20705006.840    84783750.07249
  20563785.180   108063453.81909  20563784.400    84205303.58549
  24419091.540   128323202.10108  24419097.400    99992109.78845
 15 03 02 02 01  0.0000000  0  9G04G11G16G18G19G21G22G27G32
  22944645.880   120574988.54308  22944644.740    93954542.83946
  24636604.040   129466228.99607  24636601.440   100882761.47245
  20943062.860   110056541.94109  20943059.560    85758332.66348
  22266602.520   117011868.06709  22266598.700    91178124.65447
  21783632.740   114473782.84109  21783627.640    89200331.70848
  24341336.060   127914731.09208  24341331.420    99673807.24645
  20703368.080   108797084.02809  20703362.580    84777017.13748
  20558751.860   108037003.67809  20558751.120    84184693.09049
  24396477.980   128204368.92707  24396483.760    99899513.05045
 15 03 02 02 01 30.0000000  0  9G04G11G16G18G19G21G22G27G32
  22929810.700   120497029.08008  22929809.400    93893795.24346
  24619786.180   129377853.14108  24619784.000   100813897.22744
  20952754.160   110107469.99809  20952750.880    85798016.84748
  22277187.360   117067491.66909  22277183.440    91221467.71547
  21772141.340   114413395.57109  21772136.220    89153276.69048
  24354690.840   127984909.18708  24354686.080    99728491.49345
  20701825.620   108788978.70109  20701820.200    84770701.30648
  20553771.320   108010831.03909  20553770.620    84164298.82049
  24373872.460   128085578.06808  24373878.160    99806949.26645
 15 03 02 02 02  0.0000000  0  9G04G11G16G18G19G21G22G27G32
  22915014.960   120419276.67408  22915013.660    93833209.00146
  24602980.280   129289538.51507  24602977.920   100745080.65845
  20962542.340   110158907.13909  20962539.060    85838097.72148
  22287844.660   117123496.51609  22287840.840    91265107.84347
  21760679.220   114353162.19709  21760674.140    89106341.60248
  24368042.040   128055069.02608  24368036.860    99783161.45745
  20700383.960   108781402.86809  20700378.580    84764798.06848
  20548842.680   107984930.99809  20548842.020    84144116.96349
  24351274.220   127966825.82208  24351279.820    99714415.54245
 15 03 02 02 02 30.0000000  0  9G04G11G16G18G19G21G22G27G32
  22900259.900   120341738.37308  22900258.640    93772789.61446
  24586187.280   129201292.05507  24586185.300   100676317.29544
  20972428.380   110210858.73009  20972425.120    85878579.46448
  22298575.380   117179886.97709  22298571.680    91309048.47247
  21749247.900   114293090.69309  21749242.880    89059532.65248
  24381390.800   128125217.16507  24381386.420    99837822.32445
  20699044.280   108774362.86609  20699038.900    84759312.35948
  20543967.480   107959311.58309  20543966.820    84124153.77949
  24328685.200   127848121.71008  24328690.480    99621919.26745
 15 03 02 02 03  0.0000000  0  9G04G11G16G18G19G21G22G27G32
  22885544.840   120264410.58709  22885543.660    93712534.25546
  24569406.860   129113110.18007  24569404.740   100607604.12745
  20982411.340   110263319.61809  20982408.120    85919458.06148
  22309378.520   117236657.94509  22309374.860    91353285.58047
  21737846.760   114233177.84709  21737841.840    89012847.32248
  24394736.600   128195349.19508  24394732.440    99892470.65645
  20697805.920   108767855.08509  20697800.480    84754241.37848
  20539145.200   107933970.25709  20539144.560    84104407.28549
  24306105.200   127729464.60108  24306110.480    99529459.70945
 15 03 02 02 03 30.0000000  0  9G04G11G16G18G19G21G22G27G32
  22870870.200   120187295.25909  22870869.140    93652444.43646
  24552638.860   129024994.50408  24552636.980   100538942.70545
  20992491.100   110316289.37209  20992487.980    85960733.18048
  22320253.900   117293808.96509  22320250.400    91397818.83647
  21726476.340   114173426.20809  21726471.480    88966287.61748
  24408079.280   128265465.87208  24408074.920    99947107.05144
  20696668.960   108761880.35709  20696663.460    84749585.76048
  20534376.340   107908909.71609  20534375.700    84084879.59649
  24283534.860   127610858.31708  24283540.000    99437039.76445
 15 03 02 02 04  0.0000000  0  9G04G11G16G18G19G21G22G27G32
  22856236.020   120110392.43408  22856235.040    93592520.20446
  24535883.920   128936945.83107  24535881.760   100470333.30844
  21002667.420   110369766.16809  21002664.300    86002403.40348
  22331201.220   117351337.67009  22331197.860    91442646.39847
  21715136.940   114113837.44209  21715132.080    88919854.80948
  24421418.900   128335566.74208  24421414.380   100001731.07044
  20695633.480   108756439.07709  20695628.000    84745345.81448
  20529661.220   107884131.34309  20529660.540    84065571.77249
  24260974.680   127492305.81708  24260979.840    99344661.84045
 15 03 02 02 04 30.0000000  0  9G04G11G16G18G19G21G22G27G32
  22841642.560   120033703.16608  22841641.520    93532762.36646
  24519141.740   128848965.11808  24519139.640   100401777.04844
  21012940.060   110423748.95109  21012936.880    86044467.88448
  22342220.240   117409243.17409  22342216.940    91487767.58847
  21703828.860   114054413.02009  21703823.980    88873550.07248
  24434755.660   128405651.76508  24434750.900   100056342.78345
  20694699.660   108751531.64909  20694694.120    84741521.85948
  20525000.240   107859637.14009  20524999.460    84046485.36749
  24238425.260   127373810.07208  24238430.340    99252328.09745
 15 03 02 02 05  0.0000000  0  9G04G11G16G18G19G21G22G27G32
  22827089.880   119957227.56709  22827088.560    93473171.04346
  24502412.400   128761051.48807  24502410.020   100333272.95344
  21023308.700   110478236.20109  21023305.520    86086925.45748
  22353310.480   117467523.50309  22353307.280    91533180.81047
  21692552.240   113995153.88009  21692547.300    88827374.12348
  24448089.240   128475721.08408  24448084.780   100110942.14644
  20693867.320   108747157.52609  20693861.740    84738113.46148
  20520393.540   107835428.18709  20520392.660    84027621.24249
  24215887.140   127255373.52608  24215891.920    99160040.39545
 15 03 02 02 05 30.0000000  0  9G04G11G16G18G19G21G22G27G32
  22812577.220   119880962.02809  22812575.540    93413743.40446
  24485695.100   128673201.89908  24485692.920   100264818.82645
  21033772.220   110533222.10209  21033769.000    86129771.60348
  22364470.940   117526172.39509  22364467.940    91578881.25547
  21681306.580   113936057.52409  21681301.600    88781325.03148
  24461419.200   128545769.63008  24461414.900   100165525.46145
  20693135.700   108743313.11309  20693130.100    84735117.83948
  20515840.620   107811501.92909  20515839.640    84008977.41149
  24193360.100   127136995.07608  24193364.700    99067797.97745
 15 03 02 02 06  0.0000000  0  9G04G11G16G18G19G21G22G27G32
  22798105.360   119804911.42609  22798103.400    93354483.21746
  24468991.080   128585421.43108  24468988.840   100196418.44245
  21044331.140   110588709.23609  21044327.860    86173008.30948
  22375702.120   117585193.06509  22375699.220    91624871.37147
  21670092.960   113877129.60409  21670087.940    88735407.17948
  24474746.180   128615802.21608  24474741.960   100220096.27645
  20692505.760   108740002.78209  20692500.120    84732538.36048
  20511342.560   107787864.41409  20511341.540    83990558.55849
  24170845.460   127018681.91408  24170849.580    98975606.35645
 15 03 02 02 06 30.0000000  0  9G04G11G16G18G19G21G22G27G32
  22783674.260   119729075.62309  22783672.160    93295390.42246
  24452299.920   128497709.73407  24452297.960   100128071.77145
  21054985.020   110644695.67409  21054981.720    86216634.08448
  22387003.600   117644582.62509  22387000.620    91671148.95847
  21658911.520   113818370.70309  21658906.460    88689621.03948
  24488069.900   128685817.95908  24488065.540   100274653.98644
  20691977.300   108737225.49309  20691971.600    84730374.24548
  20506899.540   107764516.37109  20506898.540    83972365.28749
  24148343.560   126900436.05708  24148347.560    98883467.20445
 15 03 02 02 07  0.0000000  0  9G04G11G16G18G19G21G22G27G32
  22769283.760   119653453.65208  22769281.700    93236464.25446
  24435621.880   128410066.04208  24435619.700   100059778.01045
  21065733.420   110701178.92909  21065730.120    86260646.99648
  22398374.800   117704338.26909  22398371.640    91717711.82547
  21647762.240   113759780.81009  21647757.160    88643966.58548
  24501389.940   128755815.02908  24501386.020   100329197.13345
  20691550.020   108734979.66709  20691544.260    84728624.26348
  20502511.640   107741457.96309  20502510.640    83954397.69949
  24125854.900   126782259.23208  24125858.620    98791381.80045
 15 03 02 02 07 30.0000000  0  9G04G11G16G18G19G21G22G27G32
  22754934.400   119578047.89809  22754932.400    93177706.56246
  24418957.100   128322492.81008  24418955.360    99991539.20145
  21076576.380   110758159.08909  21076573.080    86305047.10048
  22409815.660   117764460.52809  22409812.520    91764560.31446
  21636645.740   113701363.44209  21636640.720    88598446.56648
  24514706.740   128825795.20107  24514702.760   100383727.13545
  20691224.280   108733267.83709  20691218.500    84727290.37148
  20498179.560   107718692.78209  20498178.540    83936658.59949
  24103380.260   126664156.13608  24103383.960    98699353.83945
 15 03 02 02 08  0.0000000  0  9G04G11G16G18G19G21G22G27G32
  22740625.920   119502856.95009  22740624.100    93119116.25946
  24402305.600   128234988.57908  24402303.700    99923354.12144
  21087513.120   110815632.25909  21087509.880    86349831.37448
  22421325.580   117824945.23209  22421322.300    91811691.26846
  21625562.040   113643118.28409  21625557.040    88553060.74148
  24528019.660   128895756.81007  24528016.340   100438242.62945
  20690999.660   108732087.85009  20690993.960    84726370.91448
  20493903.240   107696220.42409  20493902.200    83919147.67249
  24080919.920   126546127.88708  24080923.320    98607384.17945
 15 03 02 02 08 30.0000000  0  9G04G11G16G18G19G21G22G27G32
  22726358.860   119427883.96908  22726357.280    93060695.79746
  24385667.520   128147555.97708  24385665.840    99855224.88445
  21098543.960   110873599.79009  21098540.760    86395000.86548
  22432904.520   117885793.21409  22432901.240    91859105.28247
  21614511.700   113585048.58909  21614506.780    88507811.63948
  24541329.280   128965701.18808  24541326.280   100492744.71945
  20690876.660   108731441.82209  20690871.040    84725867.53448
  20489683.400   107674044.72109  20489682.300    83901867.90649
  24058474.860   126428179.44108  24058478.060    98515476.69245
 15 03 02 02 09  0.0000000  0  9G04G11G16G18G19G21G22G27G32
  22712132.040   119353122.36908  22712130.640    93002440.05046
  24369042.300   128060189.39908  24369040.640    99787147.07645
  21109667.360   110932053.25809  21109664.100    86440548.99948
  22444551.140   117946996.39709  22444547.860    91906796.05446
  21603493.820   113527149.43109  21603488.960    88462695.41148
  24554634.580   129035622.30107  24554631.960   100547228.64444
  20690853.940   108731323.10609  20690848.500    84725775.04248
  20485519.060   107652160.71409  20485517.900    83884815.42749
  24036044.340   126310307.39208  24036047.220    98423628.68845
 15 03 02 02 09 30.0000000  0  9G04G11G16G18G19G21G22G27G32
  22697946.380   119278576.92408  22697945.140    92944352.70646
  24352430.380   127972893.05708  24352428.240    99719123.98545
  21120883.740   110990994.99209  21120880.380    86486477.60048
  22456265.820   118008556.66309  22456262.420    91954765.09847
  21592509.460   113469426.22709  21592504.640    88417716.29748
  24567936.340   129105523.49507  24567933.260   100601697.13244
  20690932.380   108731735.86209  20690927.120    84726096.67748
  20481411.240   107630573.92509  20481410.060    83867994.54449
  24013629.600   126192518.45208  24013632.280    98331845.47144
 15 03 02 02 10  0.0000000  0  9G04G11G16G18G19G21G22G27G32
  22683802.340   119204249.89908  22683801.260    92886435.58746
  24335832.300   127885669.38708  24335830.140    99651157.54145
  21132193.080   111050425.25209  21132189.600    86532786.87548
  22468048.360   118070474.23609  22468044.960    92003012.55647
  21581559.200   113411882.20409  21581554.460    88372876.80548
  24581234.500   129175406.87007  24581231.880   100656151.64245
  20691112.300   108732681.60309  20691107.140    84726833.63249
  20477360.640   107609287.78109  20477359.460    83851407.94049
  23991231.580   126074817.47408  23991234.360    98240130.74345
 15 03 02 02 10 30.0000000  0  9G04G11G16G18G19G21G22G27G32
  22669699.300   119130138.01608  22669698.220    92828686.11946
  24319247.520   127798515.12908  24319245.420    99583245.19945
  21143594.280   111110338.47609  21143590.700    86579472.48448
  22479897.940   118132743.83409  22479894.500    92051534.31047
  21570642.660   113354515.50109  21570637.980    88328175.48148
  24594528.700   129245268.29207  24594525.700   100710589.12844
  20691393.020   108734156.83109  20691387.840    84727983.16848
  20473366.800   107588300.13109  20473365.620    83835053.93549
  23968850.000   125957203.65508  23968852.920    98148483.97045
 15 03 02 02 11  0.0000000  0  9G04G11G16G18G19G21G22G27G32
  22655637.320   119056241.41508  22655636.120    92771104.39346
  24302675.900   127711430.54408  24302673.420    99515387.08545
  21155086.980   111170732.92009  21155083.420    86626533.08148
  22491814.020   118195362.92109  22491810.440    92100328.40847
  21559760.000   113297326.76609  21559755.340    88283612.84448
  24607818.700   129315107.42108  24607815.720   100765009.19644
  20691774.420   108736160.66509  20691769.100    84729544.60848
  20469429.980   107567612.08109  20469428.820    83818933.37749
  23946485.520   125839679.40608  23946488.680    98056906.97545
 15 03 02 02 11 30.0000000  0  9G04G11G16G18G19G21G22G27G32
  22641616.980   118982563.80808  22641615.640    92713693.32246
  24286118.180   127624419.44508  24286116.020    99447586.31545
  21166671.520   111231610.17009  21166668.000    86673969.87948
  22503797.040   118258333.37009  22503793.120    92149396.30347
  21548912.140   113240320.91909  21548907.480    88239192.71848
  24621105.200   129384927.90107  24621101.880   100819414.73645
  20692257.020   108738696.09409  20692251.520    84731520.27049
  20465551.060   107547228.57309  20465549.940    83803050.12049
  23924139.220   125722251.05908  23924142.600    97965404.69846
 15 03 02 02 12  0.0000000  0  9G04G11G16G18G19G21G22G27G32
  22627637.320   118909100.13309  22627635.820    92656448.92246
  24269573.660   127537476.99108  24269570.960    99379838.93744
  21178346.540   111292962.96909  21178343.100    86721777.23548
  22515845.320   118321647.75109  22515841.320    92198732.17946
  21538098.280   113183493.73509  21538093.620    88194911.80848
  24634387.080   129454723.67707  24634383.660   100873801.03244
  20692839.660   108741757.56509  20692834.000    84733905.83448
  20461729.360   107527145.71209  20461728.300    83787401.14349
  23901810.760   125604916.03108  23901814.200    97873975.17245
 15 03 02 02 12 30.0000000  0  9G04G11G16G18G19G21G22G27G32
  22613699.820   118835858.16808  22613698.280    92599377.31146
  24253043.460   127450610.68208  24253041.220    99312151.00545
  21190113.020   111354796.22009  21190109.660    86769958.97748
  22527960.140   118385311.63009  22527956.300    92248340.39747
  21527320.140   113126854.11409  21527315.420    88150777.04048
  24647665.660   129524501.93207  24647662.260   100928173.65245
  20693523.680   108745352.04809  20693517.900    84736706.73048
  20457966.520   107507372.16109  20457965.560    83771993.18449
  23879502.080   125487684.51608  23879505.580    97782626.25145
 15 03 02 02 13  0.0000000  0  9G04G11G16G18G19G21G22G27G32
  22599803.540   118762832.90009  22599802.020    92542474.52946
  24236526.900   127363816.12208  24236524.340    99244518.90945
  21201969.780   111417103.90209  21201966.500    86818510.38848
  22540140.020   118449317.94909  22540136.280    92298215.44146
  21516576.940   113070398.17209  21516572.200    88106785.39748
  24660939.800   129594257.17507  24660936.240   100982528.35444
  20694308.160   108749474.48209  20694302.340    84739919.02448
  20454261.820   107487904.23409  20454260.980    83756823.36249
  23857212.660   125370554.07908  23857216.040    97691356.09245
 15 03 02 02 13 30.0000000  0  9G04G11G16G18G19G21G22G27G32
  22585948.340   118690023.37709  22585946.780    92485739.89747
  24220023.780   127277091.85408  24220021.460    99176941.60845
  21213916.060   111479881.91109  21213912.800    86867428.30948
  22552384.560   118513663.20209  22552380.840    92348354.60747
  21505868.680   113014125.75809  21505863.880    88062936.76648
  24674209.080   129663987.67608  24674205.520   101036863.79444
  20695192.580   108754122.32109  20695186.760    84743540.73248
  20450615.280   107468741.79109  20450614.520    83741891.59749
  23834942.720   125253525.85008  23834945.980    97600165.56746
 15 03 02 02 14  0.0000000  0  9G04G11G16G18G19G21G22G27G32
  22572135.240   118617435.08609  22572133.640    92429177.62147
  24203535.200   127190443.94208  24203532.920    99109423.82644
  21225952.560   111543134.21409  21225949.280    86916715.80148
  22564694.280   118578350.86309  22564690.660    92398760.57046
  21495196.660   112958043.72209  21495191.780    88019236.48548
  24687474.580   129733698.67207  24687470.880   101091184.03744
  20696177.940   108759300.84109  20696172.240    84747575.95848
  20447028.220   107449891.67409  20447027.480    83727203.19649
  23812693.720   125136608.11908  23812696.940    97509061.20245
 15 03 02 02 14 30.0000000  0  9G04G11G16G18G19G21G22G27G32
  22558363.560   118545064.86409  22558362.060    92372785.27946
  24187060.480   127103868.84308  24187058.180    99041962.74945
  21238078.200   111606855.10809  21238074.880    86966368.42048
  22577068.120   118643375.37909  22577064.440    92449429.02847
  21484560.400   112902149.62809  21484555.460    87975682.64548
  24700735.700   129803386.39408  24700732.120   101145486.12744
  20697263.460   108765005.91209  20697257.940    84752021.47548
  20443500.180   107431351.60709  20443499.360    83712756.38249
  23790465.540   125019799.97108  23790468.740    97418042.19245
 15 03 02 02 15  0.0000000  0  9G04G11G16G18G19G21G22G27G32
  22544633.560   118472913.43709  22544632.080    92316563.43546
  24170599.980   127017367.79608  24170597.380    98974559.35045
  21250292.660   111671042.69409  21250289.320    87016384.70448
  22589505.900   118708735.65509  22589502.020    92500359.12246
  21473960.300   112846445.48709  21473955.320    87932276.83248
  24713992.400   129873051.36107  24713988.880   101199770.55845
  20698449.240   108771237.80909  20698443.840    84756877.51648
  20440031.520   107413123.63609  20440030.620    83698552.76349
  23768258.860   124903104.94308  23768261.940    97327111.32445
 15 03 02 02 15 30.0000000  0  9G04G11G16G18G19G21G22G27G32
  22530945.300   118400981.26109  22530943.780    92260512.41947
  24154153.480   126930941.02808  24154150.920    98907213.90545
  21262595.740   111735695.91809  21262592.460    87066763.83048
  22602006.980   118774429.38409  22602003.160    92551549.03747
  21463396.620   112790932.76709  21463391.580    87889020.17948
  24727244.660   129942693.24307  24727241.320   101254036.93744
  20699735.100   108777995.92709  20699729.920    84762143.59048
  20436622.500   107395209.16309  20436621.560    83684593.43049
  23746074.280   124786525.59408  23746077.160    97236270.59245
 15 03 02 02 16  0.0000000  0  9G04G11G16G18G19G21G22G27G32
  22517298.560   118329267.12408  22517297.080    92204631.29647
  24137720.880   126844587.83608  24137718.220    98839925.74944
  21274986.680   111800810.68509  21274983.460    87117502.58448
  22614570.860   118840453.24009  22614567.140    92602996.18546
  21452869.320   112735611.21909  21452864.260    87845912.48348
  24740492.300   130012310.46607  24740488.940   101308284.08344
  20701120.780   108785278.23409  20701115.700    84767818.12048
  20433273.140   107377608.24909  20433272.220    83670878.42949
  23723912.140   124670063.54208  23723914.780    97145521.26345
 15 03 02 02 16 30.0000000  0  9G04G11G16G18G19G21G22G27G32
  22503693.340   118257771.34109  22503691.880    92148920.35447
  24121302.560   126758308.64608  24121299.680    98772695.23645
  21287465.200   111866385.39809  21287461.980    87168599.74448
  22627197.320   118906805.61909  22627193.560    92654699.35847
  21442378.740   112680482.70409  21442373.620    87802955.20548
  24753735.460   130081903.10507  24753731.740   101362512.12245
  20702606.200   108793084.38409  20702601.140    84773900.83648
  20429983.740   107360322.44309  20429982.880    83657408.96149
  23701772.900   124553721.63208  23701775.260    97054865.50645
 15 03 02 02 17  0.0000000  0  9G04G11G16G18G19G21G22G27G32
  22490130.380   118186497.64209  22490128.880    92093382.42547
  24104898.800   126672107.15708  24104896.040    98705525.31645
  21300031.560   111932421.65309  21300028.320    87220056.55648
  22639886.500   118973487.68109  22639882.720    92706659.40647
  21431925.720   112625551.62209  21431920.540    87760151.78148
  24766974.720   130151474.20507  24766970.840   101416723.34544
  20704191.920   108801417.44609  20704186.840    84780394.14148
  20426755.200   107343356.41109  20426754.380    83644188.68349
  23679657.620   124437505.90708  23679659.780    96964308.12045
 15 03 02 02 17 30.0000000  0  9G04G11G16G18G19G21G22G27G32
  22476609.220   118115443.60109  22476607.700    92038015.67647
  24088509.500   126585981.25308  24088506.860    98638414.26345
  21312684.700   111998914.00309  21312681.420    87271868.76148
  22652637.480   119040494.89309  22652633.760    92758872.80646
  21421510.040   112570817.00309  21421504.860    87717501.43348
  24780209.220   130221020.91007  24780205.580   101470915.53445
  20705877.240   108810273.69209  20705872.060    84787295.11848
  20423587.300   107326708.93709  20423586.500    83631216.62349
  23657566.380   124321416.63808  23657568.320    96873849.23345
 15 03 02 02 18  0.0000000  0  9G04G11G16G18G19G21G22G27G32
  22463130.140   118044610.72009  22463128.540    91982821.25346
  24072134.820   126499932.33908  24072132.180    98571363.24945
  21325424.660   112065862.52709  21325421.300    87324036.41948
  22665450.220   119107826.37809  22665446.740    92811338.90647
  21411132.160   112516281.12309  21411127.000    87675005.94448
  24793439.120   130290544.09607  24793435.560   101525089.41744
  20707662.460   108819654.53209  20707657.180    84794604.87248
  20420480.560   107310382.56909  20420479.740    83618494.76649
  23635499.840   124205457.61408  23635501.840    96783491.86045
 15 03 02 02 18 30.0000000  0  9G04G11G16G18G19G21G22G27G32
  22449693.000   117973998.22009  22449691.400    91927798.53547
  24055774.600   126413959.84608  24055772.160    98504371.75945
  21338250.640   112133263.41209  21338247.300    87376556.57548
  22678324.060   119175479.48709  22678320.840    92864055.59247
  21400792.200   112461944.55809  21400787.060    87632665.76348
  24806664.240   130360042.85707  24806661.120   101579244.26345
  20709547.100   108829557.71709  20709541.780    84802321.65248
  20417435.040   107294377.66509  20417434.140    83606023.40849
  23613458.460   124089630.72308  23613460.400    96693237.44445
 15 03 02 02 19  0.0000000  0  9G04G11G16G18G19G21G22G27G32
  22436297.760   117903606.11109  22436296.200    91872947.59047
  24039429.180   126328063.80808  24039426.480    98437439.85544
  21351162.400   112201115.04209  21351159.040    87429427.96548
  22691258.680   119243451.53909  22691255.300    92917020.84846
  21390490.340   112407808.34409  21390485.260    87590481.70948
  24819884.540   130429516.60207  24819881.680   101633379.63845
  20711530.920   108839982.75109  20711525.620    84810445.06948
  20414450.900   107278695.40409  20414449.920    83593803.46249
  23591442.740   123973938.56308  23591444.560    96603088.01545
 15 03 02 02 19 30.0000000  0  9G04G11G16G18G19G21G22G27G32
  22422944.760   117833436.01609  22422943.200    91818269.61747
  24023098.480   126242246.32208  24023096.120    98370569.16945
  21364159.700   112269416.25709  21364156.360    87482649.67948
  22704253.900   119311742.23609  22704250.420    92970234.35746
  21380227.120   112353875.14809  21380222.100    87548455.84348
  24833100.240   130498966.47807  24833097.480   101687496.37245
  20713614.040   108850929.71809  20713608.800    84818975.17748
  20411528.600   107263338.46209  20411527.600    83581837.00749
  23569453.420   123858385.07108  23569455.200    96513046.62145
 15 03 02 02 20  0.0000000  0  9G04G11G16G18G19G21G22G27G32
  22409633.320   117763484.12709  22409631.780    91763761.67847
  24006782.300   126156503.53208  24006779.220    98303756.57245
  21377241.320   112338160.78109  21377238.020    87536216.82248
  22717308.600   119380345.30009  22717305.180    93023691.30647
  21370002.140   112300142.70709  21369997.140    87506586.42148
  24846310.740   130568388.82807  24846307.900   101741591.70944
  20715795.680   108862394.32409  20715790.460    84827908.64148
  20408667.680   107248304.20709  20408666.660    83570122.00249
  23547490.300   123742969.17108  23547492.100    96423112.43645
 15 03 02 02 20 30.0000000  0  9G04G11G16G18G19G21G22G27G32
  22396364.140   117693753.91309  22396362.600    91709426.46347
  23990480.780   126070839.01508  23990478.260    98237005.09145
  21390407.520   112407350.05809  21390404.320    87590130.52348
  22730422.980   119449261.78409  22730419.540    93077392.46146
  21359816.260   112246615.63609  21359811.280    87464877.03148
  24859516.800   130637786.18307  24859513.300   101795667.53944
  20718076.440   108874379.18909  20718071.080    84837247.51548
  20405869.040   107233597.32809  20405868.000    83558662.09049
  23525554.500   123627696.88808  23525556.260    96333290.18945
 15 03 02 02 21  0.0000000  0  9G04G11G16G18G19G21G22G27G32
  22383137.320   117624246.20009  22383135.780    91655264.63147
  23974194.280   125985254.10707  23974191.300    98170315.58545
  21403658.020   112476982.29709  21403654.940    87644389.38848
  22743596.640   119518490.94908  22743593.340    93131337.23846
  21349669.860   112193295.69709  21349664.820    87423329.03148
  24872718.180   130707159.08307  24872714.160   101849724.31244
  20720456.100   108886884.16309  20720450.660    84846991.65348
  20403133.040   107219219.76209  20403132.060    83547458.79349
  23503646.680   123512571.57408  23503648.440    96243582.44245
 15 03 02 02 21 30.0000000  0  9G04G11G16G18G19G21G22G27G32
  22369952.160   117554957.51909  22369950.600    91601273.48447
  23957922.740   125899745.63607  23957920.020    98103685.64345
  21416991.680   112547051.51509  21416988.700    87698988.76748
  22756828.760   119588026.82408  22756825.540    93185521.04546
  21339562.500   112140180.89609  21339557.380    87381940.88548
  24885914.320   130776504.39507  24885910.020   101903759.58944
  20722933.860   108899905.03209  20722928.400    84857137.79148
  20400459.300   107205169.29209  20400458.320    83536510.38449
  23481766.680   123397592.40608  23481768.380    96153988.57946
 15 03 02 02 22  0.0000000  0  9G04G11G16G18G19G21G22G27G32
  22356809.700   117485893.39209  22356808.100    91547457.30947
  23941666.480   125814318.75008  23941663.340    98037119.26044
  21430409.200   112617561.22409  21430406.240    87753931.38148
  22770119.760   119657872.29409  22770116.680    93239946.07646
  21329495.360   112087277.46609  21329490.200    87340717.44148
  24899106.000   130845826.28207  24899101.560   101957776.64845
  20725510.560   108913445.90809  20725505.080    84867689.13748
  20397849.000   107191452.22209  20397848.000    83525821.75849
  23459916.020   123282767.22208  23459917.580    96064514.69245
 15 03 02 02 22 30.0000000  0  9G04G11G16G18G19G21G22G27G32
  22343709.320   117417050.23809  22343707.700    91493813.32747
  23925424.940   125728970.41808  23925422.320    97970614.21244
  21443909.380   112688505.23309  21443906.400    87809212.41148
  22783468.820   119728021.81709  22783465.700    93294608.05946
  21319468.040   112034583.40509  21319462.840    87299657.15248
  24912292.540   130915121.28407  24912287.940   102011772.72744
  20728185.460   108927502.47609  20728179.920    84878642.31748
  20395301.760   107178066.34109  20395300.700    83515391.20349
  23438094.520   123168095.07308  23438095.840    95975160.06545
 15 03 02 02 23  0.0000000  0 10G04G11G14G16G18G19G21G22G27G32
  22330650.900   117348427.67609  22330649.300    91440341.20647
  23909198.720   125643700.52007  23909195.460    97904170.05645
  24686383.800   129727820.30507  24686382.500   101086610.17044
  21457491.620   112759880.36009  21457488.600    87864829.37448
  22796875.220   119798473.04608  22796871.920    93349505.11846
  21309480.660   111982099.61509  21309475.520    87258760.70148
  24925473.660   130984388.57407  24925469.460   102065747.23345
  20730958.200   108942073.29509  20730952.580    84889996.21248
  20392817.740   107165012.55709  20392816.660    83505219.42249
  23416302.640   123053578.42808  23416303.660    95885926.59645
 15 03 02 02 23 30.0000000  0 10G04G11G14G16G18G19G21G22G27G32
  22317636.020   117280034.12709  22317634.400    91387047.55847
  23892989.040   125558517.54908  23892986.140    97837793.80345
  24672305.980   129653844.83507  24672305.480   101028967.28045
  21471157.200   112831693.39909  21471154.140    87920787.56448
  22810340.000   119869231.61208  22810336.860    93404641.64746
  21299535.120   111929835.57609  21299530.040    87218035.48448
  24938650.940   131053636.82207  24938647.240   102119706.85544
  20733830.160   108957165.52009  20733824.560    84901756.39848
  20390398.640   107152300.05109  20390397.620    83495313.56849
  23394542.300   122939227.80808  23394543.120    95796822.49346
 15 03 02 02 24  0.0000000  0 10G04G11G14G16G18G19G21G22G27G32
  22304663.300   117211861.95309  22304661.620    91333926.43547
  23876794.180   125473413.99708  23876791.160    97771479.38545
  24658231.300   129579884.10207  24658231.820   100971335.81044
  21484904.180   112903934.20109  21484901.140    87977079.08448
  22823861.620   119940288.10809  22823858.700    93460010.34346
  21289630.200   111877785.05709  21289625.180    87177476.65048
  24951822.800   131122857.43407  24951819.820   102173644.98044
  20736799.800   108972770.64509  20736794.140    84913916.24548
  20388043.300   107139922.72109  20388042.320    83485668.90449
  23372812.640   122825038.53308  23372813.380    95707844.11846
 15 03 02 02 24 30.0000000  0 10G04G11G14G16G18G19G21G22G27G32
  22291732.440   117143909.98809  22291730.620    91280976.86447
  23860614.380   125388388.73707  23860611.780    97705226.00845
  24644159.800   129505939.31007  24644160.280   100913716.71144
  21498731.760   112976598.47709  21498728.720    88033700.58148
  22837439.320   120011638.83509  22837436.240    93515608.29646
  21279765.880   111825947.86009  21279760.920    87137084.04448
  24964989.100   131192048.70807  24964987.040   102227560.25845
  20739866.600   108988886.58009  20739860.900    84926474.11748
  20385751.700   107127880.28709  20385750.700    83476285.19449
  23351113.860   122711011.81508  23351114.460    95618992.38845
 15 03 02 02 25  0.0000000  0 10G04G11G14G16G18G19G21G22G27G32
  22278843.460   117076178.44809  22278841.580    91228199.08847
  23844449.920   125303442.73908  23844446.860    97639034.25346
  24630091.940   129432013.44207  24630092.580   100856112.34945
  21512639.520   113049684.11009  21512636.500    88090650.40948
  22851072.760   120083281.96909  22851069.420    93571434.13546
  21269942.500   111774325.77309  21269937.560    87096859.03948
  24978150.060   131261211.26207  24978148.360   102281453.10244
  20743030.460   109005512.76909  20743024.720    84939429.59948
  20383524.100   107116174.18109  20383523.120    83467163.55449
  23329446.480   122597150.52808  23329447.140    95530269.58646
 15 03 02 02 25 30.0000000  0 10G04G11G14G16G18G19G21G22G27G32
  22265997.900   117008675.38109  22265996.040    91175599.33647
  23828301.580   125218584.01108  23828298.840    97572910.71845
  24616029.740   129358117.31907  24616030.580   100798531.19544
  21526628.580   113123197.15909  21526625.560    88147933.29148
  22864763.040   120155223.17809  22864759.360    93627492.22846
  21260161.840   111722928.11109  21260156.920    87056808.92048
  24991308.280                    24991304.780                  
  20746292.640   109022655.84809  20746286.940    84952787.85548
  20381362.260   107104813.61409  20381361.300    83458311.16849
  23307812.580   122483465.33408  23307813.280    95441683.99745
 15 03 02 02 26  0.0000000  0 10G04G11G14G16G18G19G21G22G27G32
  22253193.840   116941390.23009  22253192.060    91123169.36946
  23812167.820   125133802.13808  23812165.420    97506846.99345
  24601971.680   129284243.06607  24601972.620   100740967.01844
  21540696.520   113197124.70609  21540693.520    88205539.13848
  22878507.360   120227449.63909  22878503.500    93683772.57946
  21250422.080   111671745.37409  21250417.160    87016926.26048
  25004458.900   131399321.45307  25004455.800   102389067.24244
  20749650.940   109040303.97809  20749645.280    84966539.63848
  20379264.400   107093789.17209  20379263.420    83449720.68649
  23286210.680   122369948.18908  23286211.480    95353229.33945
 15 03 02 02 26 30.0000000  0 10G04G11G14G16G18G19G21G22G27G32
  22240431.720   116874325.35209  22240430.020    91070911.04346
  23796049.740   125049099.90207  23796046.820    97440845.22844
  24587918.860   129210395.90207  24587919.680   100683423.98044
  21554843.180   113271466.01109  21554840.200    88263467.40948
  22892306.060   120299961.65909  22892302.160    93740275.43146
  21240723.900   111620781.23909  21240718.980    86977213.95348
  25017604.340   131468400.95707  25017601.140   102442895.41744
  20753105.620   109058458.56209  20753100.040    84980686.07048
  20377231.100   107083104.31609  20377230.160    83441394.82449
  23264641.740   122256604.11608  23264642.560    95264909.53546
 15 03 02 02 27  0.0000000  0 10G04G11G14G16G18G19G21G22G27G32
  22227713.280   116807490.05509  22227711.720    91018831.63247
  23779948.360   124964486.75008  23779945.980    97374912.98846
  24573873.560   129136587.62607  24573874.520   100625911.22644
  21569070.020   113346228.45209  21569066.980    88321723.84048
  22906160.500   120372766.28409  22906156.400    93797006.32446
  21231069.360   111570046.36209  21231064.420    86937680.28748
  25030745.760   131537459.52707  25030742.380   102496707.28145
  20756658.220   109077127.67209  20756652.680    84995233.43248
  20375264.420   107072769.60109  20375263.520    83433341.80149
  23243107.980   122143444.99108  23243108.880    95176733.87846
 15 03 02 02 27 30.0000000  0  9G04G11G14G16G18G19G22G27G32
  22215037.940   116740880.99109  22215036.480    90966928.50247
  23763863.160   124879959.53108  23763860.320    97309047.67645
  24559835.500   129062817.61407  24559836.320   100568428.22945
  21583375.840   113421405.62609  21583372.700    88380303.44848
  22920069.380   120445857.88308  22920065.220    93853960.80546
  21221458.020   111519538.44809  21221453.060    86898323.48148
  20760307.900   109096307.09109  20760302.380    85010178.44648
  20373363.920   107062782.49809  20373363.040    83425559.64949
  23221609.240   122030469.80808  23221610.200    95088701.55946
 15 03 02 02 28  0.0000000  0  9G04G11G14G16G18G19G22G27G32
  22202403.880   116674488.74409  22202402.440    90915194.31047
  23747792.760   124795509.08508  23747790.500    97243242.19545
  24545803.740   128989079.54208  24545804.220   100510970.14044
  21597758.500   113496986.21009  21597755.240    88439197.38748
  22934030.580   120519224.72109  22934026.360    93911129.78846
  21211888.360   111469249.71309  21211883.420    86859137.45248
  20764052.660   109115986.28109  20764047.200    85025512.87648
  20371528.060   107053134.98309  20371527.180    83418042.10549
  23200144.360   121917672.19208  23200145.360    95000807.57346
 15 03 02 02 28 30.0000000  0  9G04G11G14G16G18G19G22G27G32
  22189812.900   116608322.64509  22189811.440    90863636.33947
  23731738.980   124711145.42308  23731736.100    97177504.28745
  24531780.140   128915384.98007  24531780.400   100453545.97445
  21612219.160   113572976.74509  21612215.800    88498410.77348
  22948045.700   120592874.19808  22948041.440    93968518.99946
  21202362.460   111419191.01309  21202357.540    86820130.68448
  20767894.120   109136173.36909  20767888.680    85041243.09548
  20369758.840   107043837.66909  20369758.000    83410797.44549
  23178715.540   121805063.94708  23178716.420    94913061.15346
 15 03 02 02 29  0.0000000  0  9G04G11G14G16G18G19G22G27G32
  22177264.600   116542380.53109  22177262.980    90812252.90147
  23715701.080   124626866.07908  23715698.200    97111832.16145
  24517764.940   128841734.67807  24517764.740   100396156.29844
  21626756.820   113649372.10709  21626753.420    88557939.60348
  22962113.540   120666801.40409  22962109.380    94026124.58346
  21192880.060   111369360.94509  21192875.200    86781302.05548
  20771831.460   109156864.52709  20771826.100    85057366.08148
  20368055.900   107034889.11609  20368055.140    83403824.54349
  23157322.820   121692645.09408  23157323.620    94825462.30146
 15 03 02 02 29 30.0000000  0  9G04G11G14G16G18G19G22G27G32
  22164758.620   116476660.67209  22164756.880    90761042.66847
  23699678.960   124542670.05608  23699676.380    97046224.91346
  24503758.440   128768130.12807  24503757.960   100338802.21245
  21641370.660   113726168.32109  21641367.340    88617780.79448
  22976233.720   120741003.25909  22976229.520    94083944.22146
  21183441.140   111319759.40709  21183436.340    86742651.50748
  20775864.180   109178057.25009  20775858.900    85073879.88348
  20366419.320   107026289.19309  20366418.620    83397123.30049
  23135966.460   121580417.18808  23135967.160    94738012.22546
 15 03 02 02 30  0.0000000  0  9G04G11G14G16G18G19G22G27G32
  22152295.040   116411163.61709  22152293.200    90710006.02947
  23683673.140   124458557.91908  23683669.900    96980682.95345
  24489761.120   128694574.19307  24489760.980   100281486.06745
  21656060.380   113803363.57809  21656057.120    88677932.92648
  22990405.600   120815476.77309  22990401.380    94141975.55746
  21174046.060   111270388.15109  21174041.300    86704180.41148
  20779992.240   109199750.90609  20779987.080    85090784.04748
  20364849.380   107018039.10009  20364848.660    83390694.65249
  23114646.860   121468382.77208  23114647.440    94650712.94946
 15 03 02 02 30 30.0000000  0 10G01G04G11G14G16G18G19G22G27G32
  24594100.440   129242868.06707  24594103.160   100708728.74746
  22139875.060   116345895.86909  22139873.160    90659148.07847
  23667684.540   124374536.51708  23667681.320    96915211.76645
  24475774.820   128621076.42907  24475774.620   100224215.20545
  21670826.780   113880961.84609  21670823.560    88738399.09148
  23004630.060   120890227.22508  23004626.100    94200222.65046
  21164696.320   111221255.06509  21164691.600    86665894.90348
  20784216.620   109221950.60909  20784211.540    85108082.53149
  20363347.600   107010146.82009  20363346.840    83384544.82749
  23093365.860   121356551.27608  23093366.340    94563571.77446
 15 03 02 02 31  0.0000000  0 10G01G04G11G14G16G18G19G22G27G32
  24579016.460   129163600.78107  24579018.320   100646962.08045
  22127497.020   116280849.14009  22127495.160    90608462.34647
  23651711.500   124290598.17708  23651708.240    96849805.33345
  24461798.440   128547631.42807  24461798.480   100166985.54545
  21685667.760   113958951.78509  21685664.560    88799170.45048
  23018905.220   120965244.03609  23018901.360    94258677.28846
  21155390.680   111172353.58909  21155385.960    86627789.85348
  20788535.600   109244647.18009  20788530.540    85125768.16748
  20361912.560   107002605.19709  20361911.760    83378668.23449
  23072122.420   121244917.13108  23072122.860    94476584.37046
 15 03 02 02 31 30.0000000  0 10G01G04G11G14G16G18G19G22G27G32
  24563956.100   129084461.72808  24563958.420   100585295.39646
  22115162.840   116216033.21209  22115161.040    90557956.44847
  23635756.080   124206752.66008  23635753.260    96784471.23145
  24447834.600   128474251.64507  24447834.620   100109806.77744
  21700584.780   114037341.18909  21700581.560    88860253.08448
  23033232.600   121040534.81509  23033228.660    94317345.45046
  21146131.180   111123694.53809  21146126.460    86589873.71848
  20792950.820   109267848.80609  20792945.680    85143847.36248
  20360546.360   106995425.01109  20360545.400    83373073.28649
  23050918.840   121133492.52308  23050919.300    94389760.24546
 15 03 02 02 32  0.0000000  0 10G01G04G11G14G16G18G19G22G27G32
  24548918.620   129005439.41407  24548921.300   100523719.65045
  22102870.360   116151436.50609  22102868.640    90507621.38747
  23619816.240   124122988.56408  23619813.340    96719200.51745
  24433881.420   128400927.96407  24433881.200   100052671.69844
  21715575.180   114116115.94409  21715571.920    88921635.99548
  23047609.380   121116085.19609  23047605.420    94376215.87346
  21136915.820   111075267.33409  21136911.080    86552138.23648
  20797459.740   109291542.68309  20797454.460    85162310.13248
  20359246.860   106988595.68509  20359245.780    83367751.73349
  23029753.480   121022268.41208  23029753.880    94303092.35546
 15 03 02 02 32 30.0000000  0 10G01G04G11G14G16G18G19G22G27G32
  24533904.780   128926541.98807  24533907.400   100462241.22246
  22090621.240   116087066.99609  22090619.500    90457463.35447
  23603893.560   124039314.65208  23603890.980    96654000.10945
  24419941.100   128327671.40608  24419940.920    99995588.86045
  21730639.880   114195281.28309  21730636.700    88983323.24548
  23062036.840   121191901.31909  23062032.760    94435293.40646
  21127746.500   111027081.85909  21127741.680    86514591.12348
  20802063.520   109315735.66309  20802058.180    85181161.81148
  20358015.880   106982126.64509  20358014.740    83362710.92249
  23008628.320   120911255.69008  23008628.660    94216589.17746
 15 03 02 02 33  0.0000000  0 10G01G04G11G14G16G18G19G22G27G32
  24518914.300   128847766.04508  24518916.680   100400857.40546
  22078414.760   116022921.38909  22078412.900    90407479.77747
  23587987.320   123955727.61608  23587985.060    96588867.40746
  24406013.500   128254481.67307  24406013.100    99938558.10244
  21745777.740   114274831.06109  21745774.600    89045310.06748
  23076513.620   121267977.51708  23076509.680    94494573.53746
  21118622.780   110979136.12609  21118617.900    86477230.81448
  20806761.280   109340423.00509  20806755.940    85200398.69848
  20356852.940   106976015.45409  20356851.860    83357948.94949
  22987543.160   120800453.35708  22987543.380    94130249.93446
 15 03 02 02 33 30.0000000  0 10G01G04G11G14G16G18G19G22G27G32
  24503946.740   128769111.56407  24503949.180   100339568.33346
  22066250.900   115958999.73209  22066248.960    90357670.72047
  23572097.580   123872227.70108  23572095.100    96523802.57145
  24392099.080   128181361.53608  24392098.340    99881581.63444
  21760988.180   114354762.60209  21760985.140    89107594.36948
  23091039.440   121344311.63709  23091035.600    94554054.66546
  21109544.940   110931431.47709  21109540.000    86440058.36248
  20811552.940   109365603.50109  20811547.600    85220019.87248
  20355758.240   106970263.27309  20355757.280    83353466.73349
  22966498.580   120689864.14909  22966498.760    94044076.74646
 15 03 02 02 34  0.0000000  0 10G01G04G11G14G16G18G19G22G27G32
  24489002.820   128690580.33008  24489004.940   100278375.21746
  22054129.880   115895303.54209  22054127.920    90308037.34547
  23556225.000   123788816.94908  23556223.060    96458807.23545
  24378198.580   128108315.31908  24378198.040    99824662.90744
  21776271.180   114435075.44009  21776268.220    89170175.78148
  23105614.340   121420903.44009  23105610.600    94613736.57846
  21100513.580   110883970.81609  21100508.540    86403076.04148
  20816438.540   109391277.50009  20816433.140    85240025.60048
  20354732.360   106964872.86309  20354731.480    83349266.40949
  22945495.320   120579492.33709  22945495.460    93958072.95846
 15 03 02 02 34 30.0000000  0 10G01G04G11G14G16G18G19G22G27G32
  24474082.280   128612174.02607  24474084.740   100217279.55946
  22042052.040   115831834.88409  22042050.240    90258581.28747
  23540369.960   123705497.58608  23540367.640    96393883.05246
  24364312.980   128035347.56408  24364312.340    99767805.27544
  21791626.520   114515768.44609  21791623.600    89233053.43148
  23120238.140   121497752.10908  23120234.320    94673618.67446
  21091529.240   110836757.24909  21091524.080    86366286.25548
  20821418.140   109417445.35909  20821412.720    85260416.14348
  20353775.880   106959847.13109  20353775.060    83345350.25449
  22924534.300   120469342.28009  22924534.300    93872241.95746
 15 03 02 02 35  0.0000000  0 10G01G04G11G14G16G18G19G22G27G32
  24459184.760   128533886.69908  24459186.880   100156276.51146
  22030016.300   115768587.33409  22030014.640    90209297.52947
  23524531.180   123622263.85408  23524528.460    96329025.63445
  24350441.860   127962455.11208  24350440.980    99711006.26445
  21807052.560   114596832.91309  21807049.660    89296220.52548
  23134909.200   121574849.42509  23134905.540    94733694.49546
  21082591.060   110789786.30009  21082585.800    86329685.52348
  20826490.340   109444099.80809  20826484.920    85281185.84448
  20352887.900   106955181.14809  20352887.120    83341714.42149
  22903614.780   120359410.56108  22903614.700    93786581.08746
 15 03 02 02 35 30.0000000  0 10G01G04G11G14G16G18G19G22G27G32
  24444310.920   128455724.72807  24444312.980   100095371.18346
  22018024.000   115705567.61409  22018022.400    90160191.28047
  23508710.060   123539122.69308  23508707.540    96264240.39346
  24336586.760   127889647.20008  24336585.860    99654273.07844
  21822550.020   114678272.89809  21822547.080    89359680.23648
  23149628.480   121652199.82408  23149624.900    94793967.53946
  21073700.500   110743065.82309  21073695.220    86293279.96648
  20831656.160   109471245.92609  20831650.700    85302338.67148
  20352069.840   106950882.51109  20352069.100    83338364.83249
  22882738.520   120249706.39308  22882738.380    93701097.52046
 15 03 02 02 36  0.0000000  0 10G01G04G11G14G16G18G19G22G27G32
  24429460.800   128377685.97208  24429462.940   100034561.83746
  22006074.640   115642773.21109  22006073.000    90111260.60447
  23492906.140   123456072.10208  23492903.340    96199525.64945
  24322747.960   127816924.46108  24322746.900    99597606.22844
  21838117.980   114760083.44009  21838115.020    89423428.68448
  23164395.060   121729798.95908  23164391.300    94854434.39146
  21064857.400   110696594.82009  21064852.100    86257068.79048
  20836914.840   109498879.91309  20836909.300    85323871.64648
  20351321.480   106946949.95509  20351320.700    83335300.49249
  22861905.580   120140229.95508  22861905.500    93615791.38746
 15 03 02 02 36 30.0000000  0 10G01G04G11G14G16G18G19G22G27G32
  24414633.700   128299769.76908  24414635.580    99973848.01946
  21994168.140   115580203.86909  21994166.440    90062505.29647
  23477119.340   123373111.82408  23477116.280    96134881.30945
  24308925.620   127744289.31408  24308924.500    99541007.62145
  21853755.900   114842261.25109  21853752.900    89487463.32948
  23179208.420   121807643.86809  23179204.520    94915092.78845
  21056061.940   110650374.43909  21056056.680    86221052.92148
  20842266.020   109527000.07809  20842260.400    85345783.48648
  20350642.940   106943384.18709  20350642.120    83332521.97249
  22841116.320   120030983.38508  22841116.440    93530664.40546
 15 03 02 02 37  0.0000000  0 10G01G04G11G14G16G18G19G22G27G32
  24399830.420   128221977.69508  24399832.220    99913230.88446
  21982304.800   115517860.87909  21982302.880    90013926.37647
  23461349.960   123290243.51108  23461347.100    96070308.67045
  24295120.840   127671745.55408  24295119.760    99484480.19245
  21869463.400   114924804.89709  21869460.440    89551783.03347
  23194068.380   121885733.60308  23194064.740    94975941.91446
  21047314.620   110604407.37209  21047309.460    86185234.43748
  20847709.600   109555606.03509  20847703.980    85368073.85048
  20350034.720   106940187.55509  20350033.780    83330031.09549
  22820371.580   119921970.63808  22820371.760    93445719.59546
 15 03 02 02 37 30.0000000  0 10G01G04G11G14G16G18G19G22G27G32
  24385050.420   128144309.20608  24385052.340    99852710.10645
  21970484.440   115455743.87709  21970482.400    89965523.55447
  23445598.160   123207467.19608  23445595.260    96005807.67045
  24281333.980   127599295.96208  24281332.640    99428026.11744
  21885239.900   115007711.25109  21885237.060    89616385.36248
  23208974.340   121964065.81808  23208970.900    95036979.97946
  21038615.720   110558694.79609  21038610.680    86149614.25648
  20853245.300   109584696.29809  20853239.760    85390741.59348
  20349496.900   106937360.80009  20349495.900    83327828.43049
  22799671.800   119813193.98708  22799672.040    93360958.74946
 15 03 02 02 38  0.0000000  0 10G01G04G11G14G16G18G19G22G27G32
  24370293.660   128066761.89308  24370295.500    99792283.70646
  21958706.480   115393850.14009  21958704.380    89917294.70347
  23429863.520   123124780.79008  23429860.260    95941376.68945
  24267565.180   127526940.96008  24267563.860    99371645.76744
  21901084.580   115090975.64809  21901081.760    89681266.68848
  23223925.840   122042635.70309  23223922.180    95098203.30746
  21029965.000   110513235.43609  21029960.040    86114191.39148
  20858872.360   109614266.75809  20858866.860    85413783.52148
  20349029.160   106934902.47609  20349028.180    83325912.86149
  22779017.020   119704653.43408  22779017.260    93276381.87646
 15 03 02 02 38 30.0000000  0 10G01G04G11G14G16G18G19G22G27G32
  24355560.640   127989339.68707  24355562.600    99731954.86846
  21946971.780   115332183.92509  21946969.740    89869243.13647
  23414146.780   123042188.73208  23414143.440    95877019.29145
  24253815.720   127454687.51708  24253814.440    99315344.55245
  21916997.780   115174599.54809  21916994.880    89746428.14548
  23238922.840   122121444.96608  23238919.300    95159613.13146
  21021363.520   110468034.56909  21021358.600    86078969.94248
  20864591.300   109644319.95609  20864585.760    85437201.60848
  20348632.520   106932817.68309  20348631.540    83324288.34449
  22758408.540   119596355.75308  22758408.660    93191994.23546
 15 03 02 02 39  0.0000000  0 10G01G04G11G14G16G18G19G22G27G32
  24340851.560   127912042.85808  24340853.300    99671723.66246
  21935280.380   115270745.40309  21935278.400    89821368.99647
  23398448.080   122959691.72808  23398444.820    95812735.93745
  24240086.160   127382538.57908  24240084.840    99259124.74645
  21932978.840   115258579.96709  21932975.840    89811867.40548
  23253964.960   122200491.92109  23253961.640    95221208.12646
  21012811.640   110423094.29409  21012806.760    86043951.55648
  20870401.960   109674855.19409  20870396.380    85460995.30548
  20348307.200   106931107.73909  20348306.240    83322955.91849
  22737846.900   119488303.77108  22737846.800    93107798.04346
 15 03 02 02 39 30.0000000  0 10G01G04G11G14G16G18G19G22G27G32
  24326165.420   127834867.36708  24326167.340    99611586.98846
  21923631.540   115209530.56709  21923629.620    89773669.14247
  23382766.720   122877286.04808  23382763.500    95748523.77245
  24226376.280   127310492.93808  24226374.820    99202985.44345
  21949026.480   115342910.12009  21949023.380    89877579.18848
  23269051.220   122279770.23009  23269047.680    95282983.46245
  21004308.860   110378411.91309  21004303.980    86009134.12048
  20876303.240   109705866.55409  20876297.580    85485160.00748
  20348052.600   106929769.72009  20348051.700    83321913.30249
  22717331.700   119380496.00908  22717331.480    93023792.16646
 15 03 02 02 40  0.0000000  0 10G01G04G11G14G16G18G19G22G27G32
  24311503.180   127757816.95708  24311504.940    99551547.76546
  21912025.940   115148543.06109  21912024.060    89726146.44547
  23367103.460   122794975.66508  23367100.280    95684385.84545
  24212687.180   127238557.19408  24212685.640    99146931.76445
  21965140.820   115427591.21709  21965137.760    89943564.44648
  23284181.660   122359281.42908  23284178.000    95344940.25246
  20995856.160   110333992.43809  20995851.220    85974521.55148
  20882295.500   109737356.37409  20882289.860    85509697.53548
  20347869.600   106928808.28809  20347868.800    83321164.14049
  22696864.220   119272938.86709  22696863.840    92939981.56646
 15 03 02 02 40 30.0000000  0 10G01G04G11G14G16G18G19G22G27G32
  24296864.280   127680890.15108  24296866.080    99491604.88146
  21900463.360   115087781.45909  21900461.500    89678799.77247
  23351458.300   122712759.90508  23351455.040    95620321.60145
  24199019.400   127166733.05308  24199017.680    99090965.01445
  21981321.200   115512619.41209  21981318.180    90009820.15148
  23299355.640   122439021.95908  23299352.040    95407075.72545
  20987453.520   110289836.12209  20987448.560    85940114.03248
  20888378.300   109769321.68009  20888372.680    85534605.57448
  20347758.160   106928223.21309  20347757.480    83320708.23649
  22676444.700   119165633.41009  22676444.120    92856367.07046
 15 03 02 02 41  0.0000000  0 10G01G04G11G14G16G18G19G22G27G32
  24282248.860   127604086.71507  24282250.860    99431758.14646
  21888943.700   115027245.51809  21888941.880    89631628.95047
  23335831.200   122630638.81108  23335828.060    95556331.17245
  24185373.280   127095023.10208  24185371.700    99035087.27945
  21997566.980   115597991.48309  21997564.020    90076343.82348
  23314572.740   122518989.14508  23314569.320    95469387.78745
  20979101.160   110245944.08509  20979096.180    85905912.45748
  20894551.220   109801760.60109  20894545.600    85559882.66248
  20347718.500   106928015.20309  20347717.880    83320546.15449
  22656073.580   119058582.09009  22656072.800    92772950.60646
 15 03 02 02 41 30.0000000  0 10G01G04G11G14G16G18G19G22G27G32
  24267657.100   127527407.32108  24267659.200    99372008.05146
  21877467.140   114966935.96409  21877465.260    89584634.51147
  23320222.320   122548613.37308  23320219.440    95492415.29546
  24171749.700   127023430.80108  24171747.740    98979301.16945
  22013877.760   115683705.36109  22013874.900    90143133.83948
  23329832.880   122599181.85608  23329829.640    95531875.61446
  20970799.440   110202318.31709  20970794.440    85871918.34848
  20900814.140   109834672.47009  20900808.460    85585528.27948
  20347751.020   106928185.99409  20347750.340    83320679.24349
  22635751.440   118951788.15509  22635750.440    92689734.70147
 15 03 02 02 42  0.0000000  0 10G01G04G11G14G16G18G19G22G27G32
  24253089.140   127450853.00408  24253091.200    99312355.38045
  21866033.840   114906853.73309  21866031.860    89537817.20447
  23304631.920   122466685.05708  23304628.680    95428575.06545
  24158149.000   126951959.80908  24158147.000    98923609.60445
  22030253.340   115769759.51709  22030250.500    90210188.99748
  23345135.760   122679598.88408  23345132.420    95594538.22846
  20962548.880   110158961.49709  20962543.900    85838133.81148
  20907166.920   109868056.65409  20907161.200    85611541.93948
  20347856.060   106928737.66309  20347855.280    83321109.10449
  22615478.880   118845255.12309  22615477.720    92606722.08347
 15 03 02 02 42 30.0000000  0 10G01G04G11G14G16G18G19G22G27G32
  24238544.580   127374420.87607  24238546.760    99252797.96946
  21854643.220   114846995.87309  21854641.200    89491174.74147
  23289059.460   122384851.25108  23289056.320    95364808.51645
  24144571.540   126880610.29308  24144569.480    98868012.68244
  22046692.600   115856148.22209  22046689.740    90277504.85348
  23360480.540   122760235.37409  23360476.780    95657371.87845
  20954349.180   110115872.06409  20954344.240    85804557.63848
  20913608.660   109901908.75709  20913602.960    85637920.20948
  20348033.200   106929668.36609  20348032.340    83321834.32349
  22595255.860   118738982.79309  22595254.580    92523912.60946
 15 03 02 02 43  0.0000000  0 10G01G04G11G14G16G18G19G22G27G32
  24224023.780   127298113.45708  24224025.600    99193337.73345
  21843295.780   114787364.95409  21843293.760    89444709.12247
  23273505.500   122303115.06008  23273502.640    95301118.02546
  24131018.220   126809387.67208  24131016.040    98812514.65544
  22063195.500   115942871.55509  22063192.580    90345081.45547
  23375866.980   122841091.09208  23375863.160    95720376.34446
  20946201.100   110073053.90609  20946196.200    85771192.84148
  20920139.700   109936230.02209  20920134.060    85664664.05648
  20348283.140   106930981.66809  20348282.200    83322857.67749
  22575083.400   118632976.33309  22575082.080    92441310.30446
 15 03 02 02 43 30.0000000  0 10G01G04G11G14G16G18G19G22G27G32
  24209526.360   127221929.10307  24209528.260    99133973.38946
  21831991.200   114727959.33809  21831989.220    89398419.04847
  23257969.880   122221475.44608  23257966.680    95237502.75646
  24117489.600   126738293.48508  24117487.240    98757116.66144
  22079761.160   116029924.70409  22079758.140    90412915.04747
  23391294.320   122922162.34308  23391290.480    95783548.72045
  20938104.720   110030507.43109  20938099.900    85738039.73848
  20926759.380   109971017.07709  20926753.800    85691770.85648
  20348605.780   106932677.00509  20348604.800    83324178.70949
  22554961.680   118527236.72209  22554960.360    92358915.92846
 15 03 02 02 44  0.0000000  0 10G01G04G11G14G16G18G19G22G27G32
  24195052.800   127145868.64708  24195054.560    99074705.54246
  21820729.680   114668780.08409  21820727.700    89352305.35847
  23242452.860   122139933.31808  23242449.540    95173963.49345
  24103985.900   126667331.38108  24103983.600    98701821.61945
  22096389.200   116117305.77009  22096386.180    90481004.15948
  23406762.560   123003448.28508  23406758.440    95846888.45045
  20930060.400   109988234.46009  20930055.680    85705099.76249
  20933467.580   110006269.08709  20933462.020    85719239.95348
  20349001.440   106934756.13909  20349000.440    83325798.81349
  22534891.340   118421767.18809  22534890.020    92276731.97447
 15 03 02 02 44 30.0000000  0 10G01G04G11G14G16G18G19G22G27G32
  24180603.060   127069935.88608  24180604.940    99015537.24146
  21809511.940   114609830.98809  21809510.040    89306371.01847
  23226955.280   122058493.35608  23226952.460    95110503.83346
  24090508.440   126596508.07208  24090506.280    98646634.72845
  22113079.940   116205016.14909  22113076.960    90549349.88648
  23422271.800   123084950.29308  23422267.600    95910396.54346
  20922069.180   109946240.68909  20922064.560    85672377.35549
  20940264.760   110041988.44409  20940259.220    85747073.22648
  20349471.100   106937224.07709  20349470.040    83327721.88049
  22514873.680   118316574.49509  22514872.360    92194763.76646
 15 03 02 02 45  0.0000000  0 10G01G04G11G14G16G18G19G22G27G32
  24166176.960   126994126.17708  24166178.880    98956464.80846
  21798337.120   114551107.14909  21798335.260    89260612.20947
  23211476.380   121977151.18508  23211473.440    95047120.33346
  24077057.040   126525821.72808  24077055.160    98591554.55645
  22129831.940   116293048.29009  22129829.000    90617946.33148
  23437820.840   123166661.75108  23437816.880    95974067.77746
  20914130.420   109904522.74109  20914125.920    85639869.87249
  20947149.640   110078168.92209  20947144.120    85775265.81048
  20350014.000   106940076.94909  20350012.900    83329944.89349
  22494908.220   118211656.17709  22494906.920    92113009.34047
 15 03 02 02 45 30.0000000  0 10G01G04G11G14G16G18G19G22G27G32
  24151774.480   126918440.44208  24151776.100    98897488.91746
  21787205.420   114492609.59209  21787203.580    89215029.72447
  23196016.420   121895908.05608  23196013.080    94983813.99546
  24063632.420   126455276.21908  24063630.580    98536584.15245
  22146644.920   116381400.66009  22146641.980    90686792.30948
  23453409.560   123248581.10708  23453405.680    96037901.04546
  20906244.620   109863082.93409  20906240.200    85607579.11748
  20954122.120   110114809.70409  20954116.680    85803817.07348
  20350630.560   106943316.79709  20350629.400    83332469.45449
  22474995.720   118107016.02709  22474994.460    92031471.67947
 15 03 02 02 46  0.0000000  0 10G01G04G11G14G16G18G19G22G27G32
  24137395.440   126842878.67008  24137397.220    98838609.72146
  21776116.820   114434338.21109  21776114.920    89169623.48647
  23180575.460   121814764.71408  23180572.080    94920585.44945
  24050235.200   126384874.16807  24050233.660    98481725.49345
  22163518.140   116470069.59909  22163515.140    90755884.96048
  23469037.500   123330706.46708  23469033.500    96101894.85145
  20898412.120   109821922.96609  20898407.680    85575506.41549
  20961181.900   110151909.17409  20961176.500    85832725.76148
  20351320.940   106946944.67109  20351319.720    83335296.36749
  22455136.560   118002656.46109  22455135.400    91950152.65846
 15 03 02 02 46 30.0000000  0 10G01G04G11G14G16G18G19G22G27G32
  24123040.140   126767441.86907  24123041.900    98779827.91045
  21765071.480   114376294.20309  21765069.460    89124394.40147
  23165153.660   121733722.40808  23165150.540    94857435.63046
  24036866.060   126314619.85808  24036864.720    98426981.94345
  22180451.500   116559054.57009  22180448.420    90825223.87447
  23484704.520   123413036.81408  23484700.520    96166048.35945
  20890633.380   109781045.28509  20890628.860    85543653.67749
  20968328.840   110189466.77309  20968323.520    85861991.42948
  20352085.500   106950962.55309  20352084.240    83338427.17349
  22435331.500   117898581.15409  22435330.420    91869055.11646
 15 03 02 02 47  0.0000000  0 10G01G04G11G14G16G18G19G22G27G32
  24108708.360   126692126.96908  24108709.660    98721140.95446
  21754068.760   114318474.32209  21754066.700    89079339.96347
  23149750.640   121652778.66308  23149747.160    94794362.58646
  24023525.180   126244513.09008  24023523.880    98372353.39045
  22197443.560   116648348.56609  22197440.480    90894803.58047
  23500409.440   123495566.53608  23500405.420    96230357.22445
  20882908.060   109740448.33909  20882903.460    85512019.69748
  20975562.000   110227477.65609  20975556.820    85891610.30148
  20352923.840   106955368.25909  20352922.600    83341860.18549
  22415580.460   117794789.50509  22415579.440    91788178.60346
 15 03 02 02 47 30.0000000  0 10G01G04G11G14G16G18G19G22G27G32
  24094400.300   126616938.39408  24094401.900    98662552.57446
  21743109.620   114260883.39809  21743107.540    89034463.93647
  23134367.300   121571938.72908  23134363.520    94731370.46846
  24010213.840   126174561.49408  24010212.660    98317845.74245
  22214494.920   116737954.48509  22214491.920    90964626.36647
  23516152.800   123578298.47508  23516148.680    96294823.70646
  20875237.340   109700138.31309  20875232.680    85480609.29949
  20982882.060   110265945.09109  20982876.920    85921584.94248
  20353837.100   106960167.44609  20353835.880    83345599.81249
  22395884.880   117691288.78609  22395883.840    91707528.79647
 15 03 02 02 48  0.0000000  0 10G01G04G11G14G16G18G19G22G27G32
  24080115.800   126541872.93707  24080117.240    98604060.03845
  21732193.360   114203517.92009  21732191.340    88989763.59947
  23119002.980   121491198.91108  23118999.520    94668456.36746
  23996932.100   126104764.89108  23996930.800    98263458.84145
  22231604.280   116827865.51509  22231601.440    91034686.87247
  23531933.480   123661226.69708  23531929.580    96359443.07645
  20867620.860   109660113.30909  20867616.140    85449420.98249
  20990288.020   110304863.81609  20990282.880    85951911.21548
  20354824.800   106965357.66109  20354823.620    83349644.12249
  22376244.540   117588078.22909  22376243.420    91627105.08647
 15 03 02 02 48 30.0000000  0 10G01G04G11G14G16G18G19G22G27G32
  24065855.560   126466935.15408  24065857.120    98545667.01845
  21721320.780   114146382.44209  21721318.840    88945242.45347
  23103658.760   121410565.05309  23103655.420    94605624.82446
  23983681.100   126035130.14308  23983679.400    98209198.08145
  22248772.200   116918083.84309  22248769.420    91104986.83747
  23547751.940   123744354.21408  23547748.340    96424217.74445
  20860059.740   109620379.24709  20860055.020    85418459.38849
  20997780.480   110344236.78509  20997775.240    85982591.45948
  20355888.000   106970944.49209  20355886.840    83353997.50149
  22356660.740   117485164.93609  22356659.580    91546913.01047
 15 03 02 02 49  0.0000000  0 10G01G04G11G14G16G18G19G22G27G32
  24051618.960   126392121.81508  24051620.340    98487370.96545
  21710491.320   114089473.79709  21710489.500    88900898.09947
  23088334.180   121330034.45408  23088330.640    94542873.74546
  23970460.800   125965657.10808  23970459.100    98155063.33444
  22265997.500   117008603.43709  22265994.820    91175521.55547
  23563607.380   123827675.72308  23563603.840    96489143.61345
  20852553.760   109580934.69109  20852548.960    85387723.38448
  21005358.560   110384059.07109  21005353.120    86013621.82448
  20357026.260   106976925.76809  20357025.080    83358658.23449
  22337133.380   117382548.28509  22337132.200    91466952.09747
 15 03 02 02 49 30.0000000  0 10G01G04G11G14G16G18G19G22G27G32
  24037405.100   126317428.30207  24037406.500    98429168.26646
  21699704.140   114032787.46709  21699702.440    88856726.95547
  23073028.440   121249602.93109  23073024.960    94480199.86746
  23957271.040   125896344.13808  23957268.860    98101053.28744
  22283278.720   117099416.63009  22283276.040    91246285.04547
  23579498.500   123911184.11708  23579494.800    96554215.06945
  20845102.280   109541776.51309  20845097.420    85357210.51448
  21013020.980   110424324.50309  21013015.420    86044997.49348
  20358238.800   106983297.68709  20358237.700    83363623.36449
  22317662.100   117280226.14109  22317660.900    91387220.64947
 15 03 02 02 50  0.0000000  0 10G01G04G11G14G16G18G19G22G27G32
  24023215.400   126242860.83608  24023216.580    98371063.81145
  21688960.500   113976329.66509  21688958.860    88812733.86747
  23057742.900   121169277.29308  23057739.720    94417608.48846
  23944113.500   125827200.34208  23944110.840    98047175.06445
  22300616.560   117190527.15509  22300613.800    91317280.22347
  23595426.000   123994883.67608  23595422.580    96619435.49446
  20837706.820   109502912.66709  20837701.840    85326926.99448
  21020768.520   110465037.71709  21020762.920    86076722.07048
  20359527.000   106990067.58909  20359526.020    83368898.60849
  22298248.600   117178207.48109  22298247.260    91307725.66947
 15 03 02 02 50 30.0000000  0 10G01G04G11G14G16G18G19G22G27G32
  24009049.640   126168418.94708  24009050.720    98313057.20946
  21678260.320   113920099.84509  21678258.600    88768918.45447
  23042477.520   121089057.44308  23042474.220    94355099.52646
  23930988.660   125758228.67408  23930985.880    97993431.00345
  22318010.280   117281931.30309  22318007.460    91388504.20147
  23611389.380   124078771.71008  23611386.080    96684802.78545
  20830367.560   109464343.96509  20830362.440    85296873.47048
  21028600.780   110506196.44809  21028595.180    86108793.82048
  20360890.960   106997235.83909  20360890.060    83374484.25749
  22278893.200   117076494.20209  22278891.760    91228468.65047
 15 03 02 02 51  0.0000000  0 10G01G04G11G14G16G18G19G22G27G32
  23994907.300   126094101.24708  23994908.720    98255147.40646
  21667603.240   113864096.59009  21667601.460    88725279.57047
  23027232.120   121008942.59808  23027228.820    94292672.40546
  23917896.640   125689430.25408  23917893.740    97939821.89645
  22335459.160   117373625.42609  22335456.320    91459954.13947
  23627388.020   124162844.90508  23627384.620    96750314.34945
  20823084.520   109426070.80609  20823079.240    85267050.23149
  21036517.120   110547797.43909  21036511.480    86141210.18348
  20362330.660   107004802.03109  20362329.820    83380379.99149
  22259596.140   116975087.58509  22259594.620    91149450.59447
 15 03 02 02 51 30.0000000  0 10G01G04G11G14G16G18G19G22G27G32
  23980788.640   126019907.29008  23980789.880    98197334.00346
  21656989.240   113808319.73609  21656987.360    88681817.11147
  23012006.640   120928932.69408  23012003.660    94230327.05246
  23904837.860   125620807.72808  23904835.260    97886349.86145
  22352962.500   117465605.71509  22352959.640    91531627.06247
  23643421.500   124247100.89808  23643417.760    96815968.40545
  20815857.840   109388094.03109  20815852.500    85237457.94149
  21044517.160   110589838.62209  21044511.600    86173969.55648
  20363846.180   107012766.65709  20363845.440    83386586.19349
  22240357.720   116873989.68109  22240356.240    91070673.08447
 15 03 02 02 52  0.0000000  0 10G01G04G11G14G16G18G19G22G27G32
  23966693.620   125945836.44407  23966694.480    98139616.46646
  21646418.120   113752768.34609  21646416.200    88638530.33247
  22996801.200   120849027.98608  22996798.420    94168063.67246
  23891813.160   125552363.47108  23891811.060    97833016.72545
  22370519.680   117557869.17909  22370516.820    91603520.64047
  23659489.200   124331536.70108  23659485.480    96881762.53745
  20808687.720   109350414.50109  20808682.320    85208097.27149
  21052600.500   110632317.68309  21052595.140    86207070.12148
  20365437.620   107021129.92809  20365436.880    83393103.01949
  22221178.400   116773202.35509  22221176.960    90992137.57647
 15 03 02 02 52 30.0000000  0 10G01G04G11G14G16G18G19G22G27G32
  23952622.500   125871892.71608  23952623.440    98081998.06945
  21635890.760   113697446.74809  21635888.840    88595422.61047
  22981616.740   120769233.23308  22981613.960    94105885.95546
  23878823.780   125484104.51308  23878821.640    97779827.96145
  22388131.020   117650417.21709  22388128.140    91675635.94147
  23675591.540   124416154.40708  23675587.860    96947698.39746
  20801575.200   109313038.05409  20801569.840    85178972.76049
  21060767.640   110675237.06809  21060762.460    86240513.79048
  20367105.940   107029896.99009  20367105.160    83399934.49049
  22202059.460   116672732.35609  22202058.120    90913849.33647
 15 03 02 02 53  0.0000000  0 10G01G04G11G14G16G18G19G22G27G32
  23938574.340   125798069.97808  23938575.580    98024473.97245
  21625406.020   113642348.63109  21625404.060    88552489.04547
  22966452.100   120689542.41508  22966449.140    94043789.23646
  23865869.260   125416027.31208  23865867.200    97726780.87445
  22405794.760   117743240.76809  22405791.920    91747965.95047
  23691727.000   124500945.93108  23691723.160    97013769.71245
  20794519.500   109275960.22109  20794514.180    85150080.94649
  21069017.160   110718588.77709  21069012.060    86274294.35348
  20368850.100   107039062.46609  20368849.280    83407076.41349
  22183000.260   116572575.89209  22182998.940    90835805.41547
 15 03 02 02 53 30.0000000  0 10G01G04G11G14G16G18G19G22G27G32
  23924550.160   125724372.15207  23924551.180    97967047.12146
  21614964.600   113587478.17309  21614962.600    88509732.86748
  22951308.140   120609960.06908  22951305.160    93981777.05546
  23852950.640   125348138.79108  23852948.360    97673880.79545
  22423511.140   117836341.03709  22423508.400    91820511.58347
  23707895.760   124585912.94108  23707892.040    97079977.78745
  20787521.580   109239186.28709  20787516.380    85121425.94149
  21077349.420   110762374.73709  21077344.300    86308413.28648
  20370671.000   107048631.17609  20370670.140    83414532.54549
  22164002.020   116472739.47209  22164000.640    90758010.89047
 15 03 02 02 54  0.0000000  0 10G01G04G11G14G16G18G19G22G27G32
  23910549.960   125650801.11108  23910551.080    97909719.09145
  21604566.780   113532837.08709  21604564.760    88467155.41947
  22936185.340   120530488.66908  22936182.380    93919851.33246
  23840068.780   125280444.09708  23840066.560    97621131.73645
  22441280.000   117929717.03709  22441277.340    91893272.06447
  23724097.780   124671055.16208  23724094.120    97146322.33645
  20780582.140   109202719.60109  20780577.000    85093010.34049
  21085764.440   110806595.38209  21085759.220    86342870.93848
  20372569.160   107058605.96409  20372568.300    83422305.09049
  22145065.540   116373227.51909  22145064.100    90680469.18347
 15 03 02 02 54 30.0000000  0 10G01G04G11G14G16G18G19G22G27G32
  23896573.340   125577354.61008  23896574.640    97852488.14546
  21594212.140   113478423.18909  21594210.140    88424755.00247
  22921083.280   120451126.52208  22921080.140    93858010.69146
  23827223.780   125212944.05408  23827221.720    97568534.35845
  22459100.320   118023363.08509  22459097.660    91966242.97847
  23740332.480   124756368.32509  23740328.680    97212800.16146
  20773701.020   109166559.51009  20773695.980    85064833.64848
  21094261.340   110851246.67209  21094256.080    86377664.15548
  20374544.340   107068985.45709  20374543.480    83430393.00649
  22126190.800   116274040.36909  22126189.320    90603180.55647
 15 03 02 02 55  0.0000000  0 10G01G04G11G14G16G18G19G22G27G32
  23882619.980   125504030.08607  23882620.860    97795352.15446
  21583900.240   113424233.86809  21583898.240    88382529.57147
  22906001.620   120371871.48008  22905998.160    93796253.54446
  23814415.940   125145638.75308  23814413.880    97516088.71145
  22476971.060   118117274.11109  22476968.400    92039420.37047
  23756598.900   124841848.19008  23756594.900    97279407.86345
  20766878.100   109130705.02109  20766873.060    85036895.09748
  21102839.260   110896324.13809  21102833.960    86412789.45348
  20376596.260   107079767.92809  20376595.320    83438794.92749
  22107377.780   116175177.79209  22107376.320    90526144.86147
 15 03 02 02 55 30.0000000  0 10G01G04G11G14G16G18G19G22G27G32
  23868690.740   125430831.61708  23868691.860    97738314.45046
  21573631.940   113370273.35009  21573629.880    88340482.43947
  22890941.340   120292728.88808  22890937.740    93734584.00746
  23801646.420   125078535.13708  23801644.280    97463800.23745
  22494892.580   118211452.12409  22494889.960    92112805.79447
  23772897.180   124927496.65208  23772893.340    97346146.89045
  20760114.480   109095162.27309  20760109.480    85009199.45149
  21111498.820   110941830.48009  21111493.440    86448248.93548
  20378725.820   107090958.37909  20378724.760    83447514.75349
  22088627.800   116076646.56009  22088626.400    90449367.34547
 15 03 02 02 56  0.0000000  0 10G01G04G11G14G16G18G19G22G27G32
  23854784.980   125357756.24708  23854786.100    97681372.65046
  21563406.600   113316538.71309  21563404.460    88298611.31448
  22875901.840   120213695.96808  22875898.360    93672999.97146
  23788915.560   125011633.49108  23788913.360    97411669.13145
  22512863.720   118305891.11509  22512861.180    92186394.57547
  23789226.620   125013308.64408  23789222.980    97413013.37245
  20753409.880   109059929.37309  20753404.880    84981745.25549
  21120239.120   110987760.64309  21120233.580    86484038.68348
  20380932.540   107102554.74809  20380931.440    83456550.88849
  22069940.860   115978446.21109  22069939.420    90372847.65247
 15 03 02 02 56 30.0000000  0 10G01G04G11G14G16G18G19G22G27G32
  23840902.580   125284804.04208  23840904.140    97624526.89545
  21553224.320   113263030.14209  21553222.120    88256916.32548
  22860883.300   120134773.56208  22860880.060    93611502.01946
  23776223.680   124944936.73308  23776221.400    97359697.67845
  22530883.940   118400587.98909  22530881.440    92260184.30247
  23805586.980   125099282.39609  23805583.260    97480005.90245
  20746764.600   109025008.10109  20746759.560    84954533.86549
  21129059.800   111034112.97509  21129054.060    86520157.38348
  20383216.660   107114557.95809  20383215.540    83465904.02049
  22051317.440   115880579.30009  22051315.920    90296587.76747
 15 03 02 02 57  0.0000000  0 10G01G04G11G14G16G18G19G22G27G32
  23827044.520   125211979.40108  23827045.900    97567780.43546
  21543085.800   113209751.88109  21543083.620    88215400.81848
  22845886.640   120055966.41008  22845883.500    93550093.86046
  23763571.880   124878451.87708  23763569.660    97307891.33645
  22548953.560   118495544.38609  22548951.080    92334176.26147
  23821978.480   125185420.01508  23821974.500    97547126.15645
  20740179.760   108990404.42109  20740174.680    84927569.96249
  21137961.260   111080889.82009  21137955.360    86556606.88048
  20385579.200   107126973.12609  20385578.060    83475578.18049
  22032758.740   115783052.61809  22032757.200    90220593.01747
 15 03 02 02 57 30.0000000  0 10G01G04G11G14G16G18G19G22G27G32
  23813209.680   125139276.34208  23813210.960    97511128.74345
  21532989.900   113156697.76509  21532987.720    88174059.97147
  22830910.940   119977269.26608  22830907.780    93488771.45046
  23750959.940   124812176.05308  23750957.900    97256247.88145
  22567070.860   118590751.33309  22567068.360    92408363.46147
  23838399.560   125271713.46208  23838395.420    97614367.83445
  20733654.420   108956113.68809  20733649.360    84900849.91649
  21146941.880   111128083.37509  21146935.960    86593381.07348
  20388019.140   107139795.11609  20388018.060    83485569.34249
  22014264.060   115685862.61809  22014262.540    90144860.61747
 15 03 02 02 58  0.0000000  0 10G01G04G11G14G16G18G19G22G27G32
  23799398.420   125066697.20008  23799399.500    97454573.60446
  21522937.180   113103870.70909  21522935.020    88132896.05847
  22815956.780   119898685.25808  22815953.660    93427537.18246
  23738388.780   124746115.03608  23738386.820    97204771.82645
  22585235.900   118686208.87309  22585233.340    92482745.91547
  23854850.360   125358163.18408  23854846.300    97681731.23745
  20727189.460   108922140.40109  20727184.460    84874377.22349
  21156001.860   111175694.37009  21155995.980    86630480.54748
  20390537.120   107153027.31609  20390536.180    83495880.14649
  21995834.380   115589014.33809  21995832.860    90069394.48447
 15 03 02 02 58 30.0000000  0 10G01G04G11G14G16G18G19G22G27G32
  23785610.660   124994242.10908  23785611.760    97398115.18546
  21512927.600   113051270.55009  21512925.460    88091908.94747
  22801024.300   119820214.88008  22801021.400    93366391.44546
  23725859.020   124680271.33108  23725857.240    97153465.09445
  22603448.140   118781914.31009  22603445.480    92557321.53547
  23871330.580   125444767.24008  23871326.560    97749214.91745
  20720785.200   108888485.86109  20720780.240    84848152.90949
  21165141.040   111223721.22709  21165135.240    86667904.08448
  20393133.300   107166670.53109  20393132.460    83506511.22149
  21977470.160   115492510.23309  21977468.660    89994196.54247
 15 03 02 02 59  0.0000000  0 10G01G04G11G14G16G18G19G22G27G32
  23771847.000   124921913.81008  23771848.100    97341755.51146
  21502961.680   112998900.05409  21502959.640    88051100.78347
  22786114.160   119741861.69208  22786111.320    93305337.04146
  23713371.760   124614650.73308  23713369.740    97102332.21445
  22621707.400   118877866.82209  22621704.620    92632089.68547
  23887840.240   125531526.50208  23887836.420    97816819.53445
  20714442.400   108855154.22809  20714437.460    84822180.20949
  21174359.520   111272164.88109  21174353.780    86705652.38548
  20395808.320   107180728.27409  20395807.580    83517465.29849
  21959172.400   115396355.56209  21959170.880    89919270.86947
 15 03 02 02 59 30.0000000  0 10G01G04G11G14G16G18G19G22G27G32
  23758106.360   124849706.82708  23758107.480    97285490.38546
  21493038.480   112946753.90109  21493036.500    88010467.43147
  22771225.520   119663620.97409  22771222.500    93244370.26546
  23700926.600   124549251.11008  23700924.540    97051371.49146
  22640012.240   118974058.75109  22640009.340    92707044.40047
  23904378.020   125618433.71908  23904374.400    97884539.39045
  20708160.420   108822141.95809  20708155.400    84796456.36349
  21183655.900   111321017.88809  21183650.200    86743719.66248
  20398561.360   107195195.94709  20398560.660    83528738.79849
  21940940.540   115300547.32709  21940939.120    89844615.14947
 15 03 02 03 00  0.0000000  0 10G01G04G11G14G16G18G19G22G27G32
  23744389.120   124777622.99108  23744390.180    97229321.18646
  21483158.380   112894834.13009  21483156.400    87970010.47947
  22756358.800   119585495.16009  22756355.540    93183493.01046
  23688524.340   124484076.93608  23688522.180    97000586.46345
  22658362.400   119070488.97509  22658359.440    92782184.79847
  23920943.960   125705488.43708  23920940.500    97952374.25445
  20701939.820   108789452.25309  20701934.700    84770983.86549
  21193030.100   111370279.99909  21193024.540    86782105.71948
  20401392.900   107210076.14709  20401392.220    83540333.76049
  21922775.480   115205089.74709  21922774.100    89770232.66847
 15 03 02 03 00 30.0000000  0 10G01G04G11G14G16G18G19G22G27G32
  23730695.820   124705663.80708  23730696.760    97173249.11546
  21473321.620   112843141.87209  21473319.620    87929730.82647
  22741514.360   119507486.21908  22741510.880    93122706.82946
  23676165.740   124419132.39608  23676163.440    96949980.34545
  22676757.660   119167156.41709  22676754.680    92857510.03047
  23937537.900   125792690.14308  23937534.280    98020323.64845
  20695781.220   108757088.25009  20695776.020    84745765.16449
  21202482.140   111419951.12709  21202476.660    86820810.49648
  20404303.400   107225371.14109  20404302.700    83552251.93049
  21904677.980   115109986.84209  21904676.600    89696126.55847
 15 03 02 03 01  0.0000000  0 10G01G04G11G14G16G18G19G22G27G32
  23717026.200   124633829.56608  23717027.220    97117274.43346
  21463528.320   112791677.91009  21463526.320    87889629.06048
  22726692.320   119429595.19208  22726688.660    93062012.53746
  23663851.580   124354421.22708  23663849.340    96899556.09645
  22695197.440   119264058.11709  22695194.580    92933017.79347
  23954159.500   125880037.32508  23954155.580    98088386.40345
  20689684.940   108725051.73309  20689679.660    84720801.64049
  21212011.860   111470029.92009  21212006.420    86859832.92648
  20407293.080   107241082.06509  20407292.360    83564494.19149
  21886648.520   115015241.29909  21886647.080    89622298.90847
 15 03 02 03 01 30.0000000  0 10G01G04G11G14G16G18G19G22G27G32
  23703379.820   124562118.11908  23703380.800    97061395.47046
  21453778.040   112740439.77909  21453775.980    87849703.27147
  22711892.420   119351820.85108  22711888.740    93001409.18446
  23651581.860   124289943.78108  23651579.720    96849313.96945
  22713680.900   119361189.38909  22713678.100    93008704.45047
  23970808.040   125967525.80908  23970804.020    98156559.24445
  20683650.860   108693342.35309  20683645.620    84696093.03649
  21221618.300   111520511.64409  21221612.700    86899169.34048
  20410361.620   107257207.44609  20410360.900    83577059.42349
  21868687.140   114920853.43609  21868685.600    89548749.98247
 15 03 02 03 02  0.0000000  0 10G01G04G11G14G16G18G19G22G27G32
  23689757.120   124490530.79408  23689758.400    97005613.16546
  21444071.020   112689428.85809  21444068.900    87809954.52247
  22697114.960   119274164.85609  22697111.320    92940898.05146
  23639357.400   124225704.30708  23639355.520    96799257.28945
  22732207.700   119458548.29609  22732204.940    93084568.48647
  23987483.300   126055154.83108  23987479.400    98224841.58345
  20677679.560   108661962.89109  20677674.360    84671641.50549
  21231301.300   111571396.19709  21231295.700    86938819.63748
  20413509.460   107273749.39609  20413508.780    83589949.25049
  21850794.540   114826826.95509  21850792.860    89475482.64147
 15 03 02 03 02 30.0000000  0 10G01G04G11G14G16G18G19G22G27G32
  23676158.120   124419068.09008  23676159.060    96949927.98046
  21434407.440   112638645.73809  21434405.180    87770383.27348
  22682360.280   119196628.70509  22682356.600    92880480.28846
  23627179.120   124161706.73008  23627177.400    96749389.08246
  22750777.560   119556133.21509  22750774.720    93160608.65147
  24004184.960   126142923.03308  24004181.280    98293232.34045
  20671771.380   108630915.41609  20671766.220    84647448.67049
  21241060.780   111622682.50809  21241055.160    86978782.99948
  20416736.840   107290709.13509  20416736.160    83603164.62749
  21832971.220   114733164.69709  21832969.460    89402499.11547
 15 03 02 03 03  0.0000000  0 10G01G04G11G14G16G18G19G22G27G32
  23662582.420   124347727.69408  23662583.480    96894338.09446
  21424786.800   112588088.30309  21424784.420    87730987.88448
  22667628.000   119119210.35109  22667624.200    92820154.29146
  23615046.980   124097951.42008  23615045.020    96699709.64545
  22769389.300   119653938.61309  22769386.500    93236820.59347
  24020912.340   126230826.14808  24020908.620    98361728.28044
  20665926.240   108600199.30009  20665921.180    84623514.02849
  21250895.900   111674366.23609  21250890.240    87019056.03048
  20420043.520   107308085.16009  20420042.760    83616704.37849
  21815217.180   114639866.95209  21815215.520    89329799.61447
 15 03 02 03 03 30.0000000  0 10G01G04G11G14G16G18G19G22G27G32
  23649030.240   124276510.65208  23649031.220    96838844.33446
  21415209.260   112537757.66209  21415206.860    87691769.21548
  22652918.500   119041911.75909  22652914.800    92759921.64446
  23602961.840   124034442.32008  23602959.760    96650222.05145
  22788042.580   119751962.57709  22788039.900    93313202.83847
  24037665.280   126318863.68108  24037661.400    98430329.07445
  20660144.640   108569817.19509  20660139.640    84599839.66649
  21260806.380   111726446.33309  21260800.860    87059637.92648
  20423429.740   107325879.24109  20423428.940    83630569.88749
  21797533.100   114546937.05009  21797531.560    89257386.76047
 15 03 02 03 04  0.0000000  0 10G01G04G11G14G16G18G19G22G27G32
  23635501.960   124205419.03208  23635503.020    96783448.29146
  21405675.140   112487655.68909  21405672.800    87652728.73547
  22638232.340   118964736.05308  22638228.760    92699784.74346
  23590924.200   123971184.18908  23590922.260    96600930.03846
  22806737.420   119850204.95008  22806734.840    93389755.30047
  24054443.400   126407035.02508  24054439.900    98499033.93145
  20654427.320   108539772.47009  20654422.320    84576428.19449
  21270792.340   111778922.93609  21270786.860    87100528.78748
  20426895.940   107344094.01309  20426895.120    83644763.21149
  21779919.860   114454379.30109  21779918.400    89185263.88847
 15 03 02 03 04 30.0000000  0 10G01G04G11G14G16G18G19G22G27G32
  23621997.240   124134451.52808  23621998.100    96728148.98446
  21396184.220   112437781.29509  21396182.080    87613865.58148
  22623569.420   118887682.31709  22623565.840    92639742.89146
  23578934.500   123908178.89908  23578932.640    96551835.04845
  22825473.000   119948661.44708  22825470.580    93466474.57947
  24071246.580   126495337.18608  24071243.480    98567840.75545
  20648774.360   108510065.67009  20648769.340    84553280.03749
  21280853.180   111831792.72109  21280847.640    87141726.03448
  20430442.040   107362729.03909  20430441.220    83659284.00249
  21762377.740   114362194.99009  21762376.320    89113431.99348
 15 03 02 03 05  0.0000000  0 10G01G04G11G14G16G18G19G22G27G32
  23608515.360   124063603.62008  23608516.500    96672942.91446
  21386735.720   112388130.09609  21386733.800    87575176.36448
  22608928.980   118810746.61408  22608925.520    92579793.01146
  23566992.740   123845424.77408  23566990.960    96502935.76646
  22844247.800   120047323.86009  22844245.420    93543354.32847
  24088073.660   126583764.25608  24088070.880    98636744.96345
  20643185.120   108480693.53509  20643180.040    84530392.66149
  21290987.660   111885049.60209  21290982.160    87183224.89848
  20434067.340   107381780.39209  20434066.580    83674129.21249
  21744906.300   114270381.90609  21744904.860    89041889.37147
 15 03 02 03 05 30.0000000  0 10G01G04G11G14G16G18G19G22G27G32
  23595057.100   123992879.28008  23595057.820    96617833.00846
  21377330.420   112338705.87809  21377328.700    87536664.00248
  22594311.900   118733933.84709  22594308.540    92519938.94846
  23555100.280   123782929.01008  23555098.020    96454237.78845
  22863062.180   120146193.86609  22863059.840    93620395.83447
  24104924.840   126672317.61308  24104921.780    98705747.57944
  20637660.680   108451662.07309  20637655.540    84507770.75249
  21301196.060   111938695.61109  21301190.640    87225026.98348
  20437772.720   107401252.70809  20437772.020    83689302.44149
  21727506.720   114178946.21009  21727505.180    88970640.81947
 15 03 02 03 06  0.0000000  0 10G01G04G11G14G16G18G19G22G27G32
  23581622.460   123922279.38608  23581623.180    96562820.15345
  21367968.600   112289509.83109  21367967.020    87498329.43548
  22579718.520   118657245.74009  22579715.280    92460181.99446
  23543257.580   123720694.97508  23543255.280    96405743.80746
  22881915.660   120245269.03309  22881913.300    93697597.21247
  24121799.840   126760996.50508  24121796.660    98774848.05344
  20632201.480   108422973.46609  20632196.240    84485415.99749
  21311478.280   111992729.42509  21311472.980    87267131.25248
  20441558.500   107421147.61809  20441557.880    83704804.96649
  21710179.620   114087891.33509  21710177.960    88899689.00848
 15 03 02 03 06 30.0000000  0 10G01G04G11G14G16G18G19G22G27G32
  23568211.300   123851803.75908  23568212.320    96507904.12546
  21358650.200   112240541.67709  21358648.660    87460172.45848
  22565148.920   118580682.54509  22565145.840    92400522.37846
  23531465.200   123658725.14308  23531462.580    96357455.63445
  22900807.900   120344547.64409  22900805.460    93774957.10547
  24138698.300   126849799.02908  24138695.160    98844044.76444
  20626807.740   108394628.91109  20626802.360    84463329.32549
  21321833.960   112047149.14609  21321828.760    87309536.21948
  20445424.840   107441465.64809  20445424.220    83720637.19349
  21692925.360   113997219.47709  21692923.600    88829035.65547
 15 03 02 03 07  0.0000000  0 10G01G04G11G14G16G18G19G22G27G32
  23554823.340   123781450.54008  23554824.120    96453083.47846
  21349374.820   112191799.50909  21349373.280    87422191.56447
  22550602.900   118504243.12809  22550599.820    92340959.21846
  23519723.360   123597021.04708  23519720.860    96309374.54146
  22919737.860   120444024.72209  22919735.440    93852471.64647
  24155619.800   126938721.17908  24155616.480    98913334.80645
  20621479.440   108366628.25309  20621473.940    84441510.63549
  21332262.340   112101950.94109  21332257.200    87352238.92148
  20449371.460   107462205.38109  20449370.800    83736798.02049
  21675743.980   113906930.89109  21675742.120    88758680.94447
 15 03 02 03 07 30.0000000  0 10G01G04G11G14G16G18G19G22G27G32
  23541458.560   123711218.35708  23541459.780    96398357.14246
  21340142.300   112143282.08709  21340140.620    87384385.79948
  22536080.420   118427927.21708  22536077.360    92281492.29346
  23508032.100   123535584.12808  23508029.560    96261501.65245
  22938704.640   120543695.36908  22938702.300    93930137.02647
  24172563.480   127027759.52808  24172560.360    98982715.30345
  20616216.640   108338971.80509  20616211.040    84419960.16249
  21342762.780   112157131.42009  21342757.700    87395236.70148
  20453398.220   107483366.16409  20453397.520    83753286.93349
  21658635.760   113817026.63809  21658633.820    88688625.71647
 15 03 02 03 08  0.0000000  0 10G01G04G11G14G16G18G19G22G27G32
  23528117.580   123641111.02908  23528118.680    96343728.06146
  21330953.300   112094993.33709  21330951.520    87346758.21448
  22521582.340   118351739.18208  22521579.260    92222125.00746
  23496392.900   123474420.99908  23496390.860    96213842.14446
  22957708.380   120643560.51809  22957706.140    94007953.95547
  24189529.500   127116916.31808  24189526.200    99052188.13245
  20611020.360   108311664.88609  20611014.640    84398682.03949
  21353335.520   112212692.29009  21353330.540    87438530.88548
  20457506.000   107504952.49909  20457505.280    83770107.44849
  21641601.800   113727512.89009  21641599.900    88618874.78448
 15 03 02 03 08 30.0000000  0 10G01G04G11G14G16G18G19G22G27G32
  23514799.960   123571126.92608  23514800.840    96289195.06646
  21321807.520   112046931.66309  21321805.620    87309307.57647
  22507108.440   118275678.11609  22507105.260    92162856.67546
  23484806.380   123413532.99708  23484803.880    96166396.92645
  22976748.480   120743616.36509  22976746.200    94085919.48247
  24206517.360   127206187.94408  24206514.020    99121750.42445
  20605890.540   108284707.46509  20605884.760    84377676.26349
  21363980.100   112268630.33509  21363975.180    87482118.98448
  20461694.560   107526963.30409  20461693.820    83787258.72549
  21624642.280   113638390.19709  21624640.420    88549428.56547
 15 03 02 03 09  0.0000000  0 10G01G04G11G14G16G18G19G22G27G32
  23501505.180   123501262.49808  23501506.300    96234755.29746
  21312704.260   111999093.58609  21312702.300    87272031.16248
  22492658.180   118199741.25909  22492654.960    92103685.11746
  23473272.000   123352919.34708  23473269.520    96119165.58446
  22995823.540   120843856.03809  22995821.220    94164028.24947
  24223526.120   127295568.86408  24223522.560    99191397.87144
  20600826.840   108258097.72909  20600821.040    84356941.40649
  21374695.380   112324939.95809  21374690.500    87525996.61348
  20465963.340   107549395.71309  20465962.560    83804738.51849
  21607756.920   113549657.45709  21607755.160    88480286.20148
 15 03 02 03 09 30.0000000  0 10G01G04G11G14G16G18G19G22G27G32
  23488234.120   123431522.18708  23488235.240    96180412.16547
  21303644.440   111951483.53409  21303642.360    87234932.43348
  22478232.620   118123934.07009  22478229.300    92044614.60846
  23461791.240   123292587.50208  23461788.220    96072153.76346
  23014933.880   120944281.16808  23014931.520    94242281.53647
  24240556.120   127385061.70508  24240552.120    99261132.65345
  20595830.320   108231841.25409  20595824.580    84336481.81949
  21385481.900   112381623.62409  21385476.940    87570165.70748
  20470313.240   107572254.64409  20470312.480    83822550.67049
  21590947.020   113461321.26709  21590945.380    88411452.84548
 15 03 02 03 10  0.0000000  0 10G01G04G11G14G16G18G19G22G27G32
  23474986.480   123361905.36908  23474987.480    96126165.33446
  21294627.900   111904101.06609  21294625.740    87198011.04748
  22463831.660   118048256.34108  22463828.220    91985644.97646
  23450364.620   123232539.80908  23450361.800    96025363.38145
  23034078.840   121044888.61808  23034076.540    94320676.87147
  24257606.820   127474663.92507  24257603.040    99330952.53845
  20590901.140   108205938.94509  20590895.560    84316298.20649
  21396339.180   112438678.71109  21396334.120    87614624.21848
  20474744.260   107595540.11909  20474743.600    83840695.19249
  21574212.920   113373383.33609  21574211.340    88342929.82748
 15 03 02 03 10 30.0000000  0 10G01G04G11G14G16G18G19G22G27G32
  23461762.720   123292414.39608  23461763.720    96072016.56347
  21285655.120   111856948.61009  21285652.920    87161268.88848
  22449455.880   117972711.28309  22449452.300    91926778.72446
  23438992.880   123172781.04808  23438990.120    95978798.12446
  23053258.340   121145677.61509  23053256.120    94399213.67046
  24274678.320   127564375.82808  24274674.640    99400857.85844
  20586040.140   108180394.75909  20586034.700    84296393.63949
  21407267.340   112496105.58109  21407262.160    87659372.43348
  20479257.080   107619254.95409  20479256.360    83859174.26849
  21557555.440   113285848.08709  21557553.880    88274720.57247
 15 03 02 03 11  0.0000000  0 10G01G04G11G14G16G18G19G22G27G32
  23448561.820   123223044.02808  23448562.940    96017961.79346
  21276725.080   111810020.86709  21276722.860    87124701.83247
  22435104.520   117897294.55309  22435100.860    91868012.46146
  23427675.560   123113309.08908  23427673.200    95932456.39346
  23072470.880   121246640.01509  23072468.700    94477885.59746
  24291769.460   127654190.74008  24291765.820    99470843.53444
  20581246.680   108155205.27509  20581241.340    84276765.46749
  21418264.860   112553897.18209  21418259.540    87704404.83948
  20483850.820   107643394.59509  20483850.000    83877984.37049
  21540974.060   113198712.72209  21540972.520    88206822.92347
 15 03 02 03 11 30.0000000  0 10G01G04G11G14G16G18G19G22G27G32
  23435384.440   123153796.87808  23435385.280    95964002.99546
  21267838.380   111763320.56509  21267836.120    87088311.99748
  22420778.200   117822009.57508  22420774.580    91809348.86646
  23416413.900   123054129.33708  23416412.040    95886342.34146
  23091716.540   121347776.07609  23091714.260    94556692.85846
  24308880.360   127744109.42108  24308876.920    99540909.99444
  20576521.580   108130374.76209  20576516.260    84257417.02449
  21429331.860   112612053.99209  21429326.380    87749721.84248
  20488525.940   107667962.17209  20488525.060    83897127.93249
  21524469.720   113111982.09009  21524468.180    88139240.65348
 15 03 02 03 12  0.0000000  0 10G01G04G11G14G16G18G19G22G27G32
  23422229.720   123084668.23408  23422230.600    95910136.55446
  21258994.060   111716843.07409  21258991.780    87052095.79048
  22406476.180   117746852.48909  22406472.700    91750784.93846
  23405207.780   122995240.14508  23405205.520    95840454.64546
  23110993.720   121449077.88708  23110991.400    94635629.27047
  24326009.720   127834125.11708  24326006.280    99611052.19945
  20571864.140   108105899.61509  20571858.800    84238345.48149
  21440467.000   112670569.15609  21440461.440    87795318.08248
  20493281.600   107692953.42909  20493280.820    83916601.63849
  21508041.960   113025653.53209  21508040.360    88071971.67748
 15 03 02 03 12 30.0000000  0 10G01G04G11G14G16G18G19G22G27G32
  23409098.720   123015665.03608  23409099.880    95856367.88446
  21250193.500   111670595.52209  21250191.220    87016058.75148
  22392199.940   117671830.84009  22392196.500    91692326.51746
  23394058.560   122936650.94808  23394056.500    95794800.76046
  23130303.240   121550549.68408  23130300.900    94714698.12146
  24343158.540   127924243.20008  24343155.140    99681274.08644
  20567275.980   108081788.43509  20567270.600    84219557.55549
  21451671.180   112729447.71409  21451665.700    87841197.46748
  20498119.260   107718375.83509  20498118.580    83936411.29949
  21491692.480   112939736.26109  21491690.720    88005023.19148
 15 03 02 03 13  0.0000000  0 10G01G04G11G14G16G18G19G22G27G32
  23395991.200   122946784.76408  23395992.220    95802694.95946
  21241436.240   111624575.27709  21241433.900    86980198.82248
  22377949.160   117596942.79909  22377945.740    91633972.22346
  23382966.520   122878362.32908  23382964.600    95749381.08546
  23149644.120   121652186.33708  23149641.740    94793895.42946
  24360325.920   128014458.95308  24360322.900    99751571.97545
  20562756.860   108058040.30509  20562751.520    84201052.51649
  21462943.640   112788685.30909  21462938.120    87887356.64348
  20503038.620   107744227.41209  20503038.000    83956555.38549
  21475421.200   112854230.04709  21475419.320    87938394.99947
 15 03 02 03 13 30.0000000  0 10G01G04G11G14G16G18G19G22G27G32
  23382906.140   122878021.81308  23382907.020    95749113.42846
  21232721.160   111578776.74909  21232718.700    86944511.67048
  22363723.040   117522183.68909  22363719.600    91575718.38046
  23371930.900   122820371.04708  23371928.840    95704193.13245
  23169014.740   121753979.35909  23169012.380    94873214.58746
  24377510.640   128104764.89108  24377507.360    99821940.28344
  20558305.980   108034650.91209  20558300.740    84182827.01149
  21474282.960   112848274.42909  21474277.520    87933789.71948
  20508038.680   107770502.94409  20508038.060    83977029.82049
  21459227.420   112769131.29309  21459225.500    87872084.31247
 15 03 02 03 14  0.0000000  0 10G01G04G11G14G16G18G19G22G27G32
  23369844.700   122809382.83908  23369845.660    95695628.52147
  21224049.480   111533206.71409  21224046.960    86909002.56948
  22349522.940   117447561.40809  22349519.540    91517571.15846
  23360954.300   122762687.27908  23360952.060    95659244.69346
  23188415.800   121855932.46708  23188413.480    94952658.48446
  24394713.460   128195165.96208  24394710.120    99892382.69345
  20553924.940   108011628.63009  20553919.820    84164887.57149
  21485690.020   112908219.50609  21485684.640    87980500.17948
  20513120.880   107797209.64909  20513120.160    83997840.23549
  21443112.820   112684448.96909  21443110.920    87806098.12347
 15 03 02 03 14 30.0000000  0 10G01G04G11G14G16G18G19G22G27G32
  23356807.020   122740869.75408  23356807.900    95642241.75747
  21215421.620   111487867.16409  21215419.140    86873673.05248
  22335349.260   117373078.15909  22335345.940    91459532.29147
  23350036.640   122705315.13308  23350034.420    95614539.18145
  23207847.060   121958044.39908  23207844.800    95032226.13247
  24411934.500   128285662.39508  24411931.040    99962899.37345
  20549614.520   107988977.17309  20549609.440    84147237.08549
  21497164.860   112968520.32109  21497159.500    88027487.82348
  20518285.560   107824349.91009  20518284.760    84018988.47249
  21427078.280   112600187.03709  21427076.360    87740439.49748
 15 03 02 03 15  0.0000000  0 10G01G04G11G14G16G18G19G22G27G32
  23343792.140   122672476.47108  23343793.000    95588948.31546
  21206836.440   111442752.09509  21206834.040    86838518.47048
  22321201.020   117298728.67209  22321197.740    91401597.65046
  23339177.700   122648251.45708  23339175.740    95570074.02046
  23227307.000   122060306.69608  23227304.740    95111910.95546
  24429172.080   128376246.38407  24429168.700   100033484.24946
  20545373.760   107966691.72109  20545368.700    84129871.79949
  21508705.860   113029168.89809  21508700.560    88074746.44648
  20523531.620   107851917.96309  20523530.740    84040470.07249
  21411122.980   112516341.57709  21411121.080    87675105.40148
 15 03 02 03 15 30.0000000  0 10G01G04G11G14G16G18G19G22G27G32
  23330800.340   122604204.43308  23330801.520    95535749.36547
  21198294.300   111397863.11209  21198291.940    86803540.06248
  22307078.760   117224515.59208  22307075.460    91343769.30347
  23328378.440   122591500.61008  23328376.400    95525852.58646
  23246795.220   122162717.57308  23246792.900    95191711.54046
  24446426.240   128466917.61708  24446423.160   100104136.99845
  20541203.160   107944775.07509  20541198.120    84112793.89849
  21520313.040   113090164.93109  21520307.800    88122275.82048
  20528859.500   107879915.80909  20528858.520    84062286.56549
  21395247.680   112432916.27009  21395245.760    87610098.68948
 15 03 02 03 16  0.0000000  0 10G01G04G11G14G16G18G19G22G27G32
  23317831.500   122536052.79208  23317832.720    95482644.20646
  21189794.980   111353199.16509  21189792.660    86768737.00348
  22292982.440   117150438.76709  22292979.100    91286047.13146
  23317639.100   122535064.49808  23317637.100    95481876.43146
  23266311.120   122265273.86308  23266308.740    95271625.44046
  24463696.440   128557673.02308  24463692.960   100174855.58645
  20537102.880   107923227.95109  20537097.840    84096003.93549
  21531985.820   113151505.19909  21531980.500    88170073.43848
  20534269.040   107908342.92409  20534268.000    84084437.56749
  21379452.480   112349912.16309  21379450.600    87545420.19448
 15 03 02 03 16 30.0000000  0 10G01G04G11G14G16G18G19G22G27G32
  23304886.100   122468024.34808  23304887.060    95429635.05846
  21181339.040   111308763.43109  21181336.740    86734111.76648
  22278912.740   117076501.94809  22278909.240    91228434.02246
  23306960.480   122478948.58408  23306958.500    95438149.76746
  23285854.700   122367975.36708  23285852.220    95351652.50046
  24480983.020   128648513.89708  24480979.620   100245640.60944
  20533073.720   107902054.74509  20533068.700    84079505.33749
  21543724.340   113213190.63209  21543718.780    88218140.01948
  20539760.840   107937202.62209  20539759.820    84106925.64049
  21363738.360   112267334.33309  21363736.540    87481073.86448
 15 03 02 03 17  0.0000000  0 10G01G04G11G14G16G18G19G22G27G32
  23291963.740   122400116.90308  23291964.680    95376720.20946
  21172926.140   111264553.73509  21172923.840    86699662.66648
  22264869.320   117002703.55609  22264865.780    91170928.81946
  23296342.980   122423153.58608  23296341.100    95394673.16445
  23305424.880   122470816.94508  23305422.320    95431788.69446
  24498284.980   128739436.32908  24498281.180   100316489.34144
  20529115.540   107881254.53509  20529110.520    84063297.37549
  21555527.780   113275217.10809  21555521.920    88266472.34348
  20545334.560   107966492.98409  20545333.580    84129749.29049
  21348105.380   112185182.65809  21348103.580    87417059.60348
 15 03 02 03 17 30.0000000  0 10G01G04G11G14G16G18G19G22G27G32
  23279064.640   122332331.55208  23279065.580    95323900.47947
  21164556.400   111220571.05109  21164554.140    86665390.45748
  22250852.660   116929045.73909  22250849.080    91113533.10746
  23285787.340   122367683.36308  23285785.300    95351449.64046
  23325021.360   122573797.01608  23325018.800    95512032.81146
  24515602.360   128830439.32308  24515598.600   100387400.70844
  20525228.940   107860830.29009  20525223.940    84047382.37949
  21567395.880   113337583.58509  21567389.760    88315069.60848
  20550990.560   107996215.61409  20550989.600    84152909.78149
  21332554.100   112103460.32209  21332552.320    87353379.89148
 15 03 02 03 18  0.0000000  0 10G01G04G11G14G16G18G19G22G27G32
  23266188.820   122264669.04208  23266189.520    95271176.47446
  21156230.080   111176816.47209  21156227.880    86631295.99448
  22236863.000   116855529.81109  22236859.500    91056248.03446
  23275294.140   122312541.31708  23275291.920    95308481.82646
  23344643.680   122676913.09508  23344641.140    95592382.90146
  24532934.900   128921522.01509  24532931.060   100458374.20142
  20521414.260   107840783.67509  20521409.200    84031761.63249
  21579328.320   113400288.71009  21579322.180    88363930.73448
  20556729.060   108026371.50109  20556728.120    84176407.86549
  21317085.120   112022169.95209  21317083.260    87290036.76648
 15 03 02 03 18 30.0000000  0 10G01G04G11G14G16G18G19G22G27G32
  23253335.520   122197125.02008  23253336.320    95218544.82447
  21147946.380   111133285.54809  21147944.180    86597375.80848
  22222899.760   116782152.65209  22222896.340    90999071.01546
  23264863.080   122257725.93208  23264860.840    95265768.56646
  23364290.720   122780158.83808  23364288.220    95672834.03546
  24550281.420   129012678.10908  24550277.020   100529405.08844
  20517670.980   107821112.21209  20517665.840    84016433.23149
  21591323.900   113463326.19209  21591317.840    88413050.85848
  20562549.280   108056956.68009  20562548.360    84200240.47049
  21301697.960   111941309.42109  21301696.040    87227028.60148
 15 03 02 03 19  0.0000000  0 10G01G04G11G14G16G18G19G22G27G32
  23240505.480   122129702.64508  23240506.200    95166007.89047
  21139705.900   111089981.46709  21139703.660    86563632.38348
  22208963.580   116708917.77609  22208960.240    90942004.94146
  23254495.360   122203242.97208  23254492.920    95223314.32246
  23383962.400   122883533.91708  23383959.960    95753385.93446
  24567642.220   129103909.37708  24567637.700   100600494.35743
  20513999.940   107801820.36709  20513994.720    84001400.62149
  21603382.880   113526697.20109  21603377.120    88462430.84848
  20568451.800   108087974.61909  20568450.940    84224410.28649
  21286393.580   111860883.83009  21286391.600    87164359.33648
 15 03 02 03 19 30.0000000  0 10G01G04G11G14G16G18G19G22G27G32
  23227698.540   122062401.48408  23227699.520    95113565.46647
  21131508.560   111046904.03409  21131506.340    86530065.56448
  22195054.700   116635826.28908  22195051.340    90885050.51347
  23244191.360   122149094.58208  23244188.780    95181120.80246
  23403658.060   122987034.74908  23403655.640    95834035.83346
  24585016.840   129195213.50808  24585012.080   100671640.54044
  20510401.340   107782909.18409  20510395.980    83986664.63449
  21615504.860   113590398.98809  21615499.220    88512068.60248
  20574436.660   108119425.26209  20574435.860    84248917.27149
  21271172.240   111780894.76009  21271170.220    87102030.22148
 15 03 02 03 20  0.0000000  0 10G01G04G11G14G16G18G19G22G27G32
  23214915.020   121995223.74608  23214915.760    95061219.19347
  21123354.780   111004055.60209  21123352.560    86496677.19048
  22181173.640   116562881.04509  22181170.200    90828210.11646
  23233952.040   122095285.95908  23233949.340    95139192.03146
  23423377.740   123090661.92008  23423375.360    95914784.16946
  24602405.360   129286591.17408  24602401.160   100742843.77644
  20506875.880   107764382.54609  20506870.440    83972228.29649
  21627689.840   113654431.96509  21627684.300    88561964.43348
  20580504.360   108151311.12309  20580503.540    84273763.38849
  21256034.700   111701346.45509  21256032.680    87040044.55648
 15 03 02 03 20 30.0000000  0 10G01G04G11G14G16G18G19G22G27G32
  23202154.300   121928165.31308  23202155.160    95008965.91846
  21115243.780   110961431.79909  21115241.520    86463463.84148
  22167319.780   116490078.64509  22167316.300    90771480.98646
  23223776.940   122041815.57108  23223774.180    95097526.81045
  23443120.000   123194407.76908  23443117.700    95995624.98146
  24619806.720   129378036.07907  24619802.020   100814099.73144
  20503423.000   107746237.44409  20503417.540    83958089.26049
  21639936.640   113718789.88009  21639931.280    88612113.45448
  20586654.160   108183628.27409  20586653.280    84298945.58649
  21240980.520   111622236.71509  21240978.540    86978400.63348
 15 03 02 03 21  0.0000000  0 10G01G04G11G14G16G18G19G22G27G32
  23189416.980   121861230.08708  23189417.840    94956808.58646
  21107176.360   110919036.95009  21107174.100    86430428.89248
  22153494.000   116417423.89109  22153490.520    90714866.92346
  23213667.420   121988690.00808  23213664.800    95056130.30146
  23462885.040   123298273.53408  23462882.800    96076559.22546
  24637220.940   129469550.76707  24637217.120   100885409.68546
  20500043.740   107728479.46609  20500038.320    83944251.87249
  21652245.600   113783474.62209  21652240.340    88662517.15248
  20592886.860   108216381.03209  20592885.860    84324467.20549
  21226010.880   111543571.55909  21226008.960    86917103.14048
 15 03 02 03 21 30.0000000  0 10G01G04G11G14G16G18G19G22G27G32
  23176702.660   121794415.96908  23176703.720    94904745.69646
  21099152.100   110876868.71409  21099149.820    86397570.54448
  22139696.180   116344915.80009  22139692.660    90658367.10747
  23203623.500   121935909.75608  23203620.980    95015002.85646
  23482671.940   123402254.23508  23482669.720    96157583.02946
  24654647.580   129561131.13207  24654644.360   100956770.96144
  20496737.980   107711107.80309  20496732.600    83930715.51449
  21664616.000   113848482.03309  21664610.820    88713172.28048
  20599202.040   108249567.49309  20599200.940    84350326.78349
  21211125.760   111465350.70009  21211123.880    86856151.84848
 15 03 02 03 22  0.0000000  0 10G01G04G11G14G16G18G19G22G27G32
  23164010.920   121727720.37508  23164011.840    94852775.12247
  21091170.540   110834924.78909  21091168.200    86364886.97548
  22125925.940   116272552.60609  22125922.380    90601980.24046
  23193645.320   121883474.83908  23193642.960    94974144.50146
  23502479.640   123506344.22008  23502477.480    96238691.97945
  24672086.320   129652773.01208  24672083.380   101028180.20646
  20493505.460   107694121.18509  20493500.100    83917479.18649
  21677047.040   113913807.46809  21677041.860    88764075.22248
  20605599.240   108283185.33109  20605598.180    84376522.49949
  21196325.160   111387573.52409  21196323.300    86795546.27048
 15 03 02 03 22 30.0000000  0 10G01G04G11G14G16G18G19G22G27G32
  23151342.100   121661145.11608  23151342.900    94800898.32046
  21083231.920   110793207.16009  21083229.620    86332379.76148
  22112183.820   116200337.08109  22112180.160    90545708.41847
  23183733.840   121831389.90208  23183731.480    94933558.86746
  23522307.980   123610542.31108  23522305.880    96319885.17746
  24689536.940   129744476.41308  24689534.220   101099637.35745
  20490346.840   107677522.96609  20490341.540    83904545.51149
  21689538.540   113979450.47509  21689533.340    88815225.63048
  20612078.860   108317236.57909  20612077.900    84403055.93949
  21181609.700   111310243.71709  21181607.960    86735289.30548
 15 03 02 03 23  0.0000000  0 10G01G04G11G14G16G18G19G22G27G32
  23138695.860   121594689.74608  23138696.880    94749114.94947
  21075336.240   110751715.18109  21075333.940    86300048.35648
  22098469.840   116128269.61909  22098466.160    90489551.98547
  23173889.440   121779657.15408  23173887.180    94893247.66046
  23542156.600   123714846.74908  23542154.540    96401161.23146
  24706998.920   129836239.38808  24706996.060   101171140.91845
  20487262.340   107661314.07409  20487257.060    83891915.21249
  21702090.100   114045408.83009  21702084.840    88866621.74848
  20618640.820   108351721.02009  20618640.100    84429926.92849
  21166979.700   111233362.90509  21166978.080    86675382.21148
 15 03 02 03 23 30.0000000  0 10G01G04G11G14G16G18G19G22G27G32
  23126072.780   121528356.11108  23126073.500    94697426.43747
  21067483.940   110710450.93709  21067481.580    86267894.41048
  22084784.540   116056352.91909  22084780.840    90433513.01247
  23164112.980   121728281.04808  23164110.620    94853214.33846
  23562025.140   123819255.59108  23562023.120    96482518.64346
  24724472.240   129928061.58508  24724469.180   101242690.71044
  20484252.580   107645497.79709  20484247.280    83879590.83849
  21714701.560   114111682.30009  21714696.200    88918263.40548
  20625285.620   108386640.72109  20625285.100    84457137.08249
  21152435.880   111156934.67109  21152434.340    86615827.77548
 15 03 02 03 24  0.0000000  0 10G01G04G11G14G16G18G19G22G27G32
  23113472.800   121462143.09808  23113473.860    94645831.92446
  21059674.840   110669413.34609  21059672.320    86235917.08448
  22071127.860   115984586.59209  22071124.160    90377591.20347
  23154404.680   121677263.02208  23154402.160    94813460.06746
  23581912.680   123923764.35208  23581910.760    96563953.91846
  24741956.400   130019940.69608  24741953.260   101314284.75344
  20481317.700   107630074.53609  20481312.300    83867572.71249
  21727372.460   114178267.92109  21727366.980    88970148.31148
  20632013.160   108421994.67609  20632012.740    84484685.61649
  21137978.380   111080959.77209  21137976.780    86556626.57848
 15 03 02 03 24 30.0000000  0 10G01G04G11G14G16G18G19G22G27G32
  23100895.780   121396050.15708  23100896.660    94594330.94447
  21051908.780   110628602.13309  21051906.180    86204116.15448
  22057499.880   115912971.17809  22057496.240    90321787.03047
  23144764.780   121626605.00008  23144762.120    94773986.31345
  23601818.620   124028369.83708  23601816.760    96645464.54346
  24759450.960   130111874.12508  24759446.760   101385921.24141
  20478457.740   107615045.02909  20478452.280    83855861.40749
  21740102.100   114245162.34209  21740096.420    89022273.84248
  20638823.360   108457782.58709  20638822.960    84512572.29049
  21123607.400   111005439.60509  21123605.740    86497779.72548
 15 03 02 03 25  0.0000000  0 10G01G04G11G14G16G18G19G22G27G32
  23088341.620   121330077.57208  23088342.420    94542923.77847
  21044185.740   110588017.42309  21044183.120    86172491.71148
  22043900.920   115841508.24509  22043897.260    90266101.61147
  23135193.800   121576310.02808  23135191.200    94734795.44646
  23621742.660   124133070.55908  23621740.880    96727049.38846
  24776955.560   130203860.69108  24776951.200   101457599.16244
  20475673.040   107600411.06709  20475667.580    83844458.31949
  21752890.200   114312364.02709  21752884.360    89074638.79848
  20645716.320   108494004.89509  20645715.880    84540797.46149
  21109323.260   110930376.27609  21109321.560    86439288.83248
 15 03 02 03 25 30.0000000  0 10G01G04G11G14G16G18G19G22G27G32
  23075810.420   121264225.72908  23075811.200    94491610.69246
  21036505.960   110547659.99409  21036503.320    86141044.39048
  22030331.140   115770198.78609  22030327.480    90210535.85446
  23125692.480   121526381.03708  23125689.980    94695889.76146
  23641684.280   124237863.53908  23641682.540    96808706.12046
  24794470.060   130295899.23208  24794465.920   101529317.45144
  20472963.860   107586173.98809  20472958.400    83833364.49749
  21765736.460   114379871.52909  21765730.640    89127242.05648
  20652692.100   108530662.08009  20652691.520    84569361.50849
  21095126.460   110855771.95109  21095124.760    86381155.61548
 15 03 02 03 26  0.0000000  0 10G01G04G11G14G16G18G19G22G27G32
  23063302.080   121198493.43608  23063302.440    94440390.74046
  21028869.160   110507528.50209  21028866.540    86109773.09548
  22016790.540   115699042.53909  22016786.900    90155089.42646
  23116261.240   121476819.73608  23116258.680    94657270.57646
  23661642.660   124342744.93508  23661640.980    96890431.72846
  24811993.640   130387986.51107  24811989.360   101601073.77442
  20470330.260   107572334.22709  20470324.820    83822580.27649
  21778640.360   114447681.56909  21778634.600    89180081.04448
  20659750.460   108567753.10609  20659749.700    84598263.60649
  21081017.220   110781627.23409  21081015.460    86323380.54148
 15 03 02 03 26 30.0000000  0 10G01G04G11G14G16G18G19G22G27G32
  23050816.660   121132881.64808  23050817.280    94389264.70546
  21021275.540   110467624.01409  21021272.960    86078678.69748
  22003279.480   115628041.51009  22003275.820    90099763.96547
  23106900.640   121427629.05208  23106898.020    94618940.19346
  23681617.360   124447712.20608  23681615.740    96972224.25346
  24829526.380   130480122.10208  24829522.420   101672867.70444
  20467772.700   107558894.14009  20467767.300    83812107.47949
  21791601.440   114515793.09309  21791595.920    89233154.95548
  20666891.540   108605279.04909  20666890.640    84627504.59049
  21066996.020   110707944.93709  21066994.180    86265965.78048
 15 03 02 03 27  0.0000000  0 10G01G04G11G14G16G18G19G22G27G32
  23038354.040   121067390.30909  23038354.420    94338232.52346
  21013725.100   110427946.55509  21013722.620    86047761.21148
  21989798.140   115557196.44309  21989794.360    90044560.02747
  23097611.160   121378811.78308  23097608.480    94580900.78346
  23701607.940   124552762.92908  23701606.240    97054081.82046
  24847068.060   130572304.08207  24847064.220   101744697.78744
  20465291.440   107545854.84409  20465286.060    83801946.98749
  21804619.560   114584203.73309  21804614.180    89286461.95148
  20674115.380   108643239.94309  20674114.320    84657084.49149
  21053063.180   110634726.75609  21053061.200    86208912.67348
 15 03 02 03 27 30.0000000  0 10G01G04G11G14G16G18G19G22G27G32
  23025914.040   121002017.86008  23025914.400    94287292.99147
  21006217.580   110388494.59709  21006215.180    86017019.42748
  21976346.420   115486506.90709  21976342.480    89989477.30247
  23088392.900   121330368.96308  23088390.140    94543153.16446
  23721613.660   124657893.27708  23721612.020    97136001.41446
  24864617.840   130664529.42408  24864613.600   101816561.76243
  20462886.340   107533216.17909  20462881.020    83792098.67649
  21817693.880   114652909.82709  21817688.560    89339999.16948
  20681421.640   108681634.28109  20681420.540    84687002.15749
  21039218.660   110561972.76909  21039216.560    86152221.27948
 15 03 02 03 28  0.0000000  0 11G01G03G04G11G14G16G18G19G22G27G32
  23013496.660   120936764.66008  23013497.280    94236446.37547
  24633219.360                                                  
  20998753.100   110349268.81309  20998750.780    85986453.88648
  21962924.540   115415974.18609  21962920.540    89934516.73747
  23079246.340   121282303.38508  23079243.600    94505699.48146
  23741634.000   124763100.33308  23741632.420    97217980.77646
  24882175.740   130756796.45908  24882171.020   101888458.27843
  20460557.780   107520979.70509  20460552.500    83782563.76049
  21830824.100   114721909.72809  21830818.840    89393765.31148
  20688810.400   108720462.49009  20688809.340    84717257.89049
  21025462.820   110489685.22609  21025460.680    86095893.34448
 15 03 02 03 28 30.0000000  0 11G01G03G04G11G14G16G18G19G22G27G32
  23001104.580   120871643.88508  23001104.960    94185702.92846
  24613182.180   129343155.00608  24613187.900   100786883.00346
  20991334.180   110310282.31209  20991331.900    85956074.81048
  21949535.160   115345612.37209  21949531.240    89879689.37647
  23070174.440   121234630.70408  23070171.740    94468551.97046
  23761670.940   124868394.06208  23761669.220    97300027.70345
  24899743.560   130849117.36606  24899739.320   101960396.53044
  20458308.560   107509160.22709  20458303.340    83773353.77649
  21844012.360   114791214.56209  21844007.040    89447769.08048
  20696284.140   108759737.76809  20696283.240    84747861.99949
  21011798.460   110417878.89709  21011796.380    86039940.38548
 15 03 02 03 29  0.0000000  0 10G01G03G04G11G14G16G19G22G27G32
  22988733.180   120806631.67608  22988733.680    94135044.10946
  24593168.240   129237981.03108  24593173.720   100704929.71746
  20983956.280   110271511.35909  20983953.980    85925863.67848
  21936173.880   115275398.41709  21936170.060    89824977.22147
  23061173.200   121187329.41808  23061170.580    94431693.83746
  23781719.380   124973748.49808  23781717.500    97382121.92145
  20456134.340   107497734.96809  20456129.220    83764450.97749
  21857253.740   114860798.43609  21857248.360    89501990.29848
  20703838.420   108799436.37409  20703837.640    84778795.97349
  20998221.420   110346531.71709  20998219.440    85984345.20648
 15 03 02 03 29 30.0000000  0 10G01G03G04G11G14G16G19G22G27G32
  22976384.300   120741738.16209  22976384.720    94084477.77847
  24573177.740   129132930.75507  24573183.100   100623072.77845
  20976621.360   110232966.18109  20976619.040    85895828.48548
  21922842.900   115205343.76509  21922839.140    89770389.17747
  23052245.060   121140412.23208  23052242.440    94395135.00646
  23801780.680   125079171.14908  23801778.820    97464269.27145
  20454037.400   107486715.54709  20454032.320    83755864.41249
  21870549.840   114930669.38809  21870544.400    89556435.18548
  20711475.200   108839568.41809  20711474.500    84810067.67949
  20984734.000   110275655.46109  20984732.100    85929116.97248
 15 03 02 03 30  0.0000000  0 10G01G03G04G11G14G16G19G22G27G32
  22964058.480   120676965.88008  22964058.840    94034005.91047
  24553211.520   129028008.47708  24553216.740   100541315.49945
  20969329.900   110194649.25009  20969327.560    85865971.14448
  21909542.860   115135451.58509  21909539.180    89715927.75047
  23043391.060   121093884.13308  23043388.580    94358879.36246
  23821854.800   125184661.43808  23821853.080    97546469.34745
  20452018.300   107476105.25509  20452013.280    83747596.65349
  21883900.660   115000827.90809  21883895.200    89611104.15748
  20719194.960   108880136.39809  20719194.340    84841679.08449
  20971337.060   110205254.33209  20971335.120    85874258.97348
 15 03 02 03 30 30.0000000  0 10G01G03G04G11G14G16G19G22G27G32
  22951755.060   120612311.49709  22951755.760    93983625.89247
  24533269.320   128923212.82308  24533274.220   100459656.84245
  20962081.320   110156557.58409  20962078.960    85836289.33148
  21896273.320   115065719.70609  21896269.640    89661591.21747
  23034611.000   121047744.38008  23034608.560    94322926.32846
  23841940.540   125290212.85608  23841938.980    97628717.04345
  20450076.820   107465902.63009  20450071.780    83739646.54849
  21897305.060   115071268.22209  21897299.480    89665992.71148
  20726997.120   108921137.02309  20726996.500    84873627.60949
  20958030.300   110135326.69709  20958028.280    85819769.92548
 15 03 02 03 31  0.0000000  0 10G01G03G04G11G14G16G19G22G27G32
  22939474.660   120547778.14008  22939475.440    93933340.15547
  24513352.140   128818548.75908  24513356.600   100378100.75145
  20954876.200   110118694.32609  20954873.840    85806785.50748
  21883035.060   114996152.14309  21883031.380    89607382.74947
  23025905.860   121001998.45308  23025903.460    94287280.16446
  23862038.100   125395826.24108  23862036.760    97711013.03445
  20448213.720   107456111.83409  20448208.660    83732017.35649
  21910763.320   115141991.55609  21910757.680    89721101.80148
  20734882.260   108962573.29609  20734881.600    84905915.59949
  20944814.540   110065877.20209  20944812.420    85765653.45848
 15 03 02 03 31 30.0000000  0 10G01G03G04G11G14G16G19G22G27G32
  22927217.000   120483364.07808  22927217.780    93883147.42447
  24493460.100   128714016.23807  24493464.460   100296647.11045
  20947714.180   110081057.65109  20947711.840    85777458.22448
  21869827.920   114926748.23009  21869824.300    89553301.80447
  23017275.660   120956647.00008  23017273.380    94251941.39446
  23882146.720   125501497.20908  23882145.400    97793353.88845
  20446428.900   107446732.35509  20446423.740    83724708.67149
  21924274.700   115212994.09309  21924269.060    89776428.43948
  20742850.020   109004443.47109  20742849.240    84938541.70449
  20931689.700   109996905.74909  20931687.580    85711909.48848
 15 03 02 03 32  0.0000000  0 10G01G03G04G11G14G16G19G22G27G32
  22914982.120   120419069.48608  22914983.100    93833047.77347
  24473593.380   128609617.34907  24473597.920   100215297.65446
  20940595.340   110043647.94509  20940592.960    85748307.81848
  21856652.100   114857509.00509  21856648.480    89499349.17347
  23008721.020   120911692.66208  23008718.760    94216912.07546
  23902265.820   125607222.95708  23902264.480    97875737.46745
  20444722.620   107437765.79309  20444717.420    83717721.74249
  21937838.900   115284274.13709  21937833.160    89831971.34548
  20750900.360   109046747.66809  20750899.500    84971506.00949
  20918656.100   109928414.09509  20918654.060    85658539.38848
 15 03 02 03 32 30.0000000  0 10G01G03G04G11G14G16G19G22G27G32
  22902769.560   120354891.99808  22902770.580    93783039.38047
  24453752.160   128505351.64407  24453756.480   100134051.83846
  20933519.280   110006463.04309  20933516.900    85719332.58248
  21843507.420   114788433.48409  21843503.840    89445524.10147
  23000242.020   120867135.57108  23000239.740    94182192.27046
  23922394.400   125712998.50808  23922393.000    97958159.81545
  20443094.720   107429210.91109  20443089.420    83711055.59849
  21951454.940   115355827.08409  21951449.200    89887726.86948
  20759032.760   109089483.47209  20759031.880    85004806.62749
  20905713.640   109860401.50009  20905711.680    85605542.58748
 15 03 02 03 33  0.0000000  0 10G01G03G04G11G14G16G19G22G27G32
  22890579.820   120290834.35008  22890580.660    93733124.35247
  24433937.060   128401223.52808  24433941.060   100052913.34245
  20926486.540   109969505.70509  20926484.200    85690534.66348
  21830394.540   114719525.00009  21830390.960    89391829.19247
  22991839.580   120822980.53808  22991837.260    94147785.79146
  23942532.360   125818823.27908  23942530.880    98040620.52245
  20441545.900   107421071.45209  20441540.520    83704713.16449
  21965122.960   115427653.26109  21965117.180    89943695.32548
  20767247.760   109132653.48309  20767246.860    85038445.58549
  20892863.200   109792872.17609  20892861.260    85552922.35948
 15 03 02 03 33 30.0000000  0 10G01G03G04G11G14G16G19G22G27G32
  22878413.100   120226897.58208  22878413.880    93683303.51047
  24414148.840   128297236.05108  24414152.820    99971884.42145
  20919497.360   109932777.04109  20919495.000    85661914.94148
  21817313.840   114650785.68909  21817310.260    89338266.09147
  22983514.340   120779231.03308  22983511.800    94113695.28646
  23962679.440   125924696.00308  23962677.980    98123118.61245
  20440076.560   107413349.81809  20440071.140    83698696.30949
  21978842.820   115499751.96109  21978837.080    89999876.12848
  20775545.620   109176258.65809  20775544.660    85072423.62749
  20880105.300   109725828.85709  20880103.300    85500680.83448
 15 03 02 03 34  0.0000000  0 10G01G03G04G11G14G16G19G22G27G32
  22866268.760   120163078.41108  22866269.400    93633574.28847
  24394387.020   128193387.50908  24394390.940    99890963.77246
  20912551.080   109896273.95609  20912548.700    85633470.97348
  21804264.940   114582213.19109  21804261.300    89284832.97947
  22975266.100   120735886.28408  22975263.440    94079920.16946
  23982834.480   126030610.83308  23982832.960    98205649.47845
  20438686.220   107406043.69309  20438680.820    83693003.22449
  21992613.560   115572117.71709  21992607.740    90056265.02348
  20783925.580   109220295.54309  20783924.560    85106738.07049
  20867439.600   109659269.64409  20867437.480    85448816.52748
 15 03 02 03 34 30.0000000  0 10G01G03G04G11G14G16G19G22G27G32
  22854147.280   120099379.32208  22854147.600    93583938.64547
  24374652.480   128089682.36308  24374656.200    99810154.90046
  20905648.140   109859998.88509  20905645.800    85605204.69048
  21791248.420   114513810.93509  21791244.740    89231532.55147
  22967095.740   120692951.01208  22967093.160    94046464.12046
  24002997.500   126136567.42208  24002995.960    98288212.90845
  20437375.640   107399157.00309  20437370.280    83687636.96849
  22006435.160   115644750.92609  22006429.340    90112862.32248
  20792388.000   109264766.48009  20792387.120    85141390.73649
  20854866.780   109593198.47509  20854864.440    85397332.51148
 15 03 02 03 35  0.0000000  0 10G01G03G04G11G14G16G19G22G27G32
  22842047.840   120035796.25208  22842048.120    93534393.43247
  24354944.680   127986118.25008  24354948.140    99729455.95346
  20898787.880   109823947.92009  20898785.560    85577113.04548
  21778263.760   114445576.11009  21778260.100    89178362.57847
  22959003.020   120650423.32908  22959000.500    94013325.71246
  24023167.100   126242558.82608  24023165.660    98370803.46946
  20436144.340   107392686.90109  20436139.040    83682595.33449
  22020306.500   115717645.37009  22020300.720    90169663.18848
  20800932.140   109309667.24309  20800931.500    85176378.34149
  20842386.280   109527612.72909  20842383.840    85346226.76248
 15 03 02 03 35 30.0000000  0 10G01G03G04G11G14G16G19G22G27G32
  22829971.840   119972336.42509  22829972.020    93484944.22847
  24335265.460   127882704.35208  24335268.820    99648874.15746
  20891971.660   109788128.44809  20891969.340    85549201.76848
  21765312.460   114377516.73209  21765308.780    89125329.30747
  22950989.600   120608312.68108  22950987.000    93980512.24346
  24043344.100   126348589.30608  24043342.800    98453424.45745
  20434993.960   107386641.74709  20434988.660    83677884.82149
  22034228.420   115790806.05809  22034222.760    90226671.51248
  20809559.500   109355004.86209  20809559.000    85211706.35249
  20829999.720   109462521.14809  20829997.320    85295506.06248
 15 03 02 03 36  0.0000000  0 10G01G03G04G11G14G16G19G22G27G32
  22817918.140   119908993.75909  22817918.320    93435586.35047
  24315613.820   127779435.98108  24315617.200    99568405.72545
  20885198.340   109752534.52109  20885195.980    85521466.24348
  21752393.660   114309627.99009  21752389.940    89072429.01747
  22943054.820   120566615.71608  22943052.220    93948021.12646
  24063526.900   126454650.24508  24063525.620    98536069.20545
  20433923.560   107381016.67309  20433918.240    83673501.64449
  22048199.560   115864225.02009  22048193.900    90283881.08348
  20818268.920   109400773.08309  20818268.360    85247369.88549
  20817706.260   109397919.09509  20817704.020    85245166.82448
 15 03 02 03 36 30.0000000  0 10G01G03G04G11G14G16G19G22G27G32
  22805887.200   119845770.63209  22805887.500    93386321.59647
  24295990.620   127676317.28008  24295994.020    99488053.77546
  20878468.400   109717168.45309  20878466.020    85493908.27448
  21739507.920   114241913.01409  21739504.180    89019664.09947
  22935199.620   120525336.75308  22935197.040    93915855.70646
  24083715.400   126560740.92708  24083714.180    98618737.12146
  20432933.720   107375814.86309  20432928.380    83669448.29049
  22062219.840   115937902.31509  22062214.220    90341291.94748
  20827060.760   109446974.02309  20827060.100    85283370.60949
  20805506.620   109333810.32109  20805504.540    85195211.94848
 15 03 02 03 37  0.0000000  0 10G01G03G04G11G14G16G19G22G27G32
  22793878.880   119782666.51909  22793879.020    93337149.59147
  24276396.140   127573349.53708  24276399.700    99407819.46046
  20871781.820   109682029.83609  20871779.340    85466527.54748
  21726655.440   114174372.82909  21726651.660    88967035.39147
  22927424.320   120484477.41508  22927421.900    93884017.28846
  24103909.000   126666858.34308  24103907.740    98701425.88245
  20432024.660   107371037.18409  20432019.220    83665725.42149
  22076288.780   116011835.20909  22076283.180    90398901.99348
  20835934.800   109493606.92709  20835934.060    85319707.93749
  20793401.060   109270195.71509  20793399.000    85145642.13748
 15 03 02 03 37 30.0000000  0 10G01G03G04G11G14G16G19G22G27G32
  22781892.880   119719679.91109  22781893.040    93288069.13547
  24256830.560   127470533.06008  24256834.060    99327702.98145
  20865138.260   109647117.36209  20865135.660    85439323.02448
  21713836.000   114107006.48209  21713832.240    88914542.14447
  22919729.120   120444038.86308  22919726.820    93852506.74446
  24124106.940   126772998.56208  24124105.600    98784132.41346
  20431196.160   107366683.08009  20431190.660    83662332.61349
  22090405.740   116086020.39809  22090400.220    90456708.63548
  20844890.700   109540670.06509  20844889.880    85356380.50249
  20781389.580   109207075.08809  20781387.500    85096457.24748
 15 03 02 03 38  0.0000000  0 10G01G03G04G11G14G16G19G22G27G32
  22769929.480   119656812.29808  22769929.920    93239081.42047
  24237294.460   127367871.10708  24237297.860    99247706.90446
  20858538.040   109612432.76409  20858535.400    85412296.07148
  21701050.140   114039816.57609  21701046.420    88862186.38547
  22912114.800   120404024.42508  22912112.380    93821326.70546
  24144308.960   126879160.28108  24144307.540    98866855.69545
  20430448.800   107362755.46709  20430443.260    83659272.13149
  22104570.520   116160457.26309  22104565.080    90514711.39248
  20853928.580   109588164.66309  20853927.840    85393389.26949
  20769472.680   109144451.31909  20769470.620    85047659.52848
 15 03 02 03 38 30.0000000  0 10G01G03G04G11G14G16G19G22G27G32
  22757988.840   119594064.45008  22757989.440    93190187.02147
  24217788.220   127265366.10408  24217791.520    99167833.13845
  20851981.260   109577976.62409  20851978.620    85385447.13648
  21688298.260   113972804.92309  21688294.540    88809969.51147
  22904581.740   120364437.12909  22904579.120    93790479.48846
  24164514.540   126985340.96108  24164513.280    98949593.76446
  20429782.860   107359255.89709  20429777.340    83656545.19749
  22118782.900   116235144.57509  22118777.560    90572909.27948
  20863048.720   109636091.19109  20863047.980    85430734.60349
  20757650.760   109082326.44209  20757648.660    84999250.55748
 15 03 02 03 39  0.0000000  0 10G01G03G04G11G14G16G19G22G27G32
  22746071.060   119531436.57408  22746071.600    93141386.08147
  24198312.240   127163019.99208  24198315.280    99088083.12246
  20845467.960   109543749.33209  20845465.420    85358776.51848
  21675580.520   113905972.64609  21675576.780    88757892.41047
  22897130.320   120325279.24008  22897127.500    93759966.84146
  24184723.220   127091538.42808  24184722.100    99032344.85545
  20429198.640   107356185.77109  20429193.160    83654152.88349
  22133042.540   116310080.18309  22133037.440    90631300.64548
  20872251.060   109684449.49409  20872250.300    85468416.37749
  20745924.020   109020701.97809  20745921.920    84951231.49948
 15 03 02 03 39 30.0000000  0 10G01G03G04G11G14G16G19G22G27G32
  22734175.300   119468924.38508  22734175.920    93092675.29947
  24178866.080   127060830.32108  24178868.900    99008455.01346
  20838997.360   109509746.68309  20838994.940    85332280.94748
  21662896.300   113839316.57309  21662892.560    88705952.62747
  22889760.160   120286548.73508  22889757.300    93729787.23146
  24204933.800   127197745.89508  24204932.960    99115103.77345
  20428695.540   107353541.85809  20428690.080    83652092.69149
  22147348.180   116385257.50109  22147343.260    90689880.35748
  20881534.740   109733235.07009  20881533.880    85506431.09849
  20734291.900   108959575.05609  20734289.820    84903600.15348
 15 03 02 03 40  0.0000000  0 10G01G03G04G11G14G16G19G22G27G32
  22722302.280   119406531.59308  22722303.200    93044057.56847
  24159450.700   126958802.41708  24159453.320    98928952.96945
  20832570.220   109475972.51709  20832567.920    85305963.41948
  21650246.500   113772841.46709  21650242.740    88654153.83747
  22882472.360   120248251.45309  22882469.520    93699945.25546
  24225146.540   127303964.01908  24225145.740    99197870.99944
  20428274.380   107351328.68409  20428268.980    83650368.14649
  22161700.240   116460678.20109  22161695.180    90748649.74847
  20890900.280   109782451.19709  20890899.380    85544781.32048
  20722755.400   108898950.50009  20722753.300    84856360.26447
 15 03 02 03 40 30.0000000  0 10G01G03G04G11G14G16G19G22G27G32
  22710451.760   119344256.75908  22710452.700    92995531.70047
  24140066.200   126856936.61308  24140068.560    98849577.19845
  20826186.320   109442425.41109  20826184.120    85279822.83248
  21637631.080   113706546.91709  21637627.340    88602495.76047
  22875267.140   120210388.27008  22875264.460    93670441.46446
  24245360.500   127410188.75708  24245359.700    99280643.37945
  20427935.100   107349545.84209  20427929.720    83648978.91149
  22176098.120   116536339.10409  22176093.040    90807606.29648
  20900347.380   109832096.10309  20900346.520    85583465.64449
  20711314.500   108838828.14909  20711312.360    84809511.69348
 15 03 02 03 41  0.0000000  0 10G01G03G04G11G14G16G19G22G27G32
  22698624.100   119282102.03808  22698624.780    92947099.47347
  24120713.200   126755236.72608  24120715.520    98770330.75445
  20819846.100   109409107.75309  20819843.960    85253861.03248
  21625050.660   113640436.38709  21625046.900    88550981.07647
  22868145.200   120172963.21608  22868142.660    93641279.11546
  24265575.760   127516419.66708  24265574.900    99363420.58245
  20427678.360   107348196.89509  20427673.020    83647927.78149
  22190541.760   116612240.19509  22190536.500    90866749.99748
  20909876.400   109882171.64609  20909875.580    85622485.54349
  20699969.860   108779211.41609  20699967.620    84763057.11748
 15 03 02 03 41 30.0000000  0 10G01G03G04G11G14G16G19G22G27G32
  22686818.600   119220063.81708  22686819.360    92898758.01847
  24101391.360   126653700.82508  24101393.640    98691212.05746
  20813548.900   109376016.03109  20813546.820    85228075.27848
  21612504.720   113574507.03309  21612500.900    88499607.57347
  22861106.420   120135974.90608  22861104.000    93612457.06746
  24285791.000   127622650.19608  24285790.140    99446197.46844
  20427503.660   107347278.97709  20427498.300    83647212.52049
  22205029.880   116688375.27509  22205024.440    90926076.04648
  20919486.600   109932673.74009  20919485.820    85661837.81249
  20688721.000   108720097.80309  20688718.600    84716994.57448
 15 03 02 03 42  0.0000000  0 10G01G03G04G11G14G16G19G22G27G32
  22675036.020   119158146.04908  22675036.980    92850510.43747
  24082101.800   126552334.56708  24082104.040    98612225.53646
  20807295.480   109343154.34409  20807293.440    85202468.77448
  21599994.220   113508763.93009  21599990.380    88448379.19847
  22854151.860   120099429.14808  22854149.600    93583979.91246
  24306006.440   127728881.42908  24306005.500    99528974.90345
  20427411.980   107346797.11909  20427406.560    83646837.03949
  22219562.880   116764746.52409  22219557.460    90985586.10448
  20929178.740   109983605.95109  20929177.900    85701525.24149
  20677568.880   108661492.54409  20677566.320    84671328.15648
 15 03 02 03 42 30.0000000  0 10G01G03G04G11G14G16G19G22G27G32
  22663275.700   119096345.17908  22663276.520    92802353.91347
  24062844.100   126451136.01108  24062846.500    98533369.73546
  20801085.140   109310519.05509  20801083.100    85177038.68048
  21587518.640   113443204.51409  21587514.820    88397293.94347
  22847281.420   120063324.40308  22847278.920    93555846.32446
  24326220.880   127835107.28308  24326219.840    99611748.14345
  20427402.700   107346748.70509  20427397.300    83646799.31149
  22234139.660   116841348.18809  22234134.260    91045275.68648
  20938951.980   110034964.26409  20938951.080    85741544.69849
  20666512.940   108603393.11909  20666510.340    84626055.88348
 15 03 02 03 43  0.0000000  0 10G01G03G04G11G14G16G19G22G27G32
  22651537.400   119034659.73108  22651537.880    92754287.36147
  24043618.440   126350105.46308  24043620.820    98454644.80546
  20794917.640   109278108.80009  20794915.620    85151783.95048
  21575077.960   113377828.57009  21575074.200    88346351.67047
  22840495.060   120027661.30408  22840492.320    93528056.94846
  24346433.500   127941323.82808  24346432.460    99694514.16745
  20427475.800   107347133.17609  20427470.400    83647098.90149
  22248759.640   116918176.83109  22248754.260    91105142.16447
  20948805.920   110086746.86309  20948804.980    85781894.76349
  20655553.180   108545799.26809  20655550.560    84581177.57248
 15 03 02 03 43 30.0000000  0 10G01G03G04G11G14G16G19G22G27G32
  22639822.620   118973097.91008  22639823.240    92706317.13847
  24024426.660   126249252.66408  24024428.880    98376058.40946
  20788794.640   109245932.17009  20788792.560    85126711.25648
  21562673.920   113312645.16509  21562670.220    88295559.41447
  22833794.760   119992450.01308  22833791.860    93500619.57847
  24366645.220   128047536.12008  24366644.220    99777276.84445
  20427633.140   107347959.81209  20427627.680    83647743.02949
  22263423.980   116995238.48109  22263418.660    91165190.19547
  20958742.040   110138961.36609  20958741.100    85822581.38049
  20644691.380   108488720.23409  20644688.860    84536700.42148
 15 03 02 03 44  0.0000000  0 10G01G03G04G11G14G16G19G22G27G32
  22628129.980   118911652.72708  22628130.740    92658437.79947
  24005267.760   126148572.41408  24005269.960    98297606.43746
  20782714.760   109213981.93109  20782712.580    85101814.97448
  21550305.440   113247648.48509  21550301.760    88244912.64447
  22827179.420   119957685.65908  22827176.540    93473530.51046
  24386854.240   128153734.80808  24386853.320    99860028.92144
  20427873.420   107349222.19709  20427867.940    83648726.70249
  22278130.840   117072523.98009  22278125.560    91225412.63847
  20968758.900   110191600.39709  20968758.000    85863598.78849
  20633926.440   108432150.13409  20633924.040    84492619.84248
 15 03 02 03 44 30.0000000  0 10G01G03G04G11G14G16G19G22G27G32
  22616459.480   118850323.87308  22616460.080    92610649.10447
  23986141.880   126048065.87808  23986143.980    98219289.86446
  20776677.980   109182258.05109  20776675.720    85077095.07648
  21537972.660   113182839.21009  21537968.960    88194411.94947
  22820649.320   119923369.86508  22820646.400    93446790.94947
  24407060.080   128259916.75708  24407059.220    99942767.96345
  20428196.800   107350921.31609  20428191.300    83650050.69049
  22292880.020   117150031.02109  22292874.760    91285807.73548
  20978856.340   110244663.07309  20978855.480    85904946.31649
  20623258.480   108376089.74709  20623256.200    84448936.43848
 15 03 02 03 45  0.0000000  0 10G01G03G04G11G14G16G19G22G27G32
  22604812.180   118789116.95608  22604812.640    92562955.41047
  23967050.460   125947740.38808  23967052.480    98141114.31346
  20770685.340   109150766.21109  20770683.060    85052555.98148
  21525676.820   113118224.22709  21525673.140    88144062.63047
  22814205.920   119889510.05309  22814203.340    93420406.71946
  24427263.140   128366084.71707  24427262.500   100025496.14145
  20428604.500   107353063.63109  20428599.040    83651720.03149
  22307672.020   117227763.04409  22307666.640    91346378.12747
  20989035.420   110298154.51509  20989034.520    85946627.95149
  20612688.740   108320545.65109  20612686.560    84405655.34948
 15 03 02 03 45 30.0000000  0 10G01G03G04G11G14G16G19G22G27G32
  22593186.720   118728024.67508  22593187.260    92515351.07747
  23947992.440   125847590.31608  23947994.480    98063075.47046
  20764735.440   109119499.21209  20764733.180    85028192.09948
  21513416.680   113053796.92909  21513413.040    88093859.54147
  22807848.380   119856101.12608  22807845.860    93394373.80347
  24447461.560   128472228.67708  24447461.260   100108205.55945
  20429095.320   107355642.78709  20429089.880    83653729.75849
  22322505.140   117305710.65609  22322499.540    91407116.54348
  20999294.660   110352066.93309  20999293.720    85988637.62149
  20602216.000   108265511.63509  20602213.960    84362771.71748
 15 03 02 03 46  0.0000000  0 10G01G03G04G11G14G16G19G22G27G32
  22581584.340   118667053.51508  22581584.960    92467841.10047
  23928969.320   125747623.66308  23928971.320    97985179.54246
  20758829.620   109088463.72709  20758827.360    85004008.60648
  21501193.720   112989565.04609  21501190.120    88043808.72347
  22801578.240   119823151.39908  22801575.740    93368698.70546
  24467656.300   128578352.85208  24467656.220   100190899.58845
  20429670.560   107358665.81109  20429665.160    83656085.35649
  22337380.020   117383877.85809  22337374.360    91468026.03948
  21009635.200   110406406.18509  21009634.200    86030979.89249
  20591841.740   108210995.10409  20591839.820    84320291.30548
 15 03 02 03 46 30.0000000  0 10G01G03G04G11G14G16G19G22G27G32
  22570004.520   118606200.95008  22570005.020    92420423.53247
  23909981.000   125647839.54408  23909982.860    97907425.83946
  20752967.340   109057657.11709  20752965.060    84980003.46348
  21489007.700   112925527.14709  21489004.140    87993909.07847
  22795395.200   119790659.84608  22795392.700    93343380.63447
  24487846.320   128684451.82108  24487846.200   100273574.00345
  20430330.000   107362131.29709  20430324.640    83658785.73649
  22352295.720   117462260.44909  22352290.240    91529103.35147
  21020056.320   110461169.20209  21020055.280    86073652.36249
  20581565.740   108156994.54609  20581563.820    84278212.96248
 15 03 02 03 47  0.0000000  0 10G01G03G04G11G14G16G19G22G27G32
  22558446.740   118545464.34608  22558447.100    92373096.33847
  23891027.200   125548236.90808  23891029.000    97829813.57946
  20747148.160   109027076.86209  20747145.860    84956174.70548
  21476858.360   112861681.90009  21476854.800    87944159.55847
  22789299.360   119758626.06408  22789296.860    93318419.27346
  24508030.600   128790520.21308  24508030.460   100356224.61445
  20431073.300   107366037.49609  20431067.960    83661829.52849
  22367251.560   117540853.79809  22367246.020    91590344.93448
  21030557.380   110516352.78109  21030556.380    86116652.54349
  20571387.700   108103508.33309  20571385.620    84236535.41248
 15 03 02 03 47 30.0000000  0 10G01G03G04G11G14G16G19G22G27G32
  22546911.780   118484847.62808  22546912.060    92325862.55647
  23872109.000   125448821.33708  23872110.620    97752347.05546
  20741372.840   108996727.13509  20741370.460    84932525.58048
  21464746.620   112798034.25109  21464743.080    87894563.99547
  22783291.600   119727055.69708  22783289.160    93293819.01446
  24528209.260   128896559.00708  24528209.120   100438852.15345
  20431901.340   107370389.13909  20431896.040    83665220.41649
  22382247.800   117619659.36309  22382242.120    91651751.86847
  21041139.020   110571960.26109  21041138.120    86159983.03449
  20561308.480   108050541.25609  20561306.260    84195262.37948
 15 03 02 03 48  0.0000000  0 10G01G03G04G11G14G16G19G22G27G32
  22535399.340   118424349.51308  22535399.740    92278721.18647
  23853226.380   125349593.03508  23853227.900    97675026.46646
  20735641.160   108966606.84009  20735638.720    84909055.23048
  21452672.360   112734583.40209  21452668.780    87845121.76347
  22777372.100   119695949.19308  22777369.820    93269580.21046
  24548381.540   129002564.51308  24548381.460   100521453.76245
  20432814.040   107375185.46209  20432808.740    83668957.80749
  22397283.660   117698673.59609  22397278.080    91713321.38248
  21051800.940   110627989.65109  21051800.160    86203642.28349
  20551327.940   107998092.84109  20551325.620    84154393.49748
 15 03 02 03 48 30.0000000  0 10G01G03G04G11G14G16G19G22G27G32
  22523909.900   118363972.25308  22523910.360    92231673.99047
  23834380.080   125250555.92008  23834381.620    97597854.83546
  20729953.520   108936718.07209  20729951.060    84885765.29148
  21440636.320   112671333.31709  21440632.680    87795836.00747
  22771541.600   119665310.73608  22771539.520    93245706.09346
  24568547.380   129108536.15208  24568547.220   100604028.98845
  20433812.000   107380429.74609  20433806.680    83673044.25749
  22412359.420   117777897.17309  22412353.920    91775054.05848
  21062543.520   110684442.64509  21062542.840    86247631.61549
  20541446.720   107946166.33609  20541444.340    84113931.30148
 15 03 02 03 49  0.0000000  0 10G01G03G04G11G14G16G19G22G27G32
  22512442.080   118303708.44908  22512442.540    92184715.19647
  23815569.020   125151704.04908  23815570.640    97520827.56147
  20724308.580   108907053.67309  20724306.080    84862650.17948
  21428637.160   112608277.38709  21428633.520    87746701.51647
  22765799.160   119635134.63008  22765797.060    93222192.24146
  24588704.840   129214463.93008  24588704.740   100686570.02845
  20434893.960   107386115.44509  20434888.620    83677474.66049
  22427473.160   117857320.43609  22427467.560    91836942.30747
  21073365.160   110741311.14109  21073364.560    86291944.71449
  20531663.500   107894755.12809  20531661.120    84073870.63248
 15 03 02 03 49 30.0000000  0 10G01G03G04G11G14G16G19G22G27G32
  22500997.340   118243565.76108  22500997.660    92137850.78847
  23796794.980   125053046.69408  23796796.660    97443951.84947
  20718707.800   108877621.29409  20718705.240    84839715.86248
  21416676.640   112545424.57209  21416673.060    87697725.30347
  22760146.620   119605430.35808  22760144.500    93199046.08147
  24608854.840   129320352.84508  24608854.780   100769080.82845
  20436061.520   107392250.87209  20436056.140    83682255.51249
  22442625.780   117936948.80409  22442620.380    91898990.36347
  21084267.280   110798602.16609  21084266.700    86336587.05749
  20521979.860   107843867.70009  20521977.540    84034218.11448
 15 03 02 03 50  0.0000000  0 10G01G03G04G11G14G16G19G22G27G32
  22489575.040   118183540.96208  22489575.280    92091078.24448
  23778057.620   124954582.20608  23778059.340    97367226.42846
  20713150.620   108848418.03709  20713147.980    84816960.08548
  21404754.380   112482772.73609  21404750.820    87648905.70047
  22754583.780   119576196.48008  22754581.580    93176266.48946
  24628996.280   129426196.77408  24628996.080   100851556.56944
  20437314.200   107398833.58709  20437308.780    83687384.90149
  22457816.580   118016777.01009  22457811.200    91961194.16847
  21095249.080   110856311.75409  21095248.480    86381555.55549
  20512395.380   107793501.61709  20512393.160    83994971.83548
 15 03 02 03 50 30.0000000  0 10G01G03G04G11G14G16G19G22G27G32
  22478175.300   118123635.06608  22478175.580    92044398.35247
  23759357.380   124856313.04308  23759359.180    97290653.20946
  20707637.220   108819444.86409  20707634.540    84794383.59948
  21392870.780   112420324.02009  21392867.200    87600244.37647
  22749110.940   119547435.58208  22749108.520    93153855.39246
  24649128.820   129531994.36707  24649128.540   100933996.22545
  20438652.260   107405865.13209  20438646.860    83692864.02649
  22473045.100   118096803.91109  22473039.660    92023552.79247
  21106310.620   110914440.21809  21106309.900    86426850.45249
  20502910.520   107743658.82509  20502908.400    83956133.31848
 15 03 02 03 51  0.0000000  0 10G01G03G04G11G14G16G19G22G27G32
  22466798.140   118063848.07308  22466798.420    91997811.11747
  23740694.640   124758240.79408  23740696.620    97214233.41046
  20702167.580   108790701.77209  20702164.920    84771986.39148
  21381026.040   112358079.48409  21381022.420    87551742.15847
  22743728.420   119519149.31008  22743725.700    93131814.14746
  24669251.980   129637743.03307  24669251.640   101016397.73044
  20440075.940   107413346.56309  20440070.580    83698693.71549
  22488311.120   118177027.52209  22488305.840    92086064.69147
  21117451.780   110972986.85009  21117450.900    86472471.20249
  20493525.420   107694339.93109  20493523.300    83917703.02648
 15 03 02 03 51 30.0000000  0 10G01G03G04G11G14G16G19G22G27G32
  22455443.360   118004178.88509  22455443.700    91951315.67447
  23722069.520   124660365.77408  23722071.420    97137967.31446
  20696741.580   108762187.85809  20696738.920    84749767.76148
  21369220.080   112296038.94709  21369216.420    87503398.88147
  22738436.240   119491338.07808  22738433.200    93110143.10246
  24689365.000   129743438.82507  24689364.860   101098758.04044
  20441585.080   107421277.25709  20441579.800    83704873.47549
  22503613.980   118257444.35509  22503608.640    92148727.15647
  21128672.140   111031949.69809  21128671.140    86518416.26649
  20484239.980   107645544.52209  20484237.800    83879680.64048
 15 03 02 03 52  0.0000000  0 10G01G03G04G11G14G16G19G22G27G32
  22444111.220   117944628.53909  22444111.560    91904912.82447
  23703482.540   124562690.66108  23703484.300    97061856.96847
  20691359.460   108733904.25809  20691356.720    84727728.60048
  21357453.340   112234204.49509  21357449.680    87455216.20547
  22733234.860   119464004.99708  22733231.800    93088844.62046
  24709467.600   129849080.09107  24709467.820   101181075.81444
  20443180.040   107429658.97609  20443174.820    83711404.68449
  22518953.380   118338053.62409  22518948.000    92211539.56347
  21139971.760   111091329.12409  21139970.700    86564685.93049
  20475054.540   107597274.48809  20475052.280    83842067.64348
 15 03 02 03 52 30.0000000  0 10G01G03G04G11G14G16G19G22G27G32
  22432801.740   117885197.07809  22432802.060    91858602.61347
  23684933.960   124465216.93708  23684935.540    96985903.54146
  20686021.220   108705851.21009  20686018.400    84705869.09148
  21345726.020   112172577.34609  21345722.440    87407195.05248
  22728124.760   119437151.63708  22728121.780    93067919.91946
  24729559.460   129954663.81707  24729559.860   101263348.78144
  20444860.980   107438492.49609  20444855.780    83718287.94349
  22534329.120   118418853.25009  22534323.740    92274500.29447
  21151350.400   111151124.43609  21151349.420    86611279.66749
  20465969.160   107549530.48909  20465966.900    83804864.55148
 15 03 02 03 53  0.0000000  0 10G01G03G04G11G14G16G19G22G27G32
  22421514.580   117825882.87009  22421514.940    91812383.77447
  23666423.600   124367944.45608  23666425.120    96910106.93946
  20680726.480   108678027.05909  20680723.660    84684187.94248
  21334038.080   112111157.08009  21334034.580    87359335.12147
  22723105.860   119410777.66208  22723102.980    93047368.81147
  24749639.880   130060186.36608  24749640.100   101345574.15344
  20446627.700   107447776.80609  20446622.520    83725522.47649
  22549740.440   118499839.46309  22549734.980    92337606.42447
  21162807.640   111211333.12409  21162806.780    86658195.51649
  20456983.680   107502311.55709  20456981.440    83768070.60048
 15 03 02 03 53 30.0000000  0 10G01G03G04G11G14G16G19G22G27G32
  22410249.640   117766685.20809  22410249.940    91766255.73047
  23647951.580   124270873.92508  23647953.080    96834467.67846
  20675475.120   108650431.18109  20675472.320    84662684.66248
  21322389.560   112049943.77309  21322386.080    87311636.44447
  22718178.480   119384884.07909  22718175.620    93027192.06146
  24769708.040   130165644.30307  24769708.260   101427749.10945
  20448480.180   107457511.70709  20448474.960    83733108.10949
  22565186.700   118581009.53209  22565181.100    92400855.82947
  21174343.260   111271953.65509  21174342.460    86705432.27749
  20448098.040   107455617.56409  20448095.860    83731685.68348
 15 03 02 03 54  0.0000000  0 10G01G03G04G11G14G16G19G22G27G32
  22399007.720   117707608.33009  22399007.900    91720221.82047
  23629519.040   124174011.14308  23629520.560    96758990.30746
  20670268.040   108623068.05109  20670265.300    84641362.74348
  21310781.540   111988943.01209  21310777.940    87264103.38947
  22713343.740   119359477.02308  22713340.800    93007394.30446
  24789764.180   130271038.70808  24789764.120   101509874.57644
  20450419.360   107467702.15909  20450414.060    83741048.72149
  22580668.180   118662365.32709  22580662.420    92464249.93247
  21185957.940   111332989.47109  21185957.180    86752992.63749
  20439313.220   107409453.41209  20439311.100    83695713.63548
 15 03 02 03 54 30.0000000  0 10G01G03G04G11G14G16G19G22G27G32
  22387788.540   117648651.13409  22387788.660    91674281.18647
  23611126.060   124077356.36308  23611127.600    96683675.02346
  20665105.000   108595936.41809  20665102.340    84620221.21548
  21299213.940   111928154.68509  21299210.260    87216735.87047
  22708601.500   119334556.20508  22708598.440    92987975.53047
  24809807.640   130376366.25408  24809807.520   101591947.93145
  20452445.140   107478347.58109  20452439.780    83749343.86149
  22596184.420   118743903.81809  22596178.640    92527786.42147
  21197651.320   111394438.48209  21197650.540    86800874.98349
  20430629.160   107363818.54709  20430627.020    83660154.01648
 15 03 02 03 55  0.0000000  0 10G01G03G04G11G14G16G19G22G27G32
  22376591.860   117589812.28609  22376591.980    91628432.76247
  23592772.740   123980909.71508  23592774.240    96608521.90346
  20659985.860   108569035.26909  20659983.180    84599259.28948
  21287686.780   111867578.84509  21287683.020    87169533.91547
  22703951.780   119310122.28408  22703948.760    92968936.14846
  24829837.600   130481622.78508  24829837.380   101673965.96345
  20454557.380   107489447.31709  20454552.020    83757992.99049
  22611734.820   118825621.61109  22611729.040    92591462.61747
  21209422.960   111456298.62809  21209422.180    86849077.67249
  20422045.740   107318712.21009  20422043.500    83625006.22848
 15 03 02 03 55 30.0000000  0 11G01G03G04G11G14G16G19G22G27G28G32
  22365415.820   117531081.85209  22365415.980    91582668.81047
  23574457.500   123884662.71808  23574458.840    96533524.34547
  20654908.640   108542354.61309  20654905.980    84578469.17848
  21276198.380   111807206.61509  21276194.580    87122490.63348
  22699392.980   119286166.94208  22699390.220    92950269.65646
  24849851.480   130586795.53307  24849851.160   101755918.67645
  20456754.220   107500991.71809  20456748.880    83766988.63349
  22627317.060   118907506.35209  22627311.240    92655268.89447
  21221270.680   111518558.96709  21221270.000    86897592.21149
  25031295.560   131540341.96705  25031292.000   102498930.04543
  20413561.080   107274124.96309  20413558.780    83590262.94148
 15 03 02 03 56  0.0000000  0 11G01G03G04G11G14G16G19G22G27G28G32
  22354265.440   117472486.10909  22354265.580    91537009.82048
  23556185.520   123788642.91008  23556186.760    96458703.83847
  20649878.400   108515920.74409  20649875.780    84557871.37248
  21264753.880   111747065.13209  21264750.060    87075627.14048
  22694930.580   119262717.35809  22694927.780    92931997.25546
  24869853.940   130691908.51308  24869853.560   101837824.85344
  20459040.740   107513007.59809  20459035.480    83776351.65049
  22642935.660   118989582.38609  22642929.820    92719224.24747
  21233199.280   111581244.72709  21233198.700    86946438.24649
  25018300.900   131472054.93306  25018297.440   102445719.42043
  20405180.260   107230083.41509  20405177.980    83555944.86648
 15 03 02 03 56 30.0000000  0 11G01G03G04G11G14G16G19G22G27G28G32
  22343136.420   117414002.50209  22343136.540    91491438.19547
  23537952.760   123692829.45908  23537953.920    96384044.12146
  20644890.880   108489711.38909  20644888.320    84537448.51048
  21253349.200   111687133.21109  21253345.440    87028926.96247
  22690560.580   119239752.81408  22690557.660    92914102.83946
  24889840.160   130796936.23808  24889839.700   101919664.61645
  20461412.940   107525473.60409  20461407.760    83786065.42349
  22658586.000   119071825.68809  22658580.120    92783309.94547
  21245204.500   111644332.79909  21245203.960    86995597.76249
  25005372.840   131404117.72407  25005369.220   102392781.32143
  20396899.140   107186565.94909  20396896.880    83522035.17248
 15 03 02 03 57  0.0000000  0 11G01G03G04G11G14G16G19G22G27G28G32
  22332030.340   117355639.64909  22332030.460    91445960.66047
  23519761.160   123597232.22108  23519762.240    96309552.87147
  20639947.760   108463735.26809  20639945.280    84517207.37948
  21241986.180   111627420.30809  21241982.500    86982397.42648
  22686284.920   119217283.37308  22686281.840    92896594.15147
  24909811.320   130901884.97208  24909810.900   102001442.77844
  20463872.440   107538398.41409  20463867.320    83796136.69749
  22674269.260   119154242.06209  22674263.480    92847530.46047
  21257287.740   111707830.63309  21257287.160    87045076.57749
  24992513.320   131336540.75307  24992509.660   102340123.93344
  20388719.440   107143581.37409  20388717.260    83488540.71348
 15 03 02 03 57 30.0000000  0 11G01G03G04G11G14G16G19G22G27G28G32
  22320946.940   117297396.10009  22320947.060    91400576.10048
  23501610.680   123501851.16208  23501611.720    96235230.07546
  20635048.800   108437990.99309  20635046.320    84497146.90748
  21230664.820   111567926.39409  21230661.260    86936038.53348
  22682103.460   119195308.83509  22682100.300    92879471.19246
  24929766.540   131006750.74407  24929766.200   102083156.34945
  20466419.040   107551780.78509  20466413.920    83806564.51949
  22689984.880   119236828.00309  22689979.140    92911883.12247
  21269448.580   111771735.86309  21269447.940    87094872.85049
  24979722.480   131269324.63508  24979718.980   102287747.74944
  20380641.000   107101128.74909  20380638.820    83455460.75348
 15 03 02 03 58  0.0000000  0 11G01G03G04G11G14G16G19G22G27G28G32
  22309886.220   117239271.94209  22309886.360    91355284.57947
  23483501.600   123406687.65108  23483502.620    96161076.78446
  20630194.020   108412478.63209  20630191.480    84477267.15148
  21219385.280   111508652.11609  21219381.800    86889850.78647
  22678016.280   119173830.54808  22678013.260    92862734.91646
  24949705.360   131111530.82807  24949705.220   102164803.10044
  20469052.740   107565621.13409  20469047.620    83817349.20149
  22705732.480   119319581.72909  22705726.700    92976366.54147
  21281686.820   111836047.52409  21281686.080    87144985.82049
  24967000.560   131202470.61508  24966997.220   102235653.69545
  20372663.900   107059208.45609  20372661.640    83422795.60248
 15 03 02 03 58 30.0000000  0 10G01G03G04G11G14G19G22G27G28G32
  22298849.960   117181276.38509  22298850.120    91310093.26747
  23465435.880   123311752.35308  23465436.940    96087101.33647
  20625385.140   108387207.72109  20625382.560    84457575.54848
  21208149.580   111449608.18809  21208146.100    86843842.55148
  22674025.500   119152859.28409  22674022.740    92846393.66946
  20471775.560   107579929.84709  20471770.440    83828498.85349
  22721513.280   119402510.44009  22721507.340    93040986.31447
  21294004.000   111900773.84509  21294003.100    87195421.91149
  24954349.720   131135989.94908  24954346.480   102183850.57745
  20364789.960   107017830.22509  20364787.640    83390552.84848
 15 03 02 03 59  0.0000000  0 10G01G03G04G11G14G19G22G27G28G32
  22287834.860   117123391.92509  22287835.000    91264988.51348
  23447410.460   123217029.08808  23447411.620    96013291.10646
  20620618.820   108362160.58509  20620616.200    84438058.30248
  21196954.620   111390778.16609  21196951.080    86798000.97548
  22670128.100   119132378.70808  22670125.480    92830434.79346
  20474584.220   107594689.67809  20474579.120    83840000.02249
  22737323.600   119485594.57709  22737317.700    93105727.18347
  21306396.520   111965896.32809  21306395.500    87246166.68948
  24941767.020   131069867.15208  24941763.800   102132326.31146
  20357015.840   106976976.82609  20357013.460    83358719.04248
 15 03 02 03 59 30.0000000  0 10G01G03G04G11G14G19G22G27G28G32
  22276842.140   117065625.04909  22276842.360    91219975.37948
  23429426.900   123122525.71808  23429428.120    95939652.20847
  20615896.300   108337343.96909  20615893.740    84418720.68348
  21185801.820   111332169.63009  21185798.220    86752331.98648
  22666325.540   119112396.55608  22666322.920    92814864.30547
  20477480.040   107609907.14709  20477474.880    83851857.78649
  22753164.320   119568838.33009  22753158.640    93170592.45247
  21318865.400   112031420.40409  21318864.320    87297224.39149
  24929254.060   131004110.54108  24929250.820   102081087.39646
  20349342.840   106936655.13009  20349340.460    83327299.55548
 15 03 02 04 00  0.0000000  0 10G01G03G04G11G14G19G22G27G28G32
  22265872.460   117007979.10409  22265872.740    91175056.50347
  23411486.100   123028246.88408  23411487.380    95866188.27247
  20611218.280   108312761.10709  20611215.760    84399565.21948
  21174692.040   111273787.29209  21174688.420    86706839.26448
  22662618.760   119092917.42708  22662616.100    92799685.75947
  20480463.800   107625586.56509  20480458.540    83864075.50849
  22769035.660   119652242.76109  22769030.080    93235582.88547
  21331411.100   112097348.38209  21331410.060    87348596.82348
  24916811.720   130938725.11408  24916808.560   102030137.72746
  20341771.680   106896868.70809  20341769.260    83296297.16448
 15 03 02 04 00 30.0000000  0 10G01G03G04G11G14G19G22G27G28G32
  22254924.540   116950447.63309  22254924.940    91130226.79947
  23393587.120   122934187.43208  23393588.400    95792895.28747
  20606583.580   108288405.78309  20606581.140    84380587.05348
  21163624.180   111215625.32409  21163620.620    86661518.24848
  22659006.820   119073936.13709  22659003.940    92784895.16846
  20483534.160   107641721.28409  20483528.880    83876648.02549
  22784936.040   119735799.67709  22784930.440    93300692.17647
  21344032.180   112163672.63609  21344031.260    87400278.04849
  24904439.160   130873706.58908  24904435.920   101979473.97645
  20334301.180   106857611.44109  20334298.740    83265707.10148
 15 03 02 04 01  0.0000000  0 10G01G03G04G11G14G19G22G27G28G32
  22244000.160   116893039.84409  22244000.660    91085493.45148
  23375731.920   122840357.85508  23375733.140    95719781.41647
  20601993.960   108264287.26509  20601991.620    84361793.39848
  21152600.240   111157694.10709  21152596.720    86616377.04648
  22655491.580   119055462.89208  22655488.480    92770500.44447
  20486693.020   107658320.92209  20486687.740    83889582.79949
  22800866.780   119819516.01009  22800861.240    93365925.66247
  21356730.200   112230401.29709  21356729.360    87452274.38748
  24892138.440   130809065.44808  24892135.140   101929104.24645
  20326933.180   106818892.65509  20326930.740    83235536.63248
 15 03 02 04 01 30.0000000  0 10G01G03G04G11G14G19G22G27G28G32
  22233098.880   116835753.46009  22233099.420    91040854.75348
  23357920.280   122746757.21208  23357921.480    95646845.93847
  20597449.020   108240403.32309  20597446.700    84343182.54648
  21141620.020   111099992.74909  21141616.560    86571414.96548
  22652072.760   119037496.89009  22652069.640    92756501.00746
  20489939.980   107675383.64409  20489934.660    83902878.43749
  22816827.020   119903387.68509  22816821.680    93431280.21047
  21369504.460   112297531.07309  21369503.700    87504583.28848
  24879909.420   130744801.25208  24879906.080   101879028.20545
  20319667.360   106780710.54709  20319664.900    83205784.35948
 15 03 02 04 02  0.0000000  0 10G01G03G04G11G14G19G22G27G28G32
  22222220.380   116778587.03509  22222221.040    90996309.50148
  23340152.180   122653385.37408  23340153.380    95574088.74447
  20592948.400   108216752.49209  20592946.160    84324753.33148
  21130683.420   111042520.43009  21130679.920    86526631.34048
  22648750.400   119020037.91308  22648747.340    92742896.59547
  20493274.880   107692908.39609  20493269.520    83916534.07449
  22832815.960   119987410.93809  22832810.720    93496752.83647
  21382354.460   112365059.29509  21382353.820    87557202.67049
  24867752.200   130680914.47208  24867748.920   101829246.27645
  20312503.440   106743063.66709  20312500.920    83176449.14148
 15 03 02 04 02 30.0000000  0 10G01G03G04G11G14G19G22G27G28G32
  22211364.700   116721540.47909  22211365.380    90951857.63948
  23322427.860   122560243.47308  23322429.060    95501510.71747
  20588492.200   108193335.04209  20588489.960    84306505.97448
  21119790.800   110985279.10509  21119787.220    86482027.71448
  22645524.660   119003086.84508  22645521.680    92729688.00947
  20496697.700   107710895.31809  20496692.260    83930549.85349
  22848833.360   120071583.57708  22848828.160    93562341.90747
  21395280.080   112432984.68309  21395279.540    87610131.53248
  24855667.000   130617406.40108  24855663.840   101779759.48945
  20305441.440   106705952.13409  20305438.820    83147531.07548
 15 03 02 04 03  0.0000000  0 10G01G03G04G11G14G19G22G27G28G32
  22200531.620   116664612.69109  22200532.300    90907498.36348
  23304747.360   122467331.70308  23304748.460    95429112.02547
  20584080.160   108170149.70209  20584077.920    84288439.48448
  21108942.000   110928268.08709  21108938.320    86437603.55948
  22642395.620   118986643.81509  22642392.820    92716875.25947
  20500208.320   107729343.66409  20500202.760    83944925.18649
  22864878.560   120155902.27909  22864873.580    93628044.76747
  21408280.960   112501305.05709  21408280.520    87663368.17748
  24843654.040   130554278.04408  24843651.000   101730568.57745
  20298481.120   106669375.11409  20298478.460    83119029.51748
 15 03 02 04 03 30.0000000  0 10G01G03G04G11G14G19G22G27G28G32
  22189721.460   116607805.09009  22189722.120    90863232.72048
  23287111.120   122374652.69408  23287112.140    95356894.69347
  20579712.620   108147198.16709  20579710.380    84270555.18048
  21098137.500   110871490.01209  21098133.740    86393360.90948
  22639363.780   118970710.99408  22639361.040    92704460.11747
  20503807.020   107748255.07609  20503801.460    83959661.34949
  22880951.660   120240366.79709  22880946.780    93693861.25847
  21421357.120   112570020.59809  21421356.700    87716912.74348
  24831713.900   130491532.29808  24831710.900   101681675.75544
  20291622.740   106633334.09709  20291620.060    83090945.62248
 15 03 02 04 04  0.0000000  0 10G01G03G04G11G14G19G22G27G28G32
  22178934.200   116551117.23009  22178934.700    90819060.35248
  23269519.320   122282207.23408  23269520.260    95284859.35647
  20575389.420   108124479.89209  20575387.220    84252852.63948
  21087377.440   110814945.57309  21087373.640    86349300.31748
  22636429.200   118955289.31008  22636426.360    92692443.24047
  20507493.740   107767629.30609  20507488.320    83974758.15849
  22897052.100   120324974.49809  22897047.160    93759789.33247
  21434508.160   112639129.69009  21434507.760    87770763.96448
  24819846.840   130429170.46908  24819843.840   101633082.11244
  20284866.160   106597828.69909  20284863.580    83063279.08348
 15 03 02 04 04 30.0000000  0 10G01G03G04G11G14G19G22G27G28G32
  22168169.880   116494550.02909  22168170.240    90774982.03848
  23251972.420   122189997.53908  23251973.240    95213007.72647
  20571110.740   108101995.89409  20571108.600    84235332.64048
  21076662.240   110758637.00109  21076658.400    86305423.50448
  22633592.140   118940380.55108  22633589.260    92680826.01947
  20511268.680   107787467.51209  20511263.460    83990216.48849
  22913179.580   120409724.02609  22913174.400    93825827.90147
  21447734.000   112708632.01409  21447733.620    87824921.60648
  24808053.320   130367195.19508  24808050.320   101584789.70545
  20278211.700   106562859.89909  20278209.240    83036030.68348
 15 03 02 04 05  0.0000000  0 10G01G03G04G11G14G19G22G27G28G32
  22157428.700   116438104.66809  22157429.020    90730998.66448
  23234470.780   122098025.87908  23234471.520    95141341.57347
  20566876.960   108079747.60809  20566874.840    84217996.32448
  21065992.280   110702566.27909  21065988.460    86261732.03648
  22630853.020   118925986.91608  22630850.160    92669610.19446
  20515132.180   107807771.08009  20515127.160    84006037.44749
  22929333.760   120494614.78809  22929328.320    93891976.51746
  21461034.660   112778527.43609  21461034.280    87879385.55149
  24796333.900   130305608.89608  24796330.720   101536800.37745
  20271659.660   106528428.96909  20271657.300    83009201.40448
 15 03 02 04 05 30.0000000  0 10G01G03G04G11G14G19G22G27G28G32
  22146710.220   116381778.71209  22146710.500    90687108.28948
  23217014.180   122006291.06108  23217014.840    95069859.96847
  20562687.560   108057732.57309  20562685.520    84200841.75748
  21055367.380   110646732.05809  21055363.540    86218224.85948
  22628211.600   118912106.88108  22628208.860    92658794.59846
  20519083.800   107828537.40109  20519078.900    84022218.99049
  22945513.940   120579642.22109  22945508.380    93958231.65547
  21474409.500   112848812.30509  21474409.080    87934152.96748
  24784688.420   130244411.11708  24784685.080   101489113.78245
  20265209.480   106494533.40209  20265207.220    82982789.29048
 15 03 02 04 06  0.0000000  0 10G01G03G04G11G14G19G22G27G28G32
  22136014.880   116325574.41309  22136015.160    90643312.79248
  23199603.260   121914796.62408  23199603.900    94998565.67747
  20558543.000   108035953.05409  20558541.020    84183870.72448
  21044788.100   110591137.68709  21044784.220    86174904.57748
  22625668.660   118898743.76708  22625665.860    92648381.81346
  20523124.140   107849769.58309  20523119.260    84038763.54249
  22961720.160   120664805.98309  22961714.620    94024593.03847
  21487858.660   112919487.67109  21487858.220    87989224.67148
  24773117.600   130183605.65108  24773114.260   101441732.90545
  20258861.680   106461175.70309  20258859.460    82956796.30048
