     2.11           OBSERVATION DATA    G                   RINEX VERSION / TYPE
SPIDER V4,0,0,3554                      2015 03 13 03:14    PGM / RUN BY / DATE 
EMHD                                                        MARKER NAME         
EMHD                                                        MARKER NUMBER       
                                                            OBSERVER / AGENCY   
462397              LEICA GRX1200PRO    8.20/2.127          REC # / TYPE / VERS 
103297              LEIAT504                                ANT # / TYPE        
  5146535.6892   265261.6083  3747697.6292                  APPROX POSITION XYZ 
        0.0470        0.0000        0.0000                  ANTENNA: DELTA H/E/N
     1     1                                                WAVELENGTH FACT L1/2
     4    C1    L1    P2    L2                              # / TYPES OF OBSERV 
    30.000                                                  INTERVAL            
  2015    03    02    00    00    0.0000000     GPS         TIME OF FIRST OBS   
  2015    03    02    23    59   30.0000000     GPS         TIME OF LAST OBS    
    16                                                      LEAP SECONDS        
    30                                                      # OF SATELLITES     
   G 1   764   764   764   764                              PRN / # OF OBS      
   G 2   859   859   859   859                              PRN / # OF OBS      
   G 3   783   783   783   783                              PRN / # OF OBS      
   G 4   806   806   806   806                              PRN / # OF OBS      
   G 5   641   641   641   641                              PRN / # OF OBS      
   G 6   641   641   641   641                              PRN / # OF OBS      
   G 7   629   629   629   629                              PRN / # OF OBS      
   G 9   727   727   727   727                              PRN / # OF OBS      
   G10   720   720   719   719                              PRN / # OF OBS      
   G11   747   747   747   747                              PRN / # OF OBS      
   G12   799   799   799   799                              PRN / # OF OBS      
   G13   760   760   760   760                              PRN / # OF OBS      
   G14   788   788   788   788                              PRN / # OF OBS      
   G15   702   702   702   702                              PRN / # OF OBS      
   G16   639   639   639   639                              PRN / # OF OBS      
   G17   891   891   891   891                              PRN / # OF OBS      
   G18   786   786   786   786                              PRN / # OF OBS      
   G19   733   733   733   733                              PRN / # OF OBS      
   G20   734   734   733   733                              PRN / # OF OBS      
   G21   599   599   599   599                              PRN / # OF OBS      
   G22   691   691   691   691                              PRN / # OF OBS      
   G23   727   727   727   727                              PRN / # OF OBS      
   G24   731   731   731   731                              PRN / # OF OBS      
   G25   761   761   761   761                              PRN / # OF OBS      
   G27   782   782   782   782                              PRN / # OF OBS      
   G28   794   794   794   794                              PRN / # OF OBS      
   G29   713   713   713   713                              PRN / # OF OBS      
   G30   653   653   653   653                              PRN / # OF OBS      
   G31   773   773   773   773                              PRN / # OF OBS      
   G32   716   716   715   715                              PRN / # OF OBS      
BIT 2 OF LLI FLAGS DATA COLLECTED UNDER A/S CONDITION       COMMENT             
SNR is mapped to RINEX snr flag value [2-9]                 COMMENT             
Lx:     = 25dBHz -> 1; 26-27dBHz -> 2; 28-31dBHz -> 3       COMMENT             
       32-35dBHz -> 4; 36-38dBHz -> 5; 39-41dBHz -> 6       COMMENT             
       42-44dBHz -> 7; 45-48dBHz -> 8; >=49dBHz -> 9        COMMENT             
                                                            END OF HEADER       
 15 03 02 00 00  0.0000000  0  7G16G18G21G22G27G29G31
  21372699.260   112314304.15007  21372696.180    87517620.75148
  22523855.320   118363728.66405  22523853.300    92231502.23846
  21467589.960   112812957.62706  21467586.760    87906195.23048
  23715046.200   124623415.83804  23715046.500    97109158.66745
  22534658.280   118420444.95305  22534658.060    92275677.47947
  24345545.700   127936697.81803  24345543.860    99690937.18545
  23251982.300   122189952.41405  23251981.980    95212926.54647
 15 03 02 00 00 30.0000000  0  6G16G18G21G27G29G31
  21360665.600   112251066.70307  21360662.480    87468344.82348
  22513209.080   118307782.80706  22513207.100    92187908.10546
  21476016.960   112857241.24306  21476013.620    87940701.95648
  22522870.720   118358500.73605  22522870.560    92227409.28547
  24360060.180   128012972.59304  24360058.400    99750372.04443
  23270059.260   122284946.86804  23270059.020    95286948.03247
 15 03 02 00 01  0.0000000  0  7G16G18G21G22G27G29G31
  21348690.560   112188137.40907  21348687.400    87419309.01348
  22502624.200   118252159.56305  22502622.260    92144565.35447
  21484501.680   112901828.77106  21484498.380    87975445.49148
  23679699.540   124437661.69005  23679699.180    96964413.81246
  22511104.840   118296670.70605  22511104.700    92179230.05947
  24374576.680   128089257.81704  24374575.060    99809815.04346
  23288160.380   122380068.11305  23288160.240    95361068.32146
 15 03 02 00 01 30.0000000  0  6G16G18G21G27G29G31
  21336776.040   112125526.39907  21336772.920    87370521.22348
  22492102.840   118196869.71305  22492100.940    92101482.39746
  21493045.400   112946726.36706  21493042.100    88010430.63348
  22499362.120   118234963.16105  22499362.020    92131146.28847
  24389096.720   128165561.40204  24389095.300    99869272.37245
  23306286.460   122475321.08305  23306286.400    95435291.23647
 15 03 02 00 02  0.0000000  0  7G16G18G21G22G27G29G31
  21324920.260   112063223.88707  21324917.180    87321973.81748
  22481643.200   118141903.64206  22481641.060    92058651.72646
  21501645.580   112991920.73106  21501642.260    88045647.02948
  23644387.080   124252091.25104  23644386.920    96819810.22645
  22487640.500   118173366.27805  22487640.400    92083148.75847
  24403618.120   128241871.70904  24403616.820    99928734.88945
  23324435.040   122570691.34805  23324434.820    95509605.54046
 15 03 02 00 02 30.0000000  0  7G16G18G21G22G27G29G31
  21313125.400   112001241.54207  21313122.340    87273675.89048
  22471247.300   118087272.84806  22471244.980    92016082.31646
  21510303.640   113037419.28806  21510300.360    88081100.44848
  23626745.660   124159384.76304  23626745.260    96747571.76344
  22475941.840   118111889.30505  22475941.680    92035244.64048
  24418142.500   128318197.87004  24418141.100    99988209.79345
  23342606.980   122666184.98805  23342606.700    95584016.01546
 15 03 02 00 03  0.0000000  0  7G16G18G21G22G27G29G31
  21301391.280   111939578.53507  21301388.200    87225626.80248
  22460915.040   118032976.84406  22460912.800    91973773.77746
  21519018.580   113083217.02706  21519015.400    88116787.00048
  23609114.400   124066731.87204  23609113.780    96675375.03646
  22464265.500   118050529.51905  22464265.440    91987431.84247
  24432669.380   128394537.01604  24432667.900   100047694.85045
  23360801.380   122761796.19104  23360800.960    95658518.05746
 15 03 02 00 03 30.0000000  0  7G16G18G21G22G27G29G31
  21289718.580   111878238.12807  21289715.460    87177829.07848
  22450647.080   117979018.62105  22450644.720    91931728.45346
  21527790.480   113129313.91506  21527787.360    88152706.65248
  23591493.700   123974136.11904  23591493.280    96603222.75546
  22452611.640   117989287.96905  22452611.660    91939711.16247
  24447199.080   128470890.21404  24447197.380   100107190.83044
  23379017.900   122857522.89705  23379017.300    95733110.11546
 15 03 02 00 04  0.0000000  0  7G16G18G21G22G27G29G31
  21278108.080   111817224.31007  21278104.960    87130285.84548
  22440444.160   117925401.99606  22440441.680    91889949.29746
  21536619.380   113175709.97406  21536616.240    88188859.42848
  23573884.800   123881601.89604  23573884.540    96531118.42246
  22440980.540   117928166.41805  22440980.640    91892084.00347
  24461731.620   128547258.97204  24461729.840   100166698.93346
  23397256.260   122953364.26005  23397255.500    95807791.51046
 15 03 02 00 04 30.0000000  0  7G16G18G21G22G27G29G31
  21266559.620   111756536.64607  21266556.500    87082996.76048
  22430306.280   117872126.63506  22430303.800    91848436.07946
  21545504.300   113222400.25206  21545501.200    88225241.46948
  23556287.700   123789129.59204  23556287.400    96459062.37846
  22429371.820   117867162.44805  22429371.940    91844548.46147
  24476266.720   128623641.01504  24476264.960   100226217.36944
  23415515.140   123049314.07904  23415514.320    95882557.44046
 15 03 02 00 05  0.0000000  0  7G16G18G21G22G27G29G31
  21255073.520   111696176.98807  21255070.480    87035963.26348
  22420233.780   117819194.91806  22420231.280    91807190.60946
  21554444.840   113269382.86806  21554441.760    88261851.29548
  23538702.800   123696721.43204  23538702.540    96387056.27445
  22417785.560   117806275.92006  22417785.680    91797104.43447
  24490804.120   128700035.86704  24490802.580   100285745.78145
  23433794.160   123145369.96604  23433793.400    95957405.98446
 15 03 02 00 05 30.0000000  0  6G16G18G21G22G27G31
  21243645.580   111636122.91807  21243642.580    86989167.89248
  22410222.220   117766584.27206  22410219.820    91766195.33746
  21563436.000   113316631.93206  21563432.980    88298668.75048
  23521126.140   123604356.11004  23521125.840    96315083.56744
  22406217.100   117745482.36706  22406217.020    91749732.85247
  23452088.100   123241504.31304  23452087.320    96032315.67646
 15 03 02 00 06  0.0000000  0  6G16G18G21G22G27G31
  21232284.820   111576421.96307  21232281.840    86942647.67348
  22400280.720   117714341.97506  22400278.380    91725487.09746
  21572486.060   113364190.67306  21572483.120    88335727.50548
  23503566.740   123512081.11104  23503566.360    96243181.35846
  22394674.920   117684827.26006  22394674.620    91702469.16847
  23470404.880   123337759.29304  23470404.260    96107319.35246
 15 03 02 00 06 30.0000000  0  6G16G18G21G22G27G31
  21220990.040   111517067.54807  21220987.040    86896397.48448
  22390408.200   117662461.95506  22390405.840    91685061.14146
  21581593.100   113412048.82206  21581590.180    88373019.57148
  23486023.280   123419890.64104  23486022.760    96171344.96446
  22383157.240   117624301.85606  22383156.820    91655306.53347
  23488742.360   123434123.35304  23488741.920    96182408.04646
 15 03 02 00 07  0.0000000  0  6G16G18G21G22G27G31
  21209759.840   111458052.22307  21209756.780    86850411.52548
  22380603.060   117610935.94106  22380600.760    91644911.05146
  21590754.880   113460194.59806  21590751.980    88410535.76248
  23468494.500   123327777.92004  23468493.960    96099569.15445
  22371662.320   117563896.57405  22371661.940    91608237.49947
  23507098.220   123530583.85404  23507097.880    96257571.88445
 15 03 02 00 07 30.0000000  0  6G16G18G21G22G27G31
  21198591.700   111399363.25407  21198588.600    86804679.86348
  22370863.000   117559751.76706  22370860.660    91605027.29346
  21599968.200   113508611.00006  21599965.320    88448262.82548
  23450978.040   123235730.28004  23450977.560    96027844.03745
  22360187.500   117503596.60805  22360187.180    91561250.54147
  23525469.000   123627122.75204  23525468.800    96332796.78445
 15 03 02 00 08  0.0000000  0  6G16G18G21G22G27G31
  21187492.540   111341036.68507  21187489.380    86759230.58648
  22361194.940   117508945.39606  22361192.620    91565437.93746
  21609239.300   113557330.75706  21609236.400    88486226.27248
  23433480.760   123143784.39604  23433480.520    95956198.19745
  22348739.320   117443436.04206  22348739.040    91514372.19847
  23543860.800   123723771.26504  23543860.620    96408107.13246
 15 03 02 00 08 30.0000000  0  6G16G18G21G22G27G31
  21176457.280   111283045.64307  21176454.040    86714042.76948
  22351593.680   117458490.04006  22351591.400    91526122.11746
  21618562.400   113606323.70006  21618559.440    88524402.58948
  23415997.940   123051914.02104  23415997.800    95884611.19946
  22337312.200   117383385.94506  22337311.880    91467579.92747
  23562267.460   123820497.60804  23562267.280    96483478.10546
 15 03 02 00 09  0.0000000  0  6G16G18G21G22G27G31
  21165485.520   111225388.59707  21165482.220    86669115.19948
  22342058.860   117408383.90706  22342056.540    91487078.42046
  21627936.180   113655582.88106  21627933.100    88562786.37248
  23398529.520   122960118.25004  23398529.240    95813082.32145
  22325905.460   117323442.61506  22325905.040    91420870.85747
  23580687.440   123917294.92804  23580687.380    96558904.37747
 15 03 02 00 09 30.0000000  0  6G16G18G21G22G27G31
  21154581.100   111168085.48307  21154577.800    86624463.42248
  22332594.140   117358647.00106  22332591.780    91448322.41646
  21637363.820   113705125.41106  21637360.640    88601390.94148
  23381079.340   122868417.65204  23381078.920    95741627.62544
  22314522.480   117263624.12306  22314522.080    91374259.07648
  23599123.840   124014178.08605  23599123.820    96634397.54946
 15 03 02 00 10  0.0000000  0  6G16G18G21G22G27G31
  21143744.120   111111137.10507  21143740.920    86580088.07048
  22323199.840   117309280.16006  22323197.560    91409854.78446
  21646844.660   113754947.84506  21646841.560    88640213.61348
  23363647.620   122776813.39304  23363646.980    95670247.96146
  22303162.920   117203929.25106  22303162.600    91327743.61447
  23617575.960   124111143.01004  23617575.900    96709954.41946
 15 03 02 00 10 30.0000000  0  6G16G18G21G22G27G31
  21132975.760   111054549.09407  21132972.620    86535993.52248
  22313877.040   117260288.72306  22313874.720    91371679.66146
  21656379.100   113805051.62106  21656375.980    88679255.51848
  23346235.300   122685312.18404  23346234.600    95598948.59546
  22291827.400   117144361.62405  22291827.200    91281327.29747
  23636043.700   124208190.44004  23636043.560    96785575.57745
 15 03 02 00 11  0.0000000  0  6G16G18G21G22G27G31
  21122273.240   110998307.32907  21122270.220    86492168.77948
  22304623.060   117211658.47006  22304620.600    91333785.98846
  21665963.660   113855418.68506  21665960.520    88718502.58148
  23328839.920   122593900.08104  23328839.260    95527718.63846
  22280513.060   117084904.86006  22280512.800    91234997.37247
  23654523.420   124305300.80204  23654523.160    96861245.75346
 15 03 02 00 11 30.0000000  0  6G16G18G21G22G27G31
  21111638.600   110942421.80007  21111635.560    86448621.61448
  22295439.580   117163399.06206  22295437.100    91296181.29347
  21675599.540   113906055.78606  21675596.380    88757960.06748
  23311463.520   122502587.59104  23311462.820    95456566.32745
  22269221.420   117025566.88606  22269221.060    91188760.00248
  23673015.940   124402478.86804  23673015.680    96936968.72946
 15 03 02 00 12  0.0000000  0  6G16G18G21G22G27G31
  21101072.000   110886893.63507  21101068.840    86405352.91748
  22286326.840   117115511.74406  22286324.420    91258866.52746
  21685286.140   113956959.36806  21685282.940    88797625.19948
  23294106.560   122411376.76004  23294105.700    95385493.20846
  22257952.360   116966347.10506  22257951.920    91142614.75347
  23691520.680   124499721.10504  23691520.580    97012741.65745
 15 03 02 00 12 30.0000000  0  6G16G18G21G22G27G31
  21090575.020   110831731.34407  21090571.740    86362369.31248
  22277286.600   117068005.15206  22277284.260    91221848.43046
  21695024.400   114008134.39006  21695021.260    88837501.83648
  23276770.760   122320276.50605  23276769.600    95314506.24746
  22246706.980   116907252.11906  22246706.480    91096566.73547
  23710038.340   124597031.23204  23710038.340    97088567.50545
 15 03 02 00 13  0.0000000  0  6G16G18G21G22G27G31
  21080146.700   110776929.98407  21080143.380    86319666.95848
  22268317.860   117020874.10206  22268315.580    91185122.96746
  21704812.640   114059571.74206  21704809.560    88877582.88548
  23259455.140   122229282.39004  23259453.700    95243601.97945
  22235483.920   116848274.71406  22235483.500    91050610.32748
  23728566.880   124694398.90504  23728567.180    97164438.20246
 15 03 02 00 13 30.0000000  0  6G16G18G21G22G27G31
  21069787.640   110722492.84607  21069784.340    86277248.41948
  22259421.100   116974121.74406  22259418.900    91148692.58946
  21714650.780   114111271.23806  21714647.680    88917868.21148
  23242160.220   122138398.19604  23242158.740    95172783.38645
  22224283.560   116789416.34106  22224283.140    91004746.68148
  23747105.940   124791822.57004  23747106.620    97240352.50846
 15 03 02 00 14  0.0000000  0  6G16G18G21G22G27G31
  21059500.320   110668432.56707  21059497.000    86235123.52648
  22250598.700   116927760.61806  22250596.640    91112567.06346
  21724540.300   114163241.10006  21724537.160    88958364.19748
  23224888.680   122047637.55704  23224887.220    95102061.03346
  22213107.860   116730687.64906  22213107.440    90958984.08447
  23765657.260   124889309.88404  23765658.080    97316316.44446
 15 03 02 00 14 30.0000000  0  6G16G18G21G22G27G31
  21049282.180   110614735.96007  21049278.840    86193282.01448
  22241848.140   116881777.18606  22241846.260    91076735.84446
  21734478.140   114215464.88806  21734474.980    88999058.05648
  23207638.340   121956987.62704  23207636.780    95031424.94647
  22201953.880   116672073.35606  22201953.520    90913310.63048
  23784217.220   124986842.29904  23784218.200    97392315.45446
 15 03 02 00 15  0.0000000  0  6G16G18G21G22G27G31
  21039135.680   110561415.68807  21039132.320    86151733.75048
  22233171.940   116836184.12606  22233170.200    91041208.80446
  21744465.880   114267950.53006  21744462.680    89039955.96948
  23190411.600   121866461.66705  23190410.200    94960885.49246
  22190823.640   116613584.23106  22190823.380    90867734.70048
  23802787.300   125084427.79504  23802788.120    97468355.85746
 15 03 02 00 15 30.0000000  0  6G16G18G21G22G27G31
  21029059.440   110508464.67907  21029056.100    86110473.21748
  22224568.740   116790973.82606  22224567.080    91005980.03246
  21754501.480   114320687.43106  21754498.240    89081049.65848
  23173207.260   121776053.41405  23173206.060    94890437.70847
  22179715.520   116555211.13406  22179715.360    90822249.18047
  23821365.020   125182053.74704  23821365.720    97544427.75146
 15 03 02 00 16  0.0000000  0  6G16G18G21G22G27G31
  21019054.580   110455888.81107  21019051.280    86069505.01348
  22216039.580   116746152.29606  22216037.840    90971054.19747
  21764585.260   114373677.82906  21764582.020    89122340.87148
  23156026.640   121685769.44805  23156025.500    94820086.78846
  22168630.400   116496958.39306  22168630.220    90776857.44847
  23839950.780   125279721.93404  23839951.560    97620532.57444
 15 03 02 00 16 30.0000000  0  6G16G18G21G22G27G31
  21009121.620   110403691.02407  21009118.380    86028831.41548
  22207584.920   116701722.58406  22207582.980    90936433.67446
  21774717.080   114426920.83906  21774713.800    89163828.93148
  23138870.320   121595613.35005  23138869.200    94749835.49846
  22157568.340   116438826.83906  22157568.140    90731560.15048
  23858544.180   125377430.05404  23858545.260    97696668.53046
 15 03 02 00 17  0.0000000  0  6G16G18G21G22G27G31
  20999261.620   110351876.56407  20999258.400    85988456.50948
  22199205.620   116657689.05806  22199203.460    90902121.85746
  21784897.120   114480417.18406  21784893.780    89205514.40148
  23121739.460   121505590.60405  23121738.280    94679688.10546
  22146529.920   116380819.58206  22146529.700    90686359.70648
  23877145.220   125475178.24104  23877146.460    97772835.69445
 15 03 02 00 17 30.0000000  0  6G16G18G21G22G27G31
  20989474.900   110300446.99807  20989471.680    85948381.52248
  22190902.040   116614053.65806  22190899.860    90868120.27447
  21795125.000   114534164.87006  21795121.620    89247395.72148
  23104634.560   121415703.90805  23104633.180    94609646.74746
  22135515.040   116322936.42806  22135514.860    90641255.95848
  23895753.280   125572962.90004  23895754.400    97849031.24045
 15 03 02 00 18  0.0000000  0  6G16G18G21G22G27G31
  20979761.240   110249401.52207  20979758.080    85908605.82948
  22182674.000   116570815.34706  22182671.920    90834428.10846
  21805399.840   114588159.70806  21805396.520    89289469.62448
  23087555.480   121325953.02605  23087553.760    94539711.19547
  22124523.240   116265174.78306  22124523.120    90596246.89848
  23914367.340   125670778.62804  23914368.440    97925250.99245
 15 03 02 00 18 30.0000000  0  6G16G18G21G22G27G31
  20970120.900   110198741.12807  20970117.760    85869130.19748
  22174521.700   116527975.02106  22174519.720    90801046.05647
  21815721.080   114642398.28506  21815717.840    89331733.43848
  23070502.440   121236339.46805  23070500.520    94469882.65346
  22113554.440   116207533.64206  22113554.340    90551331.73548
  23932986.560   125768621.40304  23932987.540    98001491.86046
 15 03 02 00 19  0.0000000  0  6G16G18G21G22G27G31
  20960554.560   110148469.64807  20960551.420    85829957.61548
  22166445.760   116485535.73806  22166443.820    90767976.50946
  21826088.680   114696880.69806  21826085.480    89374187.27548
  23053476.260   121146867.35005  23053474.320    94400164.32746
  22102608.980   116150014.75106  22102608.780    90506511.83948
  23951610.480   125866489.99004  23951611.520    98077752.79446
 15 03 02 00 19 30.0000000  0  6G16G18G21G22G27G31
  20951062.640   110098589.18507  20951059.540    85791089.72048
  22158446.460   116443498.90706  22158444.440    90735220.57646
  21836502.200   114751604.78506  21836499.040    89416829.42248
  23036477.580   121057539.86105  23036475.580    94330558.69645
  22091686.920   116092618.38406  22091686.600    90461787.41148
  23970238.960   125964381.62404  23970239.820    98154031.68245
 15 03 02 00 20  0.0000000  0  6G16G18G21G22G27G31
  20941645.920   110049103.86407  20941642.820    85752529.73448
  22150524.560   116401869.35706  22150522.580    90702781.98446
  21846961.860   114806571.23106  21846958.720    89459660.42248
  23019507.220   120968362.03005  23019505.320    94261069.66946
  22080788.580   116035347.07806  22080788.300    90417160.42748
  23988871.600   126062295.87304  23988872.580    98230328.21446
 15 03 02 00 20 30.0000000  0  6G16G18G21G22G27G31
  20932304.560   110000014.66807  20932301.480    85714278.40848
  22142680.300   116360647.36406  22142678.300    90670660.96946
  21857467.200   114861777.42106  21857464.120    89502678.23248
  23002565.760   120879335.11005  23002563.860    94191698.22247
  22069913.760   115978199.80506  22069913.600    90372630.10448
  24007507.760   126160228.33304  24007508.840    98306638.88046
 15 03 02 00 21  0.0000000  0  6G16G18G21G22G27G31
  20923038.140   109951319.43107  20923035.080    85676334.06748
  22134913.200   116319830.82306  22134911.140    90638855.89847
  21868017.080   114917217.28806  21868014.040    89545878.12248
  22985653.000   120790458.34305  22985650.960    94122443.77246
  22059061.880   115921172.88306  22059061.720    90328193.53747
  24026146.040   126258172.52204  24026147.360    98382958.67147
 15 03 02 00 21 30.0000000  0  6G16G18G21G22G27G31
  20913847.580   109903022.90907  20913844.540    85638700.41448
  22127224.080   116279424.27106  22127221.960    90607370.30347
  21878611.600   114972891.32006  21878608.500    89589260.48748
  22968769.640   120701736.41205  22968767.520    94053309.97646
  22048233.320   115864268.74706  22048233.180    90283852.66948
  24044786.520   126356127.74104  24044787.980    98459287.12146
 15 03 02 00 22  0.0000000  0  6G16G18G21G22G27G31
  20904734.400   109855133.03507  20904731.380    85601383.63148
  22119614.280   116239434.86806  22119612.080    90576209.75746
  21889251.400   115028803.56206  21889248.260    89632828.47047
  22951917.580   120613178.08905  22951915.340    93984303.65446
  22037429.380   115807493.66206  22037429.260    90239612.34448
  24063429.720   126454097.37804  24063431.240    98535626.73345
 15 03 02 00 22 30.0000000  0  7G16G18G19G21G22G27G31
  20895695.440   109807632.99807  20895692.400    85564370.61548
  22112080.800   116199846.05806  22112078.500    90545361.35546
  24145412.200   126884994.75804  24145409.280    98871417.38245
  21899932.700   115084934.03106  21899929.460    89676566.50848
  22935093.680   120524767.27505  22935091.160    93915412.29347
  22026646.660   115750829.01906  22026646.320    90195458.09448
  24082071.420   126552059.47704  24082073.020    98611960.49845
 15 03 02 00 23  0.0000000  0  7G16G18G19G21G22G27G31
  20886730.300   109760520.81707  20886727.200    85527659.82148
  22104623.020   116160654.87606  22104620.640    90514822.79847
  24130531.840   126806794.08604  24130528.040    98810481.82545
  21910654.380   115141276.80506  21910651.140    89720469.96848
  22918297.480   120436502.64105  22918294.760    93846634.82246
  22015884.220   115694271.04606  22015883.660    90151386.95648
  24100710.460   126650007.36504  24100712.220    98688283.15245
 15 03 02 00 23 30.0000000  0  7G16G18G19G21G22G27G31
  20877848.640   109713847.28407  20877845.480    85491290.82848
  22097250.640   116121912.58906  22097248.260    90484634.02846
  24115671.900   126728703.95503  24115667.440    98749632.40845
  21921425.400   115197878.64506  21921422.200    89764575.29448
  22901539.020   120348436.15505  22901536.020    93778011.75446
  22005151.300   115637868.95806  22005150.660    90107437.30148
  24119355.620   126747987.27304  24119357.520    98764630.73745
 15 03 02 00 24  0.0000000  0  7G16G18G19G21G22G27G31
  20869045.360   109667585.70607  20869042.220    85455242.84748
  22089958.440   116083591.58806  22089956.020    90454773.52447
  24100827.040   126650695.59103  24100823.160    98688846.73845
  21932239.900   115254708.83506  21932236.680    89808858.55048
  22884813.020   120260541.27005  22884810.100    93709522.39546
  21994442.440   115581593.91306  21994441.860    90063586.63348
  24138001.120   126845967.44604  24138002.920    98840978.53444
 15 03 02 00 24 30.0000000  0  7G16G18G19G21G22G27G31
  20860319.680   109621731.89107  20860316.540    85419512.60548
  22082745.560   116045687.40906  22082743.100    90425237.83246
  24085996.840   126572762.66904  24085993.280    98628119.81845
  21943096.280   115311759.38906  21943093.020    89853313.53047
  22868118.960   120172814.90905  22868116.260    93641164.34947
  21983756.680   115525440.18506  21983756.160    90019830.49248
  24156644.860   126943938.84304  24156646.560    98917319.46546
 15 03 02 00 25  0.0000000  0  7G16G18G19G21G22G27G31
  20851672.760   109576291.85107  20851669.600    85384104.77848
  22075613.100   116008205.99006  22075610.560    90396031.54846
  24071181.800   126494909.43904  24071178.360    98567455.00946
  21953995.100   115369032.93006  21953991.720    89897942.26347
  22851458.320   120085263.76905  22851455.600    93572942.83546
  21973094.820   115469412.03006  21973094.360    89976172.20048
  24175287.060   127041902.85704  24175288.880    98993654.63345
 15 03 02 00 25 30.0000000  0  7G16G18G19G21G22G27G31
  20843105.100   109531268.32107  20843101.900    85349021.50448
  22068561.500   115971149.77606  22068558.940    90367156.59947
  24056382.240   126417136.74304  24056378.640    98506852.98846
  21964936.200   115426528.68806  21964932.740    89942744.15148
  22834831.800   119997891.50005  22834828.880    93504860.68246
  21962457.100   115413510.49906  21962456.700    89932612.56848
  24193927.540   127139857.39904  24193929.480    99069982.40546
 15 03 02 00 26  0.0000000  0  7G16G18G19G21G22G27G31
  20834617.460   109486665.31907  20834614.200    85314265.91648
  22061591.300   115934521.85306  22061588.840    90338615.37847
  24041598.260   126339446.69604  24041594.140    98446315.30546
  21975919.620   115484246.82106  21975916.180    89987719.32147
  22818240.080   119910702.55005  22818237.180    93436921.38646
  21951843.760   115357737.76006  21951843.520    89889153.30648
  24212566.100   127237801.70104  24212568.140    99146302.21646
 15 03 02 00 26 30.0000000  0  7G16G18G19G21G22G27G31
  20826209.520   109442481.12807  20826206.200    85279836.67248
  22054702.360   115898320.96706  22054700.020    90310406.91647
  24026829.220   126261835.85203  24026825.400    98385839.35046
  21986944.220   115542181.62706  21986940.920    90032863.31548
  22801683.160   119823696.00705  22801680.300    93369124.22046
  21941254.340   115302090.38906  21941254.240    89845791.73348
  24231201.560   127335729.04304  24231203.540    99222608.73046
 15 03 02 00 27  0.0000000  0  7G16G18G19G21G22G27G31
  20817881.940   109398719.30207  20817878.600    85245736.54248
  22047895.220   115862549.77806  22047893.020    90282533.29147
  24012075.540   126184305.78804  24012072.000    98325426.38945
  21998009.960   115600332.91406  21998006.800    90078176.00747
  22785161.840   119736876.27105  22785158.900    93301472.61046
  21930689.120   115246570.26706  21930689.100    89802529.29648
  24249833.660   127433638.50404  24249835.520    99298901.32746
 15 03 02 00 27 30.0000000  0  7G16G18G19G21G22G27G31
  20809634.460   109355378.49707  20809631.140    85211964.48648
  22041169.660   115827206.61406  22041167.440    90254993.18646
  23997336.800   126106853.26604  23997333.160    98265073.81545
  22009115.940   115658695.61206  22009112.780    90123653.44147
  22768675.940   119650242.79705  22768673.000    93233966.14047
  21920147.640   115191174.40806  21920147.600    89759363.71648
  24268461.040   127531523.97404  24268462.980    99375175.17345
 15 03 02 00 28  0.0000000  0  6G16G18G19G21G22G27
  20801467.800   109312462.54907  20801464.520    85178523.48748
  22034526.360   115792295.29806  22034523.980    90227789.58146
  23982613.340   126029480.25204  23982609.400    98204783.20845
  22020262.100   115717269.59806  22020258.960    90169295.51147
  22752226.340   119563800.01705  22752223.460    93166608.26347
  21909630.180   115135904.85906  21909630.060    89716296.54348
 15 03 02 00 28 30.0000000  0  7G16G18G19G21G22G27G31
  20793383.000   109269976.87207  20793379.760    85145417.77148
  22027966.040   115757820.25506  22027963.540    90200925.94747
  23967905.600   125952190.26003  23967901.480    98144557.25046
  22031448.820   115776056.75506  22031445.800    90215103.68348
  22735814.060   119477554.16205  22735811.340    93099403.84247
  21899137.500   115080765.46406  21899137.320    89673330.78148
  24305702.000   127727324.80304  24305705.300    99527798.12045
 15 03 02 00 29  0.0000000  0  7G16G18G19G21G22G27G31
  20785380.040   109227921.32707  20785376.820    85112647.21948
  22021488.680   115723781.14406  22021486.080    90174401.97247
  23953213.160   125874981.68404  23953209.320    98084394.75445
  22042675.440   115835053.68006  22042672.600    90261075.29647
  22719439.480   119391506.21205  22719436.800    93032353.61247
  21888669.320   115025754.43806  21888669.040    89630465.05548
  24324314.620   127825132.13504  24324317.500    99604011.02846
 15 03 02 00 29 30.0000000  0  6G16G18G21G22G27G31
  20777464.840   109186326.96507  20777461.680    85080236.03048
  22015100.040   115690208.71106  22015097.520    90148241.66147
  22053947.260   115894287.76706  22053944.520    90307231.70947
  22703108.780   119305687.77805  22703105.940    92965482.22046
  21878231.120   114970901.16406  21878230.760    89587722.25248
  24342926.820   127922937.00304  24342929.300    99680222.01346
 15 03 02 00 30  0.0000000  0  7G16G18G19G21G22G27G31
  20769619.220   109145098.35807  20769616.160    85048109.84348
  22008781.980   115657007.41606  22008779.500    90122370.54046
  23923873.440   125720802.88904  23923868.460    97964243.69245
  22065245.480   115953659.51206  22065242.620    90353495.40947
  22686803.840   119220004.31705  22686800.740    92898715.99547
  21867804.440   114916108.69906  21867804.080    89545026.83148
  24361519.400   128020639.21104  24361521.780    99756352.93844
 15 03 02 00 30 30.0000000  0  7G16G18G19G21G22G27G31
  20761864.160   109104345.31107  20761861.140    85016354.22448
  22002555.300   115624286.23606  22002552.800    90096873.53347
  23909227.340   125643838.84904  23909222.500    97904271.76145
  22076590.180   116013275.41706  22076587.020    90399949.37147
  22670545.560   119134566.40805  22670542.240    92832141.10546
  21857409.900   114861485.31906  21857409.660    89502463.17148
  24380112.300   128118344.08904  24380114.860    99832485.96445
 15 03 02 00 31  0.0000000  0  7G16G18G19G21G22G27G31
  20754193.080   109064033.22507  20754190.060    84984942.21448
  21996413.300   115592010.17106  21996410.800    90071723.37547
  23894597.320   125566959.54304  23894592.960    97844365.83545
  22087973.780   116073096.77306  22087970.520    90446563.41347
  22654327.440   119049340.10305  22654324.060    92765731.12746
  21847040.600   114806994.62706  21847040.440    89460002.89348
  24398698.240   128216012.12104  24398700.920    99908590.26545
 15 03 02 00 31 30.0000000  0  7G16G18G19G21G22G27G31
  20746605.100   109024157.75807  20746602.040    84953870.42248
  21990355.060   115560173.97006  21990352.600    90046915.96546
  23879982.480   125490158.70004  23879978.500    97784521.05345
  22099394.860   116133115.75006  22099391.740    90493331.43847
  22638148.960   118964322.20805  22638145.580    92699483.52347
  21836695.580   114752630.75706  21836695.320    89417641.44848
  24417275.500   128313634.27904  24417278.440    99984658.87546
 15 03 02 00 32  0.0000000  0  7G16G18G19G21G22G27G31
  20739100.200   108984719.19207  20739097.100    84923139.07248
  21984380.580   115528777.93906  21984378.180    90022451.55047
  23865382.400   125413434.78804  23865378.660    97724736.23646
  22110853.040   116193328.88106  22110849.960    90540250.75747
  22622010.180   118879513.38205  22622007.000    92633398.83846
  21826374.340   114698392.35906  21826374.040    89375377.77648
  24435843.360   128411206.84004  24435846.700   100060688.92245
 15 03 02 00 32 30.0000000  0  7G16G18G19G21G22G27G31
  20731679.580   108945723.45507  20731676.440    84892752.78449
  21978490.940   115497827.86906  21978488.580    89998334.62247
  23850797.820   125336792.25004  23850794.040    97665014.80245
  22122348.840   116253738.92206  22122345.680    90587323.51648
  22605912.640   118794920.73005  22605909.540    92567482.59847
  21816077.820   114644283.89606  21816077.500    89333215.34848
  24454402.260   128508730.92604  24454405.480   100136681.22144
 15 03 02 00 33  0.0000000  0  7G16G18G19G21G22G27G31
  20724344.060   108907175.04007  20724340.940    84862715.05348
  21972686.940   115467327.61206  21972684.580    89974568.21347
  23836229.300   125260233.90804  23836225.300    97605359.00145
  22133882.300   116314346.96406  22133879.080    90634550.56247
  22589857.300   118710549.63005  22589854.200    92501738.97446
  21805806.600   114590308.52606  21805806.280    89291156.63248
  24472951.700   128606206.51803  24472954.920   100212635.76545
 15 03 02 00 33 30.0000000  0  7G16G18G19G21G22G27G31
  20717094.020   108869075.78907  20717090.920    84833027.32548
  21966968.800   115437278.19706  21966966.400    89951153.09947
  23821676.780   125183760.08604  23821672.820    97545769.02445
  22145452.920   116375150.83306  22145449.700    90681930.20247
  22573844.660   118626402.89605  22573841.420    92436170.19547
  21795560.780   114536466.37606  21795560.400    89249201.71848
  24491491.160   128703630.51904  24491494.640   100288550.09245
 15 03 02 00 34  0.0000000  0  6G16G18G19G21G22G27
  20709927.920   108831417.50807  20709924.780    84803683.21449
  21961334.800   115407671.36906  21961332.380    89928082.87247
  23807138.360   125107360.53304  23807134.400    97486236.94845
  22157058.500   116436138.54106  22157055.200    90729453.08647
  22557873.320   118542473.20405  22557870.040    92370770.53746
  21785338.520   114482747.91106  21785338.100    89207343.18048
 15 03 02 00 34 30.0000000  0  6G16G18G19G21G22G27
  20702849.300   108794219.00707  20702846.100    84774697.36149
  21955788.440   115378525.25906  21955786.020    89905371.62147
  23792617.160   125031052.17904  23792613.340    97426775.96445
  22168702.060   116497325.74406  22168698.640    90777131.43447
  22541946.920   118458779.73006  22541943.520    92305554.93346
  21775142.980   114429170.21806  21775142.640    89165594.33848
 15 03 02 00 35  0.0000000  0  6G16G18G19G21G22G27
  20695855.880   108757468.34207  20695852.640    84746060.47549
  21950327.280   115349827.08706  21950324.900    89883009.42547
  23778110.960   124954821.41004  23778107.160    97367375.35546
  22180380.660   116558696.87006  22180377.220    90824953.09048
  22526063.480   118375311.57906  22526059.920    92240514.92247
  21764971.760   114375720.02206  21764971.380    89123944.83548
 15 03 02 00 35 30.0000000  0  7G16G18G19G21G22G27G31
  20688950.980   108721182.80507  20688947.720    84717786.02549
  21944954.600   115321593.74406  21944952.260    89861009.43847
  23763622.600   124878684.20704  23763618.840    97308047.70746
  22192096.840   116620265.43106  22192093.440    90872928.58247
  22510226.280   118292087.19305  22510222.780    92175664.83547
  21754827.820   114322413.23206  21754827.420    89082407.08048
  24565536.260   129092759.80504  24565542.180   100591783.38444
 15 03 02 00 36  0.0000000  0  6G16G18G19G21G22G27
  20682129.180   108685334.21707  20682125.940    84689852.06249
  21939665.060   115293797.50406  21939662.800    89839350.04947
  23749146.340   124802610.45904  23749142.760    97248769.49446
  22203844.580   116682000.48406  22203841.320    90921033.80847
  22494430.240   118209079.45206  22494426.920    92110983.56047
  21744705.560   114269220.31506  21744705.100    89040958.06748
 15 03 02 00 36 30.0000000  0  6G16G18G19G21G22G27
  20675397.380   108649958.22207  20675394.140    84662286.34448
  21934465.300   115266472.68406  21934463.040    89818058.00047
  23734688.580   124726634.38804  23734685.240    97189567.42146
  22215629.960   116743933.56506  22215626.780    90969293.34147
  22478682.360   118126324.35706  22478679.160    92046499.15946
  21734611.380   114216175.23506  21734610.920    88999624.24948
 15 03 02 00 37  0.0000000  0  6G16G18G19G21G22G27
  20668752.620   108615039.84107  20668749.380    84635077.21149
  21929352.320   115239603.83706  21929350.100    89797121.25747
  23720245.960   124650738.91704  23720242.800    97130428.10746
  22227449.640   116806046.31606  22227446.360    91017692.89247
  22462980.080   118043808.05006  22462976.800    91982200.81647
  21724542.240   114163261.83106  21724541.840    88958393.03348
 15 03 02 00 37 30.0000000  0  6G16G18G19G21G22G27
  20662195.440   108580581.72507  20662192.220    84608226.72949
  21924326.520   115213193.00406  21924324.240    89776541.39947
  23705819.000   124574925.46304  23705815.840    97071352.70746
  22239303.360   116868337.85606  22239299.980    91066231.75047
  22447323.860   117961534.06706  22447320.540    91918091.30647
  21714498.440   114110481.21106  21714498.000    88917265.28148
 15 03 02 00 38  0.0000000  0  6G16G18G19G21G22G27
  20655726.960   108546589.51007  20655723.720    84581739.28048
  21919388.940   115187245.46506  21919386.580    89756322.54947
  23691408.400   124499198.06104  23691405.280    97012344.38945
  22251191.500   116930810.60606  22251188.120    91114911.80547
  22431714.980   117879509.42206  22431711.660    91854176.07647
  21704480.680   114057837.80606  21704480.260    88876244.45648
 15 03 02 00 38 30.0000000  0  6G16G18G19G21G22G27
  20649346.540   108513060.10307  20649343.300    84555612.46648
  21914538.720   115161757.30806  21914536.360    89736461.66647
  23677013.420   124423552.29104  23677010.200    96953399.66346
  22263112.800   116993457.82806  22263109.520    91163727.81047
  22416153.000   117797731.47705  22416149.660    91790453.07047
  21694488.100   114005326.87706  21694487.700    88835326.86248
 15 03 02 00 39  0.0000000  0  6G16G18G19G21G22G27
  20643055.060   108479997.90007  20643051.820    84529849.70649
  21909776.820   115136732.98906  21909774.360    89716962.21047
  23662634.500   124347990.44004  23662631.060    96894520.30645
  22275067.620   117056281.05506  22275064.440    91212680.96347
  22400639.000   117716205.72906  22400635.640    91726926.58347
  21684521.500   113952952.05406  21684521.080    88794515.32148
 15 03 02 00 39 30.0000000  0  6G16G18G19G21G22G27
  20636851.840   108447399.91607  20636848.700    84504448.67849
  21905102.520   115112168.60706  21905099.880    89697821.14747
  23648270.900   124272508.49004  23648267.020    96835703.22446
  22287054.640   117119273.29106  22287051.520    91261765.80447
  22385172.620   117634930.07606  22385169.200    91663594.97947
  21674580.020   113900708.73506  21674579.560    88753806.25248
 15 03 02 00 40  0.0000000  0  6G16G18G19G21G22G27
  20630739.080   108415277.25107  20630736.000    84479418.02849
  21900517.660   115088074.60006  21900514.920    89679046.60747
  23633924.140   124197115.49504  23633920.060    96776955.46845
  22299075.460   117182442.42706  22299072.200    91310988.52447
  22369756.220   117553916.54706  22369752.740    91600467.61747
  21664665.320   113848606.55106  21664664.900    88713207.16048
 15 03 02 00 40 30.0000000  0  6G16G18G19G21G22G27
  20624716.140   108383626.87107  20624713.140    84454755.39449
  21896021.520   115064447.48506  21896018.880    89660635.88647
  23619593.480   124121807.15804  23619589.440    96718273.67447
  22311128.660   117245782.26606  22311125.360    91360344.24047
  22354389.240   117473163.06606  22354385.780    91537542.90247
  21654776.640   113796641.44106  21654776.280    88672714.87748
 15 03 02 00 41  0.0000000  0  6G16G18G19G21G22G27
  20618783.220   108352449.26107  20618780.180    84430461.14649
  21891614.180   115041287.34306  21891611.600    89642589.03647
  23605278.660   124046582.36604  23605274.700    96659656.98244
  22323213.740   117309289.66906  22323210.540    91409830.52747
  22339072.160   117392671.32006  22339068.720    91474822.12247
  21644913.900   113744812.53706  21644913.580    88632328.72048
 15 03 02 00 41 30.0000000  0  6G16G18G19G21G22G27
  20612941.740   108321752.02307  20612938.660    84406541.21549
  21887297.020   115018601.02406  21887294.440    89624911.39147
  23590980.660   123971447.15904  23590976.980    96601110.08546
  22335331.420   117372969.09306  22335328.420    91459450.83047
  22323806.500   117312449.52706  22323803.060    91412311.70047
  21635078.400   113693126.21006  21635078.020    88592053.67048
 15 03 02 00 42  0.0000000  0  6G16G18G19G21G22G27
  20607190.660   108291529.59507  20607187.540    84382991.26649
  21883068.900   114996382.33206  21883066.300    89607598.13747
  23576698.400   123896394.61904  23576695.140    96542627.63247
  22347480.180   117436811.47606  22347477.240    91509198.12947
  22308591.360   117232493.47706  22308587.960    91350008.33647
  21625268.700   113641575.79206  21625268.320    88551884.53148
 15 03 02 00 42 30.0000000  0  6G16G18G19G21G22G27
  20601529.980   108261782.77807  20601526.940    84359811.93349
  21878929.760   114974630.96806  21878927.140    89590649.04947
  23562431.800   123821423.77104  23562428.760    96484208.81447
  22359659.520   117500814.09006  22359656.520    91559070.29847
  22293426.980   117152804.31906  22293423.580    91287912.95247
  21615484.700   113590160.62206  21615484.360    88511820.77348
 15 03 02 00 43  0.0000000  0  6G16G18G19G21G22G27
  20595960.720   108232516.26107  20595957.720    84337006.85249
  21874880.500   114953352.02906  21874877.840    89574068.06747
  23548181.680   123746538.30704  23548178.620    96425856.54146
  22371869.720   117564979.07706  22371866.600    91609068.98947
  22278314.480   117073388.32906  22278311.140    91226030.42746
  21605727.180   113538884.53206  21605726.820    88471865.38448
 15 03 02 00 43 30.0000000  0  6G16G18G19G21G22G27
  20590483.320   108203732.43507  20590480.300    84314577.88949
  21870921.480   114932546.94106  21870918.780    89557856.32347
  23533947.920   123671738.94904  23533944.820    96367571.34646
  22384110.580   117629305.20906  22384107.380    91659193.24647
  22263254.680   116994249.24406  22263251.320    91164363.67647
  21595996.380   113487748.67806  21595996.000    88432019.27248
 15 03 02 00 44  0.0000000  0  6G16G18G19G21G22G27
  20585097.880   108175432.01407  20585094.920    84292525.60949
  21867052.640   114912215.60606  21867049.900    89542013.73247
  23519730.440   123597025.02304  23519727.020    96309352.72846
  22396381.680   117693790.13606  22396378.340    91709441.23747
  22248247.900   116915388.32806  22248244.560    91102913.66447
  21586292.140   113436752.58406  21586291.760    88392282.06848
 15 03 02 00 44 30.0000000  0  6G16G18G19G21G22G27
  20579805.300   108147619.18707  20579802.340    84270853.27449
  21863274.660   114892361.69807  21863271.820    89526543.17347
  23505529.560   123522399.01004  23505526.240    96251202.61946
  22408683.120   117758434.38206  22408679.700    91759813.37547
  22233295.100   116836810.50506  22233291.640    91041684.24947
  21576615.040   113385899.15106  21576614.720    88352656.02348
 15 03 02 00 45  0.0000000  0  6G16G18G19G21G22G27
  20574605.660   108120294.91307  20574602.740    84249561.63249
  21859587.420   114872985.47306  21859584.640    89511444.82847
  23491345.340   123447860.79604  23491341.800    96193120.92146
  22421014.440   117823235.86106  22421011.140    91810308.03247
  22218396.540   116758517.75206  22218392.980    90980676.96647
  21566965.140   113335188.26607  21566964.740    88313141.06248
 15 03 02 00 45 30.0000000  0  6G16G18G19G21G22G27
  20569498.660   108093457.58307  20569495.780    84228649.42749
  21855990.720   114854085.02606  21855987.980    89496717.22447
  23477177.340   123373407.65304  23477173.820    96135105.49345
  22433374.760   117888190.06206  22433371.560    91860921.67747
  22203552.200   116680510.26906  22203548.580    90919891.97447
  21557341.940   113284617.59707  21557341.420    88273735.35648
 15 03 02 00 46  0.0000000  0  6G16G18G19G21G22G27
  20564484.760   108067109.52407  20564481.900    84208118.46349
  21852484.920   114835661.98807  21852482.200    89482361.62047
  23463025.720   123299040.30704  23463022.360    96077156.95446
  22445763.980   117953296.20006  22445760.840    91911653.72847
  22188762.700   116602791.02906  22188759.020    90859331.57147
  21547745.540   113234188.27107  21547744.960    88234439.78448
 15 03 02 00 46 30.0000000  0  6G16G18G19G21G22G27
  20559564.420   108041252.79207  20559561.520    84187970.35649
  21849070.180   114817717.61606  21849067.440    89468379.00747
  23448890.700   123224759.76004  23448887.240    96019276.03846
  22458181.980   118018553.11206  22458178.820    91962503.26547
  22174028.600   116525362.97406  22174024.800    90798998.06647
  21538176.200   113183901.33106  21538175.660    88195255.16548
 15 03 02 00 47  0.0000000  0  6G16G18G19G21G22G27
  20554738.460   108015892.00107  20554735.520    84168208.69949
  21845747.120   114800255.66406  21845744.480    89454772.31147
  23434772.580   123150568.56004  23434769.040    95961464.75645
  22470628.840   118083961.81806  22470625.680    92013471.08047
  22159350.980   116448231.80206  22159347.080    90738895.91047
  21528634.600   113133760.00107  21528634.100    88156184.00148
 15 03 02 00 47 30.0000000  0  6G16G18G19G21G22G27
  20550006.200   107991023.68107  20550003.260    84148830.78149
  21842515.220   114783272.41406  21842512.700    89441538.61047
  23420670.680   123076462.51804  23420666.960    95903719.79446
  22483103.500   118149516.14206  22483100.240    92064552.37647
  22144729.520   116371395.45906  22144725.520    90679023.48547
  21519119.980   113083760.07807  21519119.420    88117223.02848
 15 03 02 00 48  0.0000000  0  6G16G18G19G21G22G27
  20545368.700   107966653.26707  20545365.740    84129840.84449
  21839375.340   114766772.61206  21839373.000    89428681.63647
  23406585.740   123002445.96004  23406581.780    95846044.58146
  22495606.280   118215218.30506  22495602.960    92115748.85647
  22130165.260   116294860.14706  22130161.320    90619385.62347
  21509633.020   113033906.09707  21509632.480    88078375.78748
 15 03 02 00 48 30.0000000  0  6G16G18G19G21G22G27
  20540825.620   107942779.23907  20540822.620    84111237.69749
  21836327.060   114750754.02307  21836324.780    89416199.63747
  23392517.260   122928515.65204  23392513.180    95788436.56946
  22508136.280   118281063.79206  22508132.960    92167057.01647
  22115658.140   116218625.55006  22115654.380    90559982.08847
  21500173.340   112984195.55307  21500172.860    88039640.30848
 15 03 02 00 49  0.0000000  0  6G16G18G19G21G22G27
  20536377.880   107919406.33407  20536374.900    84093025.04049
  21833371.220   114735220.97206  21833368.900    89404095.97147
  23378465.840   122854675.59004  23378461.860    95730898.89547
  22520693.880   118347054.47506  22520690.600    92218478.33147
  22101209.480   116142697.70206  22101205.700    90500817.57747
  21490741.700   112934632.16307  21490741.240    88001019.48748
 15 03 02 00 49 30.0000000  0  6G16G18G19G21G22G27
  20532025.080   107896532.21807  20532022.080    84075201.04949
  21830507.120   114720169.90106  21830504.740    89392367.87847
  23364431.020   122780922.01904  23364427.120    95673428.60246
  22533277.960   118413184.55606  22533274.780    92270008.25447
  22086818.900   116067074.93806  22086815.140    90441890.79547
  21481337.420   112885212.74007  21481337.080    87962510.84648
 15 03 02 00 50  0.0000000  0  6G16G18G19G21G22G27
  20527767.720   107874159.80307  20527764.780    84057767.99149
  21827735.340   114705603.66006  21827732.860    89381017.57147
  23350413.020   122707256.88404  23350409.180    95616027.22146
  22545888.600   118479454.18506  22545885.540    92321646.92247
  22072487.300   115991761.52006  22072483.480    90383205.05347
  21471961.020   112835939.43907  21471960.700    87924116.06548
 15 03 02 00 50 30.0000000  0  6G16G18G19G21G22G27
  20523606.180   107852290.82307  20523603.300    84040727.22349
  21825055.880   114691522.74206  21825053.380    89370045.44147
  23336411.920   122633679.94205  23336407.880    95558694.57246
  22558525.660   118545862.20006  22558522.660    92373393.42547
  22058215.020   115916760.10406  22058211.180    90324762.43447
  21462612.560   112786812.76407  21462612.180    87885835.54148
 15 03 02 00 51  0.0000000  0  6G16G18G19G21G22G27
  20519541.280   107830929.43307  20519538.360    84024081.98149
  21822469.540   114677930.90906  21822466.880    89359454.41247
  23322428.260   122560194.81604  23322424.220    95501433.45146
  22571189.280   118612410.00906  22571186.280    92425248.85446
  22044003.000   115842076.03606  22043999.240    90266567.10847
  21453292.700   112737836.40607  21453292.260    87847672.15648
 15 03 02 00 51 30.0000000  0  6G16G18G19G21G22G27
  20515572.820   107810074.91107  20515569.880    84007831.70349
  21819975.880   114664826.65006  21819973.140    89349243.31047
  23308461.440   122486798.91804  23308457.380    95444241.87146
  22583878.780   118679093.37706  22583875.700    92477209.90247
  22029851.560   115767709.97406  22029847.800    90208619.56847
  21444001.180   112689008.62907  21444000.680    87809624.53148
 15 03 02 00 52  0.0000000  0  6G16G18G19G21G22G27
  20511700.920   107789728.05207  20511698.000    83991977.00449
  21817575.100   114652210.66806  21817572.360    89339412.68947
  23294511.600   122413493.01804  23294507.640    95387120.39546
  22596593.820   118745911.03706  22596590.700    92529275.60947
  22015761.140   115693664.19106  22015757.280    90150921.59247
  21434737.920   112640329.58507  21434737.400    87771692.81748
 15 03 02 00 52 30.0000000  0  6G16G18G19G21G22G27
  20507925.700   107769889.25507  20507922.820    83976518.19149
  21815267.100   114640082.23006  21815264.340    89329961.96847
  23280578.720   122340275.89104  23280574.880    95330068.12346
  22609333.720   118812859.55305  22609330.520    92581443.27847
  22001731.860   115619939.93306  22001727.960    90093474.16347
  21425502.840   112591798.75707  21425502.280    87733876.59248
 15 03 02 00 53  0.0000000  0  6G16G18G19G21G22G27
  20504247.840   107750561.65507  20504244.920    83961457.71749
  21813052.340   114628443.76106  21813049.600    89320893.04247
  23266663.180   122267149.67404  23266659.420    95273086.68746
  22622098.620   118879939.56605  22622095.340    92633713.41546
  21987764.560   115546541.37806  21987760.660    90036280.52747
  21416296.360   112543418.52307  21416295.820    87696177.71248
 15 03 02 00 53 30.0000000  0  6G16G18G19G21G22G27
  20500667.080   107731744.40307  20500664.140    83946794.91749
  21810930.480   114617293.57706  21810927.840    89312204.59947
  23252764.760   122194112.56605  23252760.980    95216174.66546
  22634887.800   118947147.40505  22634884.560    92686083.15447
  21973859.320   115473468.93506  21973855.400    89979341.01147
  21407118.220   112495187.30507  21407117.700    87658594.95148
 15 03 02 00 54  0.0000000  0  6G16G18G19G21G22G27
  20497184.020   107713440.51107  20497181.060    83932532.13549
  21808902.060   114606634.37406  21808899.480    89303898.74247
  23238883.600   122121166.24904  23238879.680    95159333.39446
  22647701.420   119014483.35606  22647698.200    92738552.71247
  21960016.800   115400726.30906  21960012.840    89922658.48647
  21397968.880   112447107.29607  21397968.400    87621130.01148
 15 03 02 00 54 30.0000000  0  6G16G18G19G21G22G27
  20493798.960   107695651.87107  20493795.980    83918670.85449
  21806967.320   114596467.29407  21806964.720    89295976.35747
  23225019.860   122048311.77004  23225015.920    95102563.69647
  22660539.200   119081946.31606  22660536.060    92791121.25747
  21946237.760   115328317.10706  21946233.800    89866235.77048
  21388848.540   112399179.87507  21388848.140    87583783.97148
 15 03 02 00 55  0.0000000  0  6G16G18G19G21G22G27
  20490511.820   107678377.95707  20490508.820    83905210.65549
  21805125.900   114586790.61106  21805123.280    89288436.08647
  23211173.340   121975547.58704  23211169.440    95045864.35246
  22673400.520   119149532.82205  22673397.360    92843786.05647
  21932522.280   115256241.92806  21932518.320    89810073.32147
  21379757.000   112351403.77307  21379756.620    87546555.84748
 15 03 02 00 55 30.0000000  0  6G16G18G19G21G22G27
  20487323.860   107661625.00707  20487320.840    83892156.40449
  21803378.880   114577610.06606  21803376.260    89281282.43047
  23197344.840   121902878.81304  23197340.940    94989239.34147
  22686286.060   119217246.86105  22686282.860    92896550.23247
  21918871.760   115184508.20906  21918867.840    89754176.96647
  21370695.320   112303784.64607  21370694.940    87509450.04648
 15 03 02 00 56  0.0000000  0  6G16G18G19G21G22G27
  20484233.780   107645386.67407  20484230.820    83879503.15549
  21801725.020   114568919.02106  21801722.380    89274510.19547
  23183533.240   121830298.46504  23183529.420    94932683.24446
  22699193.960   119285078.59305  22699190.820    92949406.12547
  21905285.300   115113110.77706  21905281.300    89698542.64247
  21361662.200   112256315.43007  21361661.800    87472461.05748
 15 03 02 00 56 30.0000000  0  6G16G18G19G21G22G27
  20481243.160   107629670.71007  20481240.200    83867256.94349
  21800165.520   114560724.23706  21800162.960    89268124.66347
  23169739.620   121757813.33305  23169735.980    94876201.36446
  22712125.440   119353034.18905  22712122.320    93002358.53246
  21891764.580   115042058.69806  21891760.500    89643177.42147
  21352659.060   112209003.46807  21352658.600    87435594.59948
 15 03 02 00 57  0.0000000  0  6G16G18G19G21G22G27
  20478351.280   107614473.54407  20478348.280    83855414.99049
  21798699.680   114553021.28306  21798697.100    89262122.36747
  23155963.340   121685418.64305  23155959.780    94819789.94446
  22725079.200   119421106.84705  22725076.040    93055402.16747
  21878309.140   114971349.76806  21878304.940    89588079.58847
  21343685.020   112161844.49107  21343684.540    87398847.35748
 15 03 02 00 57 30.0000000  0  6G16G18G19G21G22G27
  20475558.360   107599796.43507  20475555.300    83843978.27349
  21797327.580   114545810.98206  21797325.000    89256503.96647
  23142204.480   121613115.00105  23142200.960    94763449.45446
  22738054.960   119489294.87305  22738051.760    93108535.69646
  21864919.480   114900986.15506  21864915.100    89533250.83147
  21334740.220   112114839.23407  21334739.760    87362219.88848
 15 03 02 00 58  0.0000000  0  6G16G18G19G21G22G27
  20472865.580   107585646.03007  20472862.600    83832951.97849
  21796050.320   114539099.05906  21796047.820    89251273.90447
  23128463.880   121540907.75305  23128460.240    94707184.09647
  22751053.380   119557602.32005  22751050.240    93161762.27046
  21851596.900   114830975.77106  21851592.460    89478697.32647
  21325825.780   112067993.53807  21325825.300    87325716.75048
 15 03 02 00 58 30.0000000  0  6G16G18G19G21G22G27
  20470272.440   107572019.09007  20470269.520    83822333.57949
  21794867.200   114532881.75106  21794864.700    89246429.26047
  23114740.900   121468793.29205  23114737.100    94650991.03947
  22764073.520   119626023.42605  22764070.360    93215077.41147
  21838341.160   114761316.93106  21838336.740    89424417.74347
  21316941.080   112021304.09807  21316940.580    87289335.37948
 15 03 02 00 59  0.0000000  0  6G16G18G19G21G22G27
  20467779.360   107558917.69307  20467776.420    83812124.69049
  21793778.520   114527160.17007  21793775.920    89241970.89047
  23101035.900   121396773.18105  23101032.020    94594871.50046
  22777115.140   119694557.78005  22777112.000    93268480.80447
  21825152.860   114692012.63006  21825148.500    89370414.42347
  21308086.340   111974772.24107  21308085.860    87253076.80548
 15 03 02 00 59 30.0000000  0  6G16G18G19G21G22G27
  20465386.820   107546344.37207  20465383.760    83802327.28449
  21792784.500   114521936.35307  21792781.800    89237900.38947
  23087348.920   121324848.28805  23087345.240    94538826.13247
  22790178.240   119763205.16805  22790175.140    93321972.25546
  21812032.980   114623066.90906  21812028.500    89316690.51748
  21299261.960   111928400.08407  21299261.520    87216942.65548
 15 03 02 01 00  0.0000000  0  6G16G18G19G21G22G27
  20463094.000   107534295.32107  20463090.860    83792938.40149
  21791884.360   114517205.86707  21791881.560    89234214.31247
  23073679.400   121253014.45005  23073675.660    94482851.72246
  22803261.660   119831959.49505  22803258.620    93375547.05746
  21798980.840   114554476.63006  21798976.180    89263243.58447
  21290467.280   111882183.39507  21290466.800    87180929.65748
 15 03 02 01 00 30.0000000  0  6G16G18G19G21G22G27
  20460901.700   107522774.89407  20460898.600    83783961.44349
  21791078.660   114512971.93707  21791075.840    89230915.15947
  23060028.020   121181275.42205  23060024.200    94426951.20846
  22816365.840   119900822.50505  22816362.780    93429206.54346
  21785997.600   114486248.50506  21785992.840    89210078.84647
  21281702.940   111836126.24907  21281702.440    87145040.97548
 15 03 02 01 01  0.0000000  0  6G16G18G19G21G22G27
  20458810.440   107511785.60007  20458807.420    83775398.35549
  21790367.860   114509236.91607  21790365.020    89228004.76047
  23046394.940   121109632.67805  23046390.940    94371125.69746
  22829490.640   119969794.23105  22829487.600    93482950.75346
  21773083.760   114418386.22506  21773079.140    89157199.18047
  21272969.320   111790230.82907  21272968.820    87109278.32548
 15 03 02 01 01 30.0000000  0  6G16G18G19G21G22G27
  20456820.600   107501329.13107  20456817.640    83767250.45549
  21789752.160   114506001.54007  21789749.360    89225483.70147
  23032780.380   121038087.71605  23032776.360    94315376.40946
  22842636.020   120038873.67705  22842632.920    93536778.88546
  21760239.940   114350892.35206  21760235.460    89104606.57647
  21264266.740   111744498.42907  21264266.220    87073642.68848
 15 03 02 01 02  0.0000000  0  6G16G18G19G21G22G27
  20454932.220   107491405.36707  20454929.220    83759517.64349
  21789231.340   114503264.53107  21789228.540    89223350.97147
  23019184.060   120966639.18705  23019180.220    94259702.24747
  22855801.440   120108058.34205  22855798.300    93590689.00946
  21747466.440   114283767.86606  21747462.040    89052301.82047
  21255594.980   111698928.33507  21255594.540    87038133.53648
 15 03 02 01 02 30.0000000  0  6G16G18G19G21G22G27
  20453144.580   107482011.29707  20453141.600    83752197.58349
  21788804.760   114501022.62007  21788801.900    89221604.03747
  23005605.500   120895283.80905  23005601.740    94204100.68646
  22868986.020   120177342.99705  22868982.780    93644677.04446
  21734763.140   114217011.47706  21734758.660    89000283.88548
  21246953.540   111653517.47407  21246953.160    87002748.46048
 15 03 02 01 03  0.0000000  0  6G16G18G19G21G22G27
  20451458.800   107473152.61307  20451455.840    83745294.71049
  21788473.460   114499281.02007  21788470.480    89220246.96947
  22992045.480   120824026.46105  22992041.780    94148575.48246
  22882190.280   120246731.00305  22882187.060    93698745.61647
  21722131.220   114150630.25307  21722126.700    88948558.28748
  21238343.440   111608271.36607  21238343.140    86967491.74948
 15 03 02 01 03 30.0000000  0  6G16G18G19G21G22G27
  20449874.740   107464828.33807  20449871.780    83738808.25649
  21788236.820   114498037.20007  21788233.760    89219277.76947
  22978503.980   120752865.66605  22978500.240    94093125.53847
  22895413.560   120316218.72005  22895410.220    93752891.88346
  21709570.620   114084624.14806  21709566.160    88897124.99148
  21229764.400   111563188.52207  21229764.160    86932362.25848
 15 03 02 01 04  0.0000000  0  6G16G18G19G21G22G27
  20448392.540   107457039.32407  20448389.540    83732738.89249
  21788094.840   114497291.55807  21788091.900    89218696.76147
  22964980.980   120681801.64805  22964977.280    94037750.99547
  22908655.400   120385804.93805  22908652.060    93807114.90646
  21697081.940   114018995.77606  21697077.560    88845986.02748
  21221216.640   111518269.75607  21221216.340    86897360.63848
 15 03 02 01 04 30.0000000  0  6G16G18G19G21G22G27
  20447012.320   107449786.31907  20447009.340    83727087.19449
  21788047.800   114497044.29807  21788044.880    89218504.09947
  22951476.480   120610834.62205  22951472.800    93982452.03946
  22921915.620   120455487.91505  22921912.320    93861413.32946
  21684665.500   113953747.10106  21684661.180    88795142.93448
  21212700.140   111473515.53807  21212699.820    86862487.23048
 15 03 02 01 05  0.0000000  0  6G16G18G19G21G22G27
  20445734.540   107443071.76007  20445731.640    83721855.06649
  21788095.940   114497297.40407  21788093.080    89218701.33947
  22937990.760   120539966.37505  22937987.020    93927230.03646
  22935194.200   120525267.81505  22935191.020    93915787.27447
  21672322.040   113888881.72307  21672317.640    88744598.51748
  21204215.420   111428928.15407  21204215.120    86827743.82248
 15 03 02 01 05 30.0000000  0  6G16G18G19G21G22G27
  20444559.980   107436899.37707  20444557.100    83717045.40949
  21788239.760   114498053.44107  21788236.940    89219290.46547
  22924524.340   120469200.04905  22924520.560    93872087.45746
  22948491.440   120595145.91105  22948488.420    93970237.73846
  21660052.440   113824404.75307  21660047.960    88694356.75048
  21195763.140   111384511.13107  21195762.880    86793133.15948
 15 03 02 01 06  0.0000000  0  6G16G18G19G21G22G27
  20443487.880   107431265.04607  20443484.960    83712655.01949
  21788478.380   114499307.70507  21788475.580    89220267.82047
  22911076.480   120398530.99205  22911072.660    93817020.68447
  22961806.320   120665116.21405  22961803.380    94024760.02747
  21647856.220   113760313.62307  21647851.720    88644415.63947
  21187342.420   111340260.09907  21187342.220    86758651.84948
 15 03 02 01 06 30.0000000  0  6G16G18G19G21G22G27
  20442518.580   107426171.16207  20442515.620    83708685.75249
  21788812.040   114501061.75906  21788809.360    89221634.63047
  22897647.520   120327961.30705  22897643.800    93762031.33747
  22975138.740   120735178.71705  22975135.820    94079354.18846
  21635734.160   113696612.22507  21635729.740    88594778.22247
  21178953.740   111296177.42407  21178953.560    86724301.71549
 15 03 02 01 07  0.0000000  0  6G16G18G19G21G22G27
  20441652.080   107421617.44507  20441649.020    83705137.39549
  21789240.620   114503314.60606  21789238.060    89223390.10147
  22884237.380   120257490.42505  22884233.680    93707118.98246
  22988488.220   120805330.83705  22988485.240    94134018.17746
  21623686.560   113633301.52007  21623682.160    88545445.22848
  21170597.140   111252263.06107  21170596.900    86690082.73748
 15 03 02 01 07 30.0000000  0  6G16G18G19G21G22G27
  20440889.340   107417609.25607  20440886.260    83702014.12549
  21789765.020   114506070.74407  21789762.520    89225537.74947
  22870846.860   120187122.95905  22870843.120    93652287.21547
  23001855.440   120875576.02505  23001852.420    94188754.68246
  21611714.580   113570388.42207  21611710.180    88496422.07248
  21162273.540   111208522.00307  21162273.220    86655998.80448
 15 03 02 01 08  0.0000000  0  6G16G18G19G21G22G27
  20440230.000   107414144.59807  20440226.940    83699314.38949
  21790384.820   114509327.59107  21790382.240    89228075.56247
  22857475.600   120116856.66405  22857471.800    93597534.29046
  23015239.700   120945910.20305  23015236.600    94243560.51646
  21599818.060   113507871.69007  21599813.580    88447707.76448
  21153982.480   111164952.18107  21153982.120    86622048.30048
 15 03 02 01 08 30.0000000  0  6G16G18G19G21G22G27
  20439671.460   107411209.58707  20439668.440    83697027.36249
  21791097.140   114513070.57706  21791094.480    89230992.19347
  22844121.040   120046677.65705  22844117.080    93542849.36247
  23028637.860   121016317.32305  23028634.640    94298423.20746
  21587994.720   113445739.89307  21587990.280    88399293.40748
  21145721.420   111121540.00707  21145721.080    86588220.63448
 15 03 02 01 09  0.0000000  0  6G16G18G19G21G22G27
  20439218.080   107408827.12507  20439215.080    83695170.89649
  21791906.140   114517322.12706  21791903.500    89234305.09547
  22830787.360   119976608.12805  22830783.260    93488249.75647
  23042053.760   121086818.23805  23042050.540    94353358.98346
  21576249.220   113384016.98907  21576244.800    88351197.66548
  21137494.760   111078308.37307  21137494.380    86554533.64648
 15 03 02 01 09 30.0000000  0  6G16G18G19G21G22G27
  20438869.080   107406993.11707  20438866.100    83693741.79149
  21792810.780   114522076.48906  21792808.200    89238009.79947
  22817473.560   119906643.54205  22817469.360    93433731.91147
  23055486.260   121157406.33905  23055483.040    94408362.70646
  21564580.940   113322699.86107  21564576.520    88303418.11748
  21129301.620   111035252.79507  21129301.160    86520983.85348
 15 03 02 01 10  0.0000000  0  7G04G16G18G19G21G22G27
  24491319.980   128702753.41703  24491322.800   100287871.42745
  20438624.160   107405705.79407  20438621.120    83692738.67149
  21793810.760   114527331.82606  21793808.220    89242104.87547
  22804179.380   119836781.89205  22804175.060    93379294.27647
  23068934.580   121228078.20305  23068931.360    94463431.68746
  21552989.800   113261788.26207  21552985.440    88255954.55848
  21121141.640   110992371.91107  21121141.180    86487570.18348
 15 03 02 01 10 30.0000000  0  6G16G18G19G21G22G27
  20438482.680   107404962.15607  20438479.600    83692159.20749
  21794905.460   114533084.36606  21794902.840    89246587.38647
  22790904.260   119767020.19805  22790899.900    93324934.52647
  23082397.900   121298828.79005  23082394.700    94518562.00646
  21541475.560   113201280.91307  21541471.320    88208805.99948
  21113014.400   110949662.86907  21113013.940    86454290.41448
 15 03 02 01 11  0.0000000  0  6G16G18G19G21G22G27
  20438445.300   107404765.81207  20438442.240    83692006.20449
  21796095.380   114539336.91006  21796092.660    89251459.51047
  22777648.700   119697361.66205  22777644.360    93270655.18347
  23095876.480   121369659.54705  23095873.380    94573754.78746
  21530039.300   113141183.19007  21530035.100    88161976.63548
  21104920.540   110907129.37607  21104920.100    86421147.44148
 15 03 02 01 11 30.0000000  0  6G16G18G19G21G22G27
  20438512.380   107405118.50907  20438509.360    83692281.02549
  21797380.740   114546091.19907  21797378.000    89256722.60347
  22764413.120   119627808.44105  22764408.700    93216457.88847
  23109370.460   121440571.19505  23109367.460    94629010.59346
  21518681.560   113081498.04007  21518677.360    88115468.74248
  21096860.500   110864773.83207  21096860.100    86388143.13249
 15 03 02 01 12  0.0000000  0  6G16G18G19G21G22G27
  20438683.880   107406019.89807  20438680.920    83692983.39749
  21798761.060   114553344.80906  21798758.360    89262374.77747
  22751197.200   119558358.81905  22751192.680    93162341.30447
  23122879.140   121511560.04305  23122876.300    94684326.58046
  21507402.540   113022226.29807  21507398.300    88069282.99848
  21088834.100   110822595.13607  21088833.740    86355276.62148
 15 03 02 01 12 30.0000000  0  6G16G18G19G21G22G27
  20438960.180   107407471.97207  20438957.260    83694114.87549
  21800236.700   114561099.92506  21800234.060    89268417.72647
  22738001.420   119489015.34205  22737997.040    93108307.45247
  23136402.660   121582627.05605  23136399.980    94739703.45746
  21496202.840   112963371.76107  21496198.640    88023422.34448
  21080841.920   110780596.05407  21080841.600    86322550.06448
 15 03 02 01 13  0.0000000  0  6G16G18G19G21G22G27
  20439340.760   107409471.79707  20439337.800    83695673.17249
  21801807.120   114569352.33806  21801804.380    89274848.19047
  22724825.220   119419774.54305  22724820.900    93054353.59947
  23149940.200   121653767.30405  23149937.500    94795137.41646
  21485082.180   112904932.44007  21485077.980    87977885.23348
  21072883.400   110738773.61807  21072883.000    86289961.15348
 15 03 02 01 13 30.0000000  0  6G16G18G19G21G22G27
  20439826.500   107412024.20407  20439823.480    83697662.05149
  21803473.060   114578106.38607  21803470.220    89281669.53947
  22711669.520   119350641.50905  22711665.320    93000483.72147
  23163492.280   121724983.86805  23163489.500    94850630.84746
  21474041.940   112846915.61307  21474037.660    87932677.34148
  21064959.480   110697133.14807  21064959.000    86257514.03348
 15 03 02 01 14  0.0000000  0  7G04G16G18G19G21G22G27
  24340759.640   127911556.27303  24340762.260    99671352.38644
  20440417.900   107415131.94807  20440414.880    83700083.66349
  21805234.820   114587364.08506  21805231.920    89288883.34247
  22698534.960   119281618.98505  22698530.820    92946699.94247
  23177059.040   121796277.81505  23177056.320    94906184.57346
  21463082.760   112789324.82807  21463078.380    87887801.43148
  21057070.800   110655677.69207  21057070.280    86225211.08448
 15 03 02 01 14 30.0000000  0  7G04G16G18G19G21G22G27
  24322074.700   127813367.44303  24322077.420    99594841.83146
  20441116.860   107418804.82407  20441113.840    83702945.64049
  21807094.060   114597134.72006  21807091.220    89296496.83447
  22685423.240   119212716.70505  22685419.300    92893009.89347
  23190642.060   121867657.36305  23190639.460    94961805.00146
  21452206.840   112732171.85107  21452202.420    87843266.67048
  21049219.340   110614417.57907  21049218.840    86193060.35149
 15 03 02 01 15  0.0000000  0  6G16G18G19G21G22G27
  20441911.640   107422981.35507  20441908.640    83706200.07249
  21809039.060   114607355.89506  21809036.240    89304461.39147
  22672322.740   119143872.93605  22672318.840    92839365.40847
  23204229.280   121939058.70704  23204226.720    95017442.37347
  21441402.700   112675396.14507  21441398.360    87799025.88648
  21041393.260   110573291.20107  21041392.800    86161013.82148
 15 03 02 01 15 30.0000000  0  7G04G16G18G19G21G22G27
  24284786.840   127617417.38603  24284787.360    99442146.26444
  20442821.820   107427764.48807  20442818.820    83709927.17849
  21811089.200   114618129.69806  21811086.440    89312856.56647
  22659253.060   119075190.89505  22659249.060    92785846.96047
  23217840.020   122010583.33504  23217837.480    95073175.84347
  21430690.300   112619102.17207  21430686.060    87755160.46848
  21033612.320   110532402.19007  21033611.860    86129152.25449
 15 03 02 01 16  0.0000000  0  7G04G16G18G19G21G22G27
  24266188.500   127519682.00604  24266189.440    99365989.01345
  20443832.100   107433073.52507  20443829.100    83714064.08249
  21813229.080   114629375.05106  21813226.360    89321619.19147
  22646198.720   119006589.59605  22646194.580    92732391.40547
  23231458.480   122082148.75904  23231455.900    95128941.09246
  21420054.740   112563211.42507  21420050.420    87711609.25748
  21025861.280   110491670.26607  21025860.800    86097413.09849
 15 03 02 01 16 30.0000000  0  7G04G16G18G19G21G22G27
  24247620.600   127422107.15103  24247621.680    99289956.79042
  20444947.780   107438936.35207  20444944.780    83718632.50849
  21815463.700   114641118.39706  21815461.020    89330769.85647
  22633165.060   118938097.15105  22633160.960    92679020.69947
  23245089.820   122153781.21204  23245087.020    95184758.56946
  21409501.440   112507752.70207  21409496.920    87668394.69748
  21018145.500   110451123.50807  21018144.980    86065818.22649
 15 03 02 01 17  0.0000000  0  7G04G16G18G19G21G22G27
  24229083.800   127324695.50204  24229085.100    99214051.75844
  20446169.180   107445354.54507  20446166.140    83723633.69049
  21817793.540   114653361.51807  21817790.780    89340309.95747
  22620152.360   118869715.33505  22620148.360    92625736.19446
  23258733.820   122225480.62704  23258730.960    95240628.22346
  21399030.820   112452729.49907  21399026.280    87625519.49848
  21010465.400   110410764.33407  21010464.880    86034369.51549
 15 03 02 01 17 30.0000000  0  7G04G16G18G19G21G22G27
  24210577.700   127227445.20904  24210578.900    99138272.42745
  20447495.800   107452325.67507  20447492.720    83729065.73349
  21820217.860   114666101.11407  21820215.020    89350236.93347
  22607160.220   118801441.80305  22607156.240    92572536.06247
  23272389.820   122297243.11505  23272386.820    95296547.04345
  21388642.860   112398141.16807  21388638.440    87582983.15948
  21002820.560   110370590.71707  21002820.100    86003065.39649
 15 03 02 01 18  0.0000000  0  7G04G16G18G19G21G22G27
  24192102.600   127130358.11604  24192103.660    99062620.35045
  20448927.920   107459851.11707  20448924.780    83734929.70249
  21822736.740   114679337.49506  21822733.860    89360550.99847
  22594189.040   118733278.09505  22594185.060    92519421.49647
  23286057.860   122369068.81405  23286054.760    95352515.13446
  21378338.240   112343990.37907  21378333.940    87540787.75748
  20995211.380   110330604.54307  20995211.000    85971907.34448
 15 03 02 01 18 30.0000000  0  7G04G16G18G19G21G22G27
  24173658.800   127033435.37404  24173659.280    98987096.26044
  20450465.620   107467931.55707  20450462.440    83741226.14449
  21825350.000   114693070.12707  21825347.120    89371251.74447
  22581238.900   118665224.68905  22581234.980    92466392.87947
  23299737.720   122440956.44305  23299734.420    95408531.50646
  21368117.280   112290278.80307  21368113.060    87498934.60248
  20987638.100   110290806.49307  20987637.680    85940895.87749
 15 03 02 01 19  0.0000000  0  7G04G16G18G19G21G22G27
  24155246.340   126936678.00004  24155246.500    98911701.05245
  20452108.960   107476567.26407  20452105.740    83747955.25649
  21828057.760   114707299.21307  21828054.800    89382339.36047
  22568309.940   118597282.56905  22568305.940    92413450.98247
  23313428.960   122512904.82104  23313425.760    95464595.13745
  21357980.340   112237008.89007  21357976.160    87457425.60348
  20980100.900   110251197.89007  20980100.420    85910032.03149
 15 03 02 01 19 30.0000000  0  7G04G16G18G19G21G22G27
  24136865.600   126840087.30104  24136865.720    98836435.71745
  20453858.040   107485758.78407  20453854.840    83755117.47149
  21830859.980   114722024.58907  21830856.900    89393813.70047
  22555402.260   118529452.11405  22555398.160    92360596.11047
  23327131.620   122584912.73804  23327128.560    95520705.20947
  21347927.820   112184182.50907  21347923.540    87416262.21648
  20972599.920   110211779.65707  20972599.360    85879316.53649
 15 03 02 01 20  0.0000000  0  7G04G16G18G19G21G22G27
  24118516.800   126743663.90604  24118516.720    98761300.78242
  20455712.860   107495505.95507  20455709.680    83762712.65949
  21833756.340   114737245.54706  21833753.260    89405674.20547
  22542515.880   118461733.61205  22542511.760    92307828.45047
  23340845.300   122656978.87804  23340842.460    95576860.60047
  21337959.940   112131801.22407  21337955.620    87375445.65148
  20965135.220   110172552.49607  20965134.660    85848749.91949
 15 03 02 01 20 30.0000000  0  7G04G16G18G19G21G22G27
  24100200.140   126647409.94104  24100200.260    98686297.80143
  20457673.680   107505810.24107  20457670.540    83770741.97149
  21836747.000   114752962.45506  21836744.080    89417921.14247
  22529651.240   118394128.89405  22529647.100    92255149.45747
  23354570.040   122729103.43604  23354567.380    95633061.52146
  21328077.340   112079867.86307  21328072.960    87334978.11748
  20957707.260   110133518.44707  20957706.760    85818333.77949
 15 03 02 01 21  0.0000000  0  7G04G16G18G19G21G22G27
  24081915.440   126551323.58504  24081915.700    98611425.46345
  20459740.000   107516668.86007  20459736.900    83779203.22249
  21839831.440   114769172.11606  21839828.700    89430552.05147
  22516807.600   118326635.12905  22516803.540    92202556.92147
  23368305.180   122801282.15705  23368302.560    95689304.67046
  21318279.760   112028381.53807  21318275.420    87294858.92748
  20950315.720   110094675.53407  20950315.240    85788066.57549
 15 03 02 01 21 30.0000000  0  7G04G16G18G19G21G22G27
  24063663.380   126455408.02104  24063663.560    98536686.17544
  20461912.280   107528084.19007  20461909.160    83788098.26849
  21843010.200   114785876.61506  21843007.520    89443568.55647
  22503985.680   118259255.67605  22503981.700    92150053.46847
  23382050.920   122873516.31104  23382048.180    95745591.02445
  21308568.120   111977346.46507  21308563.740    87255091.35248
  20942961.180   110056027.05307  20942960.760    85757950.87549
 15 03 02 01 22  0.0000000  0  7G04G16G18G19G21G22G27
  24045444.000   126359665.83604  24045444.100    98462082.07641
  20464190.980   107540058.49007  20464187.820    83797428.88749
  21846283.380   114803076.78007  21846280.600    89456971.29047
  22491185.940   118191992.84605  22491182.120    92097640.89647
  23395807.260   122945805.79304  23395804.320    95801920.51745
  21298943.100   111926766.09407  21298938.580    87215678.09348
  20935644.060   110017575.49307  20935643.700    85727988.62349
 15 03 02 01 22 30.0000000  0  7G04G16G18G19G21G22G27
  24027257.320   126264095.34904  24027257.360    98387611.66744
  20466575.540   107552589.23507  20466572.360    83807193.09449
  21849650.220   114820769.35706  21849647.380    89470757.72247
  22478407.900   118124843.93205  22478404.140    92045317.07747
  23409573.340   123018147.36004  23409570.280    95858290.56145
  21289404.380   111876639.47207  21289399.720    87176618.41848
  20928364.060   109979319.04507  20928363.700    85698178.41049
 15 03 02 01 23  0.0000000  0  7G04G16G18G19G21G22G27
  24009103.860   126168700.04404  24009104.280    98313277.77544
  20469066.460   107565678.96307  20469063.280    83817392.87249
  21853110.920   114838955.70806  21853108.200    89484928.91547
  22465652.220   118057812.38105  22465648.440    91993084.71847
  23423349.660   123090542.62604  23423346.800    95914702.45545
  21279952.700   111826970.78207  21279948.020    87137915.56148
  20921121.860   109941261.11407  20921121.460    85668522.88149
 15 03 02 01 23 30.0000000  0  7G04G16G18G19G21G22G27
  23990983.280   126073476.98504  23990983.900    98239078.10245
  20471662.980   107579324.05707  20471659.880    83828025.40749
  21856664.940   114857632.86906  21856662.360    89499482.54847
  22452918.300   117990895.01105  22452914.340    91940941.31147
  23437135.180   123162986.50604  23437132.660    95971152.22746
  21270587.760   111777758.03207  21270583.100    87099567.98248
  20913916.980   109903399.06407  20913916.520    85639019.98549
 15 03 02 01 24  0.0000000  0  7G04G16G18G19G21G22G27
  23972896.080   125978429.04304  23972896.580    98165014.93043
  20474365.440   107593525.74107  20474362.400    83839091.64549
  21860312.520   114876801.21506  21860309.980    89514418.93247
  22440206.480   117924093.94406  22440202.460    91888888.55147
  23450930.060   123235479.28404  23450927.680    96027640.07646
  21261310.240   111729004.42207  21261305.600    87061578.17648
  20906749.820   109865735.33707  20906749.340    85609671.63249
 15 03 02 01 24 30.0000000  0  7G04G16G18G19G21G22G27
  23954842.240   125883556.32004  23954842.920    98091088.26843
  20477173.920   107608284.39207  20477170.900    83850591.88549
  21864053.500   114896459.71706  21864050.840    89529737.24947
  22427516.780   117857409.23105  22427512.760    91836926.44347
  23464734.080   123308019.56005  23464731.680    96084164.94146
  21252120.300   111680711.10307  21252115.680    87023947.03948
  20899620.500   109828270.41607  20899620.020    85580478.19349
 15 03 02 01 25  0.0000000  0  7G04G16G18G19G21G22G27
  23936822.200   125788860.51503  23936822.960    98017299.43841
  20480088.480   107623600.20607  20480085.400    83862526.27549
  21867887.720   114916608.39006  21867885.020    89545437.52847
  22414849.380   117790842.01705  22414845.340    91785055.90847
  23478547.140   123380606.91505  23478544.520    96140726.50146
  21243018.460   111632880.56407  21243013.800    86986676.50548
  20892529.260   109791005.93707  20892528.820    85551440.93749
 15 03 02 01 25 30.0000000  0  7G04G16G18G19G21G22G27
  23918836.240   125694343.41304  23918837.060    97943649.85645
  20483109.180   107639474.17307  20483106.160    83874895.59649
  21871815.240   114937247.26006  21871812.480    89561519.76947
  22402204.660   117724394.01705  22402200.640    91733278.24647
  23492368.920   123453240.40005  23492366.100    96197324.01345
  21234005.200   111585515.74907  21234000.540    86949768.88048
  20885476.500   109753943.58607  20885476.080    85522561.18949
 15 03 02 01 26  0.0000000  0  7G04G16G18G19G21G22G27
  23900884.200   125600004.16204  23900884.940    97870138.89745
  20486235.700   107655904.27007  20486232.720    83887698.25949
  21875835.520   114958373.85906  21875832.700    89577982.06247
  22389582.380   117658063.76705  22389578.420    91681592.35547
  23506199.100   123525918.00504  23506196.220    96253955.90345
  21225080.440   111538616.01307  21225075.840    86913223.65048
  20878462.060   109717082.57507  20878461.660    85493838.32249
 15 03 02 01 26 30.0000000  0  7G04G16G18G19G21G22G27
  23882966.580   125505845.65304  23882967.320    97796768.71243
  20489468.540   107672893.14007  20489465.600    83900936.33149
  21879948.820   114979989.61406  21879946.000    89594825.51047
  22376983.060   117591854.13205  22376979.080    91630000.44247
  23520037.760   123598640.36304  23520034.720    96310622.64445
  21216244.880   111492185.22907  21216240.380    86877043.84148
  20871486.580   109680426.04907  20871486.080    85465274.79949
 15 03 02 01 27  0.0000000  0  7G04G16G18G19G21G22G27
  23865083.640   125411870.02204  23865083.960    97723541.05444
  20492807.840   107690441.56107  20492804.980    83914610.41849
  21884155.300   115002095.26806  21884152.460    89612050.70347
  22364407.060   117525766.80605  22364403.120    91578503.82447
  23533884.820   123671407.57504  23533881.760    96367324.36846
  21207499.160   111446226.31207  21207494.720    86841231.71248
  20864550.380   109643976.00407  20864549.820    85436872.17049
 15 03 02 01 27 30.0000000  0  7G04G16G18G19G21G22G27
  23847235.200   125318076.34604  23847235.440    97650455.13144
  20496253.340   107708547.85407  20496250.520    83928719.20349
  21888454.560   115024688.47006  21888451.740    89629655.80647
  22351854.100   117459800.84305  22351850.180    91527101.78347
  23547739.940   123744217.03204  23547736.880    96424059.01446
  21198843.220   111400739.12707  21198838.760    86805787.16748
  20857653.300   109607731.84807  20857652.800    85408629.98149
 15 03 02 01 28  0.0000000  0  7G04G16G18G19G21G22G27
  23829421.000   125224462.43804  23829421.180    97577509.34345
  20499804.200   107727207.69207  20499801.380    83943259.32849
  21892845.740   115047764.43706  21892842.920    89647637.08347
  22339323.680   117393953.29605  22339319.760    91475792.01647
  23561602.360   123817064.28004  23561599.280    96480823.10845
  21190276.680   111355721.62707  21190272.160    86770708.61348
  20850794.900   109571691.01807  20850794.520    85380546.21749
 15 03 02 01 28 30.0000000  0  7G04G16G18G19G21G22G27
  23811641.980   125131033.81904  23811642.180    97504707.93244
  20503461.580   107746427.33507  20503458.720    83958235.66549
  21897329.740   115071328.02206  21897326.920    89665998.32647
  22326816.920   117328229.97805  22326813.040    91424579.05647
  23575472.760   123889952.83904  23575469.580    96537619.38345
  21181800.740   111311180.53007  21181796.240    86736001.28348
  20843976.360   109535859.66407  20843976.060    85352625.67949
 15 03 02 01 29  0.0000000  0  7G04G16G18G19G21G22G27
  23793897.860   125037788.26504  23793898.080    97432049.15545
  20507224.740   107766202.78807  20507221.840    83973645.10049
  21901905.800   115095375.15606  21901902.880    89684736.35647
  22314333.280   117262627.79706  22314329.340    91373460.48547
  23589350.240   123962878.83704  23589346.940    96594444.84245
  21173415.100   111267113.98807  21173410.660    86701663.73148
  20837197.220   109500235.26307  20837196.980    85324866.40249
 15 03 02 01 29 30.0000000  0  7G04G16G18G19G21G22G27
  23776189.580   124944730.79104  23776189.680    97359536.90346
  20511094.480   107786538.29607  20511091.540    83989490.94349
  21906574.460   115119908.84106  21906571.480    89703853.52447
  22301873.720   117197151.97106  22301869.700    91322440.37547
  23603235.240   124035845.23504  23603231.940    96651301.78445
  21165120.860   111223527.55707  21165116.440    86667700.30148
  20830458.540   109464823.25507  20830458.280    85297272.62849
 15 03 02 01 30  0.0000000  0  7G04G16G18G19G21G22G27
  23758516.660   124851859.83104  23758516.780    97287170.01644
  20515070.260   107807430.96907  20515067.280    84005770.93749
  21911335.080   115144925.94906  21911332.160    89723347.38147
  22289437.820   117131800.66006  22289433.780    91271517.28847
  23617127.320   124108848.89004  23617124.200    96708187.71845
  21156917.920   111180420.71707  21156913.440    86634110.56748
  20823760.040   109429622.06907  20823759.680    85269843.13449
 15 03 02 01 30 30.0000000  0  7G04G16G18G19G21G22G27
  23740879.400   124759176.53204  23740879.380    97214949.28745
  20519152.040   107828880.64407  20519149.020    84022484.95849
  21916187.520   115170425.85106  21916184.720    89743217.43847
  22277025.640   117066574.46605  22277021.640    91220691.70147
  23631026.280   124181888.52004  23631023.120    96765101.67745
  21148806.560   111137795.13307  21148802.000    86600895.85148
  20817101.900   109394632.83407  20817101.420    85242578.79849
 15 03 02 01 31  0.0000000  0  7G04G16G18G19G21G22G27
  23723277.800   124666679.86504  23723277.640    97142874.06544
  20523339.400   107850885.58707  20523336.440    84039631.65949
  21921131.500   115196406.20806  21921128.700    89763461.87847
  22264637.020   117001472.51405  22264633.120    91169962.91148
  23644931.540   124254961.72504  23644928.480    96822041.81444
  21140786.640   111095650.04507  21140781.980    86568055.54148
  20810483.960   109359854.92307  20810483.360    85215479.13449
 15 03 02 01 31 30.0000000  0  7G04G16G18G19G21G22G27
  23705712.040   124574371.61404  23705711.920    97070945.62744
  20527632.540   107873446.32707  20527629.600    84057211.44149
  21926166.900   115222866.94307  21926164.020    89784080.64347
  22252272.420   116936496.44405  22252268.620    91119332.22047
  23658843.080   124328067.88104  23658840.080    96879007.61745
  21132858.700   111053988.44707  21132854.040    86535591.97748
  20803906.520   109325290.11607  20803905.900    85188545.52349
 15 03 02 01 32  0.0000000  0  7G04G16G18G19G21G22G27
  23688182.580   124482254.98604  23688182.840    96999166.53544
  20532031.860   107896564.74907  20532028.920    84075225.78649
  21931293.900   115249809.48106  21931290.980    89805074.83947
  22239932.440   116871649.18306  22239928.620    91068801.90547
  23672761.160   124401207.89004  23672758.120    96935999.80544
  21125023.420   111012813.73107  21125018.740    86503507.79548
  20797370.280   109290941.88007  20797369.660    85161780.66649
 15 03 02 01 32 30.0000000  0  7G04G16G18G19G21G22G27
  23670689.260   124390327.99404  23670689.860    96927535.20045
  20536536.720   107920238.14607  20536533.820    84093672.57849
  21936511.820   115277230.22706  21936508.960    89826441.65246
  22227616.540   116806928.43406  22227612.620    91018370.16947
  23686685.200   124474379.27704  23686682.240    96993016.46745
  21117280.580   110972124.48007  21117275.780    86471801.90148
  20790874.860   109256808.31207  20790874.260    85135183.08449
 15 03 02 01 33  0.0000000  0  7G04G16G18G19G21G22G27
  23653232.340   124298592.32104  23653233.140    96856052.92645
  20541147.320   107944466.96007  20541144.420    84112552.16149
  21941820.700   115305128.85906  21941817.860    89848180.84947
  22215325.080   116742335.91606  22215321.020    90968038.34547
  23700615.000   124547581.26704  23700612.040    97050056.98845
  21109630.520   110931923.02507  21109625.640    86440476.10948
  20784420.640   109222891.35207  20784420.060    85108754.28449
 15 03 02 01 33 30.0000000  0  7G04G16G18G19G21G22G27
  23635812.040   124207049.14604  23635812.920    96784720.66446
  20545863.700   107969251.43807  20545860.760    84131864.73049
  21947220.440   115333504.73907  21947217.620    89870291.93347
  22203058.160   116677872.64506  22203054.020    90917807.23347
  23714550.600   124620813.34504  23714547.560    97107120.96745
  21102073.600   110892211.27907  21102068.760    86409531.91348
  20778007.920   109189192.46207  20778007.360    85082495.41149
 15 03 02 01 34  0.0000000  0  7G04G16G18G19G21G22G27
  23618428.580   124115699.24604  23618429.580    96713538.98345
  20550685.600   107994590.63907  20550682.660    84151609.54949
  21952710.880   115362356.97507  21952707.960    89892774.19947
  22190815.840   116613539.03206  22190811.740    90867677.16647
  23728491.700   124694074.39904  23728488.600    97164207.49545
  21094610.100   110852990.34807  21094605.280    86378970.16148
  20771636.860   109155712.46807  20771636.300    85056407.10649
 15 03 02 01 34 30.0000000  0  7G04G16G18G19G21G22G27
  23601081.420   124024539.01904  23601082.280    96642505.11145
  20555612.020   108020479.56807  20555609.160    84171782.72949
  21958290.960   115391680.46506  21958288.020    89915623.68047
  22178597.600   116549331.62206  22178593.460    90817645.41948
  23742437.560   124767359.37104  23742434.440    97221312.66646
  21087239.440   110814257.24507  21087234.600    86348788.53748
  20765306.880   109122448.20107  20765306.320    85030486.89249
 15 03 02 01 35  0.0000000  0  7G04G16G18G19G21G22G27
  23583772.220   123933578.93504  23583772.900    96571627.18545
  20560645.040   108046928.45107  20560642.240    84192392.23349
  21963962.220   115421483.60706  21963959.320    89938846.91647
  22166405.320   116485260.59206  22166401.180    90767719.96647
  23756389.380   124840676.37004  23756386.200    97278442.74645
  21079963.640   110776022.76307  21079958.820    86318995.44848
  20759019.980   109089410.15107  20759019.400    85004742.95649
 15 03 02 01 35 30.0000000  0  7G04G16G18G19G21G22G27
  23566500.180   123842813.79604  23566500.800    96500901.16845
  20565783.360   108073930.48907  20565780.560    84213432.76849
  21969723.440   115451759.12006  21969720.560    89962438.21847
  22154238.020   116421320.89406  22154233.920    90717896.83947
  23770345.900   124914018.63704  23770342.860    97335592.53845
  21072781.860   110738282.47507  21072777.040    86289587.45648
  20752775.180   109056593.40507  20752774.620    84979171.46749
 15 03 02 01 36  0.0000000  0  7G04G16G18G19G21G22G27
  23549265.400   123752244.10904  23549265.900    96430327.46444
  20571026.800   108101484.80207  20571023.960    84234903.64349
  21975574.500   115482506.40607  21975571.660    89986397.15347
  22142095.780   116357512.74806  22142091.680    90668176.21248
  23784307.100   124987385.18104  23784304.160    97392761.26345
  21065694.300   110701037.07507  21065689.400    86260565.08748
  20746572.680   109023998.87507  20746572.140    84953773.12749
 15 03 02 01 36 30.0000000  0  7G04G16G18G19G21G22G27
  23532068.140   123661872.08404  23532068.600    96359907.75944
  20576375.440   108129591.88207  20576372.560    84256805.24849
  21981515.400   115513725.55807  21981512.560    90010723.75647
  22129979.060   116293838.39806  22129974.880    90618559.84347
  23798272.900   125060776.02304  23798270.180    97449948.90446
  21058701.480   110664289.43107  21058696.540    86231930.57248
  20740412.880   108991628.87007  20740412.360    84928549.74749
 15 03 02 01 37  0.0000000  0  7G04G16G18G19G21G22G27
  23514908.560   123571698.13504  23514909.180    96289642.45346
  20581829.140   108158251.13507  20581826.220    84279137.12149
  21987545.780   115545414.95907  21987542.900    90035416.80647
  22117887.780   116230298.06606  22117883.540    90569047.90947
  23812243.120   125134190.02204  23812240.460    97507154.59746
  21051803.500   110628040.57507  21051798.640    86203684.72648
  20734295.920   108959484.05007  20734295.420    84903501.84149
 15 03 02 01 37 30.0000000  0  7G04G16G18G19G21G22G27
  23497786.960   123481723.61904  23497787.600    96219532.52345
  20587388.080   108187463.34907  20587385.120    84301899.86949
  21993665.440   115577574.39906  21993662.620    90060476.11647
  22105822.240   116166893.39406  22105818.020    90519641.69148
  23826217.800   125207627.26204  23826215.000    97564378.46145
  21045000.800   110592292.24207  21044995.980    86175828.89548
  20728222.120   108927566.22507  20728221.640    84878630.80749
 15 03 02 01 38  0.0000000  0  7G04G16G18G19G21G22G27
  23480703.360   123391949.17104  23480704.120    96149578.47345
  20593052.000   108217227.27607  20593049.020    84325092.52349
  21999874.240   115610202.55906  21999871.460    90085900.64947
  22093782.480   116103624.70306  22093778.380    90470341.41748
  23840196.600   125281086.23304  23840193.720    97621619.19944
  21038293.500   110557045.29307  21038288.700    86148363.75448
  20722191.700   108895876.24107  20722191.240    84853937.31549
 15 03 02 01 38 30.0000000  0  7G04G16G18G19G21G22G27
  23463657.800   123302374.65004  23463658.380    96079780.20645
  20598820.640   108247541.49807  20598817.660    84348713.98149
  22006171.940   115643297.29106  22006169.120    90111688.76447
  22081768.640   116040492.00806  22081764.600    90421147.12348
  23854179.280   125354565.50204  23854176.400    97678875.74846
  21031681.720   110522300.18607  21031676.900    86121289.66148
  20716204.680   108864414.32507  20716204.200    84829421.54249
 15 03 02 01 39  0.0000000  0  7G04G16G18G19G21G22G27
  23446650.940   123213003.40504  23446651.400    96010140.32245
  20604694.380   108278407.99207  20604691.380    84372765.78149
  22012558.760   115676860.01706  22012555.840    90137841.53547
  22069781.400   115977498.50506  22069777.280    90372061.27947
  23868165.940   125428066.56404  23868163.180    97736149.34245
  21025166.120   110488060.59007  21025161.320    86094609.47148
  20710261.760   108833183.94907  20710261.260    84805086.18249
 15 03 02 01 39 30.0000000  0  7G04G16G18G19G21G22G27
  23429682.140   123123831.04704  23429682.260    95940655.44045
  20610672.020   108309820.61807  20610669.000    84397243.14149
  22019033.460   115710884.65106  22019030.480    90164354.24147
  22057819.760   115914639.92006  22057815.640    90323080.57547
  23882155.640   125501583.36004  23882153.080    97793435.16844
  21018745.880   110454322.31407  21018741.180    86068319.92148
  20704362.160   108802181.22107  20704361.640    84780928.21249
 15 03 02 01 40  0.0000000  0  7G04G16G18G19G21G22G27
  23412752.080   123034862.44804  23412751.960    95871329.33644
  20616754.400   108341783.68307  20616751.360    84422149.41749
  22025596.640   115745374.37406  22025593.580    90191229.35447
  22045884.700   115851921.01406  22045880.560    90274208.69947
  23896148.980   125575119.18903  23896146.540    97850735.75345
  21012422.120   110421091.03307  21012417.480    86042425.43748
  20698506.880   108771411.33807  20698506.360    84756951.67249
 15 03 02 01 40 30.0000000  0  7G04G16G18G19G21G22G27
  23395860.280   122946094.82504  23395859.920    95802159.82744
  20622940.580   108374292.38307  20622937.580    84447480.86049
  22032247.400   115780324.33506  22032244.320    90218463.09247
  22033975.600   115789338.67006  22033971.520    90225443.24448
  23910145.260   125648662.67204  23910141.500    97908034.83945
  21006194.340   110388363.94607  21006189.680    86016923.82548
  20692695.340   108740871.63907  20692694.860    84733154.49849
 15 03 02 01 41  0.0000000  0  7G04G16G18G19G21G22G27
  23379007.460   122857532.92604  23379006.900    95733150.59045
  20629231.300   108407350.37707  20629228.360    84473240.32349
  22038986.260   115815737.14706  22038983.140    90246057.49147
  22022093.620   115726898.25806  22022089.460    90176788.38147
  23924145.220   125722230.75104  23924141.920    97965360.58446
  21000063.600   110356146.57407  21000058.880    85991819.39048
  20686928.660   108710567.47907  20686928.180    84709540.86449
 15 03 02 01 41 30.0000000  0  7G04G16G18G19G21G22G27
  23362194.020   122769178.34704  23362193.680    95664302.94045
  20635626.540   108440957.60507  20635623.620    84499427.76649
  22045813.080   115851612.45406  22045810.060    90274012.28047
  22010238.960   115664601.43906  22010234.740    90128245.41848
  23938148.300   125795816.27704  23938144.980    98022699.93145
  20994030.100   110324440.50407  20994025.380    85967113.38048
  20681207.140   108680500.67207  20681206.640    84686112.18849
 15 03 02 01 42  0.0000000  0  7G04G16G18G19G21G22G27
  23345419.660   122681028.62904  23345419.420    95595614.88145
  20642125.620   108475110.38807  20642122.700    84526040.30849
  22052727.100   115887945.85906  22052724.100    90302324.01947
  21998411.180   115602445.60206  21998406.820    90079812.30648
  23952153.960   125869415.76804  23952150.460    98080050.17145
  20988093.520   110293243.82107  20988088.840    85942804.29248
  20675530.420   108650669.23907  20675529.860    84662866.91549
 15 03 02 01 42 30.0000000  0  7G04G16G18G19G21G22G27
  23328684.520   122593084.45404  23328684.140    95527087.02044
  20648728.320   108509807.92707  20648725.440    84553077.33649
  22059728.160   115924736.44906  22059725.140    90330992.02247
  21986610.360   115540431.72406  21986606.040    90031489.81048
  23966162.060   125943027.91604  23966158.500    98137410.26445
  20982254.120   110262557.71107  20982249.460    85918893.04648
  20669898.700   108621074.29607  20669898.120    84639805.92249
 15 03 02 01 43  0.0000000  0  7G04G16G18G19G21G22G27
  23311989.260   122505350.10004  23311988.740    95458722.66645
  20655435.180   108545052.81907  20655432.340    84580540.87449
  22066816.640   115961986.48906  22066813.580    90360018.03147
  21974837.300   115478563.85806  21974833.060    89983281.08748
  23980172.880   126016655.44604  23980169.360    98194782.33445
  20976512.700   110232385.93807  20976507.960    85895382.58848
  20664312.840   108591720.25307  20664312.200    84616932.64549
 15 03 02 01 43 30.0000000  0  7G04G16G18G19G21G22G27
  23295333.440   122417822.90504  23295332.800    95390519.71245
  20662245.460   108580840.97707  20662242.640    84608427.73849
  22073991.660   115999691.10806  22073988.520    90389398.24847
  21963091.520   115416839.47006  21963087.340    89935184.17848
  23994185.800   126090294.52804  23994182.280    98252163.44045
  20970868.760   110202726.39207  20970863.920    85872271.27048
  20658772.380   108562604.87907  20658771.740    84594245.34449
 15 03 02 01 44  0.0000000  0  7G04G16G18G19G21G22G27
  23278717.260   122330503.73504  23278716.440    95322478.85444
  20669159.020   108617171.60907  20669156.160    84636737.31048
  22081252.980   116037849.25606  22081249.800    90419131.87446
  21951373.280   115355259.74206  21951369.160    89887199.99548
  24008200.560   126163944.17904  24008196.980    98309552.74743
  20965322.520   110173580.64607  20965317.680    85849560.30948
  20653277.540   108533729.55207  20653276.960    84571745.09449
 15 03 02 01 44 30.0000000  0  7G04G16G18G19G21G22G27
  23262141.320   122243396.16704  23262140.420    95254602.86046
  20676176.280   108654047.15707  20676173.340    84665471.48549
  22088600.900   116076462.72806  22088597.700    90449220.29647
  21939683.180   115293828.35406  21939679.120    89839331.38947
  24022217.860   126237606.75404  24022214.880    98366952.17545
  20959874.700   110144952.41407  20959869.920    85827252.61048
  20647829.180   108505098.34007  20647828.620    84549435.04849
 15 03 02 01 45  0.0000000  0  7G04G16G18G19G21G22G27
  23245605.200   122156499.27904  23245604.500    95186891.06845
  20683296.740   108691464.96007  20683293.680    84694628.20149
  22096034.880   116115528.56206  22096031.680    90479661.20147
  21928021.200   115232544.51706  21928017.220    89791577.76248
  24036237.360   126311279.64504  24036234.200    98424359.66346
  20954525.220   110116840.92207  20954520.460    85805347.56848
  20642427.200   108476710.68107  20642426.640    84527314.80249
 15 03 02 01 45 30.0000000  0  7G04G16G18G19G21G22G27
  23229109.620   122069815.60104  23229109.120    95119345.39246
  20690520.580   108729426.16107  20690517.420    84724208.34849
  22103554.880   116155047.06206  22103551.860    90510454.85247
  21916387.880   115171410.97106  21916383.900    89743941.23948
  24050259.160   126384964.99004  24050257.920    98481786.01445
  20949274.640   110089248.82207  20949269.800    85783847.24948
  20637072.120   108448569.65807  20637071.600    84505386.73549
 15 03 02 01 46  0.0000000  0  7G04G16G18G19G21G22G27
  23212652.700   121983333.98104  23212652.100    95051957.15245
  20697845.180   108767917.29107  20697842.060    84754201.42749
  22111158.540   116195004.90406  22111155.580    90541590.83247
  21904780.980   115110416.42606  21904777.020    89696413.04047
  24064280.540   126458648.01804  24064278.740    98539201.35546
  20944120.720   110062165.11007  20944115.920    85762743.07448
  20631761.920   108420664.23807  20631761.400    84483642.25749
 15 03 02 01 46 30.0000000  0  7G04G16G18G19G21G22G27
  23196237.560   121897072.43704  23196237.000    94984740.40545
  20705273.960   108806955.57807  20705270.820    84784620.85549
  22118849.060   116235418.89106  22118846.140    90573082.24947
  21893204.020   115049579.42706  21893200.080    89649007.60348
  24078304.780   126532346.40404  24078302.640    98596628.64444
  20939067.020   110035608.19707  20939062.280    85742049.38848
  20626500.140   108393013.14007  20626499.580    84462095.94949
 15 03 02 01 47  0.0000000  0  7G04G16G18G19G21G22G27
  23179862.120   121811018.78304  23179861.360    94917685.67344
  20712804.180   108846527.21707  20712801.080    84815455.88548
  22126623.600   116276274.20906  22126620.620    90604917.56847
  21881654.740   114988887.63706  21881650.760    89601715.29548
  24092329.640   126606046.42404  24092327.080    98654057.21846
  20934111.260   110009565.79507  20934106.580    85721756.61348
  20621284.440   108365604.41907  20621283.880    84440738.49949
 15 03 02 01 47 30.0000000  0  7G04G16G18G19G21G22G27
  23163527.600   121725179.98605  23163526.760    94850798.37046
  20720436.860   108886637.33207  20720433.780    84846710.50449
  22134483.040   116317576.07306  22134480.120    90637100.83747
  21870134.580   114928348.49906  21870130.520    89554541.95148
  24106355.920   126679753.76704  24106353.020    98711491.52844
  20929254.920   109984045.54207  20929250.220    85701870.71648
  20616116.300   108338445.76807  20616115.760    84419575.91349
 15 03 02 01 48  0.0000000  0  7G04G16G18G19G21G22G27
  23147234.320   121639558.06905  23147233.500    94784080.03544
  20728172.020   108927286.17707  20728169.000    84878384.91649
  22142427.360   116359324.06706  22142424.480    90669631.74347
  21858643.960   114867964.21606  21858639.760    89507489.26948
  24120383.380   126753468.74504  24120380.400    98768931.72046
  20924498.220   109959049.06207  20924493.500    85682392.95448
  20610996.200   108311539.54807  20610995.680    84398610.02549
 15 03 02 01 48 30.0000000  0  7G04G16G18G19G21G22G27
  23130981.940   121554151.24305  23130981.040    94717529.32746
  20736009.160   108968470.68807  20736006.160    84910476.73149
  22150455.940   116401514.58106  22150453.020    90702507.47247
  21847182.460   114807733.47406  21847178.200    89460556.23448
  24134411.660   126827188.31404  24134408.740    98826375.53145
  20919840.940   109934575.06907  20919836.220    85663322.32048
  20605923.900   108284884.46307  20605923.360    84377839.82549
 15 03 02 01 49  0.0000000  0  7G04G16G18G19G21G22G27
  23114770.540   121468960.82304  23114769.780    94651147.22645
  20743948.100   109010190.26307  20743945.160    84942985.47449
  22158568.600   116444146.75306  22158565.620    90735727.35347
  21835750.280   114747657.23406  21835746.040    89413743.57948
  24148440.880   126900912.21104  24148437.940    98883822.72144
  20915283.340   109910624.69107  20915278.580    85644659.70048
  20600899.700   108258482.33707  20600899.180    84357266.73849
 15 03 02 01 49 30.0000000  0  6G04G16G18G19G22G27
  23098601.120   121383990.95905  23098600.560    94584937.00645
  20751989.360   109052447.24607  20751986.400    84975912.98149
  22166765.700   116487222.84106  22166762.700    90769293.13747
  21824348.480   114687740.15706  21824344.140    89367054.95448
  20910826.300   109887202.35907  20910821.480    85626408.54948
  20595924.580   108232337.85807  20595924.020    84336894.41249
 15 03 02 01 50  0.0000000  0  7G04G16G18G19G21G22G27
  23082471.180   121299228.08305  23082470.700    94518888.06345
  20760129.980   109095226.50307  20760127.020    85009247.45548
  22175044.280   116530727.49806  22175041.340    90803192.86447
  21812974.420   114627968.92906  21812970.060    89320479.98848
  24176500.760   127048365.14304  24176498.460    98998710.64346
  20906467.100   109864294.38307  20906462.220    85608558.18448
  20590996.020   108206437.87408  20590995.400    84316712.59949
 15 03 02 01 50 30.0000000  0  6G04G16G18G19G22G27
  23066385.140   121214696.04205  23066384.720    94453018.97545
  20768374.220   109138550.31907  20768371.280    85043006.25648
  22183408.380   116574681.91806  22183405.620    90837443.06647
  21801632.660   114568367.90706  21801628.400    89274037.64748
  20902210.260   109841924.73707  20902205.360    85591127.30148
  20586118.660   108180806.96208  20586117.980    84296740.45949
 15 03 02 01 51  0.0000000  0  7G04G16G18G19G21G22G27
  23050337.960   121130367.71805  23050337.620    94387308.67345
  20776716.580   109182389.68707  20776713.680    85077166.78948
  22191852.640   116619057.23706  22191849.960    90872021.23946
  21790318.040   114508910.02906  21790313.980    89227706.83748
  24204561.760   127195830.76004  24204558.040    99113624.34745
  20898050.740   109820066.69307  20898045.880    85574095.06748
  20581287.380   108155418.34808  20581286.700    84276957.12049
 15 03 02 01 51 30.0000000  0  7G04G16G18G19G21G22G27
  23034333.300   121046262.53105  23034332.900    94321772.21246
  20785160.260   109226762.01407  20785157.500    85111742.61749
  22200380.380   116663870.54806  22200377.680    90906940.70247
  21779034.460   114449614.91006  21779030.480    89181502.84848
  24218591.860   127269560.11404  24218588.400    99171075.75244
  20893992.280   109798739.40807  20893987.400    85557476.42448
  20576505.980   108130291.97407  20576505.300    84257378.12549
 15 03 02 01 52  0.0000000  0  7G04G16G18G19G21G22G27
  23018371.760   120962383.81705  23018371.340    94256412.23345
  20793705.820   109271669.44507  20793703.140    85146735.40448
  22208991.860   116709123.49306  22208989.020    90942202.74646
  21767782.680   114390486.28006  21767778.640    89135428.59648
  24232623.240   127343296.21504  24232619.920    99228532.47546
  20890035.480   109777946.36507  20890030.640    85541274.06748
  20571775.220   108105431.77008  20571774.560    84238006.53349
 15 03 02 01 52 30.0000000  0  7G04G16G18G19G21G22G27
  23002449.920   120878713.31305  23002449.280    94191214.50145
  20802349.340   109317091.65407  20802346.740    85182129.31948
  22217682.980   116754795.32906  22217680.020    90977791.18847
  21756559.180   114331506.31606  21756555.140    89089470.19648
  24246652.360   127417019.30204  24246649.020    99285979.02644
  20886176.820   109757668.99107  20886172.040    85525473.52648
  20567091.780   108080820.05308  20567091.100    84218828.56249
 15 03 02 01 53  0.0000000  0  7G04G16G18G19G21G22G27
  22986571.260   120795270.89104  22986570.660    94126194.48146
  20811094.260   109363046.59507  20811091.720    85217938.34848
  22226457.080   116800903.84906  22226454.180    91013719.90947
  21745367.700   114272695.26006  21745363.820    89043643.40948
  24260682.540   127490747.82304  24260679.280    99343429.81146
  20882420.060   109737927.24907  20882415.340    85510090.36948
  20562459.480   108056477.11808  20562458.800    84199860.04149
 15 03 02 01 53 30.0000000  0  7G04G16G18G19G21G22G27
  22970734.640   120712049.92105  22970734.120    94061347.03946
  20819939.060   109409526.39607  20819936.540    85254156.36249
  22235312.580   116847440.58506  22235309.860    91049982.30347
  21734207.300   114214047.08506  21734203.520    88997943.53348
  24274712.300   127564474.01804  24274709.000    99400878.73944
  20878764.020   109718715.01807  20878759.340    85495119.81048
  20557877.200   108032397.15807  20557876.560    84181096.43649
 15 03 02 01 54  0.0000000  0  7G04G16G18G19G21G22G27
  22954940.540   120629052.11705  22954940.100    93996673.45444
  20828883.720   109456530.72307  20828881.180    85290783.09448
  22244249.440   116894405.00206  22244246.940    91086577.93746
  21723078.320   114155563.34906  21723074.420    88952371.79448
  24288741.560   127638198.08504  24288738.320    99458326.04844
  20875209.000   109700033.63507  20875204.380    85480562.90448
  20553345.360   108008582.32008  20553344.820    84162539.41349
 15 03 02 01 54 30.0000000  0  7G04G16G18G19G21G22G27
  22939188.520   120546275.14505  22939187.960    93932171.93646
  20837927.340   109504055.21707  20837924.820    85327815.15148
  22253266.900   116941792.17706  22253264.460    91123503.00247
  21711980.080   114097241.83006  21711976.140    88906926.46748
  24302769.800   127711916.93703  24302766.620    99515769.31144
  20871754.560   109681880.37007  20871749.940    85466417.51148
  20548863.620   107985030.80707  20548863.140    84144187.58149
 15 03 02 01 55  0.0000000  0  7G04G16G18G19G21G22G27
  22923478.500   120463718.76604  22923477.980    93867842.32146
  20847069.520   109552097.53907  20847066.980    85365250.71648
  22262364.460   116989599.97506  22262361.940    91160755.83746
  21700912.820   114039083.19906  21700908.820    88861608.04948
  24316797.240   127785631.86003  24316792.980    99573205.13146
  20868400.640   109664255.20707  20868395.960    85452683.63048
  20544432.100   107961742.96508  20544431.620    84126041.20449
 15 03 02 01 55 30.0000000  0  7G04G16G18G19G21G22G27
  22907813.100   120381397.20405  22907812.740    93803695.70045
  20856312.660   109600670.36007  20856310.100    85403099.65348
  22271544.480   117037840.69606  22271541.700    91198346.01446
  21689879.380   113981101.99406  21689875.320    88816427.88748
  24330824.020   127859342.89213  24330822.860    99630651.76455
  20865149.860   109647172.39807  20865145.160    85439372.36248
  20540053.580   107938733.71107  20540053.140    84108111.91349
 15 03 02 01 56  0.0000000  0  7G04G16G18G19G21G22G27
  22892188.460   120299289.14805  22892188.040    93739715.41145
  20865652.360   109649750.66007  20865649.780    85441344.03348
  22280802.400   117086490.90306  22280799.440    91236255.27847
  21678875.840   113923277.75606  21678871.800    88771370.05748
  24344849.260   127933044.68603  24344847.720    99688081.69244
  20861998.140   109630610.46807  20861993.500    85426466.97348
  20535724.120   107915982.32608  20535723.700    84090383.56149
 15 03 02 01 56 30.0000000  0  7G04G16G18G19G21G22G27
  22876606.480   120217404.83305  22876605.860    93675909.52646
  20875090.220   109699346.73607  20875087.620    85479990.30948
  22290139.660   117135558.69606  22290136.640    91274489.92046
  21667904.100   113865620.60606  21667900.020    88726442.40948
  24358873.240   128006738.88604  24358871.080    99745505.75544
  20858947.520   109614579.36207  20858942.860    85413975.21048
  20531445.780   107893499.58408  20531445.360    84072864.54249
 15 03 02 01 57  0.0000000  0  6G04G16G18G19G22G27
  22861068.320   120135750.97805  22861067.580    93612283.17645
  20884627.160   109749463.26807  20884624.480    85519042.14148
  22299557.260   117185048.42106  22299554.200    91313053.34847
  21656965.440   113808137.63506  21656961.340    88681650.49048
  20855999.300   109599085.84107  20855994.560    85401902.34748
  20527219.940   107871292.84807  20527219.520    84055560.59149
 15 03 02 01 57 30.0000000  0  7G04G16G18G19G21G22G27
  22845572.560   120054319.98605  22845571.720    93548830.47546
  20894261.220   109800090.29307  20894258.460    85558491.75448
  22309053.220   117234950.47106  22309050.240    91351938.05246
  21646058.680   113750822.09306  21646054.480    88636989.03348
  24386918.020   128154119.80304  24386916.200    99860341.52545
  20853151.820   109584122.02807  20853147.060    85390242.24948
  20523045.300   107849355.24807  20523044.940    84038466.35549
 15 03 02 01 58  0.0000000  0  7G04G16G18G19G21G22G27
  22830120.520   119973119.38305  22830119.720    93485557.32346
  20903993.620   109851234.09307  20903990.800    85598344.04748
  22318628.680   117285269.75306  22318625.780    91391147.88246
  21635185.160   113693681.62606  21635180.980    88592464.00948
  24400938.400   128227796.91604  24400935.860    99917752.22045
  20850406.520   109569695.53607  20850401.760    85379000.83148
  20518923.400   107827694.48007  20518923.060    84021587.82949
 15 03 02 01 58 30.0000000  0  7G04G16G18G19G21G22G27
  22814711.780   119892146.10505  22814710.960    93422461.27546
  20913823.240   109902889.41507  20913820.480    85638594.93548
  22328282.680   117336001.63706  22328279.800    91430679.22146
  21624344.540   113636713.89906  21624340.400    88548073.58148
  24414957.100   128301466.07904  24414954.260    99975156.74846
  20847762.860   109555802.84607  20847758.040    85368175.37148
  20514853.840   107806308.74507  20514853.480    84004923.61449
 15 03 02 01 59  0.0000000  0  6G04G16G18G19G22G27
  22799347.000   119811404.31105  22799346.280    93359545.64046
  20923750.640   109955058.40207  20923747.920    85679246.07348
  22338015.480   117387147.76006  22338012.640    91470533.33846
  21613537.640   113579923.39006  21613533.560    88503821.24748
  20845221.600   109542448.12007  20845216.720    85357769.09948
  20510837.520   107785202.61308  20510837.140    83988477.27749
 15 03 02 01 59 30.0000000  0  7G04G16G18G19G21G22G27
  22784023.680   119730880.14105  22784023.040    93296799.57746
  20933772.880   110007725.20007  20933770.100    85720285.11848
  22347824.060   117438692.26406  22347821.200    91510697.89147
  21602761.920   113523296.49106  21602757.820    88459696.39148
  24442988.920   128448772.56603  24442985.440   100089935.00841
  20842779.920   109529616.81007  20842775.040    85347770.68848
  20506871.860   107764362.78407  20506871.460    83972238.44549
 15 03 02 02 00  0.0000000  0  6G04G16G18G19G22G27
  22768747.260   119650602.98505  22768746.780    93234245.99145
  20943895.100   110060917.35007  20943892.240    85761733.53248
  22357713.660   117490662.13106  22357710.720    91551193.89146
  21592023.080   113466863.25906  21592018.860    88415722.45248
  20840443.340   109517338.45707  20840438.560    85338203.14848
  20502962.580   107743819.27908  20502962.180    83956230.52049
 15 03 02 02 00 30.0000000  0  6G04G16G18G19G22G27
  22753510.180   119570532.21705  22753509.780    93171853.21446
  20954109.180   110114592.39707  20954106.240    85803558.23048
  22367676.080   117543014.74206  22367673.160    91591988.13346
  21581313.460   113410583.78707  21581309.160    88371868.31948
  20838204.220   109505572.13307  20838199.460    85329034.59448
  20499102.100   107723532.34908  20499101.700    83940422.51649
 15 03 02 02 01  0.0000000  0  6G04G16G18G19G22G27
  22738319.640   119490705.13005  22738319.060    93109650.31445
  20964421.800   110168785.55507  20964418.820    85845786.64648
  22377718.000   117595785.05606  22377715.120    91633107.86146
  21570640.240   113354495.69506  21570635.960    88328163.32948
  20836069.580   109494354.89407  20836064.820    85320293.89748
  20495297.660   107703539.85308  20495297.260    83924843.94749
 15 03 02 02 01 30.0000000  0  7G04G16G18G19G21G22G27
  22723170.920   119411097.30505  22723170.040    93047618.28746
  20974827.920   110223470.15607  20974824.940    85888398.00348
  22387834.300   117648946.30906  22387831.380    91674532.22046
  21559998.860   113298574.94206  21559994.600    88284588.72248
  24499027.280   128743257.28103  24499024.120   100319413.56045
  20834034.680   109483661.63307  20834029.940    85311961.49648
  20491544.700   107683817.86508  20491544.280    83909476.15649
 15 03 02 02 02  0.0000000  0  7G04G16G18G19G21G22G27
  22708067.880   119331729.21105  22708066.740    92985773.05046
  20985330.980   110278664.52607  20985328.080    85931406.59148
  22398028.520   117702517.02106  22398025.500    91716275.63446
  21549393.440   113242842.86307  21549389.120    88241161.14148
  24513031.240   128816850.06403  24513028.560   100376758.59644
  20832103.440   109473513.19807  20832098.780    85304053.63048
  20487847.260   107664387.79708  20487846.840    83894335.84249
 15 03 02 02 02 30.0000000  0  7G04G16G18G19G21G22G27
  22693008.640   119252591.97405  22693007.380    92924107.72245
  20995929.040   110334357.89707  20995926.180    85974804.00848
  22408298.320   117756485.56206  22408295.300    91758329.05346
  21538822.340   113187291.23107  21538817.980    88197874.15948
  24527032.840   128890429.37303  24527030.440   100434093.10041
  20830274.100   109463899.99607  20830269.480    85296562.83248
  20484203.860   107645241.41708  20484203.380    83879416.57649
 15 03 02 02 03  0.0000000  0  6G04G16G18G19G22G27
  22677994.220   119173691.23705  22677993.100    92862626.67746
  21006622.800   110390554.24007  21006620.020    86018593.34848
  22418644.600   117810856.03506  22418641.600    91800695.64746
  21528286.660   113131925.86707  21528282.300    88154732.31748
  20828547.760   109454827.71607  20828543.080    85289493.52948
  20480615.660   107626385.07008  20480615.140    83864723.31949
 15 03 02 02 03 30.0000000  0  6G04G16G18G19G22G27
  22663023.100   119095018.11505  22663022.160    92801322.97246
  21017410.200   110447242.17807  21017407.400    86062765.75548
  22429065.240   117865617.17306  22429062.320    91843366.66146
  21517784.800   113076738.29907  21517780.440    88111729.02548
  20826922.500   109446286.37507  20826917.680    85282837.95548
  20477081.020   107607810.35108  20477080.480    83850249.51249
 15 03 02 02 04  0.0000000  0  7G04G16G18G19G22G27G32
  22648096.160   119016576.73305  22648095.360    92740199.86346
  21028291.460   110504423.71407  21028288.700    86107322.78448
  22439560.600   117920770.45506  22439557.680    91886343.24446
  21507317.820   113021733.93007  21507313.440    88068868.48848
  20825399.100   109438280.43407  20825394.140    85276599.57048
  20473600.840   107589522.30208  20473600.380    83835999.07849
  24322793.540   127817142.48703                                
 15 03 02 02 04 30.0000000  0  8G04G11G16G18G19G22G27G32
  22633211.640   118938358.07905  22633210.680    92679250.29146
  24256072.180   127466521.29503  24256069.880    99324548.00545
  21039264.600   110562087.67307  21039261.800    86152255.72048
  22450128.600   117976305.01806  22450125.580    91929616.93047
  21496883.980   112966903.97507  21496879.680    88026143.86448
  20823975.700   109430800.31107  20823970.680    85270770.91348
  20470173.720   107571512.62608  20470173.240    83821965.56049
  24300188.660   127698357.10604  24300191.820    99505225.20245
 15 03 02 02 05  0.0000000  0  8G04G11G16G18G19G22G27G32
  22618373.180   118860381.86905  22618372.140    92618489.64046
  24239095.700   127377308.86503  24239093.560    99255031.85843
  21050332.980   110620252.01307  21050330.120    86197578.57348
  22460772.460   118032238.39606  22460769.320    91973201.38146
  21486487.220   112912268.78207  21486482.960    87983570.98548
  20822655.980   109423865.15407  20822650.940    85265366.90748
  20466803.480   107553801.74008  20466802.980    83808164.86949
  24277593.580   127579621.75203  24277596.820    99412704.47346
 15 03 02 02 05 30.0000000  0  8G04G11G16G18G19G22G27G32
  22603580.280   118782644.40505  22603579.060    92557915.02346
  24222136.720   127288188.82004  24222134.880    99185587.72944
  21061495.380   110678910.70307  21061492.540    86243286.62448
  22471490.900   118088564.30706  22471487.780    92017091.69745
  21476127.020   112857825.51907  21476122.720    87941147.67348
  20821439.240   109417471.26107  20821434.240    85260384.66248
  20463489.480   107536386.65008  20463488.960    83794594.66749
  24255007.760   127460935.02604  24255011.580    99320221.74446
 15 03 02 02 06  0.0000000  0  7G04G11G16G18G19G22G27
  22588832.960   118705147.35605  22588831.940    92497527.78746
  24205195.600   127199162.74703  24205193.740    99116216.77543
  21072751.640   110738062.86707  21072748.860    86289379.20748
  22482283.920   118145282.49405  22482280.900    92061287.68046
  21465803.660   112803576.27907  21465799.460    87898875.55148
  20820325.680   109411619.75507  20820320.780    85255825.05848
  20460232.200   107519269.79808  20460231.720    83781256.85949
 15 03 02 02 06 30.0000000  0  8G04G11G16G18G19G22G27G32
  22574127.240   118627869.09105  22574126.400    92437310.98146
  24188268.480   127110209.07703  24188266.380    99046902.28345
  21084097.360   110797685.08607  21084094.620    86335838.06548
  22493146.940   118202368.68506  22493144.020    92105770.42746
  21455513.280   112749500.10407  21455509.140    87856738.27348
  20819311.080   109406288.27507  20819306.260    85251670.66148
  20457027.700   107502430.21808  20457027.280    83768135.10449
  24209862.660   127223687.47703  24209866.260    99135358.83746
 15 03 02 02 07  0.0000000  0  7G04G16G18G19G22G27G32
  22559469.020   118550839.64805  22559468.140    92377288.04546
  21095537.880   110857805.67107  21095535.200    86382685.26248
  22504085.400   118259851.01606  22504082.580    92150561.86046
  21445261.660   112695627.62707  21445257.600    87814759.72648
  20818401.100   109401506.21607  20818396.260    85247944.39048
  20453881.840   107485898.72308  20453881.480    83755253.41549
  24187305.640   127105151.44503  24187309.320    99042993.53145
 15 03 02 02 07 30.0000000  0  6G04G16G18G19G22G27
  22544857.220   118474053.71105  22544856.260    92317454.87446
  21107071.740   110918416.90107  21107069.120    86429914.77148
  22515097.940   118317722.14406  22515095.100    92195656.26246
  21435048.020   112641954.45807  21435044.000    87772936.48948
  20817594.680   109397268.45307  20817589.800    85244642.25148
  20450793.820   107469670.89208  20450793.420    83742608.34849
 15 03 02 02 08  0.0000000  0  8G04G11G16G18G19G22G27G32
  22530285.740   118397479.89905  22530284.700    92257787.01946
  24137594.020   126843911.03304  24137591.860    98839406.56545
  21118692.560   110979484.76907  21118689.960    86477500.11148
  22526178.000   118375948.01906  22526175.080    92241027.06546
  21424866.460   112588450.09607  21424862.460    87731244.78948
  20816885.740   109393542.91607  20816880.800    85241739.24648
  20447757.740   107453716.02908  20447757.320    83730175.98649
  24142221.540   126868231.52603  24142223.620    98858369.08145
 15 03 02 02 08 30.0000000  0  7G04G11G16G18G19G22G27
  22515762.740   118321160.91605  22515761.660    92198317.71546
  24120738.180   126755330.40004  24120736.220    98770382.75745
  21130408.080   111041050.05807  21130405.500    86525473.04948
  22537333.140   118434568.89606  22537330.240    92286705.67246
  21414725.180   112535157.09707  21414721.100    87689717.78348
  20816282.200   109390371.29207  20816277.220    85239267.85948
  20444781.820   107438077.22008  20444781.360    83717989.89249
 15 03 02 02 09  0.0000000  0  7G04G11G16G18G19G22G27
  22501282.840   118245068.45705  22501281.760    92139024.93546
  24103897.080   126666834.05714  24103895.320    98701421.53155
  21142212.480   111103082.41507  21142209.920    86573809.93648
  22548557.720   118493554.85906  22548554.880    92332668.74847
  21404619.000   112482048.46607  21404614.800    87648334.44048
  20815778.600   109387725.19507  20815773.720    85237205.97348
  20441860.860   107422727.39208  20441860.380    83706028.98449
 15 03 02 02 09 30.0000000  0  6G04G16G18G19G22G27
  22486852.280   118169235.75705  22486851.220    92079934.54246
  21154111.640   111165612.60007  21154109.060    86622534.73948
  22559857.620   118552936.28106  22559854.840    92378939.99547
  21394554.260   112429157.99507  21394550.040    87607121.09748
  20815381.320   109385637.33807  20815376.420    85235579.08248
  20439001.340   107407700.30808  20439000.820    83694319.56349
 15 03 02 02 10  0.0000000  0  8G04G11G16G18G19G22G27G32
  22472460.640   118093607.97705  22472459.700    92021003.83546
  24070269.980   126490114.25904  24070267.660    98563716.96946
  21166094.680   111228583.69007  21166092.100    86671603.10248
  22571221.980   118612656.25406  22571219.200    92425475.03046
  21384520.700   112376431.55207  21384516.540    87566035.55748
  20815079.720   109384052.24407  20815074.740    85234343.95448
  20436192.920   107392942.01908  20436192.400    83682819.59049
  24052196.420   126395139.65103  24052198.860    98489734.62144
 15 03 02 02 10 30.0000000  0  8G04G11G16G18G19G22G27G32
  22458118.300   118018239.26305  22458117.460    91962274.97246
  24053482.760   126401898.02604  24053480.460    98494977.08244
  21178171.500   111292047.34007  21178168.880    86721055.28348
  22582660.600   118672766.83706  22582657.840    92472314.44946
  21374528.860   112323924.42007  21374524.800    87525120.90848
  20814883.920   109383023.76207  20814878.960    85233542.55648
  20433446.080   107378507.40107  20433445.600    83671571.83349
  24029723.240   126277044.25003  24029725.860    98397712.57346
 15 03 02 02 11  0.0000000  0  9G04G11G16G18G19G21G22G27G32
  22443821.080   117943106.96205  22443820.320    91903730.35746
  24036712.860   126313771.69804  24036710.160    98426307.28645
  21190337.240   111355978.87707  21190334.660    86770872.04848
  22594168.780   118733242.57106  22594165.940    92519438.39446
  21364574.640   112271614.16507  21364570.420    87484359.67348
  24764586.280   130138775.51103  24764582.680   101406827.60743
  20814789.520   109382528.28307  20814784.660    85233156.47048
  20430756.660   107364374.45608  20430756.220    83660559.14349
  24007263.500   126159020.04204  24007266.180    98305745.97745
 15 03 02 02 11 30.0000000  0  7G04G11G16G18G19G22G27
  22429569.740   117868215.56705  22429568.980    91845373.47146
  24019960.760   126225739.80404  24019958.120    98357711.09944
  21202592.400   111420380.49007  21202589.860    86821055.10948
  22605746.960   118794086.05706  22605744.020    92566848.90445
  21354658.900   112219506.23707  21354654.520    87443756.10748
  20814797.440   109382569.51707  20814792.540    85233188.61148
  20428125.640   107350548.52408  20428125.260    83649785.68949
 15 03 02 02 12  0.0000000  0  8G04G11G16G18G19G22G27G32
  22415362.720   117793556.87605  22415361.860    91787197.89346
  24003225.360   126137794.51804  24003222.620    98289182.32944
  21214935.060   111485241.88407  21214932.560    86871596.43548
  22617393.180   118855286.79106  22617390.120    92614537.79046
  21344780.180   112167593.19507  21344775.740    87403304.39248
  20814905.920   109383139.01007  20814900.980    85233632.38448
  20425551.700   107337022.47508  20425551.360    83639245.90249
  23962387.720   125923202.97904  23962390.100    98121980.58044
 15 03 02 02 12 30.0000000  0  7G04G11G16G18G19G22G27
  22401204.180   117719153.18905  22401203.160    91729221.02846
  23986510.520   126049957.65404  23986507.840    98220738.04444
  21227368.900   111550582.20207  21227366.380    86922510.95248
  22629111.100   118916864.72706  22629107.960    92662520.59546
  21334942.900   112115898.13707  21334938.480    87363022.53848
  20815118.920   109384258.21207  20815113.980    85234504.50448
  20423039.180   107323819.04608  20423038.820    83628957.51249
 15 03 02 02 13  0.0000000  0  7G04G11G16G18G19G22G27
  22387089.440   117644979.54805  22387088.400    91671423.41546
  23969811.780   125962204.89104  23969809.300    98152359.35044
  21239888.920   111616375.37207  21239886.420    86973778.34348
  22640895.520   118978792.74706  22640892.500    92710776.21246
  21325142.580   112064396.95207  21325138.160    87322891.75448
  20815431.640   109385902.08407  20815426.760    85235785.45148
  20420583.520   107310914.29008  20420583.140    83618901.86249
 15 03 02 02 13 30.0000000  0  8G04G11G16G18G19G22G27G32
  22373020.500   117571047.38405  22373019.640    91613813.96346
  23953131.140   125874547.11304  23953128.680    98084054.63541
  21252496.680   111682629.64307  21252494.220    87025405.03148
  22652748.380   119041079.79506  22652745.400    92759311.57246
  21315381.440   112013101.71607  21315376.980    87282921.44148
  20815846.120   109388080.63007  20815841.280    85237483.02848
  20418186.960   107298320.19208  20418186.560    83609088.27849
  23895195.380   125570097.39504  23895199.880    97846845.13245
 15 03 02 02 14  0.0000000  0  7G04G11G16G18G19G22G27
  22358998.840   117497364.20705  22358998.220    91556398.52646
  23936469.780   125786992.36604  23936467.640    98015830.18146
  21265193.300   111749350.77107  21265190.860    87077395.50648
  22664670.640   119103731.16806  22664667.600    92808130.82646
  21305661.120   111962020.94707  21305656.620    87243118.25348
  20816363.800   109390801.06507  20816358.960    85239602.85748
  20415851.140   107286045.25208  20415850.720    83599523.38949
 15 03 02 02 14 30.0000000  0  7G04G11G16G18G19G22G27
  22345021.860   117423915.23505  22345021.360    91499165.58446
  23919825.140   125699525.48504  23919823.440    97947674.21146
  21277975.480   111816521.46707  21277973.020    87129736.29848
  22676658.900   119166729.72906  22676655.900    92857220.61146
  21295978.920   111911140.45407  21295974.340    87203471.12648
  20816981.700   109394047.74107  20816976.800    85242132.74948
  20413573.340   107274075.32408  20413572.920    83590196.17349
 15 03 02 02 15  0.0000000  0  8G04G11G16G18G19G22G27G32
  22331090.700   117350706.53705  22331090.240    91442119.88947
  23903198.400   125612152.95804  23903197.060    97879591.78445
  21290843.740   111884144.94507  21290841.320    87182429.89948
  22688714.020   119230079.64406  22688711.000    92906584.17346
  21286336.160   111860467.30807  21286331.540    87163985.56248
  20817700.740   109397826.29607  20817695.880    85245077.08449
  20411354.940   107262417.44808  20411354.500    83581112.11649
  23828159.300   125217819.38704  23828161.820    97572334.90746
 15 03 02 02 15 30.0000000  0  8G04G11G16G18G19G22G27G32
  22317206.760   117277745.43105  22317206.140    91385267.08846
  23886591.080   125524881.89304  23886589.920    97811588.35745
  21303799.340   111952227.01407  21303796.940    87235480.84648
  22700836.820   119293785.38006  22700833.780    92956225.01146
  21276734.360   111810009.62907  21276729.800    87124667.88848
  20818522.080   109402143.05307  20818517.360    85248440.79848
  20409197.420   107251079.61508  20409196.960    83572277.43649
  23805850.860   125100588.52904  23805852.880    97480986.50845
 15 03 02 02 16  0.0000000  0  8G04G11G16G18G19G22G27G32
  22303369.180   117205028.15205  22303368.460    91328604.31346
  23870002.440   125437708.95804  23870001.280    97743661.47841
  21316840.980   112020760.82207  21316838.540    87288883.79448
  22713026.200   119357840.99406  22713023.160    93006138.49046
  21267172.920   111759764.32807  21267168.460    87085515.71748
  20819444.960   109406993.43507  20819440.320    85252220.32348
  20407100.280   107240058.98808  20407099.820    83563689.93349
  23783561.760   124983460.47604  23783563.860    97389718.14146
 15 03 02 02 16 30.0000000  0  8G04G11G16G18G19G22G27G32
  22289577.380   117132552.15905  22289576.600    91272129.55046
  23853432.180   125350631.69304  23853430.540    97675809.09345
  21329967.660   112089741.83907  21329965.200    87342635.21348
  22725281.260   119422242.00006  22725278.280    93056321.09545
  21257651.620   111709730.17907  21257647.300    87046528.07148
  20820468.940   109412374.25507  20820464.200    85256413.18448
  20405063.220   107229353.95608  20405062.740    83555348.34949
  23761292.320   124866435.26904  23761294.320    97298529.91744
 15 03 02 02 17  0.0000000  0  8G04G11G16G18G19G22G27G32
  22275831.880   117060319.30005  22275831.000    91215844.24046
  23836880.620   125263652.01204  23836878.720    97608032.77145
  21343179.300   112159169.77507  21343176.920    87396734.89448
  22737601.880   119486987.62405  22737598.920    93106772.23846
  21248171.040   111659909.56807  21248166.760    87007706.83648
  20821594.100   109418286.83407  20821589.260    85261020.40748
  20403086.680   107218967.09708  20403086.200    83547254.69349
  23739043.200   124749516.95404  23739045.200    97207425.05246
 15 03 02 02 17 30.0000000  0  8G04G11G16G18G19G22G27G32
  22262132.920   116988331.11305  22262132.080    91159749.57946
  23820347.680   125176771.44904  23820345.920    97540333.64545
  21356475.740   112229042.92307  21356473.340    87451181.48848
  22749987.900   119552077.19206  22749985.020    93157491.38846
  21238731.640   111610305.15507  21238727.400    86969054.06148
  20822820.320   109424731.36807  20822815.580    85266042.13248
  20401171.120   107208900.73008  20401170.620    83539410.77449
  23716815.340   124632709.65204  23716817.280    97116406.62344
 15 03 02 02 18  0.0000000  0  8G04G11G16G18G19G22G27G32
  22248480.480   116916586.74406  22248479.640    91103844.90546
  23803833.380   125089989.22504  23803832.000    97472711.24446
  21369856.440   112299358.95507  21369854.040    87505973.18548
  22762438.900   119617507.40206  22762436.040    93208475.96146
  21229333.300   111560916.58707  21229329.060    86930569.47548
  20824147.540   109431706.96807  20824143.020    85271477.65848
  20399316.540   107199154.76408  20399316.000    83531816.51649
  23694608.960   124516014.77404  23694610.760    97025475.82844
 15 03 02 02 18 30.0000000  0  8G04G11G16G18G19G22G27G32
  22234873.840   116845083.41006  22234872.980    91048128.05446
  23787337.780   125003302.79304  23787336.200    97405163.42644
  21383320.320   112370111.98307  21383317.940    87561105.40648
  22774953.880   119683273.55306  22774951.020    93259722.32946
  21219975.680   111511742.29807  21219971.500    86892251.85748
  20825575.240   109439209.48707  20825570.760    85277323.79048
  20397522.540   107189727.34108  20397522.020    83524470.47349
  23672423.940   124399432.07704  23672425.500    96934632.40844
 15 03 02 02 19  0.0000000  0  8G04G11G16G18G19G22G27G32
  22221315.080   116773831.29805  22221314.120    90992606.94746
  23770861.860   124916722.10604  23770860.300    97337698.09144
  21396869.000   112441310.44307  21396866.580    87616584.70648
  22787534.140   119749383.10805  22787531.280    93311236.26846
  21210660.960   111462793.22207  21210656.760    86854109.72848
  20827105.220   109447248.52807  20827100.500    85283587.98748
  20395791.240   107180629.42408  20395790.740    83517381.18249
  23650262.680   124282974.38204  23650264.140    96843886.43245
 15 03 02 02 19 30.0000000  0  8G04G11G16G18G19G22G27G32
  22207802.580   116702822.54505  22207801.640    90937275.47146
  23754404.800   124830240.03704  23754403.240    97270309.51345
  21410500.420   112512943.64507  21410497.940    87672402.77048
  22800177.820   119815826.16305  22800174.960    93363010.07146
  21201387.780   111414062.27407  21201383.520    86816137.56748
  20828735.360   109455814.82407  20828730.540    85290263.04248
  20394121.320   107171853.96208  20394120.820    83510543.15549
  23628123.980   124166636.07904  23628125.340    96753233.51046
 15 03 02 02 20  0.0000000  0  8G04G11G16G18G19G22G27G32
  22194337.020   116632060.20305  22194335.940    90882136.02446
  23737967.100   124743859.29604  23737965.560    97202999.85941
  21424214.640   112585012.01607  21424212.120    87728559.92648
  22812885.000   119882603.29205  22812882.140    93415044.19146
  21192156.940   111365553.83807  21192152.620    86778338.79848
  20830466.240   109464910.94607  20830461.380    85297350.93548
  20392513.480   107163404.84708  20392513.020    83503959.42749
  23606008.960   124050422.68004  23606010.460    96662677.82844
 15 03 02 02 20 30.0000000  0  8G04G11G16G18G19G22G27G32
  22180918.240   116561543.75406  22180917.060    90827188.16346
  23721548.520   124657579.57004  23721546.660    97135768.91341
  21438011.120   112657512.97307  21438008.660    87785054.16248
  22825655.120   119949711.47405  22825652.300    93467336.29846
  21182968.520   111317268.26207  21182964.180    86740713.67448
  20832297.680   109474535.60907  20832292.880    85304850.67149
  20390967.880   107155282.51208  20390967.420    83497630.33749
  23583918.340   123934336.43704  23583919.800    96572221.30646
 15 03 02 02 21  0.0000000  0  8G04G11G16G18G19G22G27G32
  22167545.700   116491271.01806  22167544.620    90772430.22246
  23705149.140   124571399.15604  23705146.760    97068615.39144
  21451889.020   112730441.58807  21451886.520    87841881.64248
  22838487.500   120017146.84505  22838484.840    93519883.35146
  21173822.240   111269204.13107  21173817.860    86703261.11148
  20834229.300   109484685.64507  20834224.420    85312759.79648
  20389484.180   107147485.56108  20389483.680    83491554.79249
  23561851.940   123818377.45804  23561853.140    96481863.91045
 15 03 02 02 21 30.0000000  0  8G04G11G16G18G19G22G27G32
  22154220.700   116421247.99406  22154219.660    90717866.83847
  23688769.680   124485324.11604  23688767.280    97001543.99345
  21465849.020   112803801.29207  21465846.420    87899045.03848
  22851382.880   120084912.92105  22851380.220    93572688.10646
  21164719.500   111221368.65507  21164715.100    86665986.72848
  20836261.940   109495366.33607  20836256.900    85321082.42948
  20388063.740   107140020.90908  20388063.200    83485738.18149
  23539811.220   123702554.43004  23539812.520    96391612.45944
 15 03 02 02 22  0.0000000  0  8G04G11G16G18G19G22G27G32
  22140940.440   116351460.28505  22140939.380    90663486.82847
  23672407.300   124399340.00604  23672404.900    96934543.43944
  21479887.820   112877575.59507  21479885.200    87956531.49348
  22864338.040   120152992.50505  22864335.240    93625737.14045
  21155657.580   111173747.91007  21155653.200    86628879.67248
  20838392.400   109506561.96807  20838387.300    85329806.31848
  20386703.880   107132874.73408  20386703.320    83480169.73249
  23517794.080   123586855.12804  23517795.440    96301457.42645
 15 03 02 02 22 30.0000000  0  8G04G11G16G18G19G22G27G32
  22127710.820   116281938.64006  22127709.800    90609314.15947
  23656068.160   124313477.89004  23656066.000    96867637.90244
  21494010.860   112951792.54207  21494008.240    88014362.86648
  22877358.420   120221414.39405  22877355.500    93679052.89546
  21146642.560   111126373.94607  21146638.280    86591964.90448
  20840626.360   109518302.57707  20840621.400    85338954.84748
  20385410.660   107126078.80108  20385410.080    83474874.20049
  23495806.860   123471312.86604  23495808.340    96211424.76445
 15 03 02 02 23  0.0000000  0  8G04G11G16G18G19G22G27G32
  22114526.820   116212656.55006  22114525.880    90555328.13346
  23639747.200   124227711.45404  23639745.600    96800806.93046
  21508212.520   113026422.78007  21508209.920    88072516.27447
  22890438.460   120290150.06105  22890435.500    93732613.16846
  21137669.700   111079221.39807  21137665.420    86555222.66148
  20842958.940   109530560.68807  20842954.020    85348506.62648
  20384179.240   107119607.66908  20384178.680    83469831.75149
  23473845.060   123355904.11804  23473846.540    96121496.09545
 15 03 02 02 23 30.0000000  0  8G04G11G16G18G19G22G27G32
  22101389.380   116143618.88906  22101388.440    90501532.58046
  23623445.540   124142045.68404  23623444.020    96734054.44345
  21522493.440   113101469.40307  21522490.880    88130994.14548
  22903578.580   120359201.43405  22903575.520    93786419.42546
  21128740.120   111032295.88907  21128735.780    86518657.34148
  20845390.800   109543339.85407  20845385.900    85358464.43648
  20383010.600   107113466.57608  20383010.060    83465046.49149
  23451910.220   123240635.66904  23451911.480    96031676.78646
 15 03 02 02 24  0.0000000  0  8G04G11G16G18G19G22G27G32
  22088299.340   116074829.82606  22088298.240    90447930.74146
  23607163.860   124056484.89204  23607162.360    96667383.74944
  21536853.900   113176934.01607  21536851.340    88189797.71648
  22916779.140   120428570.90805  22916776.160    93840473.54846
  21119854.780   110985602.77307  21119850.320    86482273.10348
  20847922.420   109556643.41807  20847917.580    85368830.85549
  20381905.760   107107660.95008  20381905.280    83460522.63049
  23430003.280   123125514.63204  23430004.460    95941972.35245
 15 03 02 02 24 30.0000000  0  8G04G11G16G18G19G22G27G32
  22075257.080   116006291.91406  22075255.860    90394524.60046
  23590902.600   123971031.52204  23590901.380    96600796.74946
  21551293.780   113252816.04807  21551291.260    88248926.55348
  22930040.100   120498258.47805  22930037.360    93894775.52946
  21111014.180   110939145.34307  21111009.740    86446072.51548
  20850554.020   109570473.17907  20850549.320    85379607.29248
  20380865.340   107102194.02608  20380864.960    83456262.69149
  23408125.280   123010545.83804  23408126.420    95852386.51144
 15 03 02 02 25  0.0000000  0  8G04G11G16G18G19G22G27G32
  22062261.440   115937999.87706  22062260.320    90341310.05746
  23574660.800   123885681.09904  23574659.500    96534289.95846
  21565811.700   113329107.78307  21565809.080    88308374.63648
  22943360.280   120568256.72405  22943357.580    93949319.63245
  21102217.720   110892919.69707  21102213.300    86410052.54148
  20853284.580   109584823.08307  20853279.940    85390789.03648
  20379888.600   107097061.40708  20379888.280    83452263.24649
  23386275.760   122895726.74004  23386276.720    95762917.31446
 15 03 02 02 25 30.0000000  0  8G04G11G16G18G19G22G27G32
  22049312.980   115869955.77306  22049311.980    90288288.70146
  23558439.080   123800435.60904  23558437.660    96467864.95644
  21580407.520   113405809.09007  21580404.840    88368141.86848
  22956739.660   120638565.15005  22956736.740    94004105.42245
  21093465.920   110846928.78307  21093461.500    86374215.45948
  20856114.460   109599693.68607  20856109.600    85402376.53148
  20378976.080   107092265.94808  20378975.780    83448526.51849
  23364455.600   122781061.81004  23364456.440    95673568.28944
 15 03 02 02 26  0.0000000  0  8G04G11G16G18G19G22G27G32
  22036412.020   115802161.10706  22036411.080    90235461.72046
  23542237.700   123715296.67704  23542235.880    96401522.97244
  21595081.060   113482919.15007  21595078.420    88428227.60848
  22970177.960   120709182.99205  22970174.700    94059132.32745
  21084759.220   110801175.03407  21084754.820    86338563.18848
  20859043.540   109615085.33507  20859038.500    85414370.04048
  20378128.200   107087810.04808  20378127.860    83445054.38749
  23342665.520   122666555.12904  23342666.300    95584342.53345
 15 03 02 02 26 30.0000000  0  8G04G11G16G18G19G22G27G32
  22023558.960   115734617.40506  22023557.920    90182830.29146
  23526056.820   123630266.16504  23526055.160    96335265.51446
  21609832.080   113560436.41007  21609829.500    88488630.65548
  22983675.040   120780109.75405  22983671.500    94114399.97046
  21076098.160   110755661.12107  21076093.800    86303097.80248
  20862071.800   109630998.76507  20862066.760    85426770.11948
  20377345.440   107083696.16708  20377345.020    83441848.75949
  23320906.240   122552210.91704  23320907.160    95495243.37645
 15 03 02 02 27  0.0000000  0  8G04G11G16G18G19G22G27G32
  22010753.140   115667321.86306  22010751.960    90130392.22646
  23509896.280   123545341.46504  23509894.320    96269090.45246
  21624659.680   113638355.97107  21624657.120    88549347.18047
  22997229.780   120851340.22205  22997226.160    94169904.24445
  21067482.420   110710385.28607  21067478.100    86267817.93348
  20865198.420   109647429.82607  20865193.540    85439573.54448
  20376627.340   107079922.33208  20376626.880    83438908.10249
  23299177.900   122438028.78904  23299178.760    95406270.52345
 15 03 02 02 27 30.0000000  0  8G04G11G16G18G19G22G27G32
  21997995.100   115600277.42706  21997993.760    90078149.85347
  23493756.360   123460525.71804  23493754.120    96203000.28245
  21639563.780   113716677.61607  21639561.260    88610377.01348
  23010842.320   120922874.96005  23010838.780    94225645.58346
  21058912.740   110665351.22207  21058908.400    86232726.46048
  20868424.020   109664380.67907  20868419.220    85452782.00048
  20375974.540   107076492.03108  20375974.120    83436235.13649
  23277481.460   122324014.00004  23277482.220    95317428.03946
 15 03 02 02 28  0.0000000  0  8G04G11G16G18G19G22G27G32
  21985284.540   115533482.64406  21985283.040    90026102.00547
  23477636.820   123375817.51804  23477634.600    96136993.96245
  21654543.820   113795398.00807  21654541.260    88671717.55448
  23024512.060   120994710.18905  23024508.680    94281621.08246
  21050389.060   110620558.98407  21050384.700    86197823.41748
  20871748.200   109681848.80507  20871743.260    85466393.53848
  20375386.980   107073404.96308  20375386.660    83433829.63549
  23255817.280   122210168.18604  23255817.780    95228717.24746
 15 03 02 02 28 30.0000000  0  8G04G11G16G18G19G22G27G32
  21972621.220   115466936.55106  21972619.680    89974247.93947
  23461537.920   123291216.69404  23461535.600    96071071.28346
  21669598.940   113874513.27107  21669596.420    88733365.79848
  23038238.400   121066842.89505  23038235.200    94337828.36346
  21041911.400   110576008.83407  21041907.100    86163109.02848
  20875170.400   109699832.04407  20875165.300    85480406.46548
  20374864.740   107070661.11508  20374864.520    83431691.57549
  23234185.480   122096492.69904  23234185.880    95140139.15045
 15 03 02 02 29  0.0000000  0  8G04G11G16G18G19G22G27G32
  21960005.560   115400641.09906  21960004.040    89922589.17746
  23445459.680   123206724.90204  23445457.480    96005233.56444
  21684729.020   113954022.34907  21684726.520    88795320.90847
  23052021.280   121139272.20205  23052018.100    94394266.79746
  21033480.360   110531703.30707  21033476.020    86128585.25148
  20878690.580   109718330.78307  20878685.480    85494821.07148
  20374408.320   107068262.90308  20374408.160    83429822.83949
  23212586.820   121982991.78704  23212587.260    95051697.10546
 15 03 02 02 29 30.0000000  0  8G04G11G16G18G19G22G27G32
  21947437.640   115334596.92506  21947436.220    89871126.19647
  23429402.560   123122343.42304  23429400.320    95939481.79344
  21699933.720   114033923.61907  21699931.260    88857581.61547
  23065860.460   121211997.38405  23065857.260    94450935.77245
  21025096.180   110487644.40907  21025091.920    86094253.65048
  20882308.740   109737344.90407  20882303.760    85509637.27048
  20374018.120   107066212.34908  20374017.940    83428225.00049
  23191022.020   121869669.30604  23191022.520    94963394.06646
 15 03 02 02 30  0.0000000  0  8G04G11G16G18G19G22G27G32
  21934917.880   115268805.55706  21934916.520    89819860.23246
  23413366.500   123038073.74804  23413364.420    95873817.13345
  21715212.900   114114216.15707  21715210.440    88920147.20447
  23079755.520   121285016.36805  23079752.260    94507833.68945
  21016759.440   110443834.59507  21016755.280    86060116.14048
  20886025.160   109756874.78407  20886020.180    85524855.35648
  20373694.480   107064511.24908  20373694.200    83426899.46849
  23169491.880   121756528.70004  23169492.440    94875232.76446
 15 03 02 02 30 30.0000000  0  8G04G11G16G18G19G22G27G32
  21922445.900   115203265.31906  21922444.640    89768789.94647
  23397351.560   122953914.49104  23397349.220    95808238.51145
  21730565.740   114194895.68406  21730563.240    88983014.34847
  23093705.840   121358326.09405  23093702.660    94564958.16346
  21008470.080   110400273.34607  21008465.900    86026172.31049
  20889839.240   109776917.38407  20889834.160    85540472.98048
  20373437.300   107063159.15208  20373436.920    83425845.88049
  23147996.580   121643571.26604  23147997.220    94787214.16044
 15 03 02 02 31  0.0000000  0  8G04G11G16G18G19G22G27G32
  21910021.520   115137974.92206  21910020.240    89717914.33447
  23381357.540   122869865.11004  23381355.200    95742745.52946
  21745991.360   114275957.80907  21745988.840    89046179.62147
  23107710.860   121431922.94705  23107707.640    94622306.37345
  21000228.100   110356960.91007  21000223.860    85992422.36448
  20893750.460   109797470.59207  20893745.260    85556488.48448
  20373246.500   107062155.66708  20373246.020    83425063.93749
  23126536.420   121530798.39404  23126537.240    94699339.37946
 15 03 02 02 31 30.0000000  0  8G04G11G16G18G19G22G27G32
  21897645.100   115072936.32506  21897643.800    89667234.94947
  23365384.680   122785927.44804  23365382.220    95677339.58545
  21761489.740   114357402.49506  21761487.260    89109642.99347
  23121770.460   121505806.73505  23121767.340    94679878.14246
  20992033.960   110313900.05407  20992029.680    85958868.46348
  20897758.760   109818534.84807  20897753.620    85572902.19548
  20373122.460   107061503.45408  20373121.960    83424555.72149
  23105112.180   121418214.47204  23105113.120    94611611.83445
 15 03 02 02 32  0.0000000  0  8G04G11G16G18G19G22G27G32
  21885317.100   115008152.04006  21885315.720    89616753.70846
  23349433.520   122702104.05104  23349431.100    95612022.68845
  21777060.900   114439229.61206  21777058.420    89173404.36447
  23135884.520   121579976.99405  23135881.460    94737673.14546
  20983888.200   110271094.02007  20983883.940    85925513.12149
  20901864.580   109840111.41907  20901859.500    85589715.11048
  20373065.760   107061205.70608  20373065.320    83424323.71049
  23083724.680   121305824.43204  23083725.720    94524035.38045
 15 03 02 02 32 30.0000000  0  9G01G04G11G16G18G19G22G27G32
  24302043.360   127708093.09403  24302043.740    99512805.14544
  21873035.040   114943609.94406  21873033.700    89566461.19746
  23333501.880   122618383.68004  23333499.660    95546786.09845
  21792702.060   114521424.25206  21792699.520    89237452.11348
  23150050.460   121654419.75605  23150047.500    94795680.51845
  20975788.900   110228532.34407  20975784.660    85892348.17848
  20906065.500   109862187.11407  20906060.420    85606916.96048
  20373074.380   107061251.50908  20373074.040    83424359.40349
  23062372.360   121193619.15104  23062373.500    94436602.86445
 15 03 02 02 33  0.0000000  0  8G04G11G16G18G19G22G27G32
  21860804.740   114879339.84406  21860803.480    89516380.62146
  23317595.700   122534796.13404  23317593.340    95481652.94045
  21808418.300   114604013.35407  21808415.700    89301807.23947
  23164273.440   121729162.32805  23164270.440    94853921.47546
  20967742.060   110186245.97307  20967737.780    85859397.76048
  20910366.820   109884790.37207  20910361.740    85624529.89948
  20373154.160   107061671.26808  20373153.880    83424686.48849
  23041061.540   121081630.69304  23041062.620    94349339.27844
 15 03 02 02 33 30.0000000  0  8G04G11G16G18G19G22G27G32
  21848618.440   114815300.45506  21848617.200    89466479.81546
  23301706.780   122451300.20004  23301704.580    95416591.24045
  21824201.220   114686952.81607  21824198.600    89366435.37147
  23178545.240   121804161.15905  23178542.260    94912362.13245
  20959739.960   110144194.62407  20959735.640    85826630.49049
  20914760.340   109907878.61707  20914755.340    85642520.74648
  20373297.420   107062424.49608  20373297.140    83425273.41649
  23019784.760   120969820.39104  23019785.560    94262214.53745
 15 03 02 02 34  0.0000000  0  8G04G11G16G18G19G22G27G32
  21836481.520   114751520.61206  21836480.340    89416781.26546
  23285840.900   122367925.29204  23285838.800    95351623.78344
  21840055.920   114770269.50406  21840053.260    89431357.44747
  23192871.060   121879443.31505  23192867.880    94971023.54745
  20951788.280   110102408.31107  20951783.960    85794069.72949
  20919251.300   109931479.62207  20919246.440    85660911.13748
  20373509.940   107063541.05408  20373509.560    83426143.45849
  22998547.960   120858219.91805  22998548.680    94175253.29146
 15 03 02 02 34 30.0000000  0  9G01G04G11G16G18G19G22G27G32
  24240421.440   127384272.59304  24240421.900    99260472.71645
  21824391.580   114687987.57806  21824390.340    89367275.02546
  23269995.780   122284658.74804  23269993.400    95286740.78645
  21855979.380   114853947.44106  21855976.620    89496561.01847
  23207247.660   121954993.14205  23207244.520    95029893.53744
  20943884.780   110060875.15207  20943880.420    85761706.22849
  20923837.220   109955579.03407  20923832.360    85679689.90848
  20373789.300   107065008.79908  20373788.820    83427287.14549
  22977349.080   120746818.78904  22977349.640    94088447.33746
 15 03 02 02 35  0.0000000  0  9G01G04G11G16G18G19G22G27G32
  24225083.560   127303674.02304  24225084.900    99197668.72945
  21812352.220   114624720.54206  21812350.960    89317976.04946
  23254175.200   122201520.47904  23254172.500    95221957.75345
  21871974.680   114938003.46006  21871971.940    89562059.19847
  23221678.320   122030827.87804  23221675.380    95088985.53445
  20936033.440   110019615.98907  20936029.020    85729556.23149
  20928521.600   109980195.14607  20928516.600    85698871.30248
  20374139.400   107066848.07408  20374138.820    83428720.34049
  22956192.220   120635639.25104  22956192.700    94001814.11045
 15 03 02 02 35 30.0000000  0  9G01G04G11G16G18G19G22G27G32
  24209771.800   127223211.87604  24209773.700    99134971.03644
  21800360.200   114561702.75406  21800359.000    89268871.30946
  23238375.840   122118493.82704  23238373.220    95157261.67745
  21888038.260   115022418.10106  21888035.560    89627836.81147
  23236159.560   122106928.38005  23236156.760    95148284.62644
  20928231.200   109978614.95507  20928226.840    85697607.37949
  20933300.740   110005309.58907  20933295.740    85718441.01448
  20374557.060   107069042.74008  20374556.460    83430430.46349
  22935074.720   120524666.94904  22935075.060    93915342.32345
 15 03 02 02 36  0.0000000  0  9G01G04G11G16G18G19G22G27G32
  24194486.400   127142886.19104  24194488.160    99072379.64946
  21788415.700   114498933.96906  21788414.460    89219960.60347
  23222597.680   122035579.12404  23222595.140    95092652.86045
  21904169.640   115107188.58606  21904166.900    89693891.71747
  23250691.160   122183292.55805  23250688.220    95207789.18145
  20920478.260   109937873.16107  20920473.960    85665860.52549
  20938174.320   110030920.93407  20938169.460    85738397.90948
  20375042.400   107071593.57108  20375041.880    83432418.12849
  22913997.180   120413904.35705  22913997.400    93829033.94746
 15 03 02 02 36 30.0000000  0  9G01G04G11G16G18G19G22G27G32
  24179227.920   127062702.70504  24179229.780    99009899.04943
  21776519.680   114436420.05906  21776518.460    89171248.48647
  23206841.900   121952782.24004  23206839.460    95028135.84144
  21920369.240   115192317.89806  21920366.460    89760226.22347
  23265273.680   122259923.55905  23265270.660    95267501.64045
  20912775.980   109897397.67507  20912771.760    85634321.19149
  20943143.280   110057033.74407  20943138.580    85758745.55748
  20375596.760   107074507.15708  20375596.340    83434688.45749
  22892961.220   120303359.83804  22892961.260    93742895.51646
 15 03 02 02 37  0.0000000  0  9G01G04G11G16G18G19G22G27G32
  24163996.080   126982660.28304  24163998.040    98947528.43346
  21764671.940   114374159.81806  21764670.700    89122734.03447
  23191108.420   121870102.25804  23191105.860    94963709.89545
  21936636.300   115277801.87506  21936633.520    89826837.10247
  23279906.300   122336817.78405  23279903.220    95327419.25544
  20905124.300   109857188.35607  20905120.180    85602989.26249
  20948207.240   110083645.01507  20948202.520    85779481.61648
  20376220.100   107077783.03308  20376219.740    83437241.08349
  22871966.980   120193034.75905  22871966.960    93656928.06745
 15 03 02 02 37 30.0000000  0  9G01G04G11G16G18G19G22G27G32
  24148791.460   126902759.80504  24148793.420    98885268.35744
  21752872.620   114312154.03106  21752871.380    89074417.85747
  23175397.360   121787540.32804  23175394.860    94899375.95845
  21952970.440   115363638.62106  21952967.740    89893722.86347
  23294588.760   122413973.94605  23294585.600    95387540.93845
  20897523.700   109817247.37207  20897519.620    85571866.42048
  20953366.160   110110754.50607  20953361.280    85800605.90748
  20376912.760   107081422.85508  20376912.420    83440077.30449
  22851015.200   120082932.60905  22851015.140    93571134.30145
 15 03 02 02 38  0.0000000  0  9G01G04G11G16G18G19G22G27G32
  24133613.840   126823001.52504  24133615.620    98823119.14845
  21741121.760   114250402.67606  21741120.440    89026299.94547
  23159709.040   121705097.05305  23159706.500    94835134.44345
  21969371.400   115449826.16806  21969368.740    89960881.96547
  23309320.640   122491389.97805  23309317.400    95447865.13346
  20889974.480   109777575.95807  20889970.400    85540953.63049
  20958619.560   110138360.92507  20958614.580    85822117.41348
  20377674.920   107085427.65408  20377674.540    83443197.92349
  22830106.300   119973056.10505  22830106.300    93485516.39346
 15 03 02 02 38 30.0000000  0  8G04G11G16G18G19G22G27G32
  21729419.120   114188905.09106  21729417.840    88978379.76346
  23144043.200   121622771.94304  23144040.500    94770985.03646
  21985838.380   115536360.87406  21985835.800    90028311.58747
  23324101.300   122569062.52804  23324097.980    95508389.19045
  20882476.600   109738174.13607  20882472.480    85510250.91349
  20963966.940   110166461.81507  20963962.000    85844014.21848
  20378506.480   107089797.27908  20378506.020    83446602.81949
  22809240.640   119863406.96005  22809240.700    93400075.61445
 15 03 02 02 39  0.0000000  0  9G01G04G11G16G18G19G22G27G32
  24103339.200   126663902.13603  24103342.060    98699162.54744
  21717765.420   114127664.66006  21717764.180    88930659.98146
  23128400.520   121540568.87104  23128397.720    94706930.72646
  22002371.520   115623243.02706  22002368.940    90096011.94647
  23338930.860   122646992.95704  23338927.680    95569114.18345
  20875031.000   109699047.05507  20875026.820    85479762.28049
  20969408.820   110195059.79707  20969404.000    85866298.36048
  20379408.240   107094536.01508  20379407.720    83450295.34349
  22788419.380   119753991.36205  22788419.340    93314816.82146
 15 03 02 02 39 30.0000000  0  9G01G04G11G16G18G19G22G27G32
  24088242.800   126584568.89403  24088245.860    98637344.45146
  21706159.680   114066675.68006  21706158.360    88883136.13147
  23112779.880   121458482.38504  23112777.300    94642967.26744
  22018969.140   115710464.10606  22018966.580    90163976.40747
  23353808.080   122725173.31004  23353804.880    95630033.93745
  20867636.820   109660190.05307  20867632.560    85449484.10249
  20974943.980   110224147.26407  20974939.160    85888963.92548
  20380379.180   107099638.97808  20380378.740    83454271.68149
  22767641.900   119644806.09205  22767641.880    93229737.49846
 15 03 02 02 40  0.0000000  0  9G01G04G11G16G18G19G22G27G32
  24073173.420   126505377.78803  24073175.720    98575637.19244
  21694602.300   114005941.01506  21694600.960    88835810.43746
  23097181.900   121376515.77304  23097179.660    94579097.21845
  22035631.380   115798024.58506  22035628.840    90232205.33747
  23368732.940   122803604.23905  23368729.600    95691148.93845
  20860294.820   109621607.25207  20860290.480    85419419.58749
  20980572.700   110253725.89407  20980567.800    85912012.21648
  20381420.120   107105109.90107  20381419.800    83458534.74049
  22746909.520   119535856.93105  22746909.280    93144842.15346
 15 03 02 02 40 30.0000000  0  8G04G11G16G18G19G22G27G32
  21683093.100   113945459.55806  21683091.780    88788682.04547
  23081606.800   121294668.53005  23081604.660    94515320.14146
  22052357.520   115885920.83306  22052355.000    90300695.89947
  23383704.840   122882282.38605  23383701.540    95752456.60944
  20853005.020   109583298.88407  20853000.640    85389568.90349
  20986294.300   110283793.02307  20986289.380    85935441.16248
  20382531.080   107110948.49208  20382530.840    83463084.28849
  22726222.240   119427145.12905  22726221.920    93060131.75846
 15 03 02 02 41  0.0000000  0  9G01G04G11G16G18G19G22G27G32
  24043115.580   126347421.28503  24043117.020    98452548.53346
  21671632.340   113885232.76106  21671631.040    88741752.08447
  23066054.800   121212942.45005  23066052.680    94451637.49945
  22069147.240   115974151.34406  22069144.700    90369446.92547
  23398723.640   122961206.67305  23398720.400    95813956.07045
  20845767.900   109545267.60607  20845763.540    85359934.14749
  20992108.640   110314348.54807  20992103.860    85959250.65848
  20383712.560   107117157.00108  20383712.300    83467922.07949
  22705581.000   119318674.90405  22705580.560    92975609.58945
 15 03 02 02 41 30.0000000  0  9G01G04G11G16G18G19G22G27G32
  24028127.300   126268658.36204  24028129.000    98391174.90646
  21660220.540   113825262.79506  21660219.160    88695022.26747
  23050526.340   121131339.89404  23050524.060    94388051.10745
  22086000.420   116062715.41106  22085997.840    90438457.86347
  23413789.400   123040377.41905  23413786.280    95875647.57145
  20838584.140   109507516.55907  20838579.760    85330517.74949
  20998016.100   110345393.22207  20998011.440    85983441.31348
  20384965.080   107123738.29208  20384964.700    83473050.35349
  22684986.640   119210450.96705  22684986.080    92891279.36146
 15 03 02 02 42  0.0000000  0  9G01G04G11G16G18G19G22G27G32
  24013166.200   126190038.74603  24013168.140    98329912.90746
  21648857.200   113765548.09806  21648855.800    88648491.36347
  23035021.140   121049859.86004  23035018.840    94324560.21844
  22102916.320   116151609.02906  22102913.720    90507725.59947
  23428901.260   123119790.79505  23428898.280    95937528.11146
  20831453.700   109470045.70407  20831449.300    85301319.67849
  21004016.260   110376923.97607  21004011.560    86008010.73648
  20386288.460   107130691.68108  20386287.900    83478468.57149
  22664439.420   119102474.37905  22664438.740    92807141.85645
 15 03 02 02 42 30.0000000  0  9G01G04G11G16G18G19G22G27G32
  23998232.100   126111560.26903  23998234.000    98268760.91745
  21637541.940   113706086.43606  21637540.520    88602157.61547
  23019538.880   120968500.42405  23019536.600    94261163.25645
  22119894.060   116240827.21306  22119891.380    90577246.24147
  23444058.460   123199442.62104  23444055.700    95999594.45545
  20824376.360   109432854.03707  20824371.940    85272339.15649
  21010108.240   110408937.20007  21010103.500    86032956.11748
  20387682.320   107138015.85308  20387681.660    83484175.71349
  22643939.260   118994745.67105  22643938.640    92723197.51946
 15 03 02 02 43  0.0000000  0  9G01G04G11G16G18G19G22G27G32
  23983324.940   126033223.06713  23983327.580    98207716.32255
  21626275.400   113646880.85006  21626274.000    88556023.41647
  23004080.360   120887265.18204  23004078.180    94197863.11345
  22136933.620   116330370.44506  22136930.920    90647020.17447
  23459260.880   123279333.09904  23459258.360    96061846.76546
  20817352.880   109395945.66607  20817348.500    85243579.39249
  21016292.240   110441434.64107  21016287.540    86058278.79948
  20389147.360   107145714.59008  20389146.680    83490174.72549
  22623487.340   118887270.61305  22623486.740    92639450.80946
 15 03 02 02 43 30.0000000  0  9G01G04G11G16G18G19G22G27G32
  23968446.220   125955033.18704  23968448.300    98146789.21044
  21615057.620   113587931.37506  21615056.240    88510088.76947
  22988645.580   120806154.75005  22988643.360    94134660.18945
  22154034.500   116420235.61606  22154031.720    90717044.95447
  23474508.480   123359460.13204  23474505.960    96124283.34945
  20810383.720   109359322.49107  20810379.340    85215041.85549
  21022568.020   110474414.68407  21022563.360    86083977.53848
  20390683.700   107153788.76807  20390683.140    83496466.29049
  22603084.080   118780051.77005  22603083.500    92555903.73646
 15 03 02 02 44  0.0000000  0  9G01G04G11G16G18G19G22G27G32
  23953594.140   125876984.59604  23953596.220    98085972.17446
  21603888.140   113529235.30706  21603886.780    88464351.59347
  22973233.960   120725166.11405  22973231.860    94071552.19044
  22171195.460   116510416.94906  22171192.780    90787316.10047
  23489800.180   123439818.93704  23489797.720    96186900.58146
  20803468.380   109322982.23407  20803464.000    85186724.77249
  21028934.800   110507872.67807  21028930.160    86110048.70248
  20392291.020   107162236.07008  20392290.580    83503048.60349
  22582729.660   118673088.69405  22582729.040    92472555.97946
 15 03 02 02 44 30.0000000  0  9G01G04G11G16G18G19G22G27G32
  23938769.420   125799081.01004  23938771.600    98025268.14245
  21592767.520   113470796.10706  21592766.120    88418814.57747
  22957846.280   120644303.77205  22957844.260    94008542.60046
  22188416.800   116600915.56506  22188414.160    90857834.47747
  23505136.280   123520410.58404  23505133.760    96249699.27745
  20796607.880   109286930.08107  20796603.460    85158632.18849
  21035393.100   110541810.74307  21035388.340    86136493.95348
  20393970.220   107171060.97408  20393969.880    83509925.15249
  22562425.160   118566387.79005  22562424.540    92389412.50146
 15 03 02 02 45  0.0000000  0  9G01G04G11G16G18G19G22G27G32
  23923971.980   125721320.37104  23923974.060    97964675.47045
  21581695.380   113412611.48206  21581693.920    88373475.92447
  22942482.360   120563565.87205  22942480.360    93945629.99545
  22205697.540   116691726.54806  22205694.920    90928596.26447
  23520515.900   123601230.90104  23520513.280    96312676.16045
  20789802.080   109251165.14507  20789797.580    85130763.40049
  21041942.140   110576225.38407  21041937.260    86163310.56748
  20395721.180   107180262.04708  20395720.820    83517094.81149
  22542170.620   118459949.33805  22542169.980    92306473.53945
 15 03 02 02 45 30.0000000  0  9G01G04G11G16G18G19G22G27G32
  23909202.180   125643704.79004  23909204.040    97904195.83745
  21570672.060   113354683.68106  21570670.640    88328337.38847
  22927142.600   120482954.86005  22927140.500    93882816.24345
  22223037.640   116782849.54906  22223035.000    90999601.16747
  23535939.020   123682279.60205  23535936.160    96375831.02144
  20783051.500   109215690.65807  20783047.000    85103120.93949
  21048581.840   110611117.01407  21048576.960    86190498.85148
  20397544.420   107189842.24208  20397543.920    83524559.89249
  22521966.820   118353778.29305  22521966.180    92223742.94346
 15 03 02 02 46  0.0000000  0  9G01G04G11G16G18G19G22G27G32
  23894459.980   125566231.13204  23894461.660    97843824.80745
  21559696.980   113297009.14106  21559695.560    88283396.19947
  22911826.520   120402468.13805  22911824.340    93820099.34945
  22240435.800   116874277.48906  22240433.140    91070843.68547
  23551404.620   123763551.22104  23551401.540    96439159.54544
  20776355.820   109180504.69307  20776351.360    85075703.30149
  21055311.200   110646480.61007  21055306.460    86218054.89548
  20399439.260   107199798.99208  20399438.680    83532318.39549
  22501813.640   118247873.78405  22501813.080    92141220.02546
 15 03 02 02 46 30.0000000  0  9G01G04G11G16G18G19G22G27G32
  23879745.240   125488904.10504  23879745.980    97783565.23745
  21548770.840   113239591.89806  21548769.420    88238655.51547
  22896534.780   120322109.61505  22896532.560    93757482.34945
  22257892.360   116966012.55706  22257889.720    91142325.53547
  23566912.900   123845047.55704  23566909.880    96502663.18146
  20769715.960   109145612.21607  20769711.580    85048514.36349
  21062130.920   110682318.43807  21062126.160    86245980.47448
  20401406.520   107210136.75108  20401405.900    83540373.79149
  22481712.520   118142242.20905  22481711.980    92058909.77446
 15 03 02 02 47  0.0000000  0  9G01G04G11G16G18G19G22G27G32
  23865057.380   125411719.61504  23865058.520    97723421.56744
  21537893.260   113182429.78006  21537891.740    88194113.62647
  22881267.140   120241877.96205  22881264.780    93694964.19845
  22275406.260   117058048.87706  22275403.700    91214042.13546
  23582463.000   123926763.86304  23582460.020    96566338.24145
  20763131.880   109111012.61407  20763127.500    85021553.63349
  21069040.260   110718626.77707  21069035.320    86274272.69748
  20403445.900   107220854.24808  20403445.360    83548725.09049
  22461663.540   118036884.18905  22461662.940    91976812.69445
 15 03 02 02 47 30.0000000  0  9G01G04G11G16G18G19G22G27G32
  23850396.940   125334679.63904  23850398.280    97663390.44846
  21527064.360   113125523.78106  21527062.800    88149771.30847
  22866024.040   120161774.58605  22866021.520    93632545.99345
  22292977.300   117150385.54406  22292974.800    91285992.76047
  23598054.840   124008699.21204  23598051.940    96630183.91046
  20756603.900   109076707.99407  20756599.560    84994822.75949
  21076039.000   110755405.11707  21076033.940    86302931.15548
  20405557.760   107231953.07808  20405557.400    83557373.52849
  22441667.380   117931803.24605  22441666.620    91894931.50746
 15 03 02 02 48  0.0000000  0  9G01G04G11G16G18G19G22G27G32
  23835764.280   125257784.25304  23835765.720    97603472.00045
  21516284.180   113068873.83906  21516282.580    88105628.52347
  22850805.400   120081799.13705  22850802.660    93570227.47145
  22310604.960   117243019.09206  22310602.400    91358174.72247
  23613687.840   124090851.00304  23613685.040    96694198.30146
  20750132.300   109042699.69107  20750127.980    84968322.77849
  21083126.760   110792651.68107  21083121.720    86331954.45648
  20407742.360   107243434.00108  20407742.120    83566319.70049
  22421724.320   117827002.02405  22421723.520    91813268.28745
 15 03 02 02 48 30.0000000  0  9G01G04G11G16G18G19G22G27G32
  23821159.840   125181036.56204  23821161.320    97543668.63945
  21505553.300   113012482.87106  21505551.720    88061687.52547
  22835611.780   120001955.95205  22835609.100    93508012.03946
  22328289.180   117335950.20306  22328286.620    91430588.55146
  23629362.160   124173220.51804  23629359.440    96758382.28944
  20743717.940   109008991.81807  20743713.580    84942056.90549
  21090303.800   110830367.87707  21090298.900    86361343.69548
  20410000.500   107255300.78308  20410000.300    83575566.53749
  22401835.560   117722486.10805  22401834.800    91731827.38946
 15 03 02 02 49  0.0000000  0  9G01G04G11G16G18G19G22G27G32
  23806582.460   125104432.52504  23806584.040    97483977.21645
  21494870.920   112956346.91306  21494869.420    88017945.22147
  22820442.460   119922241.39405  22820439.880    93445896.81845
  22346028.660   117429171.95006  22346026.200    91503228.83847
  23645076.820   124255801.59804  23645074.180    96822731.15645
  20737360.300   108975581.84207  20737355.880    84916023.16049
  21097569.140   110868547.95707  21097564.380    86391094.40748
  20412331.540   107267550.17008  20412331.260    83585111.50049
  22382000.940   117618254.11905  22382000.100    91650607.72746
 15 03 02 02 49 30.0000000  0  9G01G04G11G16G18G19G22G27G32
  23792032.760   125027974.63804  23792034.380    97424399.71445
  21484237.520   112900468.56806  21484236.140    87974403.69047
  22805298.180   119842658.50305  22805295.720    93383884.20745
  22363823.320   117522683.82706  22363820.980    91576095.20546
  23660831.800   124338594.22904  23660829.040    96887244.91246
  20731060.020   108942473.57107  20731055.600    84890224.50749
  21104923.160   110907192.94107  21104918.280    86421207.38748
  20414736.080   107280185.29408  20414735.660    83594957.04049
  22362221.300   117514311.08905  22362220.320    91569613.20946
 15 03 02 02 50  0.0000000  0  9G01G04G11G16G18G19G22G27G32
  23777510.420   124951660.54004  23777512.100    97364934.24545
  21473652.780   112844845.21306  21473651.380    87931060.82047
  22790178.740   119763205.15505  22790176.240    93321972.51146
  22381672.280   117616480.75206  22381670.020    91649183.68347
  23676626.200   124421593.73904  23676623.180    96951919.84845
  20724816.900   108909665.93007  20724812.520    84864660.11349
  21112364.800   110946298.63207  21112359.840    86451679.36048
  20417213.660   107293204.42308  20417213.160    83605101.80649
  22342496.500   117410657.23505  22342495.620    91488844.05946
 15 03 02 02 50 30.0000000  0  8G04G11G16G18G19G22G27G32
  21463116.200   112789474.71206  21463114.700    87887914.99647
  22775083.560   119683879.60905  22775081.040    93260160.42345
  22399574.560   117710557.38506  22399572.280    91722490.13046
  23692459.160   124504795.78504  23692455.900    97016752.61144
  20718630.820   108877157.89907  20718626.460    84839329.17949
  21119893.300   110985861.25307  21119888.300    86482507.37948
  20419763.900   107306606.10608  20419763.480    83615544.67449
  22322826.700   117307292.89505  22322825.920    91408300.47846
 15 03 02 02 51  0.0000000  0  9G01G04G11G16G18G19G22G27G32
  23748548.880   124799467.20404  23748550.540    97246346.16046
  21452629.560   112734366.82106  21452628.020    87844973.80647
  22760014.760   119604692.37505  22760012.120    93198456.09845
  22417531.400   117804921.31406  22417529.140    91796020.43747
  23708332.080   124588208.17004  23708328.700    97081749.27544
  20712503.940   108844960.86507  20712499.580    84814240.57849
  21127510.220   111025888.75607  21127505.220    86513697.64348
  20422388.900   107320400.92108  20422388.620    83626293.88149
  22303214.360   117204230.69305  22303213.660    91327992.34446
 15 03 02 02 51 30.0000000  0  9G01G04G11G16G18G19G22G27G32
  23734109.680   124723589.68404  23734111.240    97187220.85645
  21442191.300   112679513.57606  21442189.820    87802231.04047
  22744970.780   119525635.53205  22744968.080    93136853.40046
  22435540.700   117899560.93706  22435538.500    91869765.57047
  23724243.060   124671820.71104  23724239.720    97146901.91043
  20706434.880   108813067.68607  20706430.480    84789388.74549
  21135213.780   111066371.34207  21135208.780    86545242.51548
  20425087.240   107334581.34308  20425087.100    83637343.55849
  22283658.540   117101464.88505  22283657.880    91247915.13246
 15 03 02 02 52  0.0000000  0  9G01G04G11G16G18G19G22G27G32
  23719698.140   124647856.83504  23719699.620    97128208.29846
  21431801.660   112624915.96506  21431800.240    87759687.45547
  22729951.860   119446711.25605  22729949.320    93075353.97846
  22453602.260   117994475.20406  22453600.080    91943724.70647
  23740191.860   124755632.21504  23740188.540    97212209.60045
  20700424.140   108781480.90607  20700419.680    84764775.66949
  21143004.000   111107308.63807  21142998.900    86577141.71148
  20427859.440   107349149.29408  20427859.240    83648695.20249
  22264160.020   116998999.29705  22264159.180    91168071.88146
 15 03 02 02 52 30.0000000  0  9G01G04G11G16G18G19G22G27G32
  23705314.760   124572271.54704  23705316.360    97069310.75146
  21421461.260   112570577.03206  21421459.860    87717345.44647
  22714958.920   119367923.00305  22714956.300    93013960.53445
  22471716.140   118089664.18606  22471713.900    92017897.90047
  23756178.580   124839643.44504  23756175.240    97277672.86645
  20694472.540   108750204.86107  20694468.040    84740404.71949
  21150880.980   111148701.82707  21150875.800    86609396.15348
  20430706.140   107364108.44108  20430705.840    83660351.67049
  22244719.660   116896839.54205  22244718.780    91088466.94446
 15 03 02 02 53  0.0000000  0  9G01G04G11G16G18G19G22G27G32
  23690958.960   124496831.15904  23690960.680    97010526.08445
  21411169.620   112516493.88606  21411168.140    87675202.74547
  22699991.400   119289268.14605  22699988.780    92952671.06646
  22489881.240   118185122.33106  22489878.920    92092280.84947
  23772202.460   124923849.68404  23772199.180    97343288.13145
  20688579.820   108719238.29007  20688575.300    84716274.92349
  21158843.760   111190546.38507  21158838.540    86642002.31348
  20433626.900   107379456.56608  20433626.440    83672311.23949
  22225337.340   116794985.21805  22225336.500    91009099.98746
 15 03 02 02 53 30.0000000  0  9G01G04G11G16G18G19G22G27G32
  23676630.640   124421535.35804  23676632.480    96951854.04245
  21400926.700   112462666.50007  21400925.040    87633259.33447
  22685049.320   119210747.06505  22685046.760    92891485.83746
  22508097.100   118280846.61706  22508094.640    92166871.16546
  23788263.060   125008248.29204  23788259.740    97409053.25845
  20682746.120   108688582.08707  20682741.640    84692386.97049
  21166891.980   111232840.09007  21166886.760    86674958.44948
  20436621.760   107395194.14608  20436621.180    83684574.28549
  22206013.580   116693438.79105  22206012.880    90929972.95346
 15 03 02 02 54  0.0000000  0  9G01G04G11G16G18G19G22G27G32
  23662330.440   124346387.36604  23662332.380    96893297.23846
  21390733.000   112409097.85907  21390731.220    87591517.56447
  22670133.520   119132363.45805  22670130.800    92830407.72046
  22526363.580   118376837.32606  22526361.200    92241669.08547
  23804360.340   125092840.19504  23804357.060    97474969.03144
  20676972.300   108658240.61807  20676967.880    84668744.26449
  21175025.980   111275584.64007  21175020.800    86708265.89348
  20439691.380   107411324.98708  20439690.800    83697143.76649
  22186749.560   116592205.98505  22186748.840    90851090.30046
 15 03 02 02 54 30.0000000  0  9G01G04G11G16G18G19G22G27G32
  23648057.840   124271384.62204  23648059.680    96834853.58345
  21380587.940   112355785.26107  21380586.160    87549975.30747
  22655243.380   119054115.10205  22655240.660    92769434.99946
  22544679.560   118473088.28806  22544677.300    92316669.80846
  23820493.480   125177620.58904  23820490.260    97541031.66145
  20671258.120   108628212.53307  20671253.760    84645345.75649
  21183244.880   111318775.52207  21183239.760    86741921.12848
  20442835.320   107427847.06108  20442834.880    83710018.10249
  22167545.220   116491286.74705  22167544.420    90772451.97846
 15 03 02 02 55  0.0000000  0  9G01G04G11G16G18G19G22G27G32
  23633812.920   124196528.15804  23633814.680    96776523.91647
  21370491.620   112302729.79006  21370490.040    87508633.40047
  22640379.300   118976003.53505  22640376.500    92708568.87045
  22563044.820   118569598.15706  22563042.600    92391872.26746
  23836662.420   125262588.80804  23836659.220    97607240.67145
  20665604.020   108598500.32407  20665599.760    84622193.38749
  21191548.620   111362412.01807  21191543.480    86775923.59448
  20446054.020   107444762.11908  20446053.740    83723198.67349
  22148401.120   116390684.57305  22148400.340    90694060.72546
 15 03 02 02 55 30.0000000  0  9G01G04G11G16G18G19G22G27G32
  23619595.800   124121817.61804  23619597.600    96718307.94445
  21360444.240   112249931.06606  21360442.840    87467491.56247
  22625541.420   118898029.49705  22625538.600    92647809.89646
  22581458.900   118666364.35606  22581456.640    92467274.46346
  23852866.580   125347742.06704  23852863.320    97673593.84844
  20660010.300   108569105.30807  20660006.080    84599288.18449
  21199936.840   111406492.28807  21199931.660    86810271.86348
  20449347.660   107462070.37908  20449347.440    83736685.62349
  22129317.780   116290401.75905  22129317.100    90615918.33047
 15 03 02 02 56  0.0000000  0  9G01G04G11G16G18G19G22G27G32
  23605406.640   124047253.06104  23605408.440    96660205.74046
  21350445.740   112197389.08606  21350444.480    87426549.77347
  22610729.700   118820193.16205  22610726.840    92587158.22545
  22599921.180   118763383.84106  22599918.860    92542874.03146
  23869105.500   125433078.27304  23869102.100    97740089.58645
  20654477.120   108540028.33007  20654472.900    84576630.79849
  21208409.020   111451014.21707  21208403.920    86844964.27548
  20452716.300   107479772.48708  20452716.080    83750479.47149
  22110295.840   116190440.84805  22110295.160    90538026.75146
 15 03 02 02 56 30.0000000  0  9G01G04G11G16G18G19G22G27G32
  23591245.800   123972837.82004  23591247.760    96602219.86145
  21340496.880   112145107.29507  21340495.600    87385810.72547
  22595944.840   118742498.57705  22595942.060    92526617.01246
  22618431.580   118860656.75405  22618429.300    92618671.07046
  23885379.380   125518598.77604  23885375.960    97806728.91445
  20649005.460   108511274.22107  20649001.180    84554225.00149
  21216965.560   111495979.47507  21216960.520    86880002.13248
  20456160.720   107497872.44708  20456160.400    83764583.32649
  22091336.320   116090807.78005  22091335.660    90460390.64547
 15 03 02 02 57  0.0000000  0  9G01G04G11G16G18G19G22G27G32
  23577112.400   123898567.47104  23577114.600    96544346.89444
  21330596.680   112093081.04107  21330595.320    87345270.79947
  22581186.140   118664941.60505  22581183.440    92466183.02346
  22636988.880   118958175.93705  22636986.640    92694660.01946
  23901687.080   125604296.69104  23901683.760    97873506.49844
  20643594.600   108482839.83607  20643590.280    84532068.34049
  21225605.260   111541381.51507  21225600.240    86915380.34948
  20459680.040   107516366.27008  20459679.600    83778994.09149
  22072438.780   115991500.46006  22072438.100    90383008.36646
 15 03 02 02 57 30.0000000  0  9G01G04G11G16G18G19G22G27G32
  23563006.800   123824442.61004  23563009.020    96486587.30145
  21320745.260   112041310.72807  21320743.700    87304930.31647
  22566453.880   118587523.62405  22566451.220    92405857.34745
  22655592.520   119055938.97505  22655590.420    92770838.95847
  23918028.340   125690170.56504  23918025.000    97940421.24744
  20638244.940   108454726.93307  20638240.560    84510162.18049
  21234327.920   111587219.17907  21234322.780    86951098.01448
  20463274.480   107535255.22708  20463273.980    83793712.75349
  22053603.760   115892522.09105  22053603.140    90305882.41947
 15 03 02 02 58  0.0000000  0  9G01G04G11G16G18G19G22G27G32
  23548929.440   123750465.56004  23548931.820    96428942.89646
  21310942.980   111989798.94707  21310941.220    87264791.28247
  22551748.680   118510247.35505  22551745.940    92345642.10446
  22674242.560   119153945.64405  22674240.540    92847207.77046
  23934402.960   125776220.35204  23934399.780    98007473.03544
  20632957.160   108426939.45407  20632952.780    84488509.59749
  21243133.480   111633492.88307  21243128.320    86987155.44948
  20466944.580   107554542.14508  20466944.120    83808741.51249
  22034832.120   115793877.42605  22034831.540    90229016.48747
 15 03 02 02 58 30.0000000  0  9G01G04G11G16G18G19G22G27G32
  23534879.900   123676634.22804  23534882.300    96371412.01846
  21301189.380   111938543.47507  21301187.520    87224851.97247
  22537070.080   118433111.20405  22537067.360    92285536.02246
  22692938.120   119252191.14605  22692936.120    92923762.66046
  23950810.320   125862442.09404  23950807.300    98074658.81842
  20627731.120   108399476.39207  20627726.720    84467109.81249
  21252021.300   111680199.02607  21252016.220    87023549.84548
  20470690.140   107574225.60308  20470689.760    83824079.26549
  22016124.180   115695567.00605  22016123.600    90152411.00447
 15 03 02 02 59  0.0000000  0  9G01G04G11G16G18G19G22G27G32
  23520859.280   123602954.91204  23520861.360    96313999.62246
  21291485.660   111887550.48707  21291483.880    87185117.18647
  22522419.520   118356122.17105  22522416.840    92225544.58446
  22711679.520   119350678.08905  22711677.580    93000505.69146
  23967251.300   125948839.86404  23967248.120    98141981.72544
  20622568.200   108372345.14507  20622563.800    84445968.58149
  21260992.220   111727341.96507  21260987.220    87060284.59848
  20474512.500   107594312.30608  20474512.160    83839731.24249
  21997481.540   115597599.50006  21997480.920    90076072.73146
 15 03 02 02 59 30.0000000  0 10G01G04G11G14G16G18G19G22G27G32
  23506866.020   123529420.49704  23506868.200    96256700.10045
  21281830.580   111836812.95107  21281828.880    87145581.45747
  22507795.820   118279273.81905  22507793.040    92165662.77446
  23991651.480   126076980.82804  23991651.240    98241801.64343
  22730465.040   119449397.21705  22730463.260    93077429.64746
  23983724.140   126035404.70504  23983721.060    98209434.93444
  20617467.400   108345540.26107  20617462.980    84425081.66249
  21270044.640   111774912.61607  21270039.540    87097352.64848
  20478410.460   107614795.79908  20478410.080    83855692.39449
  21978903.380   115499970.41306  21978902.600    89999998.15947
 15 03 02 03 00  0.0000000  0 10G01G04G11G14G16G18G19G22G27G32
  23492899.500   123456027.21104  23492901.900    96199510.54745
  21272223.460   111786327.26607  21272221.800    87106241.98447
  22493198.240   118202562.96605  22493195.500    92105888.12046
  23978942.420   126010193.52004  23978941.660    98189759.62245
  22749293.400   119548341.77305  22749291.780    93154529.26846
  24000227.520   126122130.54204  24000224.340    98277013.46344
  20612428.220   108319059.14107  20612423.740    84404447.02549
  21279177.360   111822905.12407  21279172.180    87134749.41848
  20482383.360   107635672.84608  20482382.900    83871960.21549
  21960389.400   115402678.38906  21960388.520    89924186.22947
 15 03 02 03 00 30.0000000  0 10G01G04G11G14G16G18G19G22G27G32
  23478961.340   123382782.04004  23478963.800    96142436.42746
  21262665.500   111736099.93607  21262663.860    87067103.83047
  22478628.220   118125996.98105  22478625.440    92046226.32246
  23966272.580   125943612.24204  23966271.400    98137878.16042
  22768165.640   119647516.07405  22768164.040    93231807.89746
  24016762.360   126209022.14104  24016759.240    98344721.18645
  20607452.220   108292910.08207  20607447.740    84384071.13149
  21288391.340   111871324.82607  21288386.180    87172479.05648
  20486432.500   107656950.90808  20486432.020    83888540.51549
  21941941.320   115305732.92506  21941940.400    89848644.36046
 15 03 02 03 01  0.0000000  0  9G01G04G11G16G18G19G22G27G32
  23465050.600   123309679.88504  23465052.800    96085473.73645
  21253155.860   111686126.23607  21253154.100    87028163.30047
  22464084.920   118049571.34005  22464082.000    91986673.88646
  22787080.040   119746911.76505  22787078.480    93309259.03546
  24033327.480   126296072.37904  24033324.340    98412552.55944
  20602538.700   108267089.15507  20602534.200    84363950.93049
  21297685.220   111920164.92407  21297680.240    87210536.26848
  20490557.060   107678625.48508  20490556.580    83905429.79449
  21923558.740   115209131.40806  21923557.720    89773370.49946
 15 03 02 03 01 30.0000000  0 10G01G04G11G14G16G18G19G22G27G32
  23451168.920   123236730.71804  23451170.940    96028630.25746
  21243696.240   111636415.68907  21243694.420    86989427.82047
  22449570.240   117973296.77805  22449567.320    91927239.18145
  23941051.880   125811072.84804  23941049.320    98034595.34445
  22806037.980   119846536.15405  22806036.460    93386888.40347
  24049924.500   126383289.11004  24049920.840    98480513.62546
  20597689.760   108241607.85307  20597685.280    84344095.37249
  21307060.580   111969432.71807  21307055.640    87248926.75548
  20494758.920   107700706.91608  20494758.540    83922636.10449
  21905243.880   115112886.11406  21905242.800    89698374.21547
 15 03 02 03 02  0.0000000  0 10G01G04G11G14G16G18G19G22G27G32
  23437315.040   123163927.95604  23437316.860    95971900.87345
  21234285.480   111586961.92207  21234283.660    86950892.42547
  22435083.160   117897167.26305  22435080.300    91867917.49046
  23928502.420   125745125.49004  23928500.320    97983207.84844
  22825037.660   119946379.53705  22825036.040    93464688.39046
  24066551.460   126470663.57304  24066547.700    98548597.61241
  20592904.520   108216460.91607  20592900.000    84324500.35749
  21316515.880   112019120.31007  21316510.880    87287644.36848
  20499037.060   107723189.29008  20499036.780    83940154.82849
  21886996.060   115016993.17206  21886994.980    89623652.48247
 15 03 02 03 02 30.0000000  0  9G01G04G11G16G18G19G22G27G32
  23423488.520   123091270.04604  23423490.260    95915284.36545
  21224923.260   111537763.18907  21224921.460    86912555.76447
  22420623.560   117821181.90205  22420620.780    91808708.14446
  22844078.220   120046438.01105  22844076.500    93542655.97746
  24083207.540   126558192.14504  24083203.920    98616801.65944
  20588182.740   108191647.92407  20588178.260    84305165.56149
  21326050.480   112069224.37807  21326045.320    87326686.50948
  20503391.300   107746071.38808  20503391.060    83957985.03349
  21868815.320   114921453.17506  21868814.260    89549205.77047
 15 03 02 03 03  0.0000000  0 10G01G04G11G14G16G18G19G22G27G32
  23409691.180   123018764.43004  23409692.920    95858786.53646
  21215610.940   111488827.08807  21215609.260    86874423.74947
  22406192.920   117745348.44005  22406190.100    91749617.14945
  23903528.160   125613888.99603  23903526.560    97880938.57545
  22863160.560   120146715.84605  22863158.760    93620794.51346
  24099893.820   126645880.19704  24099890.560    98685130.04743
  20583526.200   108167177.78807  20583521.720    84286097.92149
  21335665.260   112119750.34007  21335660.060    87366057.39148
  20507823.240   107769361.24508  20507822.940    83976132.96149
  21850703.780   114826276.26606  21850702.660    89475041.98447
 15 03 02 03 03 30.0000000  0 10G01G04G11G14G16G18G19G22G27G32
  23395920.840   122946400.73904  23395922.660    95802399.26946
  21206346.620   111440143.25407  21206345.000    86836488.31147
  22391789.360   117669657.32905  22391786.440    91690637.07946
  23891104.120   125548598.37304  23891101.960    97830062.81744
  22882282.060   120247199.65205  22882280.260    93699093.54446
  24116608.340   126733715.77704  24116604.940    98753573.33545
  20578933.200   108143041.47607  20578928.680    84267290.40549
  21345357.880   112170685.73607  21345352.780    87405747.31248
  20512331.020   107793049.02208  20512330.580    83994590.95949
  21832659.780   114731454.46706  21832658.640    89401154.89846
 15 03 02 03 04  0.0000000  0 10G01G04G11G14G16G18G19G22G27G32
  23382178.840   122874187.19504  23382180.920    95746128.98745
  21197131.900   111391719.81007  21197130.240    86798755.77847
  22377414.740   117594117.87005  22377411.740    91631775.19845
  23878723.340   125483535.98604  23878720.700    97779364.80745
  22901443.940   120347895.56405  22901442.000    93777557.85846
  24133351.900   126821704.17204  24133348.780    98822135.71944
  20574405.520   108119248.37207  20574400.960    84248750.32249
  21355129.660   112222036.90207  21355124.620    87445761.20948
  20516916.140   107817143.34608  20516915.600    84013365.74349
  21814685.400   114636998.35706  21814684.200    89327552.76347
 15 03 02 03 04 30.0000000  0 10G01G04G11G14G16G18G19G22G27G32
  23368464.820   122802119.53904  23368466.900    95689972.42145
  21187965.980   111343552.31007  21187964.180    86761222.67547
  22363068.240   117518725.92305  22363065.160    91573028.23046
  23866385.440   125418700.38804  23866382.680    97728843.62741
  22920644.760   120448796.01605  22920642.660    93856181.52546
  24150123.520   126909839.30404  24150120.520    98890812.44945
  20569942.580   108095795.55607  20569938.020    84230475.40549
  21364979.340   112273797.30407  21364974.340    87486093.99048
  20521577.800   107841640.37208  20521577.240    84032454.32849
  21796780.280   114542906.12706  21796779.020    89254234.18147
 15 03 02 03 05  0.0000000  0 10G01G04G11G14G16G18G19G22G27G32
  23354779.220   122730200.66904  23354781.100    95633931.78646
  21178849.320   111295643.84107  21178847.440    86723891.41747
  22348750.400   117443484.95605  22348747.460    91514398.93446
  23854091.620   125354097.42904  23854089.340    97678503.68143
  22939884.220   120549900.36305  22939882.140    93934964.08646
  24166923.240   126998122.63704  24166920.420    98959604.70341
  20565545.180   108072687.04207  20565540.640    84212468.76949
  21374907.160   112325968.32407  21374902.220    87526746.73548
  20526316.620   107866543.43908  20526316.160    84051859.31949
  21778945.280   114449183.12206  21778944.080    89181203.31347
 15 03 02 03 05 30.0000000  0 10G01G04G11G14G16G18G19G22G27G32
  23341121.060   122658426.05704  23341122.720    95578003.54146
  21169781.000   111247989.75307  21169779.220    86686758.37447
  22334460.500   117368391.42405  22334457.620    91455884.51646
  23841842.220   125289725.89504  23841841.080    97628352.09744
  22959161.340   120651201.82105  22959159.140    94013900.22846
  24183749.840   127086546.94004  24183747.220    99028506.74444
  20561212.780   108049920.16607  20561208.280    84194728.34849
  21384911.900   112378543.58007  21384906.980    87567714.46748
  20531131.900   107891848.59208  20531131.560    84071577.61449
  21761180.160   114355827.17706  21761178.960    89108458.46047
 15 03 02 03 06  0.0000000  0 10G01G04G11G14G16G18G19G22G27G32
  23327491.300   122586800.64304  23327492.660    95522191.55345
  21160762.060   111200595.06407  21160760.400    86649827.45348
  22320199.660   117293450.92406  22320196.900    91397489.32346
  23829638.120   125225592.86404  23829636.460    97578378.31344
  22978476.300   120752701.84505  22978474.100    94092991.10746
  24200603.940   127175115.26104  24200601.380    99097521.01344
  20556946.500   108027500.77907  20556942.040    84177258.69549
  21394994.020   112431525.62507  21394989.080    87608999.17748
  20536024.720   107917561.12808  20536024.460    84091613.35249
  21743486.280   114262845.68306  21743485.100    89036005.38747
 15 03 02 03 06 30.0000000  0 10G01G04G11G14G16G18G19G22G27G32
  23313889.880   122515324.99304  23313891.180    95466496.28446
  21151792.620   111153460.17007  21151790.980    86613098.98947
  22305968.140   117218664.34405  22305965.520    91339214.09646
  23817479.720   125161701.72004  23817478.040    97528593.05544
  22997828.900   120854399.49605  22997826.640    94172235.99345
  24217485.120   127263826.28204  24217482.560    99166646.46245
  20552746.640   108005430.56307  20552742.240    84160061.13049
  21405153.360   112484913.28307  21405148.380    87650599.95448
  20540995.360   107943682.10708  20540995.100    84111967.35249
  21725864.300   114170241.58206  21725863.080    88963846.39047
 15 03 02 03 07  0.0000000  0  9G01G04G11G16G18G19G22G27G32
  23300315.540   122443991.45504  23300316.660    95410911.74646
  21142871.060   111106577.33707  21142869.520    86576566.92647
  22291764.700   117144024.75205  22291762.020    91281053.38446
  23017216.960   120956283.96105  23017214.700    94251626.40946
  24234391.600   127352670.22103  24234388.900    99235875.50945
  20548612.060   107983703.35307  20548607.700    84143130.83549
  21415388.100   112538696.92907  21415383.020    87692509.29448
  20546042.440   107970204.11308  20546042.080    84132633.83649
  21708313.100   114078009.52006  21708311.880    88891977.28747
 15 03 02 03 07 30.0000000  0 10G01G04G11G14G16G18G19G22G27G32
  23286770.100   122372809.07704  23286770.860    95355444.97146
  21133999.220   111059955.71107  21133997.700    86540238.40647
  22277591.200   117069542.27906  22277588.460    91223015.11746
  23793300.820   125034639.65814  23793299.480    97429583.83654
  23036641.580   121058360.81305  23036639.300    94331166.78246
  24251324.600   127441653.94703  24251321.840    99305213.50444
  20544544.740   107962329.64507  20544540.400    84126476.00249
  21425699.460   112592883.56707  21425694.360    87734732.65548
  20551167.700   107997136.76608  20551167.220    84153620.30949
  21690834.920   113986161.06606  21690833.740    88820407.09047
 15 03 02 03 08  0.0000000  0  9G01G04G11G14G16G19G22G27G32
  23273252.600   122301774.55104  23273253.560    95300093.45145
  21125176.420   111013591.85207  21125174.940    86504110.72647
  22263447.100   116995213.94305  22263444.400    91165096.95046
  23781283.100   124971484.01604  23781280.900    97380371.65245
  23056101.480   121160623.69505  23056099.280    94410852.10046
  20540544.260   107941307.23507  20540539.960    84110094.90549
  21436086.400   112647467.64207  21436081.320    87777265.70948
  20556370.460   108024477.03408  20556369.920    84174924.40549
  21673429.520   113894695.21106  21673428.380    88749135.02847
 15 03 02 03 08 30.0000000  0 10G01G04G11G14G16G18G19G22G27G32
  23259762.840   122230885.37304  23259763.920    95244855.13746
  21116402.240   110967483.34807  21116400.760    86468182.04647
  22249331.920   116921037.94506  22249329.280    91107297.50246
  23769311.360   124908572.41604  23769309.560    97331350.61343
  23075595.860   121263068.03705  23075593.820    94490678.79046
  24285267.140   127619938.59003  24285261.980    99444093.48045
  20536610.460   107920635.07907  20536606.180    84093986.73049
  21446548.220   112702445.08707  21446543.160    87820105.27648
  20561650.320   108052222.91008  20561649.820    84196544.56649
  21656096.880   113803611.75706  21656095.740    88678160.93947
 15 03 02 03 09  0.0000000  0  8G01G04G11G16G19G22G27G32
  23246300.380   122160139.62104  23246301.360    95189728.64046
  21107676.220   110921628.14807  21107674.780    86432450.73447
  22235245.420   116847013.02706  22235242.740    91049615.75246
  23095123.780   121365688.42705  23095121.960    94570642.68846
  20532743.240   107900312.62807  20532738.960    84078151.05349
  21457084.200   112757811.82607  21457079.100    87863248.19648
  20567006.980   108080372.76308  20567006.560    84218479.50849
  21638837.180   113712911.20106  21638835.940    88607485.21347
 15 03 02 03 09 30.0000000  0  9G01G04G11G14G16G19G22G27G32
  23232867.680   122089551.26004  23232869.120    95134724.74546
  21099001.120   110876040.24207  21098999.680    86396927.71147
  22221190.500   116773154.19806  22221187.800    90992063.42146
  23745516.480   124783531.18814  23745514.840    97233913.02354
  23114687.340   121468496.16005  23114685.700    94650752.53846
  20528945.460   107880354.81207  20528941.120    84062599.50249
  21467696.460   112813579.89107  21467691.420    87906703.83348
  20572443.240   108108940.98608  20572442.920    84240740.46149
  21621653.480   113622609.88506  21621652.080    88537120.57747
 15 03 02 03 10  0.0000000  0  9G01G04G11G14G16G19G22G27G32
  23219463.220   122019110.21604  23219464.540    95079835.64646
  21090375.060   110830709.62607  21090373.540    86361605.16747
  22207165.280   116699451.67306  22207162.620    90934632.90946
  23733693.640   124721401.28204  23733691.400    97185500.16144
  23134284.240   121571478.55405  23134282.660    94730998.50246
  20525215.360   107860752.81807  20525210.980    84047325.21749
  21478382.760   112869737.16007  21478377.780    87950462.74448
  20577957.280   108137917.84208  20577957.040    84263319.82449
  21604544.220   113532700.06706  21604542.740    88467061.01147
 15 03 02 03 10 30.0000000  0  9G01G04G11G14G16G19G22G27G32
  23206085.840   121948811.22304  23206087.060    95025057.22346
  21081796.900   110785630.93307  21081795.300    86326478.91747
  22193168.940   116625900.96506  22193166.220    90877320.68146
  23721919.580   124659528.14804  23721917.360    97137287.29845
  23153912.780   121674627.13605  23153911.280    94811373.96946
  20521552.200   107841502.64507  20521547.780    84032325.07749
  21489141.780   112926276.26007  21489136.800    87994519.18848
  20583548.200   108167298.32808  20583547.920    84286213.70049
  21587508.760   113443178.60706  21587507.340    88397304.06147
 15 03 02 03 11  0.0000000  0  9G01G04G11G14G16G19G22G27G32
  23192736.960   121878661.82804  23192738.020    94970395.43846
  21073268.000   110740811.57407  21073266.420    86291554.75747
  22179203.140   116552510.35106  22179200.340    90820133.21246
  23710196.240   124597922.44204  23710194.220    97089282.93045
  23173573.940   121777946.53005  23173572.360    94891882.52646
  20517957.720   107822613.40507  20517953.300    84017606.19049
  21499974.500   112983202.84007  21499969.580    88038877.56648
  20589217.480   108197090.38008  20589217.140    84309428.28449
  21570549.120   113354055.47306  21570547.820    88327857.49047
 15 03 02 03 11 30.0000000  0 10G01G04G11G14G16G18G19G22G27G32
  23179415.680   121808658.01904  23179416.760    94915847.03845
  21064787.740   110696247.63507  21064786.220    86256829.60847
  22165267.200   116479276.71806  22165264.380    90763068.05446
  23698523.800   124536582.99604  23698521.800    97041485.94044
  23193266.420   121881430.43305  23193264.720    94972519.27745
  24387675.880   128158101.25114  24387671.460    99863436.91256
  20514431.440   107804082.55707  20514427.020    84003166.57249
  21510879.840   113040510.82807  21510874.920    88083533.14348
  20594964.360   108227290.39608  20594964.020    84332960.75449
  21553664.980   113265329.11006  21553663.820    88258720.10747
 15 03 02 03 12  0.0000000  0  9G01G04G11G14G16G19G22G27G32
  23166122.300   121738800.86904  23166123.360    94861412.91046
  21056356.320   110651940.24807  21056354.820    86222304.39447
  22151361.560   116406201.90206  22151358.640    90706126.65246
  23686902.800   124475513.83204  23686900.840    96993899.61645
  23212989.780   121985076.71905  23212988.040    95053282.55745
  20510973.660   107785912.01607  20510969.300    83989007.71349
  21521857.600   113098199.09407  21521852.660    88128485.04948
  20600789.080   108257899.68808  20600788.800    84356812.14649
  21536857.000   113177002.68106  21536855.880    88189894.34147
 15 03 02 03 12 30.0000000  0  9G01G04G11G14G16G19G22G27G32
  23152857.480   121669094.58704  23152858.620    94807096.37746
  21047974.560   110607893.56307  21047973.080    86187982.31848
  22137487.040   116333290.45606  22137484.080    90649312.57446
  23675334.540   124414721.67404  23675332.620    96946529.13445
  23232744.200   122088886.77105  23232742.540    95134173.43746
  20507585.520   107768107.28107  20507581.160    83975133.89849
  21532908.100   113156269.79507  21532903.160    88173734.95048
  20606692.560   108288922.70508  20606692.320    84380985.92249
  21520126.380   113089082.64806  21520125.180    88121385.25747
 15 03 02 03 13  0.0000000  0 10G01G04G11G14G16G18G19G22G27G32
  23139620.240   121599533.17304  23139621.480    94752892.68046
  21039641.220   110564101.45207  21039639.740    86153858.61448
  22123642.680   116260537.10406  22123639.600    90592621.66746
  23663818.340   124354203.61304  23663816.340    96899372.23645
  23252528.140   122192852.00105  23252526.560    95215185.22545
  24439188.580   128428801.21604  24439186.300   100074382.48341
  20504266.140   107750663.79207  20504261.760    83961541.56549
  21544029.860   113214715.09607  21544024.960    88219276.73948
  20612673.720   108320353.84207  20612673.500    84405477.70949
  21503472.340   113001565.47106  21503471.160    88053190.08647
 15 03 02 03 13 30.0000000  0 10G01G04G11G14G16G18G19G22G27G32
  23126411.760   121530122.43904  23126413.080    94698806.42346
  21031357.360   110520569.69707  21031355.900    86119937.76848
  22109829.620   116187948.52906  22109826.500    90536059.15146
  23652355.840   124293967.75404  23652353.820    96852435.21745
  23272342.160   122296975.32905  23272340.660    95296320.23046
  24456403.100   128519264.77804  24456399.900   100144873.60544
  20501016.860   107733588.38507  20501012.420    83948236.05349
  21555223.680   113273538.87307  21555218.780    88265113.45048
  20618733.740   108352199.08407  20618733.460    84430292.17749
  21486896.500   112914459.03606  21486895.360    87985314.98247
 15 03 02 03 14  0.0000000  0 10G01G04G11G14G16G18G19G22G27G32
  23113230.960   121460857.14604  23113232.300    94644833.49846
  21023122.100   110477293.06407  21023120.620    86086215.73347
  22096046.980   116115520.70306  22096043.940    90479621.92846
  23640946.560   124234012.24204  23640944.760    96805716.65944
  23292184.840   122401248.58605  23292183.360    95377572.03346
  24473638.240   128609836.56504  24473635.100   100215449.00945
  20497836.900   107716877.32007  20497832.380    83935214.44349
  21566488.060   113332733.67607  21566483.180    88311239.27248
  20624871.560   108384453.59307  20624871.280    84455425.55649
  21470398.340   112827760.55406  21470397.140    87917757.75247
 15 03 02 03 14 30.0000000  0 10G01G04G11G14G16G18G19G22G27G32
  23100078.240   121391739.86104  23100079.680    94590975.90646
  21014935.860   110434274.03507  21014934.300    86052694.42847
  22082295.360   116043256.18506  22082292.480    90423311.92046
  23629591.680   124174341.95804  23629589.960    96759220.34445
  23312055.880   122505671.03305  23312054.360    95458940.10845
  24490894.140   128700517.28704  24490891.020   100286109.33244
  20494727.020   107700534.54807  20494722.440    83922479.81649
  21577823.120   113392299.69207  21577818.220    88357654.35848
  20631087.740   108417120.04707  20631087.480    84480879.92649
  21453978.580   112741474.55106  21453977.380    87850521.92847
 15 03 02 03 15  0.0000000  0 10G01G04G11G14G16G18G19G22G27G32
  23086953.760   121322769.94804  23086955.240    94537233.13146
  21006798.500   110391512.09907  21006796.920    86019373.45748
  22068574.960   115971155.33606  22068572.080    90367129.46247
  23618291.640   124114959.21904  23618289.880    96712948.14145
  23331954.620   122610239.85404  23331953.140    95540422.23045
  24508170.260   128791304.45904  24508167.340   100356852.59644
  20491687.320   107684560.67207  20491682.700    83910032.64249
  21589228.360   113452234.58007  21589223.440    88404356.87348
  20637382.340   108450198.17007  20637382.040    84506655.08349
  21437637.660   112655602.83906  21437636.540    87783608.93647
 15 03 02 03 15 30.0000000  0  9G01G04G11G14G16G19G22G27G32
  23073856.780   121253944.85404  23073858.420    94483603.20246
  20998709.500   110349004.61107  20998707.980    85986250.74548
  22054885.440   115899216.50906  22054882.540    90311073.24446
  23607046.340   124055864.14304  23607044.400    96666900.02846
  23351880.160   122714949.03705  23351878.720    95622013.71745
  20488717.500   107668954.02107  20488712.880    83897871.61349
  21600702.880   113512533.78206  21600697.980    88451343.25948
  20643754.820   108483685.53908  20643754.480    84532749.12849
  21421375.540   112570144.98706  21421374.420    87717018.43947
 15 03 02 03 16  0.0000000  0  9G01G04G11G14G16G19G22G27G32
  23060788.580   121185271.10704  23060790.260    94430091.22446
  20990670.240   110306757.95107  20990668.700    85953331.27848
  22041228.220   115827447.06806  22041225.320    90255149.02946
  23595857.360   123997066.23204  23595855.240    96621083.50346
  23371833.320   122819802.90704  23371831.880    95703717.96447
  20485819.080   107653722.59507  20485814.420    83886002.96349
  21612247.520   113573201.56407  21612242.660    88498616.85948
  20650206.440   108517588.96807  20650206.080    84559167.38349
  21405193.840   112485109.65606  21405192.720    87650757.17147
 15 03 02 03 16 30.0000000  0  9G01G04G11G14G16G19G22G27G32
  23047748.180   121116743.56604  23047749.740    94376693.15647
  20982679.720   110264767.19107  20982678.140    85920611.21848
  22027602.340   115755842.56706  22027599.380    90199353.31646
  23584724.540   123938562.84204  23584722.340    96575496.47045
  23391812.440   122924793.28705  23391810.940    95785528.55746
  20482991.320   107638862.52407  20482986.620    83874423.68949
  21623861.040   113634230.77107  21623856.100    88546172.08248
  20656736.300   108551903.55407  20656735.920    84585906.01749
  21389092.000   112400494.02006  21389090.880    87584822.94247
 15 03 02 03 17  0.0000000  0  9G01G04G11G14G16G19G22G27G32
  23034736.080   121048364.96305  23034737.720    94323411.15346
  20974738.320   110223035.06507  20974736.800    85888092.68447
  22014008.520   115684406.45106  22014005.460    90143688.83646
  23573648.660   123880359.72704  23573646.520    96530143.40845
  23411817.460   123029920.01904  23411815.940    95867445.41845
  20480234.940   107624377.64407  20480230.240    83863136.76649
  21635543.520   113695622.22906  21635538.500    88594009.58148
  20663344.920   108586632.20707  20663344.580    84612967.30349
  21373070.940   112316303.02406  21373069.780    87519219.60147
 15 03 02 03 17 30.0000000  0  9G01G04G11G14G16G19G22G27G32
  23021751.620   120980131.58504  23021753.320    94270242.32046
  20966845.380   110181557.55107  20966843.900    85855772.55348
  22000446.140   115613135.70706  22000443.120    90088153.20846
  23562629.920   123822455.76004  23562627.660    96485023.47045
  23431847.220   123135176.52704  23431845.640    95949463.38446
  20477549.500   107610265.69007  20477544.820    83852140.43249
  21647293.740   113757369.90407  21647288.680    88642124.65748
  20670031.720   108621771.38108  20670031.420    84640348.47349
  21357130.300   112232534.97306  21357129.220    87453945.82047
 15 03 02 03 18  0.0000000  0  9G01G04G11G14G16G19G22G27G32
  23008795.720   120912048.38605  23008797.540    94217190.50346
  20959001.980   110140339.89807  20959000.440    85823654.91448
  21986916.160   115542036.01306  21986913.360    90032750.88046
  23551669.480   123764858.72704  23551667.500    96440142.69646
  23451901.940   123240564.70304  23451900.320    96031583.96345
  20474936.120   107596532.45907  20474931.520    83841439.21749
  21659112.280   113819476.73007  21659107.200    88690519.58748
  20676797.580   108657326.20007  20676797.360    84668053.52349
  21341271.540   112149196.94206  21341270.500    87389007.11947
 15 03 02 03 18 30.0000000  0  9G01G04G11G14G16G19G22G27G32
  22995867.440   120844109.84304  22995869.300    94164251.40146
  20951206.940   110099376.39207  20951205.320    85791735.31048
  21973417.900   115471102.86406  21973415.140    89977478.29046
  23540767.140   123707565.79704  23540765.140    96395498.88345
  23471980.180   123346076.90004  23471978.700    96113801.14046
  20472394.080   107583173.93607  20472389.480    83831029.98049
  21670997.780   113881935.14207  21670992.660    88739188.48548
  20683641.500   108693291.32408  20683641.300    84696078.29049
  21325494.040   112066285.66706  21325492.980    87324400.94947
 15 03 02 03 19  0.0000000  0  9G01G04G11G14G16G19G22G27G32
  22982967.480   120776320.15304  22982969.340    94111428.29547
  20943461.020   110058671.17907  20943459.300    85760016.97648
  21959952.340   115400340.86006  21959949.560    89922339.08146
  23529923.800   123650583.77704  23529922.040    96351097.32545
  23492082.220   123451713.85604  23492080.780    96196115.56645
  20469924.320   107570195.45607  20469919.740    83820916.87749
  21682950.580   113944747.29807  21682945.440    88788133.02048
  20690564.380   108729671.04907  20690564.120    84724426.12049
  21309799.000   111983807.43106  21309797.860    87260132.21047
 15 03 02 03 19 30.0000000  0  9G01G04G11G14G16G19G22G27G32
  22970095.960   120708679.80104  22970097.740    94058721.54547
  20935764.380   110018224.90807  20935762.600    85728500.40948
  21946519.720   115329751.87606  21946516.900    89867334.69447
  23519140.000   123593915.87604  23519138.400    96306940.54645
  23512207.620   123557473.04504  23512206.160    96278525.21946
  20467527.220   107557598.73707  20467522.620    83811101.24749
  21694970.320   114007911.33807  21694965.160    88837351.75848
  20697566.220   108766466.12107  20697565.940    84753097.59949
  21294186.820   111901764.82706  21294185.680    87196202.93547
 15 03 02 03 20  0.0000000  0  9G01G04G11G14G16G19G22G27G32
  22957252.280   120641185.86804  22957254.060    94006128.87246
  20928116.400   109978034.63107  20928114.680    85697183.31648
  21933119.560   115259333.53706  21933116.740    89812463.27146
  23508415.860   123537561.91004  23508414.500    96263028.39643
  23532355.360   123663349.61304  23532353.900    96361026.33544
  20465202.440   107545382.16907  20465197.840    83801581.84649
  21707056.040   114071422.41107  21707050.880    88886840.91348
  20704646.560   108803673.64007  20704646.280    84782090.46349
  21278657.320   111820156.98206  21278656.240    87132612.42347
 15 03 02 03 20 30.0000000  0  9G01G04G11G14G16G19G22G27G32
  22944436.380   120573837.75104  22944438.140    93953649.85947
  20920516.960   109938099.46907  20920515.300    85666065.01548
  21919751.880   115189085.91706  21919749.160    89757724.91146
  23497752.140   123481524.01504  23497750.600    96219362.55046
  23552524.860   123769339.66104  23552523.200    96443615.88445
  20462950.120   107533546.12207  20462945.520    83792358.95049
  21719207.260   114135277.77707  21719202.120    88936598.34148
  20711805.320   108841293.07307  20711805.020    84811404.30249
  21263210.900   111738985.41806  21263209.800    87069361.87847
 15 03 02 03 21  0.0000000  0 10G01G04G11G14G16G18G19G22G27G32
  22931647.460   120506631.66204  22931649.100    93901281.49447
  20912965.440   109898415.93007  20912963.760    85635142.78048
  21906416.120   115119006.02606  21906413.420    89703117.22346
  23487148.460   123425801.11404  23487146.740    96175942.07345
  23572714.720   123875436.62804  23572712.780    96526288.73945
  24716931.840   129888354.13703  24716928.140   101211684.03044
  20460769.740   107522088.22607  20460765.160    83783430.72249
  21731422.940   114199471.60807  21731417.860    88986619.50648
  20719041.780   108879320.87207  20719041.480    84841036.34749
  21247847.180   111658248.54006  21247846.040    87006450.05447
 15 03 02 03 21 30.0000000  0 10G01G04G11G14G16G18G19G22G27G32
  22918888.760   120439584.65104  22918890.440    93849037.09046
  20905464.920   109859000.76207  20905463.280    85604429.68348
  21893115.680   115049111.91206  21893112.960    89648654.29347
  23476608.400   123370412.74004  23476606.560    96132782.34545
  23592927.580   123981654.70804  23592925.640    96609055.98245
  24734439.480   129980356.69413  24734436.580   101283382.35055
  20458664.800   107511026.56307  20458660.220    83774811.24249
  21743705.900   114264018.81207  21743700.840    89036916.02748
  20726359.180   108917774.12607  20726358.920    84870999.91649
  21232569.760   111577965.29806  21232568.620    86943891.72248
 15 03 02 03 22  0.0000000  0  9G01G04G11G14G16G19G22G27G32
  22906157.120   120372679.83805  22906158.700    93796903.50146
  20898012.240   109819837.18207  20898010.660    85573912.61248
  21879847.540   114979387.46906  21879844.820    89594323.56147
  23466129.420   123315344.72404  23466127.500    96089872.23745
  23613159.580   124087973.88704  23613157.660    96691901.99445
  20456632.240   107500345.26707  20456627.640    83766488.15249
  21756052.520   114328900.35507  21756047.420    89087473.07048
  20733754.360   108956635.97307  20733754.120    84901281.86849
  21217375.820   111498120.83306  21217374.660    86881675.28747
 15 03 02 03 22 30.0000000  0 10G01G04G11G14G16G18G19G22G27G32
  22893453.040   120305919.48904  22893454.560    93744882.47847
  20890607.900   109780927.62807  20890606.420    85543593.48748
  21866612.300   114909835.84706  21866609.580    89540127.51346
  23455712.420   123260602.18704  23455710.500    96047215.74944
  23633410.700   124194393.53104  23633408.760    96774826.26045
  24769496.780   130164583.32703  24769494.780   101426931.91344
  20454672.760   107490048.01507  20454668.160    83758464.31349
  21768462.740   114394116.24907  21768457.580    89138290.65048
  20741227.740   108995908.80507  20741227.520    84931884.06749
  21202266.220   111418719.48106  21202265.060    86819804.13048
 15 03 02 03 23  0.0000000  0 10G01G04G11G14G16G18G19G22G27G32
  22880778.040   120239311.73304  22880779.580    93692980.34547
  20883253.460   109742279.87907  20883251.960    85513478.36648
  21853411.620   114840465.96106  21853408.960    89486073.06647
  23445359.420   123206195.81204  23445357.320    96004821.20644
  23653682.300   124300920.39704  23653680.280    96857834.10445
  24787048.100   130256817.12903  24787045.900   101498802.38443
  20452788.120   107480144.01807  20452783.500    83750746.90949
  21780937.700   114459672.74807  21780932.540    89189373.64748
  20748780.920   109035600.80507  20748780.660    84962812.89249
  21187242.860   111339771.50906  21187241.780    86758286.26447
 15 03 02 03 23 30.0000000  0 10G01G04G11G14G16G18G19G22G27G32
  22868130.480   120172848.65705  22868132.080    93641190.95746
  20875947.400   109703886.16707  20875945.840    85483561.18648
  21840244.160   114771270.61506  21840241.540    89432154.63346
  23435069.340   123152120.35404  23435067.260    95962684.50846
  23673971.940   124407542.82204  23673969.860    96940916.38545
  24804613.300   130349122.17604  24804610.740   101570728.39145
  20450977.060   107470626.51507  20450972.400    83743330.66749
  21793475.480   114525559.78407  21793470.400    89240714.19448
  20756412.320   109075704.07007  20756412.040    84994062.18149
  21172304.600   111261270.79906  21172303.580    86697116.91547
 15 03 02 03 24  0.0000000  0 10G01G04G11G14G16G18G19G22G27G32
  22855510.980   120106533.15205  22855512.620    93589516.55446
  20868690.280   109665749.32407  20868688.640    85453844.18348
  21827110.600   114702253.41706  21827107.960    89378375.00947
  23424843.040   123098381.35204  23424841.120    95920810.01745
  23694279.540   124514260.25704  23694277.560    97024072.70944
  24822192.360   130441499.96703  24822189.520   101642711.08244
  20449240.280   107461499.73507  20449235.640    83736218.88849
  21806076.320   114591778.38806  21806071.360    89292313.10348
  20764122.500   109116221.48407  20764122.240    85025634.18349
  21157452.380   111183222.30006  21157451.380    86636299.91947
 15 03 02 03 24 30.0000000  0 10G01G04G11G14G16G18G19G22G27G32
  22842919.640   120040365.50505  22842921.300    93537957.41046
  20861482.140   109627869.83007  20861480.360    85424327.70148
  21814011.240   114633415.58706  21814008.500    89324735.16247
  23414681.380   123044981.49204  23414679.280    95879199.70744
  23714604.940   124621070.39004  23714602.960    97107301.27345
  24839784.840   130533948.83903  24839781.700   101714749.20644
  20447578.020   107452764.98807  20447573.460    83729412.58849
  21818739.800   114658325.96107  21818734.960    89344168.35648
  20771911.560   109157153.39407  20771911.320    85057529.17049
  21142686.680   111105628.30607  21142685.680    86575837.08947
 15 03 02 03 25  0.0000000  0 10G01G04G11G14G16G18G19G22G27G32
  22830356.120   119974343.98205  22830357.760    93486512.07447
  20854322.460   109590245.59407  20854320.680    85395010.11748
  21800945.880   114564756.61506  21800943.120    89271234.68546
  23404584.440   122991921.77204  23404582.140    95837854.53644
  23734947.320   124727969.70304  23734945.460    97190599.30644
  24857390.240   130626465.22904  24857387.020   101786839.88943
  20445990.280   107444421.78907  20445985.820    83722911.39449
  21831465.320   114725198.86507  21831460.460    89396277.11248
  20779779.120   109198498.06607  20779778.980    85089745.79249
  21128007.620   111028489.06507  21128006.500    86515728.61447
 15 03 02 03 25 30.0000000  0 10G01G04G11G14G16G18G19G22G27G32
  22817820.900   119908469.92705  22817822.380    93435181.65647
  20847211.620   109552878.42407  20847209.920    85365892.84648
  21787914.920   114496278.39006  21787912.120    89217875.04747
  23394552.960   122939206.31404  23394550.660    95796777.57145
  23755306.280   124834956.15804  23755304.420    97273965.24945
  24875008.260   130719048.95104  24875005.160   101858983.03844
  20444477.500   107436472.27707  20444473.120    83716716.96449
  21844252.620   114792396.64006  21844247.800    89448639.01348
  20787725.520   109240256.82707  20787725.440    85122285.07649
  21113415.700   110951807.76607  21113414.500    86455976.97747
 15 03 02 03 26  0.0000000  0 10G01G04G11G14G16G18G19G22G27G32
  22805313.940   119842744.79405  22805315.320    93383967.31146
  20840149.980   109515769.43207  20840148.320    85336976.74948
  21774918.620   114427983.18406  21774915.860    89164658.01046
  23384587.800   122886839.23704  23384585.640    95755972.09345
  23775681.640   124942028.59404  23775679.560    97357398.17243
  24892639.040   130811699.12803  24892635.640   101931177.95544
  20443040.180   107428919.22507  20443035.820    83710831.46949
  21857101.600   114859918.50706  21857096.780    89501253.45348
  20795751.040   109282431.09307  20795750.980    85155148.13649
  21098911.520   110875587.77607  21098910.340    86396584.79947
 15 03 02 03 26 30.0000000  0 10G01G04G11G14G16G18G19G22G27G32
  22792835.220   119777168.21005  22792836.380    93332868.70346
  20833137.440   109478918.24607  20833135.780    85308261.55248
  21761957.300   114359871.63706  21761954.640    89111584.08347
  23374689.140   122834822.31804  23374687.220    95715439.45245
  23796072.500   125049183.12604  23796070.480    97440895.09145
  24910281.760   130904410.98303  24910278.440   102003429.27644
  20441678.500   107421763.44307  20441674.100    83705255.52749
  21870011.880   114927762.02907  21870006.940    89554118.53348
  20803855.560   109325020.46707  20803855.480    85188334.65349
  21084495.420   110799830.74606  21084494.260    86337553.37648
 15 03 02 03 27  0.0000000  0  9G01G04G11G14G16G19G22G27G32
  22780383.020   119711731.79305  22780384.280    93281879.29647
  20826172.320   109442316.46707  20826170.680    85279740.69148
  21749029.600   114291935.96206  21749026.960    89058647.20047
  23364856.160   122783150.02804  23364854.120    95675175.36845
  23816476.820   125156409.01104  23816475.140    97524447.58445
  20440391.000   107414997.45607  20440386.580    83699983.32749
  21882981.320   114995916.49207  21882976.260    89607225.90948
  20812037.400   109368016.50307  20812037.320    85221838.05849
  21070166.200   110724530.11807  21070165.000    86278877.58547
 15 03 02 03 27 30.0000000  0  9G01G04G11G14G16G19G22G27G32
  22767960.460   119646450.95205  22767961.760    93231011.12747
  20819257.620   109405979.46207  20819255.960    85251426.15348
  21736138.660   114224192.78206  21736135.820    89005860.32547
  23355092.200   122731840.39204  23355090.080    95635193.83445
  23836897.320   125263719.37404  23836895.820    97608065.91744
  20439180.840   107408637.87807  20439176.420    83695027.81249
  21896012.380   115064395.12907  21896007.280    89660585.89848
  20820299.520   109411434.52307  20820299.460    85255670.27549
  21055927.100   110649703.03507  21055925.780    86220570.78348
 15 03 02 03 28  0.0000000  0  9G01G04G11G14G16G19G22G27G32
  22755565.700   119581316.30405  22755567.160    93180256.87147
  20812391.600   109369898.08707  20812389.900    85223310.80748
  21723282.660   114156633.51806  21723279.660    88953216.76347
  23345395.960   122680886.53804  23345393.820    95595489.57745
  23857331.480   125371101.60404  23857330.160    97691740.22644
  20438046.480   107402676.35007  20438042.000    83690382.45749
  21909102.940   115133186.52306  21909097.880    89714189.57448
  20828640.220   109455265.11307  20828640.100    85289823.97849
  21041776.700   110575342.22307  21041775.320    86162627.30847
 15 03 02 03 28 30.0000000  0  9G01G04G11G14G16G19G22G27G32
  22743198.780   119516327.25405  22743200.180    93129616.08047
  20805573.980   109334071.46207  20805572.340    85195393.96748
  21710461.620   114089258.32206  21710458.580    88900716.61846
  23335767.760   122630290.32604  23335765.800    95556064.00446
  23877778.480   125478551.89804  23877777.440    97775467.59544
  20436987.940   107397113.54307  20436983.440    83686047.79849
  21922252.480   115202287.88006  21922247.460    89768034.78547
  20837059.300   109499507.44907  20837059.120    85324298.51449
  21027715.200   110501448.69907  21027713.840    86105047.96148
 15 03 02 03 29  0.0000000  0  9G01G04G11G14G16G19G22G27G32
  22730859.160   119451481.98705  22730860.380    93079087.32946
  20798804.620   109298497.93007  20798802.980    85167674.33648
  21697675.440   114022066.23806  21697672.340    88848359.15847
  23326207.640   122580052.38404  23326205.980    95516917.58345
  23898237.740   125586066.30804  23898236.760    97859244.92246
  20436005.100   107391948.63607  20436000.560    83682023.19449
  21935460.360   115271695.42206  21935455.300    89822118.58347
  20845556.400   109544159.80807  20845556.180    85359092.55749
  21013742.680   110428022.62907  21013741.340    86047832.85448
 15 03 02 03 29 30.0000000  0  9G01G04G11G14G16G19G22G27G32
  22718548.620   119386789.63905  22718549.680    93028677.73847
  20792085.140   109263186.50107  20792083.440    85140158.94948
  21684926.060   113955067.47306  21684922.860    88796152.33947
  23316718.020   122530184.36804  23316716.360    95478059.39046
  23918710.600   125693651.35904  23918709.580    97943077.27045
  20435099.840   107387191.89707  20435095.380    83678316.64549
  21948727.780   115341416.00806  21948722.680    89876446.31947
  20854133.240   109589231.03907  20854132.960    85394212.98649
  20999861.200   110355074.88607  20999859.840    85990990.46948
 15 03 02 03 30  0.0000000  0  9G01G04G11G14G16G19G22G27G32
  22706265.600   119322241.41605  22706266.540    92978380.42946
  20785413.740   109228128.26507  20785412.060    85112840.85848
  21672211.940   113888253.89906  21672208.620    88744089.82446
  23307297.680   122480680.07604  23307295.900    95439484.68546
  23939194.520   125801295.06704  23939193.760    98026955.33845
  20434270.720   107382835.10707  20434266.300    83674921.74049
  21962052.640   115411438.76706  21962047.520    89931009.51247
  20862788.080   109634712.27507  20862787.780    85429652.90449
  20986069.340   110282598.44107  20986068.040    85934515.33748
 15 03 02 03 30 30.0000000  0  9G01G04G11G14G16G19G22G27G32
  22694010.600   119257840.83805  22694011.460    92928198.19646
  20778791.240   109193326.94307  20778789.580    85085722.94448
  21659533.820   113821630.03406  21659530.540    88692175.14846
  23297947.780   122431545.58604  23297945.860    95401198.07145
  23959689.720   125908997.90404  23959689.180    98110879.48244
  20433518.700   107378883.41707  20433514.320    83671842.50049
  21975435.120   115481764.72906  21975430.100    89985808.96347
  20871521.560   109680606.88807  20871521.260    85465414.93249
  20972368.200   110210598.70007  20972366.920    85878411.66048
 15 03 02 03 31  0.0000000  0  9G01G04G11G14G16G19G22G27G32
  22681783.780   119193588.38305  22681784.560    92878131.36946
  20772217.720   109158783.08307  20772216.080    85058805.66148
  21646892.040   113755197.33406  21646888.840    88640409.41247
  23288668.660   122382783.92304  23288666.620    95363201.98044
  23980196.100   126016758.09204  23980195.400    98194848.30645
  20432844.040   107375338.23907  20432839.720    83669080.02549
  21988875.000   115552392.49506  21988870.140    90040843.58447
  20880333.680   109726915.22207  20880333.440    85501499.34049
  20958758.280   110139077.84907  20958756.920    85822681.14548
 15 03 02 03 31 30.0000000  0  9G01G04G11G14G16G19G22G27G32
  22669584.900   119129482.89905  22669585.700    92828179.07246
  20765692.960   109124495.21607  20765691.240    85032087.85348
  21634286.560   113688955.46006  21634283.420    88588792.37947
  23279460.780   122334396.21304  23279458.740    95325497.29645
  24000712.660   126124571.75304  24000711.560    98278858.78944
  20432246.760   107372199.28007  20432242.380    83666634.08149
  22002371.720   115623318.65506  22002366.980    90096110.72147
  20889224.260   109773635.87707  20889224.060    85537905.03749
  20945239.600   110068036.39907  20945238.140    85767324.19148
 15 03 02 03 32  0.0000000  0  9G01G04G11G14G16G19G22G27G32
  22657413.500   119065522.26505  22657414.460    92778339.63947
  20759216.520   109090461.29707  20759214.760    85005567.91848
  21621717.160   113622903.10806  21621714.080    88537323.02147
  23270324.200   122286382.86704  23270322.080    95288084.36344
  24021238.420   126232433.84204  24021237.120    98362907.00644
  20431726.660   107369465.64807  20431722.120    83664503.96649
  22015924.540   115694539.20506  22015919.820    90151607.24347
  20898192.940   109820766.57707  20898192.700    85574630.25049
  20931812.040   109997473.94507  20931810.540    85712340.47748
 15 03 02 03 32 30.0000000  0  9G01G03G04G11G14G19G22G27G32
  22645273.420   119001725.85905  22645274.380    92728628.17846
  24401607.280   128231307.14003  24401611.040    99920518.27946
  20752792.120   109056700.82407  20752790.400    84979261.05948
  21609187.720   113557060.94306  21609184.760    88486017.45847
  23261262.980   122238765.82404  23261260.900    95250980.18144
  20431287.520   107367157.61807  20431282.880    83662705.49949
  22029536.680   115766071.15206  22029531.880    90207346.42747
  20907243.300   109868326.45607  20907243.060    85611689.88549
  20918479.680   109927411.63107  20918478.120    85657746.48748
 15 03 02 03 33  0.0000000  0  9G01G04G11G14G16G19G22G27G32
  22633155.980   118938048.17905  22633156.940    92679009.24047
  20746411.040   109023168.24507  20746409.420    84953131.79048
  21596689.740   113491384.00106  21596686.840    88434840.61847
  23252268.920   122191501.75904  23252266.840    95214151.03245
  24062317.900   126448327.62304  24062317.240    98531166.73245
  20430920.740   107365230.50207  20430916.160    83661203.84449
  22043199.020   115837866.60306  22043194.020    90263290.93647
  20916366.640   109916269.83107  20916366.440    85649048.34949
  20905234.140   109857805.58107  20905232.520    85603508.02448
 15 03 02 03 33 30.0000000  0  9G01G04G11G14G16G19G22G27G32
  22621068.300   118874527.16805  22621069.240    92629512.36547
  20740080.600   108989901.41707  20740078.960    84927209.58848
  21584230.560   113425911.22206  21584227.720    88383822.87546
  23243349.640   122144631.00704  23243347.600    95177628.40345
  24082868.680   126556323.22604  24082867.560    98615318.97445
  20430633.920   107363723.34707  20430629.360    83660029.43949
  22056918.360   115909961.62206  22056913.200    90319468.87847
  20925570.140   109964634.41607  20925569.960    85686735.03149
  20892082.940   109788695.51907  20892081.320    85549656.04848
 15 03 02 03 34  0.0000000  0  9G01G04G11G14G16G19G22G27G32
  22609009.400   118811157.50205  22609010.260    92580133.42946
  20733799.740   108956895.16907  20733798.060    84901490.44248
  21571809.460   113360638.21706  21571806.660    88332960.79447
  23234504.800   122098150.97304  23234502.660    95141410.21246
  24103427.860   126664362.99004  24103426.840    98699505.63345
  20430426.200   107362631.70507  20430421.640    83659178.80549
  22070693.160   115982348.75606  22070687.980    90375874.43447
  20934852.740   110013414.63007  20934852.520    85724745.57949
  20879025.380   109720077.75607  20879023.780    85496187.67548
 15 03 02 03 34 30.0000000  0  8G01G04G11G14G19G22G27G32
  22596979.520   118747940.33705  22596980.300    92530873.31047
  20727568.640   108924150.48407  20727566.940    84875975.11148
  21559426.800   113295566.88606  21559423.980    88282255.88447
  23225734.920   122052064.93204  23225732.780    95105499.02446
  20430298.060   107361957.82607  20430293.440    83658653.70049
  22084523.380   116055026.92106  22084518.180    90432506.76947
  20944214.580   110062611.35207  20944214.340    85763080.67349
  20866061.940   109651954.97107  20866060.440    85443105.00348
 15 03 02 03 35  0.0000000  0 10G01G03G04G11G14G16G19G22G27G32
  22584976.800   118684866.08605  22584977.680    92481724.56547
  24300631.960   127700677.91103  24300634.760    99507042.79846
  20721385.440   108891657.77207  20721383.800    84850656.10748
  21547080.880   113230688.84906  21547078.060    88231701.58147
  23217038.720   122006365.71404  23217036.560    95069889.28945
  24144569.360   126880564.40304  24144567.580    98867969.46345
  20430247.800   107361693.17707  20430243.120    83658447.47649
  22098406.760   116127984.32806  22098401.540    90489356.69447
  20953653.780   110112214.70907  20953653.520    85801732.62949
  20853191.240   109584319.14107  20853189.700    85390401.78447
 15 03 02 03 35 30.0000000  0  9G01G04G11G14G16G19G22G27G32
  22573000.020   118621927.78705  22573001.000    92432681.74246
  20715248.900   108859410.16307  20715247.260    84825528.11048
  21534770.540   113165997.83806  21534767.740    88181293.01247
  23208415.140   121961048.50604  23208412.980    95034577.17745
  24165145.740   126988696.73204  24165145.480    98952228.30045
  20430274.160   107361831.67907  20430269.520    83658555.39649
  22112341.520   116201211.68406  22112336.260    90546416.96447
  20963169.020   110162217.46007  20963168.720    85840695.79749
  20840412.160   109517164.97207  20840410.620    85338073.87848
 15 03 02 03 36  0.0000000  0  9G01G04G11G14G16G19G22G27G32
  22561052.880   118559145.10005  22561053.920    92383760.18247
  20709162.720   108827427.34907  20709161.140    84800606.44148
  21522499.820   113101514.75906  21522497.060    88131046.45947
  23199868.540   121916135.83504  23199866.360    94999580.35046
  24185729.900   127096866.35304  24185729.360    99036516.07541
  20430381.140   107362394.05407  20430376.580    83658993.60849
  22126331.000   116274726.79806  22126325.760    90603701.47847
  20972763.980   110212638.97807  20972763.640    85879985.28249
  20827728.840   109450513.73907  20827727.260    85286137.87048
 15 03 02 03 36 30.0000000  0  9G01G04G11G14G16G19G22G27G32
  22549134.880   118496516.04805  22549136.040    92334958.34347
  20703126.500   108795707.14907  20703124.980    84775889.41048
  21510268.400   113037238.20006  21510265.680    88080960.83447
  23191398.780   121871627.66104  23191396.760    94964898.66444
  24206320.140   127205068.15904  24206319.540    99120829.03944
  20430568.480   107363378.85307  20430564.000    83659760.98649
  22140374.320   116348525.25506  22140369.220    90661206.76347
  20982438.160   110263476.88307  20982437.820    85919599.22149
  20815141.120   109384364.94207  20815139.580    85234593.37648
 15 03 02 03 37  0.0000000  0  9G01G04G11G14G16G19G22G27G32
  22537243.060   118434024.72105  22537244.240    92286263.82847
  20697137.360   108764233.71607  20697135.760    84751364.66848
  21498073.600   112973153.80406  21498070.860    88031024.95647
  23183003.380   121827510.42404  23183001.460    94930521.59845
  24226913.020   127313283.80104  24226912.560    99205152.76744
  20430833.380   107364771.40607  20430828.960    83660846.09249
  22154468.040   116422588.89806  22154463.120    90718918.69847
  20992188.460   110314715.00807  20992188.120    85959525.02249
  20802646.340   109318704.24307  20802644.780    85183429.21648
 15 03 02 03 37 30.0000000  0  9G01G04G11G14G16G19G22G27G32
  22525379.240   118371680.21505  22525380.360    92237683.71047
  20691196.900   108733016.19107  20691195.280    84727039.32548
  21485917.100   112909271.10506  21485914.360    87981246.23547
  23174684.900   121783795.85704  23174682.840    94896458.34846
  24247509.840   127421519.96904  24247509.480    99289492.43644
  20431177.760   107366581.54007  20431173.400    83662256.57849
  22168613.620   116496924.95806  22168608.780    90776842.89147
  21002016.540   110366362.06907  21002016.260    85999769.47549
  20790246.440   109253542.21307  20790244.860    85132653.63048
 15 03 02 03 38  0.0000000  0 10G01G03G04G11G14G16G19G22G27G32
  22513546.180   118309496.76805  22513547.200    92189229.09647
  24180327.760   127068481.37104  24180332.000    99014416.52445
  20685307.920   108702068.93307  20685306.200    84702924.58548
  21473801.900   112845605.37306  21473799.140    87931636.58447
  23166446.080   121740500.15104  23166443.880    94862721.44245
  24268112.760   127529788.07804  24268112.400    99373857.05444
  20431604.660   107368824.66207  20431600.280    83664004.45549
  22182813.320   116571545.46106  22182808.520    90834988.72947
  21011925.060   110418431.90607  21011924.860    86040343.36448
  20777944.340   109188894.54407  20777942.780    85082278.83948
 15 03 02 03 38 30.0000000  0 10G01G03G04G11G14G16G19G22G27G32
  22501739.000   118247449.21205  22501740.000    92140880.35447
  24160374.080   126963621.80504  24160376.580    98932707.93146
  20679465.500   108671366.51207  20679463.740    84679000.62648
  21461723.480   112782132.40606  21461720.600    87882177.14247
  23158282.380   121697600.45104  23158280.380    94829293.14046
  24288716.140   127638059.70704  24288715.840    99458224.41445
  20432109.320   107371476.27907  20432104.920    83666070.64949
  22197062.000   116646423.17906  22197057.160    90893335.00747
  21021909.200   110470899.03907  21021909.060    86081226.83649
  20765735.640   109124737.58907  20765734.080    85032286.42648
 15 03 02 03 39  0.0000000  0  9G01G04G11G14G16G19G22G27G32
  22489958.620   118185543.64605  22489959.820    92092642.28246
  20673670.820   108640915.16007  20673669.020    84655272.30548
  21449683.040   112718859.21706  21449680.060    87832873.36047
  23150195.660   121655105.06204  23150193.860    94796179.89145
  24309320.940   127746338.65404  24309320.900    99542597.43744
  20432693.000   107374543.45407  20432688.600    83668460.65349
  22211360.440   116721561.94406  22211355.500    90951884.69647
  21031970.120   110523769.14707  21031969.900    86122424.31349
  20753621.740   109061078.90407  20753620.240    84982682.27448
 15 03 02 03 39 30.0000000  0 10G01G03G04G11G14G16G19G22G27G32
  22478208.640   118123797.57305  22478209.920    92044528.47147
  24120551.820   126754352.96004  24120554.800    98769639.01645
  20667927.160   108610732.24407  20667925.360    84631753.15548
  21437684.020   112655804.20106  21437681.100    87783739.59247
  23142189.800   121613033.71104  23142187.920    94763397.02446
  24329930.160   127854639.84804  24329930.040    99626987.79043
  20433359.160   107378044.45907  20433354.820    83671188.70949
  22225711.440   116796976.68206  22225706.440    91010649.41947
  21042110.980   110577059.27907  21042110.600    86163949.07948
  20741606.220   108997937.48807  20741604.840    84933481.18548
 15 03 02 03 40  0.0000000  0 10G01G03G04G11G14G16G19G22G27G32
  22466483.300   118062180.41105  22466484.440    91996515.11747
  24100682.160   126649939.36514  24100685.040    98688275.37655
  20662228.820   108580787.23607  20662227.040    84608419.39148
  21425720.880   112592937.76506  21425717.960    87734752.77547
  23134259.280   121571358.21304  23134257.360    94730922.61246
  24350537.260   127962929.72304  24350536.920    99711369.37943
  20434102.160   107381949.39207  20434097.860    83674231.50749
  22240108.860   116872634.82006  22240103.760    91069603.81847
  21052325.780   110630738.39507  21052325.340    86205776.94848
  20729683.600   108935284.04907  20729682.280    84884660.34048
 15 03 02 03 40 30.0000000  0 10G01G03G04G11G14G16G19G22G27G32
  22454789.520   118000729.10405  22454790.640    91948630.99847
  24080845.540   126545697.83804  24080848.280    98607048.35545
  20656582.760   108551117.00107  20656581.040    84585299.73148
  21413800.820   112530297.84506  21413797.900    87685942.44847
  23126411.440   121530117.73804  23126409.540    94698787.19745
  24371148.880   128071242.57503  24371148.140    99795768.81445
  20434929.320   107386296.05807  20434925.000    83677618.51349
  22254559.200   116948571.48306  22254554.100    91128775.24047
  21062621.500   110684843.09707  21062621.160    86247936.44649
  20717861.180   108873156.99607  20717859.880    84836249.66648
 15 03 02 03 41  0.0000000  0 10G01G03G04G11G14G16G19G22G27G32
  22443122.520   117939418.83905  22443123.700    91900856.79647
  24061037.460   126441607.28304  24061040.020    98525938.97946
  20650984.280   108521696.78707  20650982.540    84562374.89248
  21401919.500   112467860.82206  21401916.560    87637290.24447
  23118641.960   121489289.49904  23118640.220    94666973.04946
  24391759.520   128179551.08704  24391758.360    99880164.91644
  20435836.060   107391060.75607  20435831.680    83681331.26149
  22269057.280   117024759.57606  22269052.280    91188142.58547
  21072993.380   110739348.04907  21072993.140    86290407.82949
  20706134.520   108811532.83507  20706133.160    84788230.85748
 15 03 02 03 41 30.0000000  0 10G01G03G04G11G14G16G19G22G27G32
  22431483.100   117878252.49905  22431484.200    91853194.71148
  24041259.240   126337672.38004  24041261.460    98444950.90546
  20645433.960   108492529.57507  20645432.200    84539647.19648
  21390077.420   112405630.31806  21390074.540    87588798.94547
  23110952.020   121448878.75005  23110950.280    94635484.14945
  24412369.280   128287855.16904  24412368.060    99964557.53146
  20436822.980   107396247.03707  20436818.600    83685372.51549
  22283603.300   117101199.45606  22283598.280    91247706.12447
  21083441.820   110794255.70207  21083441.760    86333193.00649
  20694504.380   108750415.80807  20694502.960    84740607.21248
 15 03 02 03 42  0.0000000  0 10G01G03G04G11G14G16G19G22G27G32
  22419871.920   117817235.00705  22419872.980    91805648.64247
  24021511.820   126233899.83604  24021514.340    98364089.33246
  20639932.660   108463620.24007  20639930.900    84517120.44548
  21378275.760   112343612.25306  21378272.980    87540473.19647
  23103342.880   121408892.34704  23103340.980    94604325.94945
  24432978.460   128396156.98803  24432977.240   100048948.45546
  20437891.260   107401860.62907  20437886.840    83689746.74349
  22298197.800   117177894.07106  22298192.760    91307468.16847
  21093967.860   110849570.46307  21093967.800    86376295.40248
  20682971.920   108689812.23807  20682970.480    84693383.66948
 15 03 02 03 42 30.0000000  0 10G01G03G04G11G14G16G19G22G27G32
  22408288.740   117756365.57705  22408289.900    91758217.92747
  24001795.460   126130290.61604  24001798.080    98283355.03046
  20634480.240   108434967.86607  20634478.500    84494793.92048
  21366514.560   112281806.75806  21366511.800    87492313.07347
  23095814.660   121369331.53304  23095812.700    94573499.33946
  24453586.580   128504453.17203  24453585.460   100133334.91144
  20439040.840   107407901.54707  20439036.380    83694453.94649
  22312840.240   117254840.46006  22312835.140    91367426.38947
  21104571.180   110905291.03607  21104571.060    86419714.01649
  20671537.220   108629722.53907  20671535.780    84646560.54248
 15 03 02 03 43  0.0000000  0 10G01G03G04G11G14G16G19G22G27G32
  22396733.520   117695642.78005  22396734.760    91710901.48147
  23982110.320   126026845.09304  23982112.920    98202748.28145
  20629076.480   108406570.93707  20629074.740    84472666.45348
  21354793.760   112220213.52806  21354791.000    87444318.36647
  23088367.480   121330197.15004  23088365.560    94543005.04446
  24474192.880   128612739.95103  24474192.120   100217714.07445
  20440271.640   107414369.02707  20440267.100    83699493.53649
  22327529.840   117332035.11506  22327524.760    91427578.07347
  21115251.400   110961415.50607  21115251.180    86463447.35749
  20660200.280   108570146.62207  20660198.860    84600137.76448
 15 03 02 03 43 30.0000000  0  9G01G03G04G11G14G19G22G27G32
  22385208.100   117635075.85005  22385209.080    91663706.49547
  23962458.360   125923574.28204  23962461.200    98122277.66244
  20623723.200   108378439.02907  20623721.400    84450745.49048
  21343115.180   112158842.63906  21343112.440    87396496.90847
  23081003.780   121291500.52704  23081001.900    94512851.84545
  20441585.500   107421273.21107  20441580.940    83704873.41449
  22342268.120   117409485.05206  22342262.980    91487928.67547
  21126010.000   111017952.52007  21126009.820    86507502.16349
  20648963.100   108511094.96407  20648961.680    84554123.50348
 15 03 02 03 44  0.0000000  0  9G01G03G04G11G14G19G22G27G32
  22373707.440   117574639.33205  22373708.260    91616613.11747
  23942835.360   125820454.39803  23942838.240    98041924.66147
  20618415.400   108350546.32807  20618413.600    84429010.92448
  21331474.320   112097669.68806  21331471.560    87348829.67247
  23073719.040   121253218.39004  23073717.080    94483021.63345
  20442977.680   107428589.06107  20442973.100    83710574.07249
  22357049.660   117487162.59306  22357044.580    91548456.63147
  21136842.120   111074876.15707  21136842.040    86551858.22748
  20637821.020   108452543.34507  20637819.680    84508498.87748
 15 03 02 03 44 30.0000000  0  9G01G03G04G11G14G19G22G27G32
  22362236.700   117514359.93205  22362237.420    91569642.17247
  23923246.340   125717513.96204  23923249.280    97961711.49746
  20613158.180   108322919.68207  20613156.420    84407483.66948
  21319876.400   112036722.33306  21319873.660    87301338.23247
  23066518.580   121215379.52304  23066516.440    94453536.80245
  20444453.440   107436344.36607  20444448.880    83716617.16349
  22371879.200   117565092.39406  22371874.220    91609181.14147
  21147752.840   111132212.46407  21147752.840    86596535.85749
  20626779.480   108394519.70807  20626778.160    84463285.67248
 15 03 02 03 45  0.0000000  0  9G01G03G04G11G14G19G22G27G32
  22350793.240   117454224.39305  22350794.040    91522783.32347
  23903689.220   125614741.43104  23903692.240    97881629.16845
  20607949.060   108295545.79007  20607947.340    84386153.37048
  21308319.240   111975988.45306  21308316.380    87254013.14247
  23059400.320   121177972.50105  23059398.120    94424388.49646
  20446010.380   107444526.51407  20446005.860    83722992.85849
  22386753.820   117643258.91806  22386748.860    91670090.12147
  21158739.580   111189947.63607  21158739.560    86641524.28948
  20615836.160   108337011.94807  20615834.820    84418474.44448
 15 03 02 03 45 30.0000000  0  9G01G03G04G11G14G19G22G27G32
  22339378.000   117394236.80505  22339378.820    91476039.77447
  23884165.240   125512142.57804  23884168.220    97801682.11745
  20602788.840   108268428.75007  20602787.160    84365023.21948
  21296803.540   111915472.76807  21296800.560    87206858.06947
  23052365.440   121141003.77105  23052363.160    94395581.71945
  20447649.440   107453140.36907  20447645.000    83729704.95349
  22401673.800   117721664.14506  22401668.880    91731185.10047
  21169802.940   111248085.17407  21169802.840    86686826.25248
  20604992.020   108280025.38907  20604990.620    84374069.34648
 15 03 02 03 46  0.0000000  0  9G01G03G04G11G14G19G22G27G32
  22327990.540   117334395.61406  22327991.420    91429410.30347
  23864674.380   125409717.62804  23864677.200    97721870.62146
  20597677.240   108241567.05607  20597675.500    84344092.02748
  21285329.260   111855174.89907  21285326.180    87159872.73047
  23045413.920   121104473.74404  23045411.680    94367116.78245
  20449370.500   107462184.77907  20449366.120    83736752.54549
  22416638.460   117800303.94506  22416633.520    91792462.86947
  21180942.380   111306622.92107  21180942.200    86732440.07348
  20594246.960   108223559.56507  20594245.500    84330070.02148
 15 03 02 03 46 30.0000000  0  9G01G03G04G11G14G19G22G27G32
  22316631.300   117274702.75505  22316632.300    91382896.40547
  23845217.280   125307470.26104  23845220.000    97642197.47746
  20592614.580   108214962.43007  20592612.760    84323361.15648
  21273896.980   111795097.78307  21273893.760    87113059.38747
  23038546.560   121068385.96205  23038544.400    94338996.46546
  20451174.140   107471662.57707  20451169.700    83744137.84049
  22431647.800   117879178.51206  22431642.820    91853923.56647
  21192158.200   111365562.13807  21192157.880    86778366.72548
  20583601.560   108167617.59807  20583600.060    84286478.89248
 15 03 02 03 47  0.0000000  0  9G01G03G04G11G14G19G22G27G32
  22305299.920   117215155.80905  22305300.880    91336496.20447
  23825793.860   125205399.74204  23825796.180    97562662.11646
  20587600.360   108188612.46507  20587598.520    84302828.72248
  21262506.440   111735240.24607  21262503.220    87066417.16147
  23031763.360   121032740.42905  23031761.420    94311220.72146
  20453059.980   107481572.08907  20453055.460    83751859.52849
  22446700.960   117958283.40406  22446695.940    91915563.74447
  21203449.760   111424899.85707  21203449.420    86824603.89248
  20573055.560   108112198.23507  20573054.080    84243294.99048
 15 03 02 03 47 30.0000000  0  9G01G03G04G11G14G19G22G27G32
  22293996.740   117155756.80005  22293997.560    91290211.28347
  23806404.760   125103509.76904  23806406.840    97483267.48046
  20582635.000   108162519.31507  20582633.120    84282496.40348
  21251158.280   111675605.21107  21251155.060    87019948.30447
  23025065.060   120997540.86605  23025063.140    94283792.49645
  20455028.440   107491915.93807  20455023.840    83759919.66249
  22461797.840   118037618.11806  22461792.840    91977382.99347
  21214817.440   111484637.37407  21214817.080    86871152.59448
  20562609.620   108057304.52607  20562608.120    84200520.68148
 15 03 02 03 48  0.0000000  0  8G01G04G11G14G19G22G27G32
  22282721.000   117096502.51006  22282721.760    91244039.12747
  20577717.900   108136679.85607  20577716.020    84262361.76248
  21239851.940   111616189.85907  21239848.760    86973650.64047
  23018451.420   120962786.02405  23018449.440    94256710.83245
  20457078.940   107502691.26207  20457074.300    83768316.01649
  22476937.340   118117177.06906  22476932.440    92039376.97947
  21226260.480   111544770.79007  21226260.120    86918009.79349
  20552263.320   108002934.20307  20552261.780    84158154.20448
 15 03 02 03 48 30.0000000  0  9G01G03G04G11G14G19G22G27G32
  22271474.700   117037403.37805  22271475.600    91197987.88447
  23767730.520   124900268.12804  23767732.980    97324892.18546
  20572851.040   108111104.22607  20572849.140    84242432.70048
  21228589.740   111557006.33007  21228586.520    86927533.61147
  23011924.820   120928488.36305  23011922.700    94229985.38846
  20459213.600   107513909.37307  20459209.040    83777057.40149
  22492121.260   118196969.14906  22492116.440    92101552.61647
  21237780.680   111605309.92807  21237780.380    86965183.13548
  20542018.800   107949098.92407  20542017.260    84116204.65648
 15 03 02 03 49  0.0000000  0  9G01G03G04G11G14G19G22G27G32
  22260254.600   116978442.24005  22260255.700    91152044.13847
  23748445.620   124798924.01404  23748447.740    97245922.88746
  20568031.100   108085775.36807  20568029.220    84222695.93148
  21217368.420   111498038.00607  21217365.200    86881584.27547
  23005482.260   120894632.48105  23005480.140    94203604.21846
  20461429.320   107525553.71207  20461424.920    83786130.91049
  22507345.860   118276974.68606  22507341.060    92163894.59747
  21249374.680   111666236.80407  21249374.400    87012658.61148
  20531873.040   107895782.40107  20531871.400    84074659.31948
 15 03 02 03 49 30.0000000  0  9G01G03G04G11G14G19G22G27G32
  22249063.700   116919633.37705  22249064.780    91106219.06847
  23729196.720   124697771.63404  23729199.000    97167102.98045
  20563260.820   108060707.46907  20563258.980    84203162.50848
  21206191.000   111439300.52507  21206187.860    86835814.81847
  22999126.820   120861234.68905  22999124.900    94177579.97945
  20463729.020   107537639.12907  20463724.700    83795548.11449
  22522613.380   118357205.80906  22522608.560    92226412.35947
  21261045.020   111727565.06507  21261044.740    87060446.86048
  20521828.920   107842999.96307  20521827.160    84033530.15748
 15 03 02 03 50  0.0000000  0  9G01G03G04G11G14G19G22G27G32
  22237900.900   116860972.19605  22237901.940    91060509.08647
  23709983.620   124596807.96704  23709986.180    97088430.10546
  20558539.400   108035896.13507  20558537.560    84183829.01048
  21195056.820   111380790.25107  21195053.800    86790222.40447
  22992858.100   120828292.30105  22992856.260    94151910.61245
  20466111.960   107550161.58707  20466107.620    83805305.87249
  22537922.460   118437655.76406  22537917.720    92289100.62747
  21272790.760   111789289.32707  21272790.460    87108543.67348
  20511885.680   107790747.92907  20511883.880    83992814.30348
 15 03 02 03 50 30.0000000  0  9G01G03G04G11G14G19G22G27G32
  22226765.720   116802456.14406  22226766.660    91014912.17747
  23690806.500   124496032.11804  23690809.180    97009903.58045
  20553866.280   108011338.70007  20553864.420    84164693.35148
  21183965.580   111322505.63307  21183962.720    86744805.83347
  22986675.860   120795804.40005  22986674.100    94126595.38545
  20468577.700   107563118.97007  20468573.300    83815402.52749
  22553272.220   118518319.80506  22553267.600    92351955.71447
  21284611.300   111851406.35507  21284611.000    87156946.54048
  20502043.060   107739024.90807  20502041.300    83952510.66348
 15 03 02 03 51  0.0000000  0  8G01G04G11G14G19G22G27G32
  22215657.520   116744081.88806  22215658.360    90969425.76447
  20549240.820   107987031.64607  20549238.940    84145752.80048
  21172916.840   111264444.40907  21172914.080    86699563.33147
  22980579.840   120763769.53905  22980578.020    94101633.17246
  20471125.760   107576508.79307  20471121.320    83825836.15749
  22568661.620   118599192.53306  22568657.120    92414973.41247
  21296505.780   111913912.01707  21296505.460    87205652.23948
  20492300.600   107687828.30307  20492298.900    83912617.21548
 15 03 02 03 51 30.0000000  0  9G01G03G04G11G14G19G22G27G32
  22204580.020   116685869.10706  22204580.720    90924065.16347
  23652562.600   124295054.18704  23652565.260    96853302.32646
  20544666.800   107962994.79607  20544664.880    84127022.78948
  21161914.540   111206627.02707  21161911.820    86654510.83647
  22974574.080   120732209.05205  22974572.280    94077040.62345
  20473759.900   107590351.07107  20473755.460    83836622.35049
  22584094.220   118680291.24306  22584089.640    92478167.20647
  21308477.720   111976825.16507  21308477.440    87254675.45248
  20482662.320   107637178.68707  20482660.580    83873149.99648
 15 03 02 03 52  0.0000000  0  9G01G03G04G11G14G19G22G27G32
  22193528.800   116627795.33105  22193529.640    90878812.89148
  23633496.200   124194858.53904  23633498.800    96775227.86446
  20540139.840   107939205.62307  20540137.940    84108485.77948
  21150954.560   111149031.99107  21150951.800    86609631.59147
  22968654.700   120701102.61305  22968652.760    94052801.84845
  20476475.940   107604623.86807  20476471.480    83847744.00749
  22599565.160   118761591.52906  22599560.480    92541518.07447
  21320522.780   112040122.57707  21320522.560    87303998.09948
  20473124.040   107587054.57707  20473122.260    83834092.25848
 15 03 02 03 52 30.0000000  0 10G01G03G04G11G14G19G22G27G28G32
  22182505.780   116569870.02405  22182506.840    90833676.29947
  23614467.360   124094860.61104  23614469.640    96697307.51046
  20535661.840   107915673.63507  20535659.960    84090149.16948
  21140038.960   111091669.81607  21140036.120    86564933.79847
  22962823.860   120670461.29205  22962821.840    94028925.49446
  20479275.840   107619337.19307  20479271.280    83859208.93249
  22615075.860   118843100.59506  22615071.020    92605031.64246
  21332642.580   112103812.90607  21332642.520    87353626.91648
  24831315.200   130489441.50614  24831314.180   101680080.31855
  20463687.720   107537466.18407  20463685.900    83795451.96148
 15 03 02 03 53  0.0000000  0 10G01G03G04G11G14G19G22G27G28G32
  22171509.520   116512084.66105  22171510.560    90788648.75947
  23595474.720   123995053.50904  23595476.800    96619535.84446
  20531231.120   107892390.17007  20531229.240    84072006.21848
  21129166.240   111034533.12307  21129163.360    86520411.70747
  22957080.140   120640278.13905  22957078.180    94005406.17745
  20482158.020   107634483.01107  20482153.420    83871010.86149
  22630624.300   118924807.78606  22630619.260    92668699.57547
  21344835.480   112167886.74107  21344835.440    87403554.56348
  24817755.520   130418184.38604  24817753.920   101624555.31441
  20454351.820   107488405.86907  20454349.980    83757223.15748
 15 03 02 03 53 30.0000000  0 10G01G03G04G11G14G19G22G27G28G32
  22160542.780   116454453.71906  22160543.680    90743741.55747
  23576521.320   123895453.25004  23576523.320    96541925.37046
  20526850.400   107869369.69707  20526848.600    84054068.19548
  21118339.340   110977637.06507  21118336.340    86476077.12248
  22951426.800   120610569.37105  22951424.700    93982256.50446
  20485125.320   107650076.13607  20485120.720    83883161.34849
  22646212.820   119006725.48106  22646207.720    92732531.54347
  21357104.040   112232357.71307  21357103.880    87453791.67048
  24804263.280   130347283.21904  24804260.580   101569307.52544
  20445119.400   107439888.83007  20445117.480    83719417.68448
 15 03 02 03 54  0.0000000  0 10G01G03G04G11G14G19G22G27G28G32
  22149603.860   116396968.85806  22149604.640    90698948.19147
  23557606.000   123796053.21904  23557607.920    96464470.87645
  20522518.180   107846604.05807  20522516.440    84036328.74248
  21107556.860   110920974.64207  21107553.820    86431924.58547
  22945862.500   120581328.74905  22945860.380    93959471.63246
  20488176.220   107666108.86607  20488171.680    83895654.38049
  22661839.360   119088842.95605  22661834.240    92796519.17647
  21369446.400   112297216.75107  21369446.120    87504331.16348
  24790837.740   130276731.91404  24790833.940   101514332.45944
  20435988.900   107391907.67107  20435986.940    83682029.78748
 15 03 02 03 54 30.0000000  0 10G01G03G04G11G14G19G22G27G28G32
  22138693.300   116339632.95206  22138694.100    90654270.88447
  23538729.800   123696857.74304  23538731.780    96387175.80445
  20518235.060   107824095.79007  20518233.260    84018789.83248
  21096819.520   110864549.60807  21096816.480    86387957.03448
  22940387.940   120552560.20405  22940385.940    93937054.58446
  20491311.400   107682584.40607  20491306.880    83908492.46349
  22677503.980   119171161.05905  22677498.900    92860663.12947
  21381862.840   112362465.66507  21381862.520    87555174.46348
  24777479.680   130206534.95303  24777476.080   101459633.49845
  20426961.020   107344465.87007  20426959.040    83645062.15848
 15 03 02 03 55  0.0000000  0  9G01G03G04G11G14G19G22G27G32
  22127812.500   116282454.06506  22127813.420    90609715.91747
  23519894.320   123597876.54904  23519896.340    96310047.71346
  20514002.460   107801853.19807  20514000.600    84001457.95048
  21086129.100   110808371.31807  21086126.040    86344181.74547
  22935005.200   120524273.81205  22935003.140    93915013.25246
  20494532.500   107699511.36407  20494527.980    83921682.29249
  22693207.840   119253685.76005  22693202.860    92924968.08147
  21394354.780   112428111.77007  21394354.560    87606327.26448
  20418037.420   107297572.31707  20418035.480    83608521.74548
 15 03 02 03 55 30.0000000  0  9G01G03G04G11G14G19G22G27G32
  22116958.600   116225416.86406  22116959.620    90565271.35347
  23501097.020   123499095.83604  23501098.940    96233075.80446
  20509817.420   107779860.73307  20509815.560    83984320.96848
  21075482.980   110752425.38807  21075479.820    86300587.52247
  22929711.740   120496456.01605  22929709.620    93893337.07645
  20497836.620   107716874.51107  20497832.060    83935212.01349
  22708947.660   119336399.22505  22708942.660    92989420.12346
  21406919.220   112494138.69707  21406919.160    87657776.80348
  20409215.360   107251212.28607  20409213.440    83572397.06048
 15 03 02 03 56  0.0000000  0 10G01G03G04G11G14G19G22G27G28G32
  22106130.540   116168515.78106  22106131.660    90520932.86247
  23482336.940   123400511.39504  23482338.800    96156256.84046
  20505678.920   107758112.73207  20505677.060    83967374.47048
  21064880.080   110696706.98607  21064876.900    86257170.59547
  22924506.600   120469102.36105  22924504.480    93872022.54245
  20501222.780   107734668.66807  20501218.140    83949077.58249
  22724722.040   119419293.84906  22724716.880    93054013.35346
  21419554.920   112560539.79907  21419554.960    87709517.90348
  24737813.560   129998089.06004  24737810.280   101297193.65044
  20400493.860   107205380.71507  20400491.960    83536684.15848
 15 03 02 03 56 30.0000000  0 10G01G03G04G11G14G19G22G27G28G32
  22095332.480   116111772.14206  22095333.600    90476717.05947
  23463618.580   123302146.52904  23463620.500    96079608.99346
  20501591.000   107736630.70907  20501589.180    83950635.23848
  21054324.740   110641238.75707  21054321.640    86213948.59747
  22919394.020   120442236.14705  22919391.900    93851087.86645
  20504695.220   107752916.24207  20504690.520    83963296.46749
  22740534.740   119502389.49906  22740529.380    93118763.22346
  21432265.860   112627335.89007  21432265.900    87761566.79348
  24724728.620   129929325.92004  24724725.420   101243611.98242
  20391877.180   107160100.07707  20391875.380    83501400.56048
 15 03 02 03 57  0.0000000  0 10G01G03G04G11G14G19G22G27G28G32
  22084562.700   116055176.57906  22084563.820    90432616.63947
  23444940.380   123203993.11904  23444942.560    96003125.89646
  20497551.940   107715405.25807  20497550.120    83934095.92748
  21043815.360   110586012.11807  21043812.440    86170914.85847
  22914372.740   120415849.53905  22914370.540    93830526.85746
  20508252.080   107771607.73907  20508247.400    83977861.26749
  22756383.340   119585673.82405  22756377.900    93183660.10946
  21445049.960   112694516.38407  21445049.900    87813915.21648
  24711712.660   129860926.33404  24711709.760   101190313.60544
  20383363.640   107115361.33707  20383361.880    83466539.21948
 15 03 02 03 57 30.0000000  0 10G01G03G04G11G14G19G22G27G28G32
  22073821.480   115998730.64806  22073822.520    90388632.81747
  23426303.160   123106054.43704  23426305.380    95926810.14046
  20493561.960   107694437.89207  20493560.180    83917757.72448
  21033352.520   110531029.93207  21033349.680    86128071.60347
  22909443.240   120389945.60905  22909441.180    93810342.02146
  20511893.680   107790744.82807  20511889.120    83992773.28549
  22772267.660   119669146.36505  22772262.260    93248703.63847
  21457907.240   112762081.93907  21457907.200    87866563.68748
  24698766.500   129792893.89504  24698764.060   101137301.35144
  20374953.640   107071166.75707  20374951.940    83432101.89248
 15 03 02 03 58  0.0000000  0 10G01G03G04G11G14G19G22G27G28G32
  22063108.640   115942433.26406  22063109.480    90344764.74247
  23407706.860   123008330.79904  23407709.020    95850661.93346
  20489620.860   107673727.40607  20489619.120    83901619.68548
  21022936.080   110476291.63807  21022933.280    86085418.39347
  22904605.720   120364524.79604  22904603.760    93790533.59546
  20515619.920   107810326.64007  20515615.480    84008031.83849
  22788187.120   119752804.19105  22788181.880    93313891.52047
  21470837.420   112830030.44607  21470837.380    87919510.56048
  24685890.220   129725228.75304  24685887.820   101084575.23546
  20366647.080   107027515.74707  20366645.420    83398088.13048
 15 03 02 03 58 30.0000000  0 10G01G03G04G11G14G19G22G27G28G32
  22052423.580   115886282.95806  22052424.380    90301011.28147
  23389151.540   122910822.29104  23389153.640    95774681.36846
  20485728.400   107653272.59007  20485726.680    83885680.87048
  21012566.100   110421797.16207  21012563.280    86042955.17348
  22899860.140   120339587.14604  22899858.220    93771101.66845
  20519430.760   107830352.74207  20519426.360    84023636.58949
  22804141.220   119836643.60305  22804136.060    93379220.90747
  21483839.960   112898359.42807  21483839.960    87972753.90848
  24673084.080   129657931.61504  24673081.460   101032135.91545
  20358443.820   106984407.56707  20358442.220    83364497.35148
 15 03 02 03 59  0.0000000  0 10G01G03G04G11G14G19G22G27G28G32
  22041766.460   115830279.65906  22041767.260    90257372.36547
  23370637.660   122813530.35204  23370639.340    95698869.52845
  20481884.560   107633072.95407  20481882.780    83869940.89848
  21002242.740   110367547.32907  21002239.840    86000682.57848
  22895206.820   120315133.95005  22895204.980    93752047.25046
  20523326.140   107850823.10007  20523321.760    84039587.51249
  22820129.400   119920662.42905  22820124.360    93444690.10347
  21496914.780   112967067.75607  21496914.680    88026292.85148
  24660348.320   129591004.34303  24660345.480   100979984.79344
  20350343.920   106941842.49407  20350342.380    83331329.77848
 15 03 02 03 59 30.0000000  0  9G01G03G04G11G14G19G22G27G32
  22031140.640   115774440.75306  22031141.420    90213861.53847
  23352168.520   122716473.75404  23352169.960    95623241.09445
  20478092.620   107613146.04607  20478090.780    83854413.43948
  20991969.460   110313560.53407  20991966.540    85958614.95847
  22890649.400   120291184.04905  22890647.380    93733385.01946
  20527309.360   107871755.01807  20527304.960    84055898.09349
  22836154.680   120004875.72305  22836149.660    93510310.85847
  21510064.920   113036171.79507  21510064.700    88080140.14448
  20342350.800   106899838.50407  20342349.300    83298599.40448
 15 03 02 04 00  0.0000000  0 10G01G03G04G11G14G19G22G27G28G32
  22020538.040   115718723.67706  22020538.760    90170445.64747
  23333736.280   122619611.62604  23333737.640    95547764.18146
  20474344.480   107593449.15907  20474342.520    83839065.21948
  20981738.420   110259795.58007  20981735.440    85916720.18748
  22886179.860   120267696.33505  22886177.880    93715082.90646
  20531372.440   107893106.82607  20531368.020    84072535.86249
  22852208.440   120089238.58805  22852203.260    93576048.16246
  21523282.000   113105628.00907  21523281.780    88134261.85248
  24635090.260   129458270.64404  24635085.660   100876563.61545
  20334456.440   106858353.46207  20334454.940    83266273.41248
 15 03 02 04 00 30.0000000  0 10G01G03G04G11G14G19G22G27G28G32
  22009967.700   115663176.48106  22009968.440    90127162.16047
  23315350.320   122522993.28304  23315351.700    95472477.24446
  20470649.280   107574030.40507  20470647.260    83823933.73148
  20971558.840   110206300.98307  20971555.800    85875036.09347
  22881807.700   120244720.32604  22881805.700    93697179.55345
  20535524.520   107914926.21907  20535520.080    84089537.98949
  22868299.380   120173797.35105  22868294.100    93641938.10246
  21536574.900   113175483.21707  21536574.860    88188694.47148
  24622570.520   129392480.71414  24622567.320   100825296.95555
  20326670.080   106817435.93507  20326668.560    83234389.64348
 15 03 02 04 01  0.0000000  0 10G01G03G04G11G14G19G22G27G28G32
  21999422.220   115607760.02906  21999422.980    90083980.52047
  23297003.480   122426581.20404  23297005.000    95397351.01146
  20466999.480   107554850.65007  20466997.440    83808988.47148
  20961423.460   110153038.78307  20961420.340    85833533.07648
  22877525.640   120222218.05205  22877523.620    93679645.32646
  20539758.200   107937174.41307  20539753.780    84106874.23549
  22884419.660   120258510.50605  22884414.420    93707948.33547
  21549936.140   113245697.33007  21549936.140    88243406.74548
  24610119.720   129327050.70304  24610116.420   100774312.52743
  20318984.320   106777047.12007  20318982.820    83202917.84748
 15 03 02 04 01 30.0000000  0  9G01G03G04G11G14G19G22G27G32
  21988906.540   115552500.06306  21988907.400    90040920.82047
  23278701.160   122330402.46804  23278702.620    95322406.62547
  20463400.040   107535935.50707  20463398.020    83794249.40348
  20951337.400   110100035.92807  20951334.280    85792232.15048
  22873338.920   120200216.88704  22873336.920    93662501.56745
  20544078.480   107959877.39307  20544074.040    84124564.86749
  22900573.900   120343401.85505  22900568.760    93774097.40746
  21563370.460   113316294.93707  21563370.400    88298417.84948
  20311404.160   106737213.32307  20311402.680    83171878.53548
 15 03 02 04 02  0.0000000  0  9G01G03G04G11G14G19G22G27G32
  21978422.100   115497404.03506  21978423.040    89997988.86947
  23260445.120   122234466.14404  23260446.480    95247651.10946
  20459852.360   107517292.32307  20459850.360    83779722.25548
  20941302.200   110047300.45707  20941299.080    85751139.58147
  22869249.220   120178725.64705  22869247.240    93645755.15245
  20548486.740   107983042.89307  20548482.300    84142615.90249
  22916763.180   120428476.49905  22916758.060    93840389.33247
  21576879.080   113387282.40507  21576878.860    88353732.74548
  20303931.120   106697942.28307  20303929.660    83141277.73748
 15 03 02 04 02 30.0000000  0 10G01G03G04G11G14G19G22G27G28G32
  21967960.660   115442428.68406  21967961.660    89955150.94347
  23242227.180   122138730.25904  23242228.460    95173051.78046
  20456348.300   107498878.06407  20456346.240    83765373.48448
  20931310.000   109994791.08907  20931306.900    85710223.19548
  22865248.640   120157702.33805  22865246.540    93629373.39046
  20552974.840   108006627.81807  20552970.380    84160993.76349
  22932978.680   120513689.07706  22932973.600    93906788.73347
  21590453.300   113458615.29207  21590453.100    88409316.80048
  24573208.180   129133082.21804  24573205.920   100623168.09745
  20296557.000   106659191.06807  20296555.520    83111081.99548
 15 03 02 04 03  0.0000000  0 10G01G03G04G11G14G19G22G27G28G32
  21957530.700   115387619.01106  21957531.780    89912442.11747
  23224056.000   122043241.24604  23224057.360    95098644.84346
  20452896.220   107480737.42107  20452894.220    83751237.91648
  20921369.440   109942553.10407  20921366.340    85669518.27148
  22861345.840   120137193.19405  22861343.700    93613392.26346
  20557551.260   108030677.31107  20557546.820    84179733.62549
  22949228.560   120599082.30005  22949223.500    93973328.90047
  21604101.540   113530337.42207  21604101.400    88465204.15648
  24561051.740   129069198.22604  24561049.180   100573388.35942
  20289290.520   106621005.09207  20289288.920    83081326.70048
 15 03 02 04 03 30.0000000  0 10G01G03G04G11G14G19G22G27G28G32
  21947129.000   115332958.12106  21947130.140    89869849.24147
  23205928.860   121947983.70504  23205930.320    95024418.24246
  20449493.100   107462853.68407  20449491.080    83737302.54748
  20911477.540   109890570.70007  20911474.440    85629012.51248
  22857537.820   120117182.45705  22857535.740    93597799.49246
  20562212.900   108055174.62907  20562208.480    84198822.44149
  22965509.200   120684637.50405  22965504.220    94039995.29746
  21617820.420   113602430.79307  21617820.320    88521380.79748
  24548969.180   129005702.15004  24548966.340   100523910.89544
  20282128.440   106583367.77407  20282126.760    83051998.93048
 15 03 02 04 04  0.0000000  0 10G01G03G04G11G14G19G22G27G28G32
  21936755.800   115278446.89406  21936756.980    89827372.97548
  23187846.160   121852959.84404  23187847.800    94950373.73945
  20446138.940   107445227.52607  20446136.940    83723567.88648
  20901634.580   109838845.92807  20901631.520    85588707.49948
  22853825.320   120097672.47305  22853823.220    93582596.92546
  20566960.000   108080120.79507  20566955.560    84218261.00449
  22981820.180   120770353.42305  22981815.480    94106786.89446
  21631609.920   113674895.11307  21631609.800    88577846.48648
  24536960.660   128942596.85704  24536957.860   100474737.94045
  20275070.940   106546280.24607  20275069.240    83023099.57348
 15 03 02 04 04 30.0000000  0 10G01G03G04G11G14G19G22G27G28G32
  21926410.660   115224083.37406  21926411.920    89785011.81448
  23169807.980   121758169.10404  23169809.620    94876510.89847
  20442833.420   107427856.90107  20442831.420    83710032.34248
  20891840.480   109787377.88207  20891837.420    85548602.52448
  22850207.960   120078662.26705  22850205.820    93567783.79446
  20571792.160   108105513.84307  20571787.700    84238047.78949
  22998160.860   120856225.66305  22998156.460    94173700.30946
  21645469.440   113747727.13207  21645469.240    88634598.68848
  24525026.500   128879882.03104  24525023.460   100425869.22643
  20268117.720   106509740.66007  20268116.000    82994627.18148
 15 03 02 04 05  0.0000000  0 10G01G03G04G11G14G19G22G27G28G32
  21916094.220   115169870.38906  21916095.500    89742767.93448
  23151814.960   121663615.73404  23151816.560    94802832.99945
  20439577.020   107410744.85507  20439575.100    83696698.28748
  20882096.000   109736170.28807  20882092.920    85508700.51147
  22846686.300   120060155.97905  22846684.120    93553363.31846
  20576709.900   108131356.81507  20576705.500    84258185.16949
  23014531.740   120942255.26605  23014527.320    94240736.35546
  21659399.240   113820928.55507  21659399.020    88691638.73948
  24513167.380   128817561.96604  24513164.040   100377308.16744
  20261269.340   106473752.31407  20261267.620    82966584.33948
 15 03 02 04 05 30.0000000  0 10G01G03G04G11G14G19G22G27G28G32
  21905806.200   115115806.58406  21905807.480    89700640.31048
  23133867.200   121569299.70804  23133868.700    94729340.06046
  20436369.600   107393889.85707  20436367.720    83683564.52648
  20872401.020   109685222.67507  20872397.880    85469001.07648
  22843260.420   120042153.33105  22843258.240    93539335.27746
  20581712.940   108157648.06007  20581708.640    84278671.85249
  23030932.080   121028438.65906  23030927.500    94307892.23646
  21673398.820   113894496.73607  21673398.620    88748964.57748
  24501383.420   128755637.33804  24501380.180   100329055.19444
  20254525.600   106438313.82107  20254523.860    82938969.94148
 15 03 02 04 06  0.0000000  0 10G01G03G04G11G14G19G22G27G28G32
  21895546.440   115061891.08906  21895547.720    89658628.25747
  23115964.760   121475221.54304  23115966.280    94656032.46847
  20433210.900   107377290.88207  20433209.060    83670630.26348
  20862755.440   109634535.18607  20862752.380    85429504.33148
  22839930.620   120024654.72805  22839928.220    93525700.01646
  20586801.200   108184387.37707  20586796.980    84299507.68449
  23047361.040   121114772.34106  23047356.160    94375165.23546
  21687467.740   113968429.62606  21687467.620    88806574.61848
  24489674.940   128694108.74204  24489671.520   100281110.80045
  20247886.400   106403424.76307  20247884.700    82911783.67448
 15 03 02 04 06 30.0000000  0 10G01G03G04G11G14G19G22G27G28G32
  21885315.460   115008126.71106  21885316.640    89616733.94048
  23098108.440   121381385.36504  23098109.900    94582913.40146
  20430101.420   107360950.73207  20430099.620    83657897.68248
  20853160.100   109584111.77007  20853157.120    85390213.36648
  22836697.440   120007663.81105  22836694.920    93512460.35645
  20591975.200   108211577.14907  20591970.980    84320694.51249
  23063818.800   121201257.44206  23063813.600    94442556.21746
  21701606.300   114042728.72206  21701606.280    88864470.00048
  24478042.660   128632980.79004  24478039.400   100233478.66144
  20241352.340   106369087.86507  20241350.620    82885027.66448
 15 03 02 04 07  0.0000000  0 10G01G03G04G11G14G19G22G27G28G32
  21875113.360   114954513.68006  21875114.380    89574957.56948
  23080298.200   121287792.76604  23080299.860    94509984.17946
  20427041.280   107344869.66407  20427039.480    83645366.98348
  20843615.320   109533953.79407  20843612.380    85351129.22948
  22833561.120   119991182.28005  22833558.520    93499617.63446
  20597234.980   108239217.69807  20597230.780    84342232.60049
  23080304.880   121287892.15705  23080299.680    94510063.77846
  21715814.420   114117392.98106  21715814.380    88922649.92948
  24466487.020   128572255.50804  24466484.160   100186160.23044
  20234923.400   106335303.57007  20234921.680    82858702.25448
 15 03 02 04 07 30.0000000  0 10G01G03G04G11G14G19G22G27G28G32
  21864939.940   114901051.68506  21864940.920    89533298.87348
  23062534.540   121194444.77804  23062536.160    94437245.54046
  20424030.440   107329047.41207  20424028.620    83633037.96248
  20834121.220   109484061.84607  20834118.300    85312252.39248
  22830521.800   119975210.64005  22830519.140    93487172.22146
  20602580.600   108267308.89707  20602576.340    84364121.84249
  23096818.920   121374674.13305  23096813.760    94577686.07946
  21730091.760   114192420.81706  21730091.680    88981113.17048
  24455008.440   128511934.23204  24455005.500   100139156.60245
  20228599.580   106302071.66707  20228597.840    82832807.27248
 15 03 02 04 08  0.0000000  0 10G01G03G04G11G14G19G22G27G28G32
  21854794.880   114847738.73306  21854795.860    89491756.32148
  23044817.440   121101340.65505  23044818.880    94364696.92046
  20421068.440   107313481.73207  20421066.560    83620908.87048
  20824677.520   109434434.92807  20824674.640    85273582.06948
  22827579.420   119959748.13705  22827576.820    93475123.50746
  20608011.540   108295848.54007  20608007.260    84386360.52149
  23113360.100   121461599.05205  23113355.080    94645419.75746
  21744437.640   114267808.91206  21744437.600    89039857.11848
  24443606.280   128452016.04204  24443603.220   100092467.12044
  20222380.500   106269390.19607  20222378.760    82807341.19648
 15 03 02 04 08 30.0000000  0 10G01G03G04G11G14G19G22G27G28G32
  21844678.700   114794577.55606  21844679.680    89450332.04548
  23027147.520   121008484.43804  23027148.740    94292341.46546
  20418155.720   107298175.31407  20418153.820    83608981.79648
  20815284.980   109385076.78907  20815282.080    85235121.19048
  22824734.520   119944798.43905  22824732.080    93463474.41246
  20613528.400   108324839.49107  20613524.060    84408950.86249
  23129928.540   121548667.18805  23129923.560    94713265.03846
  21758852.340   114343558.63006  21758852.400    89098882.85148
  24432281.600   128392505.77404  24432278.500   100046095.47844
  20216266.680   106237262.01307  20216264.940    82782306.27248
 15 03 02 04 09  0.0000000  0 10G01G03G04G11G14G19G22G27G28G32
  21834591.140   114741567.24906  21834592.100    89409025.32648
  23009524.740   120915876.61704  23009526.000    94220179.59047
  20415292.160   107283127.29607  20415290.280    83597256.07448
  20805943.620   109335987.52407  20805940.640    85196869.81748
  22821987.180   119930361.54005  22821984.820    93452224.89546
  20619130.940   108354280.66707  20619126.540    84431892.03849
  23146523.860   121635876.11305  23146518.780    94781220.03146
  21773335.520   114419667.78907  21773335.620    89158188.68248
  24421034.820   128333403.97404  24421031.540   100000042.17141
  20210258.000   106205686.26507  20210256.240    82757701.80648
 15 03 02 04 09 30.0000000  0 10G01G03G04G11G14G19G22G27G28G32
  21824531.980   114688705.70206  21824532.800    89367834.51848
  22991949.000   120823516.27304  22991950.400    94148210.53446
  20412477.340   107268335.55107  20412475.480    83585730.03948
  20796653.200   109287165.95107  20796650.180    85158827.04248
  22819337.220   119916436.05905  22819334.900    93441373.87646
  20624818.620   108384169.72107  20624814.280    84455182.20949
  23163145.220   121723221.43606  23163140.020    94849281.35146
  21787886.500   114496132.88006  21787886.460    89217771.84548
  24409865.580   128274710.23904  24409862.480    99954306.81146
  20204354.020   106174660.73807  20204352.260    82733526.08548
 15 03 02 04 10  0.0000000  0  9G01G03G04G11G14G19G22G27G32
  21814504.760   114636012.40006  21814505.520    89326774.81048
  22974424.420   120731424.14105  22974425.880    94076450.46646
  20409714.960   107253819.28807  20409713.100    83574418.66948
  20787417.560   109238632.59807  20787414.580    85121008.84948
  22816788.560   119903042.91505  22816786.280    93430937.67546
  20630595.260   108414526.29807  20630590.940    84478836.68049
  23179795.840   121810720.31306  23179790.500    94917462.29846
  21802508.600   114572972.03806  21802508.480    89277646.50348
  20198558.460   106144204.93107  20198556.720    82709794.30148
 15 03 02 04 10 30.0000000  0 10G01G03G04G11G14G19G22G27G28G32
  21804500.480   114583439.47206  21804501.200    89285808.91148
  22956942.080   120639553.64005  22956943.460    94004863.10246
  20406995.920   107239530.84107  20406994.100    83563284.81748
  20778227.840   109190340.71607  20778224.900    85083378.81848
  22814332.280   119890134.84805  22814329.840    93420879.45746
  20636451.720   108445302.42107  20636447.400    84502818.06949
  23196466.100   121898322.91805  23196460.760    94985724.05646
  21817192.360   114650135.96406  21817192.320    89337774.22148
  24387763.860   128158558.58104  24387761.220    99863807.95545
  20192862.160   106114270.80107  20192860.440    82686469.01948
 15 03 02 04 11  0.0000000  0 10G01G03G04G11G14G19G22G27G28G32
  21794526.960   114531027.99206  21794527.560    89244968.81348
  22939509.960   120547947.05805  22939511.360    93933481.41347
  20404327.960   107225510.97707  20404326.240    83552360.25148
  20769092.080   109142332.26807  20769089.160    85045969.64148
  22811976.280   119877754.02105  22811973.740    93411232.08445
  20642395.800   108476538.85707  20642391.480    84527158.14449
  23213163.420   121986068.37605  23213158.200    95054097.11446
  21831945.440   114727664.38606  21831945.460    89398185.96048
  24376830.200   128101107.48804  24376826.020    99819027.22944
  20187273.020   106084899.52707  20187271.260    82663582.32148
 15 03 02 04 11 30.0000000  0 10G01G03G04G11G14G19G22G27G28G32
  21784583.220   114478773.30206  21784583.780    89204250.88348
  22922127.460   120456600.99405  22922128.840    93862302.71147
  20401710.260   107211755.13607  20401708.620    83541641.41648
  20760009.640   109094603.72907  20760006.700    85008778.57648
  22809719.780   119865896.49105  22809717.360    93401992.45846
  20648426.600   108508230.89607  20648422.280    84551853.23149
  23229886.560   122073949.73705  23229881.520    95122576.07646
  21846766.860   114805551.21106  21846766.780    89458876.98048
  24365976.660   128044072.61004  24365972.260    99774584.34044
  20181790.100   106056086.30407  20181788.280    82641130.47348
 15 03 02 04 12  0.0000000  0 10G01G03G04G11G14G19G22G27G28G32
  21774668.460   114426671.02306  21774669.000    89163651.71748
  22904793.920   120365512.29005  22904795.220    93791324.53547
  20399141.960   107198258.87507  20399140.360    83531124.85548
  20750979.800   109047151.59907  20750976.880    84971802.90148
  22807562.220   119854558.69405  22807559.880    93393157.83646
  20654543.320   108540373.99507  20654538.920    84576899.79649
  23246634.240   122161960.44904  23246629.480    95191155.82046
  21861655.360   114883790.55706  21861655.260    89519842.69448
  24355202.840   127987457.04904  24355199.460    99730468.27643
  20176412.440   106027826.52907  20176410.640    82619109.88148
 15 03 02 04 12 30.0000000  0  9G01G03G04G11G14G19G22G27G32
  21764785.420   114374735.60206  21764786.000    89123182.57448
  22887512.220   120274696.51705  22887513.480    93720559.05546
  20396625.800   107185036.49207  20396624.200    83520821.69948
  20742005.500   108999991.21107  20742002.540    84935054.54848
  22805506.500   119843755.81505  22805504.160    93384740.01446
  20660748.520   108572982.25507  20660744.100    84602308.82449
  23263408.940   122250112.97004  23263404.500    95259846.06047
  21876613.360   114962395.47406  21876613.260    89581093.26748
  20171142.780   106000134.54907  20171141.060    82597531.72548
 15 03 02 04 13  0.0000000  0 10G01G03G04G11G14G19G22G27G28G32
  21754924.780   114322918.16206  21754925.440    89082805.36648
  22870273.420   120184106.14305  22870274.540    93649969.17546
  20394152.520   107172039.18907  20394150.920    83510693.93348
  20733077.640   108953074.71707  20733074.660    84898496.24948
  22803543.540   119833439.85205  22803541.180    93376701.62446
  20667032.900   108606006.91307  20667028.500    84628042.31949
  23280201.040   122338356.37705  23280196.660    95328607.13746
  21891631.280   115041315.66506  21891631.320    89642589.49548
  24333895.160   127875479.60804  24333892.420    99643222.32645
  20165971.860   105972961.31807  20165970.160    82576357.78748
 15 03 02 04 13 30.0000000  0 10G01G03G04G11G14G19G22G27G28G32
  21745096.660   114271271.32906  21745097.360    89042561.09548
  22853087.640   120093794.86205  22853088.820    93579596.80747
  20391731.980   107159319.19407  20391730.440    83500782.25248
  20724206.460   108906456.02307  20724203.420    84862169.99448
  22801683.240   119823664.24805  22801680.900    93369084.25846
  20673406.460   108639500.41507  20673402.060    84654141.15049
  23297020.120   122426741.15405  23297015.740    95397478.37446
  21906719.020   115120602.15806  21906719.160    89704371.16448
  24323362.240   127820128.48004  24323359.080    99600091.54044
  20160909.600   105946359.12007  20160907.900    82555628.81048
 15 03 02 04 14  0.0000000  0 10G01G03G04G11G14G19G22G27G28G32
  21735297.480   114219776.59806  21735298.220    89002435.34548
  22835951.840   120003745.33005  22835952.940    93509428.36447
  20389360.740   107146858.14607  20389359.200    83491072.34548
  20715388.520   108860117.38007  20715385.460    84826061.96748
  22799922.320   119814411.08505  22799920.120    93361874.01946
  20679865.660   108673443.55607  20679861.220    84680590.34549
  23313862.300   122515246.78505  23313857.740    95466443.80345
  21921872.720   115200234.97406  21921872.840    89766422.69048
  24312909.920   127765202.01904  24312906.780    99557291.69645
  20155952.460   105920309.34407  20155950.780    82535330.29748
 15 03 02 04 14 30.0000000  0 10G01G03G04G11G14G19G22G27G28G32
  21725527.040   114168432.44206  21725527.720    88962426.92748
  22818865.900   119913957.23705  22818866.800    93439463.65946
  20387038.520   107134654.53307  20387036.900    83481563.04048
  20706623.800   108814058.28207  20706620.700    84790171.76348
  22798260.800   119805679.83005  22798258.540    93355070.46745
  20686410.160   108707834.73907  20686405.660    84707388.66549
  23330726.800   122603869.56305  23330722.080    95535500.51746
  21937091.680   115280211.14106  21937091.780    89828741.76348
  24302538.480   127710700.00704  24302535.360    99514822.61045
  20151100.080   105894810.12507  20151098.440    82515460.78448
 15 03 02 04 15  0.0000000  0 10G01G03G04G11G14G19G22G27G28G32
  21715785.720   114117241.48606  21715786.380    88922537.87848
  22801830.340   119824434.30005  22801831.120    93369705.56346
  20384765.760   107122710.88807  20384764.040    83472256.30648
  20697912.920   108768282.14607  20697909.800    84754502.04948
  22796699.200   119797473.49105  22796696.960    93348675.92346
  20693040.220   108742675.99007  20693035.760    84734537.68749
  23347613.680   122692610.02305  23347608.800    95604648.91746
  21952376.160   115360531.72506  21952376.220    89891329.21048
  24292248.780   127656626.46704  24292245.860    99472687.37645
  20146352.920   105869863.76807  20146351.280    82496022.07748
 15 03 02 04 15 30.0000000  0 10G01G03G04G11G14G19G22G27G28G32
  21706073.680   114066204.82606  21706074.380    88882769.06048
  22784845.600   119735178.83705  22784846.280    93300155.87847
  20382542.620   107111028.09507  20382540.880    83463152.83148
  20689256.300   108722791.40307  20689253.200    84719054.72148
  22795237.820   119789793.80805  22795235.620    93342691.78946
  20699756.180   108777968.82907  20699751.760    84762038.59749
  23364522.660   122781467.28905  23364517.820    95673888.33347
  21967726.140   115441196.29906  21967726.100    89954184.70648
  24282041.080   127602983.98204  24282038.200    99430888.05546
  20141711.200   105845471.23007  20141709.520    82477014.91948
 15 03 02 04 16  0.0000000  0 10G01G03G04G11G14G19G22G27G28G32
  21696390.980   114015322.58506  21696391.820    88843120.56148
  22767911.980   119646191.98705  22767912.540    93230815.50446
  20380369.140   107099606.30007  20380367.400    83454252.73748
  20680654.140   108677587.16007  20680651.120    84683830.63548
  22793876.800   119782641.48905  22793874.620    93337118.55646
  20706557.960   108813712.57407  20706553.540    84789890.85749
  23381453.540   122870439.43304  23381448.660    95743217.24146
  21983141.320   115522203.34906  21983141.240    90017307.06648
  24271915.260   127549773.90204  24271912.720    99389425.69944
  20137174.780   105821632.08307  20137173.080    82458438.96448
 15 03 02 04 16 30.0000000  0 10G01G03G04G11G14G19G22G27G28G32
  21686737.180   113964591.78106  21686738.100    88803590.07348
  22751029.140   119557471.85105  22751029.620    93161682.97846
  20378244.720   107088442.39407  20378242.980    83445553.59448
  20672106.140   108632667.09607  20672103.100    84648827.99048
  22792615.660   119776014.14105  22792613.460    93331954.40946
  20713444.980   108849904.07107  20713440.540    84818092.01849
  23398405.280   122959521.28804  23398400.400    95812631.63447
  21998620.860   115603548.36806  21998620.740    90080692.77548
  24261871.520   127496994.43304  24261868.980    99348298.80544
  20132742.960   105798343.05007  20132741.300    82440291.67848
 15 03 02 04 17  0.0000000  0 10G01G03G04G11G14G19G22G27G28G32
  21677112.680   113914014.59506  21677113.620    88764179.28248
  22734197.580   119469021.79205  22734198.160    93092760.87946
  20376169.780   107077538.53707  20376168.040    83437057.08648
  20663612.840   108588034.51907  20663609.780    84614049.36048
  22791455.020   119769914.80805  22791452.760    93327201.69446
  20720417.580   108886544.97407  20720413.060    84846643.36749
  23415377.920   123048713.06605  23415373.000    95882131.68546
  22014164.620   115685231.89306  22014164.640    90144342.26148
  24251910.800   127444649.49304  24251908.180    99307510.52545
  20128416.200   105775605.96507  20128414.560    82422574.48348
 15 03 02 04 17 30.0000000  0 10G01G03G04G11G14G19G22G27G28G32
  21667517.760   113863592.88706  21667518.760    88724889.66448
  22717417.900   119380844.67005  22717418.660    93024051.47447
  20374144.660   107066896.42807  20374142.900    83428764.53648
  20655174.840   108543692.65807  20655171.820    84579497.26148
  22790395.260   119764345.43705  22790392.960    93322861.94346
  20727476.040   108923636.84107  20727471.420    84875546.11449
  23432371.500   123138014.40105  23432366.520    95951717.12746
  22029772.780   115767254.24706  22029772.980    90208255.75548
  24242033.380   127392741.82604  24242030.740    99267062.99545
  20124194.780   105753422.25007  20124193.120    82405288.48248
 15 03 02 04 18  0.0000000  0 10G01G03G04G11G14G19G22G27G28G32
  21657952.180   113813325.40406  21657953.180    88685720.20148
  22700690.040   119292940.33905  22700690.940    92955554.62946
  20372169.140   107056514.77507  20372167.320    83420674.94448
  20646792.060   108499640.77807  20646789.020    84545171.12948
  22789436.220   119759305.84705  22789434.000    93318935.00045
  20734619.880   108961177.90207  20734615.240    84904798.88349
  23449385.300   123227421.86705  23449380.200    96021385.25546
  22045445.020   115849612.50806  22045445.180    90272430.99948
  24232238.960   127341271.61504  24232236.340    99226956.36143
  20120078.340   105731790.08607  20120076.660    82388432.25648
 15 03 02 04 18 30.0000000  0 10G01G03G04G11G14G19G22G27G28G32
  21648415.480   113763209.56506  21648416.380    88646668.91348
  22684013.960   119205307.30705  22684014.740    92887269.17047
  20370242.640   107046390.83307  20370240.800    83412786.16048
  20638464.120   108455877.02407  20638461.080    84511069.50748
  22788577.660   119754793.74505  22788575.460    93315419.10146
  20741848.620   108999165.39007  20741844.020    84934399.52149
  23466418.320   123316930.97805  23466413.240    96091132.59646
  22061180.540   115932302.50206  22061180.540    90336864.73748
  24222527.500   127290237.37004  24222524.540    99187189.39045
  20116066.280   105710706.53907  20116064.580    82372003.53148
 15 03 02 04 19  0.0000000  0 10G01G03G04G11G14G19G22G27G28G32
  21638908.200   113713248.40906  21638909.040    88607738.16048
  22667390.260   119117949.51005  22667390.920    92819198.20546
  20368365.700   107036527.58907  20368363.920    83405100.51948
  20630191.820   108412405.76307  20630188.800    84477195.79548
  22787820.040   119750812.41005  22787817.780    93312316.80545
  20749162.800   109037601.67807  20749158.240    84964349.87149
  23483470.880   123406542.72804  23483465.860    96160959.91945
  22076979.440   116015325.54306  22076979.380    90401557.99348
  24212900.060   127239643.46204  24212896.500    99147765.49545
  20112159.080   105690174.11007  20112157.360    82356004.24948
 15 03 02 04 19 30.0000000  0 10G01G03G04G11G14G19G22G27G28G32
  21629431.020   113663445.76706  21629431.900    88568930.92148
  22650820.080   119030871.95105  22650820.500    92751345.60246
  20366539.120   107026928.79607  20366537.320    83397620.94948
  20621976.140   108369231.79407  20621973.060    84443553.74348
  22787164.120   119747366.12005  22787161.840    93309631.38146
  20756563.100   109076490.28107  20756558.540    84994652.67649
  23500543.200   123496258.79004  23500538.160    96230868.54545
  22092842.000   116098683.82206  22092841.980    90466512.48248
  24203357.000   127189495.01104  24203353.740    99108688.82644
  20108357.480   105670196.12307  20108355.640    82340437.00348
 15 03 02 04 20  0.0000000  0 10G01G03G04G11G14G19G22G27G28G32
  21619986.340   113613813.83906  21619987.200    88530256.70548
  22634305.560   118944087.77305  22634306.040    92683721.60247
  20364765.200   107017606.54507  20364763.300    83390356.86548
  20613819.520   108326368.35707  20613816.440    84410153.66848
  22786612.520   119744467.61605  22786610.180    93307372.82845
  20764051.660   109115842.77907  20764047.080    85025316.95349
  23517637.360   123586089.37304  23517632.300    96300866.40844
  22108770.340   116182387.90006  22108770.400    90531736.41948
  24193900.440   127139804.20514  24193898.120    99069967.53854
  20104663.540   105650784.23407  20104661.680    82325310.87148
 15 03 02 04 20 30.0000000  0 10G01G03G04G11G14G19G22G27G28G32
  21610564.600   113564302.31906  21610565.440    88491676.30648
  22617837.360   118857547.64405  22617838.180    92616287.76246
  20363034.320   107008510.32307  20363032.320    83383268.90448
  20605712.540   108283766.00707  20605709.480    84376957.04148
  22786155.580   119742067.00304  22786153.400    93305502.22946
  20771618.780   109155608.41907  20771614.180    85056303.15749
  23534743.400   123675982.12504  23534738.320    96370912.69245
  22124754.620   116266385.72406  22124754.760    90597189.24248
  24184523.160   127090524.29004  24184520.120    99031567.55644
  20101067.580   105631887.37407  20101065.740    82310586.05548
