     2.11           OBSERVATION DATA    G                   RINEX VERSION / TYPE
SPIDER V4,0,0,3554                      2015 03 19 02:34    PGM / RUN BY / DATE 
OBHM                                                        MARKER NAME         
OBHM                                                        MARKER NUMBER       
                                                            OBSERVER / AGENCY   
496638              LEICA GRX1200+GNSS  8.20/4.007          REC # / TYPE / VERS 
10321015            LEIAR25         NONE                    ANT # / TYPE        
  5268006.0133   -44062.8765  3585543.8986                  APPROX POSITION XYZ 
        0.1200        0.0000        0.0000                  ANTENNA: DELTA H/E/N
     1     1                                                WAVELENGTH FACT L1/2
     4    C1    L1    P2    L2                              # / TYPES OF OBSERV 
    30.000                                                  INTERVAL            
  2015    03    02    00    00    0.0000000     GPS         TIME OF FIRST OBS   
  2015    03    02    23    59   30.0000000     GPS         TIME OF LAST OBS    
    16                                                      LEAP SECONDS        
    30                                                      # OF SATELLITES     
   G 1   845   845   844   844                              PRN / # OF OBS      
   G 2   919   919   918   918                              PRN / # OF OBS      
   G 3   843   843   842   842                              PRN / # OF OBS      
   G 4   853   853   853   853                              PRN / # OF OBS      
   G 5   683   683   683   683                              PRN / # OF OBS      
   G 6   645   645   645   645                              PRN / # OF OBS      
   G 7   742   742   742   742                              PRN / # OF OBS      
   G 9   780   780   779   779                              PRN / # OF OBS      
   G10   796   795   795   795                              PRN / # OF OBS      
   G11   809   809   809   809                              PRN / # OF OBS      
   G12   812   812   811   811                              PRN / # OF OBS      
   G13   834   834   834   834                              PRN / # OF OBS      
   G14   929   929   929   929                              PRN / # OF OBS      
   G15   744   744   743   743                              PRN / # OF OBS      
   G16   702   702   702   702                              PRN / # OF OBS      
   G17   925   925   925   925                              PRN / # OF OBS      
   G18   944   941   936   936                              PRN / # OF OBS      
   G19   803   802   802   802                              PRN / # OF OBS      
   G20   810   810   810   810                              PRN / # OF OBS      
   G21   707   707   706   706                              PRN / # OF OBS      
   G22   802   788   783   779                              PRN / # OF OBS      
   G23   723   723   723   723                              PRN / # OF OBS      
   G24   846   835   829   829                              PRN / # OF OBS      
   G25   861   861   861   861                              PRN / # OF OBS      
   G27   843   843   843   843                              PRN / # OF OBS      
   G28   917   917   916   916                              PRN / # OF OBS      
   G29   738   738   738   738                              PRN / # OF OBS      
   G30   687   687   687   687                              PRN / # OF OBS      
   G31   748   748   748   748                              PRN / # OF OBS      
   G32   735   735   735   735                              PRN / # OF OBS      
BIT 2 OF LLI FLAGS DATA COLLECTED UNDER A/S CONDITION       COMMENT             
SNR is mapped to RINEX snr flag value [2-9]                 COMMENT             
Lx:     = 25dBHz -> 1; 26-27dBHz -> 2; 28-31dBHz -> 3       COMMENT             
       32-35dBHz -> 4; 36-38dBHz -> 5; 39-41dBHz -> 6       COMMENT             
       42-44dBHz -> 7; 45-48dBHz -> 8; >=49dBHz -> 9        COMMENT             
                                                            END OF HEADER       
 15 03 02 00 00  0.0000000  0  7G16G18G19G21G22G27G31
  21347393.380   112181325.93509  21347390.060    87414011.52048
  22646138.900   119006446.29709  22646137.040    92732356.74746
  24525991.340   128884952.38108  24525988.740   100429829.19945
  21648119.880   113761654.08309  21648116.320    88645438.68548
  23626281.480   124157064.40509  23626283.160    96745810.45647
  22342552.260   117410958.92209  22342552.020    91489067.20248
  22991268.660   120819887.70809  22991267.980    94145342.59747
 15 03 02 00 00 30.0000000  0  7G16G18G19G21G22G27G31
  21335587.960   112119288.40209  21335584.660    87365670.60148
  22636336.660   118954935.59609  22636334.780    92692218.62246
  24511186.620   128807152.71608  24511183.900   100369206.20345
  21657606.900   113811509.19509  21657603.440    88684286.82748
  23609356.420   124068124.34308  23609358.040    96676506.96746
  22331975.260   117355376.66909  22331975.060    91445756.37948
  23009213.560   120914188.12409  23009212.920    94218823.26647
 15 03 02 00 01  0.0000000  0  7G16G18G19G21G22G27G31
  21323835.660   112057530.00309  21323832.360    87317547.18048
  22626595.020   118903743.56808  22626593.020    92652328.81046
  24496400.240   128729449.63108  24496397.380   100308658.43645
  21667150.400   113861661.02309  21667146.980    88723366.18248
  23592439.620   123979227.64908  23592441.160    96607237.01846
  22321422.060   117299919.75409  22321421.900    91402543.21548
  23027187.840   121008642.68309  23027187.240    94292424.04447
 15 03 02 00 01 30.0000000  0  7G16G18G19G21G22G27G31
  21312137.820   111996057.56809  21312134.460    87269646.58548
  22616915.420   118852877.69608  22616913.440    92612693.14646
  24481633.080   128651847.90208  24481630.060   100248189.62845
  21676750.940   113912112.32209  21676747.520    88762678.88948
  23575532.680   123890382.31408  23575534.100    96538007.01646
  22310893.620   117244592.99409  22310893.500    91359431.47848
  23045191.780   121103253.12509  23045191.200    94366146.28647
 15 03 02 00 02  0.0000000  0  7G16G18G19G21G22G27G31
  21300494.300   111934870.52309  21300490.880    87221968.37448
  22607297.840   118802337.59009  22607295.960    92573311.32946
  24466884.640   128574344.71808  24466881.440   100187797.61945
  21686407.740   113962858.97809  21686404.280    88802221.74548
  23558635.560   123801588.44808  23558637.000    96468817.22646
  22300389.460   117189393.64909  22300389.360    91316419.02848
  23063224.420   121198014.23709  23063223.840    94439985.93147
 15 03 02 00 02 30.0000000  0  7G16G18G19G21G22G27G31
  21288905.780   111873972.34509  21288902.300    87174515.24648
  22597743.000   118752126.68809  22597741.200    92534186.02247
  24452155.120   128496941.43208  24452151.820   100127483.45445
  21696120.620   114013900.18909  21696117.060    88841994.11548
  23541749.120   123712850.54508  23541750.520    96399671.32646
  22289909.780   117134322.69609  22289909.640    91273506.61148
  23081285.340   121292924.03509  23081284.760    94513941.43347
 15 03 02 00 03  0.0000000  0  7G16G18G19G21G22G27G31
  21277372.760   111813365.59809  21277369.240    87127289.22048
  22588251.440   118702247.80909  22588249.620    92495319.43547
  24437444.740   128419638.59708  24437441.440   100067247.56245
  21705889.200   114065234.20509  21705885.560    88881994.65448
  23524873.760   123624171.33508  23524875.120    96330571.26546
  22279454.680   117079380.65109  22279454.480    91230694.65348
  23099374.080   121387980.04809  23099373.520    94588010.86847
 15 03 02 00 03 30.0000000  0  7G16G18G19G21G22G27G31
  21265895.160   111753049.95109  21265891.540    87080290.02348
  22578822.980   118652700.46009  22578821.140    92456711.18347
  24422753.000   128342433.66808  24422749.700   100007087.94746
  21715712.860   114116857.46909  21715709.120    88922220.57448
  23508009.500   123535550.70908  23508010.760    96261516.68647
  22269023.640   117024564.90309  22269023.360    91187981.10548
  23117489.600   121483176.87409  23117489.040    94662190.01047
 15 03 02 00 04  0.0000000  0  7G16G18G19G21G22G27G31
  21254474.260   111693032.35309  21254470.540    87033523.06848
  22569458.860   118603491.42009  22569456.980    92418366.55847
  24408080.800   128265331.41408  24408077.620    99947008.34946
  21725592.040   114168772.82909  21725588.260    88962674.09948
  23491157.760   123446996.10908  23491158.920    96192513.47346
  22258617.540   116969880.01609  22258617.180    91145369.52448
  23135632.280   121578516.53309  23135631.800    94736480.44947
 15 03 02 00 04 30.0000000  0  7G16G18G19G21G22G27G31
  21243109.600   111633310.45409  21243105.840    86986986.53348
  22560158.680   118554618.51309  22560156.720    92380283.84546
  24393427.320   128188327.29808  24393424.100    99887005.22846
  21735525.500   114220973.38509  21735521.720    89003349.86348
  23474318.320   123358505.95708  23474319.420    96123560.44147
  22248235.460   116915321.49409  22248235.020    91102856.41048
  23153800.620   121673991.04209  23153800.240    94810875.95947
 15 03 02 00 05  0.0000000  0  7G16G18G19G21G22G27G31
  21231801.900   111573888.17909  21231798.120    86940683.46448
  22550923.240   118506086.20309  22550921.220    92342466.52647
  24378792.900   128111423.22508  24378789.740    99827080.04846
  21745513.200   114273459.30809  21745509.480    89044247.98648
  23457492.080   123270084.93509  23457493.060    96054661.22247
  22237877.780   116860891.23409  22237877.300    91060443.22948
  23171994.580   121769600.13809  23171994.280    94885376.33247
 15 03 02 00 05 30.0000000  0  7G16G18G19G21G22G27G31
  21220551.300   111514766.04509  21220547.480    86894614.27348
  22541752.700   118457894.89209  22541750.620    92304914.92947
  24364177.260   128034617.49308  24364174.100    99767231.48846
  21755554.600   114326227.54909  21755551.000    89085366.10348
  23440679.320   123181734.52308  23440680.180    95985817.04246
  22227544.140   116806587.49809  22227543.680    91018128.63948
  23190213.300   121865339.17009  23190213.040    94959977.94447
 15 03 02 00 06  0.0000000  0  7G16G18G19G21G22G27G31
  21209358.940   111455949.98009  21209355.120    86848783.57348
  22532648.100   118410050.24609  22532646.060    92267633.45647
  24349581.080   127957914.14608  24349577.980    99707462.70446
  21765650.020   114379279.68909  21765646.480    89126705.43948
  23423881.080   123093460.69708  23423881.920    95917032.52346
  22217235.300   116752414.06809  22217234.820    90975915.59948
  23208456.840   121961208.80509  23208456.640    95034681.32547
 15 03 02 00 06 30.0000000  0  7G16G18G19G21G22G27G31
  21198224.340   111397437.64109  21198220.600    86803189.54248
  22523609.180   118362550.51109  22523607.140    92230620.74146
  24335003.500   127881308.66408  24335000.420    99647770.20546
  21775798.280   114432609.64909  21775794.860    89168261.25848
  23407097.160   123005262.26508  23407098.040    95848306.82947
  22206950.340   116698366.33009  22206949.860    90933800.49548
  23226723.840   122057201.75009  23226723.700    95109480.77447
 15 03 02 00 07  0.0000000  0  7G16G18G19G21G22G27G31
  21187148.400   111339233.43809  21187144.680    86757835.61048
  22514636.540   118315399.26609  22514634.540    92193879.56547
  24320444.860   127804802.93608  24320441.840    99588155.44047
  21785999.480   114486217.41109  21785996.160    89210033.53848
  23390328.480   122917144.05708  23390329.460    95779643.57047
  22196689.620   116644446.31609  22196689.240    90891784.90848
  23245014.160   122153317.26809  23245014.180    95184375.70547
 15 03 02 00 07 30.0000000  0  7G16G18G19G21G22G27G31
  21176131.920   111281341.72909  21176128.260    86712725.20348
  22505731.140   118268601.44709  22505729.240    92157413.80347
  24305905.600   127728399.10307  24305902.620    99528620.04947
  21796253.580   114540103.02909  21796250.280    89252022.33348
  23373576.060   122829110.56808  23373577.000    95711046.25747
  22186453.620   116590656.26209  22186453.340    90849870.60948
  23263327.600   122249554.26708  23263327.720    95259365.21247
 15 03 02 00 08  0.0000000  0  7G16G18G19G21G22G27G31
  21165174.060   111223757.82309  21165170.420    86667854.63548
  22496892.140   118222152.27009  22496890.280    92121219.70347
  24291384.540   127652090.71708  24291381.500    99469159.05346
  21806559.020   114594258.42109  21806555.740    89294221.34048
  23356839.200   122741158.20608  23356840.040    95642512.25647
  22176241.000   116536989.32509  22176240.820    90808052.23348
  23281662.460   122345903.53509  23281662.680    95334442.24847
 15 03 02 00 08 30.0000000  0  7G16G18G19G21G22G27G31
  21154276.380   111166490.27709  21154272.780    86623230.58248
  22488121.200   118176060.52409  22488119.280    92085304.11647
  24276882.920   127575884.21908  24276879.940    99409777.44446
  21816916.840   114648688.81209  21816913.500    89336634.64048
  23340119.540   122653296.17808  23340120.300    95574048.71947
  22166053.040   116483451.93009  22166052.920    90766334.81148
  23300019.420   122442368.67909  23300019.720    95409609.54247
 15 03 02 00 09  0.0000000  0  7G16G18G19G21G22G27G31
  21143438.900   111109539.28009  21143435.380    86578853.17148
  22479418.260   118130326.05009  22479416.220    92049666.92147
  24262400.240   127499777.47908  24262397.280    99350473.54447
  21827325.940   114703388.93609  21827322.520    89379258.10948
  23323417.160   122565525.17208  23323417.820    95505656.12747
  22155889.340   116430041.95909  22155889.280    90724716.66948
  23318397.500   122538944.74609  23318397.880    95484863.32347
 15 03 02 00 09 30.0000000  0  7G16G18G19G21G22G27G31
  21132661.900   111052906.15709  21132658.500    86534723.46948
  22470783.600   118084950.25409  22470781.420    92014309.21347
  24247936.360   127423769.62108  24247933.360    99291246.69746
  21837786.040   114758357.13209  21837782.580    89422090.47848
  23306732.420   122477847.49108  23306732.940    95437336.40647
  22145749.820   116376758.61409  22145749.760    90683197.20948
  23336795.940   122635627.86009  23336796.380    95560200.49247
 15 03 02 00 10  0.0000000  0  7G16G18G19G21G22G27G31
  21121946.060   110996594.46809  21121942.800    86490844.23748
  22462217.880   118039936.81009  22462215.540    91979233.85847
  24233491.580   127347862.11608  24233488.600    99232098.04646
  21848296.980   114813592.75209  21848293.500    89465131.22148
  23290066.040   122390267.51708  23290066.620    95369093.17347
  22135634.740   116323603.42009  22135634.680    90641777.59848
  23355214.520   122732416.81909  23355215.020    95635620.15947
 15 03 02 00 10 30.0000000  0  7G16G18G19G21G22G27G31
  21111291.640   110940605.33709  21111288.460    86447216.34748
  22453721.220   117995286.49209  22453718.780    91944441.45347
  24219065.780   127272054.06408  24219062.780    99173026.88346
  21858858.180   114869092.55108  21858854.740    89508377.81948
  23273418.220   122302785.92708  23273418.760    95300926.14947
  22125543.960   116270575.24609  22125543.720    90600456.96248
  23373652.560   122829307.81808  23373653.120    95711119.32747
 15 03 02 00 11  0.0000000  0  7G16G18G19G21G22G27G31
  21100699.320   110884942.32509  21100696.200    86403842.57948
  22445294.280   117951002.79709  22445291.800    91909934.73747
  24204659.160   127196346.51808  24204655.960    99114034.03947
  21869469.580   114924856.18608  21869466.180    89551830.01348
  23256790.060   122215407.39608  23256790.560    95232839.41147
  22115477.540   116217675.26409  22115477.140    90559236.21948
  23392109.600   122926299.06508  23392110.240    95786696.61947
 15 03 02 00 11 30.0000000  0  7G16G18G19G21G22G27G31
  21090169.160   110829605.76609  21090166.040    86360723.19148
  22436937.000   117907085.75609  22436934.540    91875713.72447
  24190271.340   127120738.04308  24190268.060    99055118.39346
  21880130.660   114980880.61308  21880127.240    89595485.41348
  23240181.820   122128132.89408  23240182.220    95164833.71547
  22105435.120   116164901.63309  22105434.640    90518113.92348
  23410584.720   123023385.66108  23410585.520    95862348.21147
 15 03 02 00 12  0.0000000  0  7G16G18G19G21G22G27G31
  21079701.680   110774598.39309  21079698.500    86317860.30548
  22428650.040   117863538.22109  22428647.640    91841780.62647
  24175902.440   127045229.18408  24175899.120    98996280.36647
  21890841.040   115037163.83009  21890837.600    89639342.46048
  23223594.120   122040966.00508  23223594.420    95096911.86947
  22095416.880   116112255.17209  22095416.300    90477090.72148
  23429077.620   123120565.73408  23429078.540    95938072.63847
 15 03 02 00 12 30.0000000  0  7G16G18G19G21G22G27G31
  21069297.260   110719922.51109  21069294.020    86275255.72848
  22420433.840   117820362.65509  22420431.500    91808137.37947
  24161552.520   126969820.25008  24161549.280    98937520.20946
  21901600.440   115093704.52509  21901596.960    89683400.14748
  23207027.540   121953909.60108  23207027.660    95029076.09847
  22085422.820   116059736.11609  22085422.200    90436166.80248
  23447587.820   123217836.71108  23447588.860    96013867.87947
 15 03 02 00 13  0.0000000  0  7G16G18G19G21G22G27G31
  21058956.320   110665580.17809  21058952.980    86232911.04948
  22412288.780   117777560.79009  22412286.500    91774785.32247
  24147221.520   126894510.82108  24147218.280    98878837.57146
  21912408.460   115150500.48309  21912404.900    89727656.73448
  23190482.500   121866966.20808  23190482.400    94961328.35247
  22075452.920   116007344.11909  22075452.300    90395341.88048
  23466114.740   123315195.35808  23466115.860    96089731.42047
 15 03 02 00 13 30.0000000  0  7G16G18G19G21G22G27G31
  21048679.100   110611573.12009  21048675.760    86190827.63748
  22404215.160   117735134.30109  22404212.920    91741725.77147
  24132909.400   126819300.46708  24132906.100    98820232.15246
  21923264.720   115207549.92909  21923261.080    89772110.84948
  23173959.380   121780138.15308  23173959.060    94893670.47247
  22065507.140   115955078.88209  22065506.560    90354615.74748
  23484657.780   123412638.49508  23484658.880    96165660.77547
 15 03 02 00 14  0.0000000  0  7G16G18G19G21G22G27G31
  21038465.900   110557902.73109  21038462.620    86149006.55748
  22396213.220   117693084.46909  22396211.040    91708959.71747
  24118616.140   126744188.91008  24118612.720    98761703.70747
  21934168.580   115264849.72609  21934164.900    89816760.03648
  23157458.600   121693427.85508  23157458.140    94826104.33347
  22055585.340   115902939.66509  22055584.760    90313987.80148
  23503216.280   123510162.44708  23503217.320    96241653.04747
 15 03 02 00 14 30.0000000  0  7G16G18G19G21G22G27G31
  21028317.920   110504574.97509  21028314.720    86107452.45748
  22388284.040   117651416.85409  22388281.860    91676491.48747
  24104342.340   126669179.35608  24104338.780    98703254.73546
  21945120.500   115322402.48308  21945116.840    89861606.33248
  23140981.420   121606841.68208  23140980.960    94758634.89947
  22045688.180   115850930.15609  22045687.680    90273460.92548
  23521790.380   123607768.01508  23521791.320    96317708.91047
 15 03 02 00 15  0.0000000  0  7G16G18G19G21G22G27G31
  21018234.840   110451588.14709  21018231.680    86066164.02048
  22380427.220   117610129.79509  22380425.060    91644319.80447
  24090087.160   126594267.94508  24090083.480    98644882.24246
  21956119.260   115380201.74408  21956115.660    89906644.71948
  23124527.660   121520378.50708  23124527.180    94691261.29647
  22035814.960   115799046.56009  22035814.580    90233032.17348
  23540378.820   123705448.92708  23540379.780    96393823.58147
 15 03 02 00 15 30.0000000  0  7G16G18G19G21G22G27G31
  21008217.280   110398945.63309  21008214.220    86025143.88548
  22372643.420   117569226.16009  22372641.240    91612446.88947
  24075850.900   126519456.25108  24075847.300    98586587.46246
  21967164.820   115438247.26008  21967161.300    89951874.99748
  23108098.160   121434042.65708  23108097.660    94623986.90047
  22025965.940   115747290.10509  22025965.660    90192702.48648
  23558981.140   123803202.95008  23558982.080    96469995.21347
 15 03 02 00 16  0.0000000  0  7G16G18G19G21G22G27G31
  20998265.820   110346650.26809  20998262.780    85984394.25248
  22364933.140   117528708.85909  22364931.040    91580875.01347
  24061633.780   126444745.15408  24061630.260    98528371.07046
  21978257.020   115496538.11008  21978253.600    89997296.44548
  23091693.700   121347837.67309  23091693.080    94556814.47247
  22016141.380   115695661.80109  22016141.100    90152472.65448
  23577597.140   123901028.74008  23577598.000    96546222.79046
 15 03 02 00 16 30.0000000  0  7G16G18G19G21G22G27G31
  20988380.380   110294701.83809  20988377.320    85943914.95848
  22357296.360   117488577.81609  22357294.280    91549604.11647
  24047435.380   126370132.03008  24047431.920    98470231.01046
  21989395.140   115555070.21408  21989391.800    90042905.88148
  23075314.320   121261764.02309  23075313.480    94489744.37447
  22006340.780   115644159.24009  22006340.420    90112340.81048
  23596225.700   123998920.83608  23596226.440    96622502.02946
 15 03 02 00 17  0.0000000  0  7G16G18G19G21G22G27G31
  20978561.220   110243101.75409  20978558.100    85903707.10148
  22349733.320   117448833.55209  22349731.100    91518634.59847
  24033255.460   126295616.09208  24033252.080    98412166.69646
  22000578.620   115613840.34708  22000575.300    90088700.79847
  23058960.300   121175823.44109  23058959.160    94422777.93447
  21996563.980   115592781.50509  21996563.560    90072306.23048
  23614866.100   124096875.80408  23614866.880    96698830.34546
 15 03 02 00 17 30.0000000  0  7G16G18G19G21G22G27G31
  20968809.400   110191855.41809  20968806.220    85863774.89148
  22342245.000   117409481.78609  22342242.660    91487970.91747
  24019094.800   126221200.85108  24019091.360    98354180.82946
  22011807.800   115672850.27309  22011804.400    90134682.56447
  23042632.880   121090022.42209  23042631.440    94355920.23547
  21986811.660   115541532.00209  21986811.080    90032371.56548
  23633518.420   124194893.42909  23633519.240    96775207.40946
 15 03 02 00 18  0.0000000  0  7G16G18G19G21G22G27G31
  20959124.860   110140962.91709  20959121.700    85824118.41348
  22334831.320   117370522.39909  22334828.840    91457613.00647
  24004952.860   126146884.14508  24004949.360    98296271.75946
  22023082.060   115732096.57809  22023078.560    90180848.52348
  23026332.120   121004361.68209  23026330.520    94289171.85047
  21977083.380   115490408.88709  21977082.680    89992535.39148
  23652181.860   124292969.33408  23652182.700    96851629.87446
 15 03 02 00 18 30.0000000  0  7G16G18G19G21G22G27G31
  20949508.340   110090428.07109  20949505.220    85784740.60248
  22327493.020   117331959.09609  22327490.420    91427563.71047
  23990829.960   126072667.91508  23990826.340    98238440.95946
  22034401.200   115791578.62708  22034397.600    90227198.16548
  23010058.860   120918845.60709  23010057.180    94222536.16447
  21967379.420   115439413.82509  21967378.620    89952798.98648
  23670856.200   124391102.51508  23670857.120    96928097.01846
 15 03 02 00 19  0.0000000  0  7G16G18G19G21G22G27G31
  20939960.280   110040252.85809  20939957.140    85745643.03848
  22320230.260   117293793.03709  22320227.620    91397823.96547
  23976726.080   125998551.76208  23976722.340    98180688.15745
  22045764.900   115851294.53809  22045761.140    90273730.03747
  22993813.500   120833476.50208  22993811.840    94156015.01347
  21957699.620   115388546.44309  21957698.880    89913162.09148
  23689540.840   124489289.86008  23689541.820    97004606.46546
 15 03 02 00 19 30.0000000  0  7G16G18G19G21G22G27G31
  20930480.840   109990438.23809  20930477.640    85706826.45548
  22313043.080   117256024.49309  22313040.420    91368393.97547
  23962640.960   125924534.38208  23962637.040    98123012.30146
  22057172.440   115911240.92608  22057168.580    90320441.51348
  22977596.420   120748256.47408  22977594.920    94089610.04047
  21948043.860   115337805.75209  21948043.220    89873623.90948
  23708235.000   124587527.53008  23708236.060    97081155.20246
 15 03 02 00 20  0.0000000  0  7G16G18G19G21G22G27G31
  20921070.600   109940987.21909  20921067.380    85668293.19848
  22305932.300   117218657.15209  22305929.540    91339276.60847
  23948574.880   125850616.99508  23948570.840    98065414.37346
  22068623.700   115971417.27808  22068619.780    90367332.17947
  22961408.400   120663189.40308  22961407.080    94023324.26647
  21938412.460   115287192.95009  21938411.920    89834185.38648
  23726938.340   124685813.86908  23726939.600    97157741.94846
 15 03 02 00 20 30.0000000  0  7G16G18G19G21G22G27G31
  20911730.140   109891902.74909  20911726.920    85630045.56148
  22298898.220   117181693.20709  22298895.480    91310473.57047
  23934527.940   125776800.26908  23934523.880    98007894.87046
  22080118.500   116031822.84208  22080114.640    90414401.45347
  22945250.080   120578278.59508  22945248.900    93957160.24847
  21928805.560   115236708.80109  21928805.100    89794847.10748
  23745650.400   124784146.44508  23745651.860    97234364.76546
 15 03 02 00 21  0.0000000  0  7G16G18G19G21G22G27G31
  20902459.300   109843183.96509  20902456.040    85592082.86948
  22291940.700   117145131.84409  22291938.020    91281984.23447
  23920499.680   125703081.67008  23920495.580    97950451.82646
  22091655.940   116092452.71308  22091652.240    90461645.50748
  22929121.660   120493524.57109  22929120.580    93891118.39547
  21919222.700   115186350.75509  21919222.280    89755607.08848
  23764370.240   124882519.80508  23764371.820    97311019.34047
 15 03 02 00 21 30.0000000  0  7G16G18G19G21G22G27G31
  20893258.860   109794835.16809  20893255.560    85554408.47748
  22285060.580   117108977.08409  22285057.940    91253811.73047
  23906490.440   125629462.86408  23906486.360    97893086.56446
  22103236.020   116153306.83608  22103232.560    90509064.29848
  22913023.900   120408931.56109  22913022.860    93825202.00247
  21909664.220   115136120.55409  21909663.780    89716466.68648
  23783097.560   124980932.64608  23783099.280    97387704.54646
 15 03 02 00 22  0.0000000  0  7G16G18G19G21G22G27G31
  20884129.140   109746857.83009  20884125.780    85517023.53348
  22278258.040   117073229.67409  22278255.380    91225956.64247
  23892500.120   125555943.36708  23892496.080    97835798.68146
  22114858.280   116214382.77108  22114855.020    90556655.93747
  22896957.280   120324501.91509  22896956.140    93759412.88647
  21900130.040   115086017.81609  21900129.540    89677425.60148
  23801831.880   125079382.06508  23801833.700    97464418.29947
 15 03 02 00 22 30.0000000  0  7G16G18G19G21G22G27G31
  20875070.500   109699254.14009  20875067.080    85479929.75948
  22271533.440   117037891.95909  22271530.780    91198420.79647
  23878528.700   125482523.28508  23878524.700    97778588.25346
  22126522.600   116275679.36508  22126519.420    90604419.52347
  22880922.380   120240238.51109  22880921.080    93693753.29647
  21890620.180   115036042.77609  21890619.600    89638484.03448
  23820572.660   125177865.06908  23820574.540    97541158.14446
 15 03 02 00 23  0.0000000  0  7G16G18G19G21G22G27G31
  20866083.400   109652026.27409  20866079.920    85443128.82348
  22264887.040   117002965.13309  22264884.400    91171205.12047
  23864576.180   125409202.65808  23864572.320    97721455.33146
  22138228.540   116337194.78408  22138225.400    90652353.61848
  22864919.760   120156144.29909  22864918.320    93628225.54147
  21881134.620   114986195.55609  21881133.940    89599642.05548
  23839319.380   125276379.04108  23839321.280    97617922.08947
 15 03 02 00 23 30.0000000  0  7G16G18G19G21G22G27G31
  20857168.040   109605175.42109  20857164.480    85406621.65848
  22258319.120   116968450.79309  22258316.560    91144310.86847
  23850642.540   125335981.05908  23850638.700    97664399.56846
  22149975.540   116398926.00608  22149972.460    90700455.85748
  22848949.760   120072221.63209  22848948.220    93562831.48547
  21871673.220   114936475.54009  21871672.420    89560899.19348
  23858071.360   125374920.71908  23858073.320    97694707.69846
 15 03 02 00 24  0.0000000  0  7G16G18G19G21G22G27G31
  20848324.460   109558702.14109  20848320.920    85370408.71548
  22251829.660   116934348.56609  22251827.000    91117737.73547
  23836727.440   125262856.65708  23836723.580    97607419.54946
  22161763.000   116460869.51908  22161759.820    90748723.52147
  22833012.540   119988471.21309  22833010.900    93497571.66147
  21862235.680   114886880.99609  21862234.820    89522254.10448
  23876827.660   125473485.28708  23876829.680    97771510.96946
 15 03 02 00 24 30.0000000  0  7G16G18G19G21G22G27G31
  20839553.740   109512611.57809  20839550.180    85334494.00148
  22245419.560   116900663.29009  22245416.840    91091489.51947
  23822831.420   125189832.36908  23822827.520    97550517.53747
  22173591.180   116523026.56408  22173587.840    90797157.59047
  22817109.260   119904899.28309  22817107.540    93432450.92647
  21852822.640   114837415.32009  21852821.740    89483709.44348
  23895588.420   125572072.88908  23895590.500    97848332.04946
 15 03 02 00 25  0.0000000  0  7G16G18G19G21G22G27G31
  20830855.740   109466903.27209  20830852.140    85298877.13548
  22239088.720   116867394.37809  22239085.900    91065565.71347
  23808954.000   125116905.83208  23808950.080    97493691.71446
  22185459.320   116585393.14909  22185455.760    90845754.92747
  22801239.900   119821506.02109  22801238.200    93367469.36947
  21843433.620   114788076.07409  21843432.800    89445263.28848
  23914352.700   125670678.55608  23914354.840    97925167.10446
 15 03 02 00 25 30.0000000  0  7G16G18G19G21G22G27G31
  20822231.300   109421581.54709  20822227.680    85263561.50548
  22232837.880   116834545.83909  22232835.020    91039969.48947
  23795095.560   125044079.31508  23795091.640    97436943.82746
  22197367.440   116647970.03509  22197363.660    90894516.12747
  22785405.460   119738296.67509  22785403.880    93302631.12748
  21834069.080   114738865.67809  21834068.420    89406917.54248
  23933120.400   125769301.70108  23933122.600    98002015.65446
 15 03 02 00 26  0.0000000  0  7G16G18G19G21G22G27G31
  20813680.840   109376648.41109  20813677.220    85228548.68048
  22226667.200   116802118.66609  22226664.320    91014701.60247
  23781256.160   124971352.76108  23781252.120    97380273.82847
  22209315.220   116710755.18909  22209311.200    90943439.63247
  22769606.460   119655273.73609  22769605.000    93237938.12047
  21824729.020   114689784.07709  21824728.580    89368672.16148
  23951891.020   125867939.57308  23951893.280    98078875.65046
 15 03 02 00 26 30.0000000  0  7G16G18G19G21G22G27G31
  20805204.500   109332104.76009  20805200.860    85193839.33748
  22220576.920   116770114.17509  22220574.080    90989763.06547
  23767435.540   124898725.26008  23767431.560    97323681.00146
  22221301.960   116773745.46808  22221297.800    90992522.96247
  22753843.260   119572438.92509  22753841.900    93173391.71048
  21815413.280   114640830.22409  21815412.980    89330526.31848
  23970663.840   125966588.72008  23970666.200    98155744.70646
 15 03 02 00 27  0.0000000  0  7G16G18G19G21G22G27G31
  20796802.800   109287953.50209  20796799.160    85159435.76448
  22214567.480   116738534.34409  22214564.660    90965155.43747
  23753633.900   124826197.43608  23753629.980    97267165.85046
  22233327.460   116836939.86509  22233323.300    91041765.34747
  22738116.580   119489795.96209  22738115.200    93108994.78847
  21806122.140   114592005.16909  21806121.920    89292480.83948
  23989438.460   126065247.63108  23989440.820    98232621.70046
 15 03 02 00 27 30.0000000  0  7G16G18G19G21G22G27G31
  20788476.020   109244196.11709  20788472.440    85125339.09448
  22208639.080   116707380.27709  22208636.280    90940879.57747
  23739851.160   124753768.84008  23739847.320    97210728.02247
  22245391.320   116900336.04809  22245387.220    91091164.96847
  22722426.940   119407347.14109  22722425.440    93044749.12648
  21796855.480   114543308.50609  21796855.280    89254535.40148
  24008214.040   126163912.16808  24008216.340    98309503.03646
 15 03 02 00 28  0.0000000  0  7G16G18G19G21G22G27G31
  20780224.500   109200834.20209  20780220.980    85091550.59348
  22202791.980   116676653.53009  22202789.200    90916936.69047
  23726087.220   124681439.13908  23726083.420    97154367.27147
  22257493.080   116963931.54408  22257489.140    91140719.90047
  22706774.680   119325094.66109  22706773.020    92980656.46648
  21787613.220   114494739.88309  21787612.960    89216689.74048
  24026989.920   126262579.06608  24026992.280    98386386.04547
 15 03 02 00 28 30.0000000  0  7G16G18G19G21G22G27G31
  20772049.020   109157871.92309  20772045.560    85058073.49248
  22197026.840   116646357.17609  22197023.960    90893329.17247
  23712342.500   124609210.21908  23712338.740    97098085.03947
  22269632.820   117027726.86008  22269629.120    91190430.53447
  22691160.760   119243043.47209  22691158.880    92916720.64347
  21778395.780   114446301.58109  21778395.420    89178945.62148
  24045766.060   126361247.56708  24045768.660    98463270.23347
 15 03 02 00 29  0.0000000  0  7G16G18G19G21G22G27G31
  20763949.260   109115307.47809  20763945.840    85024906.39049
  22191343.280   116616489.17009  22191340.240    90870055.42847
  23698616.360   124537078.69808  23698612.460    97041878.70047
  22281809.580   117091716.75708  22281806.120    91240292.78747
  22675585.020   119161192.87409  22675582.920    92852941.11847
  21769202.400   114397989.95309  21769201.940    89141300.20748
  24064541.360   126459911.68608  24064544.160    98540151.06546
 15 03 02 00 29 30.0000000  0  7G16G18G19G21G22G27G31
  20755926.020   109073145.15709  20755922.620    84992052.63348
  22185741.960   116587053.43609  22185738.800    90847118.52547
  23684909.140   124465046.43408  23684905.020    96985749.69447
  22294023.500   117155901.79708  22294020.240    91290307.09647
  22660048.320   119079547.69209  22660046.100    92789321.65347
  21760033.600   114349807.38209  21760033.020    89103755.35448
  24083315.820   126558571.31408  24083318.740    98617028.60347
 15 03 02 00 30  0.0000000  0  7G16G18G19G21G22G27G31
  20747979.480   109031385.76209  20747976.060    84959512.85248
  22180222.960   116558050.60609  22180219.720    90824518.95447
  23671220.660   124393112.41108  23671216.320    96929697.26847
  22306273.920   117220278.57008  22306270.760    91340470.82147
  22644551.060   118998109.68009  22644548.760    92725863.63447
  21750889.180   114301752.96009  21750888.480    89066310.36448
  24102088.480   126657221.88308  24102091.520    98693899.00446
 15 03 02 00 30 30.0000000  0  7G16G18G19G21G22G27G31
  20740110.460   108990033.54109  20740107.000    84927290.33648
  22174786.920   116529484.04409  22174783.680    90802259.32047
  23657551.360   124321279.14508  23657546.840    96873723.34447
  22318561.020   117284847.87608  22318557.860    91390784.56447
  22629094.200   118916883.76009  22629091.820    92662570.86747
  21741769.600   114253829.13609  21741768.800    89028967.12948
  24120859.320   126755863.14708  24120862.500    98770762.08546
 15 03 02 00 31  0.0000000  0  7G16G18G19G21G22G27G31
  20732318.920   108949088.58309  20732315.440    84895385.17648
  22169433.800   116501353.38709  22169430.620    90780339.35947
  23643900.740   124249544.51108  23643896.160    96817826.29247
  22330884.020   117349605.61008  22330880.820    91441245.14047
  22613677.880   118835870.72309  22613675.380    92599443.98347
  21732674.420   114206033.99209  21732673.680    88991724.17448
  24139627.460   126854490.10008  24139630.720    98847613.94147
 15 03 02 00 31 30.0000000  0  7G16G18G19G21G22G27G31
  20724604.620   108908549.78609  20724601.180    84863796.50348
  22164163.220   116473656.51509  22164160.060    90758757.40747
  23630268.160   124177905.28508  23630263.660    96762003.55347
  22343242.020   117414547.00508  22343238.680    91491848.82648
  22598302.060   118755070.56409  22598299.480    92536482.97347
  21723603.160   114158364.64309  21723602.540    88954579.23948
  24158391.880   126953096.95108  24158395.220    98924450.18546
 15 03 02 00 32  0.0000000  0  7G16G18G19G21G22G27G31
  20716969.760   108868428.61309  20716966.360    84832533.24948
  22158977.400   116446404.90509  22158974.220    90737522.41147
  23616655.400   124106370.93808  23616651.120    96706262.54547
  22355636.400   117479679.65108  22355632.980    91542601.53247
  22582968.980   118674495.06809  22582966.340    92473697.03148
  21714557.640   114110830.67609  21714557.220    88917539.80148
  24177153.880   127051690.76308  24177157.200    99001276.19145
 15 03 02 00 32 30.0000000  0  7G16G18G19G21G22G27G31
  20709413.420   108828719.96509  20709410.060    84801591.43748
  22153875.300   116419593.17309  22153872.140    90716630.17647
  23603061.360   124034934.79008  23603057.320    96650598.07347
  22368065.600   117544995.13108  22368062.120    91593496.70447
  22567677.940   118594140.31309  22567675.120    92411083.08148
  21705536.620   114063425.30609  21705536.320    88880600.56848
  24195911.640   127150261.94108  24195914.900    99078084.59445
 15 03 02 00 33  0.0000000  0  7G16G18G19G21G22G27G31
  20701935.520   108789423.78209  20701932.260    84770971.04548
  22148856.740   116393220.55409  22148853.660    90696080.12147
  23589485.700   123963594.85108  23589481.780    96595008.55747
  22380528.900   117610489.85708  22380525.340    91644531.55447
  22552429.040   118514007.09709  22552426.060    92348641.76747
  21696539.820   114016146.85309  21696539.540    88843760.23348
  24214664.120   127248805.56908  24214667.420    99154871.41247
 15 03 02 00 33 30.0000000  0  7G16G18G19G21G22G27G31
  20694537.180   108750545.89109  20694534.060    84740676.59148
  22143922.660   116367291.98809  22143919.640    90675876.07047
  23575929.200   123892355.24908  23575925.320    96539497.22846
  22393026.580   117676165.47208  22393022.900    91695707.35447
  22537223.520   118434102.15209  22537220.460    92286378.32347
  21687568.020   113968999.19809  21687567.600    88807021.81148
  24233411.500   127347322.47908  24233414.860    99231637.23046
 15 03 02 00 34  0.0000000  0  7G16G18G19G21G22G27G31
  20687219.180   108712090.13009  20687216.180    84710711.05949
  22139073.800   116341811.27509  22139070.780    90656020.98947
  23562392.080   123821217.58208  23562388.320    96484065.33747
  22405558.660   117742021.97608  22405554.960    91747024.09847
  22522062.280   118354430.26209  22522059.220    92224296.46848
  21678621.580   113921984.66309  21678621.000    88770387.11248
  24252153.720   127445812.11408  24252157.260    99308381.78346
 15 03 02 00 34 30.0000000  0  7G16G18G19G21G22G27G31
  20679980.860   108674052.69909  20679977.920    84681071.49648
  22134309.200   116316773.73509  22134306.220    90636511.24447
  23548873.280   123750175.97608  23548869.480    96428708.28146
  22418123.780   117808052.16708  22418120.060    91798476.18447
  22506944.680   118274987.83309  22506941.680    92162393.41747
  21669699.340   113875097.38709  21669698.640    88733851.57948
  24270889.180   127544265.91807  24270892.980    99385098.24244
 15 03 02 00 35  0.0000000  0  7G16G18G19G21G22G27G31
  20672823.720   108636441.46709  20672820.760    84651764.04049
  22129630.260   116292186.36209  22129627.340    90617352.27947
  23535373.940   123679236.39508  23535370.080    96373430.73646
  22430722.760   117874260.20108  22430719.060    91850066.85047
  22491872.460   118195783.80709  22491869.540    92100676.13548
  21660802.520   113828343.64409  21660801.700    88697420.10148
  24289618.540   127642687.07608  24289622.620    99461788.98046
 15 03 02 00 35 30.0000000  0  7G16G18G19G21G22G27G31
  20665747.220   108599253.71209  20665744.200    84622786.56049
  22125036.360   116268045.94309  22125033.520    90598541.58547
  23521893.180   123608394.55208  23521889.260    96318229.34146
  22443354.360   117940639.41308  22443350.600    91901790.91147
  22476845.360   118116816.55009  22476842.540    92039143.35448
  21651930.220   113781719.13509  21651929.380    88661089.31748
  24308340.500   127741068.18408  24308344.740    99538448.32346
 15 03 02 00 36  0.0000000  0  7G16G18G19G21G22G27G31
  20658752.180   108562494.06909  20658749.080    84594142.67948
  22120528.500   116244357.48809  22120525.740    90580083.07447
  23508431.480   123537653.11208  23508427.520    96263106.17546
  22456018.840   118007191.53908  22456015.020    91953649.70447
  22461864.460   118038091.78309  22461861.520    91977799.50947
  21643083.040   113735226.83509  21643082.200    88624861.55948
  24327055.240   127839410.15108  24327059.660    99615077.04746
 15 03 02 00 36 30.0000000  0  7G16G18G19G21G22G27G31
  20651838.680   108526162.71609  20651835.440    84565832.52848
  22116106.420   116221119.78409  22116103.700    90561975.79147
  23494988.560   123467010.46908  23494984.640    96208059.98547
  22468715.400   118073912.51408  22468711.580    92005640.06947
  22446929.800   117959609.94309  22446926.700    91916644.95847
  21634260.620   113688865.02309  21634259.820    88588735.48448
  24345761.760   127937708.07208  24345766.300    99691671.41546
 15 03 02 00 37  0.0000000  0  7G16G18G19G21G22G27G31
  20645007.240   108490262.58709  20645003.840    84537858.40148
  22111770.600   116198335.14909  22111767.860    90544221.55247
  23481564.640   123396467.36908  23481560.740    96153091.36846
  22481443.920   118140801.68808  22481440.160    92057761.49947
  22432042.140   117881375.01709  22432038.860    91855682.81547
  21625463.300   113642635.16709  21625462.540    88552712.23248
  24364459.680   128035960.32008  24364464.320    99768230.14446
 15 03 02 00 37 30.0000000  0  7G16G18G19G21G22G27G31
  20638258.200   108454795.38809  20638254.600    84510221.62149
  22107521.180   116176004.64309  22107518.400    90526821.18847
  23468159.700   123326023.91608  23468155.860    96098200.40247
  22494204.040   118207857.15708  22494200.420    92110012.50847
  22417201.960   117803389.58409  22417198.520    91794915.07447
  21616691.080   113596537.15009  21616690.300    88516791.70148
  24383148.480   128134164.11608  24383153.200    99844751.06746
 15 03 02 00 38  0.0000000  0  7G16G18G19G21G22G27G31
  20631591.640   108419761.91109  20631587.940    84482922.80148
  22103358.260   116154128.55509  22103355.380    90509774.90347
  23454773.500   123255679.28008  23454769.740    96043386.43647
  22506995.300   118275076.26808  22506991.800    92162391.02347
  22402409.660   117725655.78809  22402406.120    91734343.41248
  21607943.820   113550570.33809  21607943.060    88480973.40848
  24401827.540   128232316.19908  24401832.280    99921231.63046
 15 03 02 00 38 30.0000000  0  7G16G18G19G21G22G27G31
  20625008.160   108385165.27009  20625004.420    84455964.38148
  22099282.220   116132709.14609  22099279.280    90493084.48347
  23441406.380   123185434.84808  23441402.740    95988650.56047
  22519817.560   118342458.41108  22519814.140    92214896.58147
  22387665.860   117648177.08209  22387662.280    91673970.51948
  21599221.780   113504735.90809  21599221.040    88445258.27848
  24420496.460   128330415.02108  24420501.280    99997670.72845
 15 03 02 00 39  0.0000000  0  7G16G18G19G21G22G27G31
  20618507.420   108351003.59509  20618503.640    84429344.89748
  22095292.660   116111744.43709  22095289.740    90476748.36447
  23428057.560   123115286.54108  23428053.960    95933989.54947
  22532669.940   118409998.63308  22532666.680    92267525.32247
  22372970.400   117570952.71709  22372966.900    91613795.81548
  21590524.400   113459030.94709  21590523.680    88409644.03148
  24439154.080   128428454.40708  24439159.100   100074063.61446
 15 03 02 00 39 30.0000000  0  7G16G18G19G21G22G27G31
  20612090.700   108317283.65609  20612086.940    84403069.62448
  22091390.780   116091240.23709  22091387.880    90460771.09447
  23414728.040   123045239.76108  23414724.440    95879407.68047
  22545552.940   118477699.58908  22545549.780    92320279.31347
  22358324.800   117493990.23209  22358321.360    91553825.18048
  21581852.560   113413460.33809  21581851.880    88374134.48848
  24457800.800   128526437.03708  24457806.000   100150412.55545
 15 03 02 00 40  0.0000000  0  7G16G18G19G21G22G27G31
  20605757.680   108284003.86109  20605753.940    84377137.30749
  22087576.120   116071194.18209  22087573.240    90445150.81247
  23401417.120   122975290.80608  23401413.500    95824902.04047
  22558465.640   118545556.31408  22558462.460    92373154.67847
  22343728.920   117417288.92709  22343725.480    91494058.04048
  21573205.640   113368020.74509  21573205.000    88338727.02348
  24476435.380   128624357.03007  24476440.960   100226712.87945
 15 03 02 00 40 30.0000000  0  7G16G18G19G21G22G27G31
  20599509.300   108251168.85409  20599505.600    84351551.58249
  22083849.440   116051610.35209  22083846.580    90429890.70547
  23388125.340   122905442.66408  23388121.800    95770474.95747
  22571408.280   118613570.03908  22571404.980    92426152.37747
  22329183.800   117340854.30009  22329180.320    91434498.69648
  21564584.320   113322715.51609  21564583.660    88303424.25148
  24495057.860   128722214.29308  24495063.800   100302964.50845
 15 03 02 00 41  0.0000000  0  7G16G18G19G21G22G27G31
  20593345.320   108218777.36009  20593341.720    84326311.45249
  22080210.460   116032486.96009  22080207.520    90414989.38147
  23374852.160   122835692.34508  23374848.720    95716124.09747
  22584379.860   118681735.84708  22584376.480    92479268.59347
  22314689.420   117264686.28609  22314685.880    91375147.10848
  21555987.980   113277541.76009  21555987.360    88268223.93248
  24513667.180   128820003.27208  24513673.340   100379163.18846
 15 03 02 00 41 30.0000000  0  7G16G18G19G21G22G27G31
  20587266.540   108186833.74909  20587263.100    84301420.33149
  22076659.780   116013827.50309  22076656.720    90400449.56547
  23361598.100   122766042.29608  23361594.700    95661851.35747
  22597380.580   118750054.69008  22597377.100    92532504.05347
  22300246.720   117188789.74809  22300243.120    91316007.07148
  21547417.280   113232502.28309  21547416.620    88233128.24448
  24532263.300   128917723.58108  24532269.680   100455308.37745
 15 03 02 00 42  0.0000000  0  7G16G18G19G21G22G27G31
  20581273.300   108155339.37009  20581269.960    84276879.24848
  22073197.440   115995632.59209  22073194.340    90386271.73347
  23348363.240   122696492.44808  23348359.720    95607656.71747
  22610409.980   118818524.29708  22610406.420    92585856.99447
  22285856.220   117113167.36309  22285852.580    91257080.64248
  21538872.180   113187597.08509  21538871.420    88198137.19348
  24550845.620   129015372.06908  24550852.160   100531397.63245
 15 03 02 00 42 30.0000000  0  7G16G18G19G21G22G27G31
  20575365.800   108124295.26109  20575362.540    84252689.02349
  22069823.360   115977902.08409  22069820.280    90372455.77347
  23335147.340   122627041.69508  23335143.560    95553539.25947
  22623467.580   118887142.00408  22623463.980    92639325.32947
  22271518.100   117037820.41209  22271514.420    91198368.83048
  21530352.500   113142825.47309  21530351.620    88163250.22248
  24569413.540   129112945.16908  24569420.240   100607427.98245
 15 03 02 00 43  0.0000000  0  7G16G18G19G21G22G27G31
  20569544.300   108093702.85909  20569541.040    84228850.77649
  22066537.940   115960637.67109  22066534.920    90359002.99847
  23321950.320   122557690.24008  23321946.360    95499499.18147
  22636553.100   118955906.51908  22636549.480    92692908.05747
  22257232.940   116962751.84709  22257229.260    91139873.94148
  21521858.240   113098187.71409  21521857.300    88128467.55348
  24587966.620   129210440.23708  24587973.620   100683397.54845
 15 03 02 00 43 30.0000000  0  7G16G18G19G21G22G27G31
  20563809.500   108063565.98009  20563806.220    84205367.49149
  22063341.760   115943842.11309  22063338.760    90345915.57547
  23308772.600   122488440.03208  23308768.460    95445538.01347
  22649666.540   119024817.88508  22649662.920    92746605.22547
  22243001.620   116887966.78009  22242998.040    91081599.97348
  21513389.800   113053686.11409  21513388.940    88093790.99448
  24606504.820   129307857.06208  24606512.120   100759306.17345
 15 03 02 00 44  0.0000000  0  7G16G18G19G21G22G27G31
  20558161.100   108033882.97509  20558157.760    84182237.87349
  22060234.380   115927512.78409  22060231.380    90333191.43647
  23295613.440   122419287.72708  23295609.140    95391653.12547
  22662807.000   119093871.16408  22662803.400    92800412.96947
  22228823.940   116813463.96909  22228820.500    91023545.94348
  21504946.700   113009317.53709  21504945.880    88059218.07948
  24625027.040   129405190.00108  24625034.520   100835149.69044
 15 03 02 00 44 30.0000000  0  7G16G18G19G21G22G27G31
  20552600.060   108004658.80109  20552596.620    84159465.78349
  22057216.580   115911654.07509  22057213.540    90320834.01147
  23282473.460   122350236.46708  23282469.060    95337846.97047
  22675974.640   119163067.55508  22675971.080    92854332.21247
  22214701.080   116739249.09509  22214697.720    90965716.26348
  21496529.560   112965085.35109  21496528.800    88024751.43948
  24643533.220   129502439.10208  24643540.900   100910927.89345
 15 03 02 00 45  0.0000000  0  7G16G18G19G21G22G27G31
  20547126.940   107975896.94009  20547123.420    84137053.94449
  22054288.820   115896268.61809  22054285.800    90308845.36647
  23269353.000   122281288.21508  23269348.600    95284121.08647
  22689169.500   119232407.26208  22689165.940    92908363.15347
  22200633.880   116665326.56909  22200630.580    90908114.40348
  21488138.800   112920991.68609  21488138.080    87990392.74748
  24662023.160   129599603.24708  24662031.140   100986639.69146
 15 03 02 00 45 30.0000000  0  7G16G18G19G21G22G27G31
  20541740.860   107947592.83109  20541737.340    84114998.79349
  22051450.120   115881351.40709  22051447.200    90297221.58547
  23256250.980   122212437.12708  23256246.620    95230470.91647
  22702390.180   119301882.65408  22702386.660    92962499.81447
  22186621.900   116591693.54809  22186618.480    90850738.12248
  21479773.360   112877030.95209  21479772.640    87956137.63448
  24680495.340   129696673.92007  24680503.540   101062278.55746
 15 03 02 00 46  0.0000000  0  6G16G18G19G21G22G27
  20536442.020   107919747.39109  20536438.540    84093301.04648
  22048700.520   115866902.55309  22048697.720    90285962.75947
  23243167.260   122143682.30008  23243163.040    95176895.77447
  22715636.180   119371491.37708  22715632.740    93016740.37147
  22172665.380   116518351.50909  22172661.760    90793588.57548
  21471433.040   112833202.59609  21471432.340    87921985.67548
 15 03 02 00 46 30.0000000  0  6G16G18G19G21G22G27
  20531232.120   107892369.40509  20531228.680    84071967.55748
  22046041.580   115852929.93109  22046038.860    90275075.03647
  23230103.280   122075031.13908  23230099.160    95123401.40447
  22728908.580   119441238.82408  22728905.200    93071089.02547
  22158766.100   116445310.05809  22158762.260    90736673.25348
  21463119.320   112789514.06209  21463118.660    87887942.67948
 15 03 02 00 47  0.0000000  0  6G16G18G19G21G22G27
  20526110.780   107865456.73409  20526107.360    84050996.63249
  22043472.720   115839430.39409  22043469.960    90264555.92247
  23217058.260   122006479.20708  23217054.060    95069984.33647
  22742206.300   119511119.03008  22742203.020    93125541.11947
  22144923.820   116372567.97809  22144919.780    90679991.19748
  21454831.420   112745961.53409  21454830.840    87854005.64048
 15 03 02 00 47 30.0000000  0  6G16G18G19G21G22G27
  20521078.620   107839012.55209  20521075.240    84030390.77449
  22040994.460   115826406.73709  22040991.720    90254407.64147
  23204032.540   121938028.62608  23204028.240    95016646.25247
  22755529.400   119581132.33808  22755526.140    93180096.93147
  22131139.360   116300129.82109  22131135.160    90623545.97448
  21446569.840   112702547.10809  21446569.360    87820176.23048
 15 03 02 00 48  0.0000000  0  6G16G18G19G21G22G27
  20516135.600   107813036.72509  20516132.240    84010149.85949
  22038606.560   115813857.99109  22038603.840    90244629.40747
  23191025.780   121869677.92708  23191021.360    94963385.97947
  22768877.140   119651275.16908  22768873.900    93234753.66747
  22117412.760   116227996.09309  22117408.480    90567337.95848
  21438334.360   112659269.52109  21438333.900    87786453.44149
 15 03 02 00 48 30.0000000  0  6G16G18G19G21G22G27
  20511282.640   107787534.06409  20511279.260    83990277.65049
  22036309.800   115801788.11009  22036307.040    90235224.32447
  23178038.560   121801429.99308  23178034.100    94910205.80847
  22782249.920   119721549.16108  22782246.640    93289512.60947
  22103745.140   116156172.73809  22103740.900    90511371.79748
  21430125.640   112616132.18309  21430125.140    87752839.93248
 15 03 02 00 49  0.0000000  0  6G16G18G19G21G22G27
  20506518.860   107762500.26309  20506515.440    83970770.78649
  22034103.200   115790192.26409  22034100.420    90226188.61247
  23165069.880   121733279.42508  23165065.360    94857101.50147
  22795646.260   119791946.98808  22795642.920    93344368.05247
  22090135.960   116084656.59809  22090131.840    90455645.03148
  21421942.640   112573129.57909  21421942.040    87719331.41848
 15 03 02 00 49 30.0000000  0  6G16G18G19G21G22G27
  20501845.300   107737940.85009  20501841.900    83951633.58049
  22031987.600   115779074.61109  22031984.780    90217525.53547
  23152120.460   121665230.07308  23152115.920    94804076.05946
  22809066.520   119862470.47308  22809063.180    93399321.41547
  22076586.380   116013453.79409  22076582.400    90400162.41348
  21413786.140   112530266.02309  21413785.440    87685931.25549
 15 03 02 00 50  0.0000000  0  6G16G18G19G21G22G27
  20497262.300   107713857.20609  20497258.900    83932867.09349
  22029963.180   115768436.29909  22029960.320    90209235.95547
  23139190.340   121597282.07308  23139185.820    94751129.58247
  22822510.420   119933118.07908  22822507.040    93454371.48847
  22063096.920   115942566.93109  22063093.080    90344925.98448
  21405656.140   112487541.78109  21405655.300    87652639.63549
 15 03 02 00 50 30.0000000  0  6G16G18G19G21G22G27
  20492770.000   107690250.27009  20492766.640    83914472.07449
  22028029.920   115758276.94109  22028026.960    90201319.59147
  23126279.300   121529434.18708  23126274.780    94698261.12447
  22835977.520   120003887.66108  22835974.080    93509516.60647
  22049667.960   115871997.86409  22049664.220    90289937.19348
  21397552.500   112444956.34509  21397551.560    87619456.18548
 15 03 02 00 51  0.0000000  0  6G16G18G19G21G22G27
  20488368.880   107667122.39109  20488365.540    83896450.34248
  22026188.180   115748598.30609  22026185.060    90193777.80847
  23113387.560   121461687.80408  23113383.100    94645471.75347
  22849467.700   120074778.57808  22849464.200    93564756.26147
  22036300.140   115801749.90009  22036296.420    90235198.59848
  21389475.500   112402511.18209  21389474.520    87586382.02548
 15 03 02 00 51 30.0000000  0  6G16G18G19G21G22G27
  20484059.120   107644474.60709  20484055.780    83878802.72249
  22024437.940   115739400.49109  22024434.760    90186610.70247
  23100514.960   121394041.86908  23100510.580    94592760.65947
  22862980.460   120145788.22708  22862976.900    93620088.45547
  22022993.880   115731825.37109  22022990.160    90180712.03648
  21381425.060   112360206.03909  21381424.140    87553416.99548
 15 03 02 00 52  0.0000000  0  6G16G18G19G21G22G27
  20479840.780   107622307.09209  20479837.400    83861529.32349
  22022779.140   115730683.41809  22022775.960    90179818.18947
  23087661.440   121326496.27308  23087657.140    94540127.75647
  22876515.360   120216914.43608  22876511.760    93675511.46147
  22009749.440   115662225.78909  22009745.700    90126478.67148
  21373401.000   112318040.12609  21373400.240    87520560.44449
 15 03 02 00 52 30.0000000  0  6G16G18G19G21G22G27
  20475714.860   107600624.81509  20475711.360    83844634.03849
  22021212.520   115722450.82909  22021209.380    90173403.20147
  23074827.580   121259054.06208  23074823.360    94487575.41347
  22890072.640   120288158.24508  22890069.040    93731026.11146
  21996567.960   115592956.94709  21996564.260    90072503.03448
  21365404.100   112276017.16509  21365403.560    87487815.29849
 15 03 02 00 53  0.0000000  0  6G16G18G19G21G22G27
  20471681.000   107579426.40909  20471677.460    83828115.79849
  22019737.620   115714700.44509  22019734.580    90167363.95547
  23062012.900   121191712.54008  23062008.680    94435101.52447
  22903651.520   120359515.49608  22903647.920    93786629.15247
  21983449.400   115524018.33009  21983445.640    90018784.70348
  21357434.020   112234134.72109  21357433.600    87455179.63849
 15 03 02 00 53 30.0000000  0  6G16G18G19G21G22G27
  20467739.080   107558711.33009  20467735.560    83811974.17849
  22018354.160   115707430.77409  22018351.200    90161699.29347
  23049217.080   121124469.99208  23049212.760    94382704.77247
  22917251.300   120430982.65708  22917247.720    93842317.83647
  21970393.800   115455410.52109  21970389.980    89965324.14248
  21349490.480   112192391.20309  21349490.040    87422652.22949
 15 03 02 00 54  0.0000000  0  6G16G18G19G21G22G27
  20463890.440   107538486.73209  20463886.980    83796214.74349
  22017063.440   115700648.39609  22017060.540    90156414.34047
  23036441.100   121057331.78508  23036436.760    94330389.30347
  22930872.720   120502563.93308  22930869.240    93898095.44847
  21957402.580   115387141.27509  21957398.720    89912127.40548
  21341574.600   112150792.59709  21341574.040    87390237.73749
 15 03 02 00 54 30.0000000  0  6G16G18G19G21G22G27
  20460134.380   107518748.55609  20460130.960    83780834.33049
  22015864.580   115694348.45809  22015861.700    90151505.30747
  23023684.040   120990292.92708  23023679.620    94278151.25447
  22944514.440   120574252.13108  22944511.020    93953956.37547
  21944475.320   115319208.15509  21944471.440    89859192.56748
  21333685.400   112109334.00909  21333684.680    87357932.34449
 15 03 02 00 55  0.0000000  0  6G16G18G19G21G22G27
  20456472.180   107499503.68409  20456468.800    83765838.32549
  22014758.640   115688536.43809  22014755.760    90146976.47947
  23010946.880   120923358.80208  23010942.480    94225994.81547
  22958177.180   120646050.92708  22958173.860    94009903.48947
  21931613.540   115251618.97109  21931609.580    89806525.74348
  21325823.900   112068021.24309  21325823.060    87325740.58648
 15 03 02 00 55 30.0000000  0  6G16G18G19G21G22G27
  20452903.200   107480748.43909  20452899.780    83751223.84049
  22013744.740   115683207.97209  22013741.760    90142824.44547
  22998228.640   120856524.40708  22998224.360    94173916.08647
  22971859.800   120717954.17408  22971856.540    94065931.98347
  21918816.720   115184371.10009  21918812.660    89754124.86948
  21317989.260   112026849.71309  21317988.300    87293658.88349
 15 03 02 00 56  0.0000000  0  6G16G18G19G21G22G27
  20449428.500   107462488.48809  20449425.000    83736995.30749
  22012823.860   115678368.32809  22012820.840    90139053.30747
  22985530.220   120789794.32708  22985526.060    94121918.64047
  22985562.660   120789963.83108  22985559.500    94122043.39947
  21906086.080   115117471.27909  21906081.980    89701995.20448
  21310182.320   111985824.01409  21310181.320    87261690.81449
 15 03 02 00 56 30.0000000  0  6G16G18G19G21G22G27
  20446048.020   107444723.42609  20446044.400    83723152.39149
  22011995.660   115674015.94209  22011992.660    90135661.85247
  22972851.360   120723167.07508  22972847.360    94070001.32547
  22999285.420   120862077.81808  22999282.300    94178236.10847
  21893421.720   115050920.34109  21893417.680    89650137.40048
  21302402.940   111944943.06509  21302401.920    87229835.53348
 15 03 02 00 57  0.0000000  0  6G16G18G19G21G22G27
  20442761.740   107427453.47209  20442758.040    83709695.27649
  22011260.000   115670149.93109  22011257.000    90132649.39847
  22960191.860   120656641.21608  22960188.020    94018163.02047
  23013027.440   120934292.74608  23013024.360    94234507.48147
  21880823.940   114984719.64009  21880820.000    89598552.51848
  21294650.900   111904205.97209  21294649.980    87198092.35448
 15 03 02 00 57 30.0000000  0  7G04G16G18G19G21G22G27
  24607338.940   129312435.06807  24607344.360   100762945.76543
  20439569.400   107410677.45909  20439565.680    83696623.04649
  22010616.560   115666768.56509  22010613.580    90130014.58047
  22947551.300   120590214.58808  22947547.520    93966402.03847
  23026787.860   121006604.34708  23026784.840    94290854.16246
  21868292.680   114918868.79609  21868288.920    89547240.23848
  21286925.860   111863610.71309  21286925.040    87166459.68449
 15 03 02 00 58  0.0000000  0  7G04G16G18G19G21G22G27
  24587917.700   129210377.85407  24587922.900   100683421.52344
  20436475.320   107394418.07209  20436471.620    83683953.39049
  22010069.440   115663893.48509  22010066.500    90127774.27447
  22934933.740   120523908.39808  22934929.860    93914734.90847
  23040570.500   121079032.54808  23040567.480    94347291.71447
  21855832.640   114853391.65309  21855828.960    89496219.15548
  21279231.940   111823178.90109  21279231.200    87134954.38749
 15 03 02 00 58 30.0000000  0  7G04G16G18G19G21G22G27
  24568520.700   129108448.48808  24568525.860   100603996.81944
  20433472.900   107378640.55609  20433469.240    83671659.21549
  22009611.900   115661489.11509  22009609.000    90125900.75747
  22922332.400   120457687.09708  22922328.320    93863133.91147
  23054368.200   121151539.78608  23054365.120    94403790.85046
  21843437.420   114788254.79709  21843433.780    89445463.22748
  21271562.440   111782875.24109  21271561.720    87103548.94549
 15 03 02 00 59  0.0000000  0  7G04G16G18G19G21G22G27
  24549151.780   129006666.70907  24549156.880   100524687.03644
  20430566.000   107363364.75109  20430562.360    83659755.98449
  22009247.520   115659574.27209  22009244.580    90124408.68047
  22909750.800   120391569.71708  22909746.480    93811613.89947
  23068184.220   121224143.16708  23068181.060    94460364.90746
  21831110.940   114723478.90509  21831107.300    89394988.56948
  21263920.920   111742718.59009  21263920.180    87072258.05149
 15 03 02 00 59 30.0000000  0  7G04G16G18G19G21G22G27
  24529811.080   128905033.53707  24529816.200   100445492.98944
  20427754.800   107348591.80609  20427751.180    83648244.59649
  22008976.380   115658149.37709  22008973.380    90123298.38447
  22897188.800   120325555.45009  22897184.260    93760174.22647
  23082018.180   121296840.96708  23082014.940    94517012.53147
  21818853.660   114659066.43509  21818849.980    89344797.09948
  21256307.380   111702709.31509  21256306.640    87041082.00049
 15 03 02 01 00  0.0000000  0  7G04G16G18G19G21G22G27
  24510498.800   128803549.58807  24510503.900   100366415.22844
  20425039.340   107334322.04909  20425035.760    83637125.29949
  22008798.360   115657213.94609  22008795.380    90122569.49647
  22884646.300   120259643.84909  22884641.560    93708814.54647
  23095869.660   121369630.90508  23095866.360    94573731.94846
  21806665.720   114595018.26209  21806661.940    89294889.49248
  21248721.760   111662846.93009  21248721.040    87010020.41249
 15 03 02 01 00 30.0000000  0  7G04G16G18G19G21G22G27
  24491215.320   128702216.74408  24491220.200   100287455.22844
  20422419.940   107320557.23809  20422416.460    83626399.47049
  22008713.540   115656768.46709  22008710.540    90122222.38147
  22872123.440   120193835.80209  22872118.560    93657535.56847
  23109738.500   121442511.96908  23109735.140    94630522.38746
  21794547.860   114531338.37009  21794543.940    89245268.86248
  21241164.300   111623132.59609  21241163.600    86979074.18849
 15 03 02 01 01  0.0000000  0  7G04G16G18G19G21G22G27
  24471961.040   128601037.15008  24471965.700   100208614.61544
  20419897.060   107307299.44009  20419893.640    83616068.71249
  22008722.300   115656814.64809  22008719.260    90122258.38547
  22859620.440   120128132.07009  22859615.500    93606337.87447
  23123624.540   121515483.52608  23123621.060    94687383.33446
  21782500.680   114468029.79109  21782496.620    89195937.55948
  21233635.280   111583567.68109  21233634.600    86948244.38648
 15 03 02 01 01 30.0000000  0  7G04G16G18G19G21G22G27
  24452735.440   128500008.00307  24452739.620   100129891.24943
  20417470.080   107294545.55809  20417466.700    83606130.60849
  22008823.800   115657348.22609  22008820.720    90122674.16847
  22847136.560   120062528.89608  22847131.600    93555218.52347
  23137526.680   121588539.52808  23137523.140    94744310.08046
  21770523.720   114405090.15309  21770519.500    89146893.73048
  21226134.000   111544148.37509  21226133.340    86917528.03249
 15 03 02 01 02  0.0000000  0  7G04G16G18G19G21G22G27
  24433539.760   128399136.26207  24433543.440   100051290.54344
  20415140.420   107282302.93109  20415137.020    83596590.89349
  22009019.180   115658375.22509  22009016.040    90123474.44647
  22834672.920   119997032.13608  22834668.040    93504182.11347
  23151445.820   121661684.70608  23151442.200    94801306.32146
  21758618.500   114342527.74909  21758614.180    89098143.86548
  21218661.640   111504881.00809  21218661.000    86886930.09449
 15 03 02 01 02 30.0000000  0  7G04G16G18G19G21G22G27
  24414373.720   128298420.85907  24414377.320    99972811.61044
  20412907.920   107270570.63909  20412904.440    83587448.84749
  22009308.160   115659894.26209  22009305.060    90124658.12947
  22822229.200   119931640.22708  22822224.460    93453227.40847
  23165381.220   121734915.71908  23165377.640    94858369.44246
  21746785.140   114280343.18609  21746780.700    89049688.41648
  21211218.020   111465764.31409  21211217.340    86856449.56149
 15 03 02 01 03  0.0000000  0  7G04G16G18G19G21G22G27
  24395237.860   128197864.26307  24395241.360    99894456.42344
  20410772.820   107259350.32309  20410769.280    83578705.73649
  22009690.920   115661906.35209  22009687.840    90126225.99747
  22809805.500   119866353.70508  22809800.940    93402354.82647
  23179332.800   121808231.63008  23179329.340    94915498.71546
  21735024.160   114218539.35009  21735019.660    89001529.62648
  21203803.320   111426799.39009  21203802.520    86826087.28249
 15 03 02 01 03 30.0000000  0  7G04G16G18G19G21G22G27
  24376131.580   128097463.33407  24376135.020    99816222.67844
  20408734.480   107248638.75309  20408730.900    83570359.05449
  22010166.560   115664406.48709  22010163.520    90128174.16947
  22797401.020   119801168.43208  22797396.600    93351561.13247
  23193299.340   121881626.31208  23193295.940    94972689.36846
  21723335.140   114157113.73909  21723330.640    88953665.56148
  21196416.680   111387982.09809  21196415.860    86795840.04649
 15 03 02 01 04  0.0000000  0  7G04G16G18G19G21G22G27
  24357055.880   127997223.32007  24357059.300    99738114.23744
  20406793.980   107238441.57009  20406790.460    83562413.19449
  22010736.040   115667399.60609  22010733.040    90130506.48447
  22785016.740   119736089.10609  22785012.400    93300850.00147
  23207281.520   121955103.12208  23207278.200    95029944.02346
  21711719.480   114096073.59109  21711714.960    88906101.86448
  21189059.080   111349317.68609  21189058.260    86765711.94349
 15 03 02 01 04 30.0000000  0  7G04G16G18G19G21G22G27
  24338010.900   127897144.61407  24338014.420    99660131.36944
  20404951.380   107228759.12209  20404947.920    83554868.41649
  22011399.340   115670885.42009  22011396.300    90133222.70747
  22772652.580   119671115.16709  22772648.180    93250220.96647
  23221278.880   122028659.64508  23221275.640    95087260.78047
  21700177.440   114035420.30509  21700172.980    88858839.60148
  21181730.440   111310805.87709  21181729.640    86735702.73949
 15 03 02 01 05  0.0000000  0  7G04G16G18G19G21G22G27
  24318996.500   127797226.06107  24319000.000    99582273.29645
  20403206.420   107219589.80809  20403203.080    83547723.48549
  22012156.000   115674861.62709  22012152.960    90136321.05647
  22760308.040   119606244.06409  22760303.540    93199672.07547
  23235290.680   122102291.82208  23235287.460    95144636.48646
  21688708.920   113975153.25709  21688704.580    88811878.31548
  21174430.420   111272444.58609  21174429.680    86705810.82649
 15 03 02 01 05 30.0000000  0  7G04G16G18G19G21G22G27
  24300013.640   127697472.98607  24300017.180    99504544.10145
  20401560.100   107210938.88209  20401556.880    83540982.50249
  22013006.740   115679332.12009  22013003.660    90139804.57647
  22747983.940   119541480.04009  22747979.340    93149206.60847
  23249317.360   122176002.17708  23249314.140    95202073.12646
  21677315.120   113915278.94609  21677310.900    88765223.06548
  21167159.940   111234238.45209  21167159.320    86676039.81749
 15 03 02 01 06  0.0000000  0  7G04G16G18G19G21G22G27
  24281062.060   127597883.65507  24281065.400    99426942.47345
  20400012.120   107202804.54909  20400009.000    83534644.05149
  22013950.960   115684294.32709  22013948.000    90143671.24047
  22735679.720   119476820.52309  22735674.980    93098822.59147
  23263358.140   122249786.83708  23263354.900    95259567.66046
  21665996.000   113855796.88709  21665991.840    88718873.45448
  21159918.600   111196185.08209  21159918.060    86646387.84149
 15 03 02 01 06 30.0000000  0  7G04G16G18G19G21G22G27
  24262141.940   127498459.68707  24262145.120    99349469.72844
  20398562.780   107195187.98209  20398559.660    83528709.06849
  22014988.740   115689748.39709  22014985.920    90147921.18847
  22723395.440   119412265.97709  22723390.660    93048520.36847
  23277412.760   122323644.31108  23277409.480    95317118.93446
  21654752.040   113796709.61809  21654747.900    88672831.48748
  21152706.520   111158285.30209  21152706.000    86616855.56049
 15 03 02 01 07  0.0000000  0  7G04G16G18G19G21G22G27
  24243253.940   127399204.63507  24243257.020    99272128.55545
  20397212.640   107188092.55709  20397209.460    83523180.16549
  22016120.620   115695696.79209  22016117.800    90152556.31747
  22711131.620   119347819.11009  22711126.820    92998302.05348
  23291481.400   122397575.45308  23291478.120    95374727.61246
  21643584.060   113738021.55009  21643579.900    88627100.57548
  21145524.280   111120542.32809  21145523.720    86587445.46749
 15 03 02 01 07 30.0000000  0  7G04G16G18G19G21G22G27
  24224398.140   127300118.96507  24224401.120    99194919.32545
  20395961.760   107181518.60509  20395958.460    83518057.60149
  22017346.480   115702138.73009  22017343.640    90157576.01947
  22698888.120   119283479.11309  22698883.340    92948167.01648
  23305563.680   122471578.41508  23305560.420    95432392.24646
  21632492.380   113679734.34609  21632488.160    88581682.01348
  21138371.780   111082955.71109  21138371.160    86558157.20049
 15 03 02 01 08  0.0000000  0  7G04G16G18G19G21G22G27
  24205574.320   127201200.67308  24205577.140    99117840.51644
  20394809.700   107175464.09009  20394806.320    83513339.78649
  22018665.780   115709071.45909  22018662.900    90162978.15247
  22686664.420   119219243.45309  22686659.760    92898113.27948
  23319658.800   122545648.79908  23319655.500    95490109.41446
  21621476.680   113621846.59409  21621472.400    88536574.71548
  21131248.600   111045523.01809  21131247.880    86528988.87549
 15 03 02 01 08 30.0000000  0  7G04G16G18G19G21G22G27
  24186782.920   127102452.44808  24186785.580    99040894.19744
  20393756.780   107169930.97609  20393753.400    83509028.26549
  22020078.660   115716495.98309  22020075.720    90168763.50647
  22674460.840   119155113.61809  22674456.320    92848142.00948
  23333766.680   122619786.22008  23333763.320    95547878.83346
  21610537.820   113564362.48909  21610533.460    88491781.95748
  21124155.080   111008246.12709  21124154.300    86499941.96149
 15 03 02 01 09  0.0000000  0  7G04G16G18G19G21G22G27
  24168024.380   127003876.54008  24168026.740    98964082.17245
  20392803.420   107164921.23509  20392800.080    83505124.55749
  22021585.380   115724413.64009  22021582.480    90174933.12347
  22662277.540   119091090.59609  22662273.200    92798253.96448
  23347887.260   122693990.35008  23347883.900    95605700.22746
  21599676.300   113507284.88709  21599671.900    88447305.95348
  21117091.560   110971126.65409  21117090.680    86471017.69849
 15 03 02 01 09 30.0000000  0  7G04G16G18G19G21G22G27
  24149299.200   126905475.79908  24149301.320    98887406.60945
  20391950.340   107160438.16709  20391947.020    83501631.24449
  22023186.180   115732825.84309  22023183.280    90181488.09047
  22650115.080   119027176.81509  22650110.860    92748451.04348
  23362020.620   122768261.72408  23362017.220    95663574.01046
  21588892.920   113450617.84309  21588888.480    88403149.85748
  21110058.500   110934167.08009  21110057.560    86442218.03049
 15 03 02 01 10  0.0000000  0  7G04G16G18G19G21G22G27
  24130606.980   126807248.46807  24130609.040    98810866.17445
  20391197.040   107156479.38609  20391193.720    83498546.48249
  22024880.560   115741729.92009  22024877.700    90188426.35947
  22637972.880   118963369.33109  22637968.680    92698730.95248
  23376166.000   122842596.02908  23376162.540    95721496.85046
  21578187.480   113394360.32309  21578183.040    88359312.88048
  21103055.420   110897365.08709  21103054.440    86413541.15849
 15 03 02 01 10 30.0000000  0  7G04G16G18G19G21G22G27
  24111947.580   126709193.86008  24111949.600    98734460.29345
  20390543.320   107153043.85909  20390540.000    83495869.43449
  22026668.080   115751123.82909  22026665.320    90195746.29447
  22625850.640   118899666.65409  22625846.440    92649092.51448
  23390322.700   122916989.93708  23390319.300    95779466.11246
  21567560.060   113338512.77309  21567555.540    88315795.34548
  21096082.020   110860719.37809  21096081.020    86384986.05849
 15 03 02 01 11  0.0000000  0  7G04G16G18G19G21G22G27
  24093322.580   126611320.18308  24093324.480    98658195.39745
  20389990.680   107150139.50409  20389987.360    83493606.29149
  22028550.140   115761014.52309  22028547.480    90203453.33547
  22613749.720   118836076.04509  22613745.420    92599541.40548
  23404491.840   122991449.02408  23404488.420    95837486.18246
  21557012.460   113283084.68709  21557007.880    88272604.66848
  21089139.780   110824237.65309  21089138.820    86356558.74449
 15 03 02 01 11 30.0000000  0  7G04G16G18G19G21G22G27
  24074730.860   126513621.00208  24074732.660    98582066.48245
  20389537.680   107147758.99109  20389534.400    83491751.34449
  22030525.280   115771394.40609  22030522.720    90211541.57747
  22601668.780   118772590.17409  22601664.320    92550071.92647
  23418671.740   123065964.56208  23418668.240    95895550.23846
  21546543.440   113228069.72809  21546538.840    88229735.91248
  21082227.320   110787912.79309  21082226.460    86328253.66949
 15 03 02 01 12  0.0000000  0  7G04G16G18G19G21G22G27
  24056173.460   126416102.01308  24056175.200    98506077.94345
  20389185.600   107145908.73209  20389182.320    83490309.57649
  22032594.400   115782267.65509  22032591.800    90220014.24747
  22589608.640   118709213.67909  22589604.000    92500687.64847
  23432862.920   123140539.49608  23432859.360    95953660.56546
  21536154.400   113173475.34409  21536149.840    88187194.87848
  21075345.720   110751750.14809  21075344.940    86300074.99149
 15 03 02 01 12 30.0000000  0  7G04G16G18G19G21G22G27
  24037650.320   126318762.98408  24037651.920    98430229.61645
  20388934.160   107144587.52709  20388930.860    83489280.05549
  22034757.240   115793632.97009  22034754.520    90228870.34347
  22577569.100   118645945.55609  22577564.320    92451387.82247
  23447064.940   123215171.25208  23447061.220    96011815.16246
  21525845.420   113119301.87409  21525840.920    88144981.82048
  21068494.840   110715748.87709  21068494.140    86272022.04449
 15 03 02 01 13  0.0000000  0  7G04G16G18G19G21G22G27
  24019161.780   126221605.82508  24019163.120    98354523.00645
  20388783.700   107143797.07009  20388780.360    83488664.11349
  22037013.800   115805490.59709  22037010.940    90238110.06947
  22565550.340   118582786.57009  22565545.520    92402173.04848
  23461277.640   123289859.30808  23461273.840    96070013.64746
  21515617.000   113065551.72109  21515612.560    88103098.63748
  21061674.920   110679910.26109  21061674.260    86244095.86449
 15 03 02 01 13 30.0000000  0  7G04G16G18G19G21G22G27
  24000707.340   126124627.62208  24000708.340    98278955.81645
  20388733.660   107143534.08709  20388730.220    83488459.17949
  22039363.300   115817836.53909  22039360.220    90247730.29147
  22553551.720   118519733.31709  22553546.900    92353040.65247
  23475500.060   123364598.34808  23475496.140    96128251.84646
  21505469.000   113012223.92109  21505464.600    88061544.54848
  21054885.360   110644231.12109  21054884.740    86216293.93749
 15 03 02 01 14  0.0000000  0  7G04G16G18G19G21G22G27
  23982288.360   126027835.88608  23982289.220    98203533.94045
  20388785.380   107143805.61509  20388781.800    83488670.74849
  22041806.820   115830676.85009  22041803.600    90257735.74147
  22541574.480   118456792.42309  22541569.660    92303995.81547
  23489733.140   123439393.52008  23489729.080    96186533.78646
  21495402.780   112959326.03009  21495398.460    88020325.45748
  21048127.480   110608718.40909  21048126.900    86188621.70849
 15 03 02 01 14 30.0000000  0  7G04G16G18G19G21G22G27
  23963904.460   125931228.44608  23963905.040    98128255.64945
  20388938.300   107144608.91509  20388934.620    83489296.68949
  22044343.720   115844008.09509  22044340.380    90268123.73647
  22529618.020   118393960.77009  22529613.260    92255036.10248
  23503976.020   123514240.19208  23503971.840    96244855.86246
  21485418.220   112906857.08609  21485413.960    87979440.60948
  21041400.800   110573369.52709  21041400.220    86161077.12749
 15 03 02 01 15  0.0000000  0  7G04G16G18G19G21G22G27
  23945556.180   125834808.41108  23945556.620    98053123.39645
  20389192.980   107145947.13609  20389189.260    83490339.45249
  22046974.340   115857832.24009  22046971.020    90278895.80847
  22517682.800   118331240.77609  22517678.140    92206163.40248
  23518228.880   123589138.95608  23518224.580    96303218.52946
  21475516.020   112854820.93909  21475511.780    87938892.99948
  21034705.820   110538187.12809  21034705.260    86133662.27049
 15 03 02 01 15 30.0000000  0  7G04G16G18G19G21G22G27
  23927243.300   125738574.44508  23927243.640    97978136.09845
  20389549.060   107147818.28609  20389545.380    83491797.48749
  22049698.120   115872146.22409  22049694.840    90290049.58247
  22505768.320   118268630.38109  22505763.840    92157376.10848
  23532490.940   123664086.08808  23532486.560    96361618.89246
  21465696.020   112803216.90309  21465691.800    87898682.10748
  21028042.220   110503169.51009  21028041.660    86106375.81949
 15 03 02 01 16  0.0000000  0  7G04G16G18G19G21G22G27
  23908966.380   125642529.37508  23908966.660    97903295.95945
  20390006.940   107150224.61709  20390003.360    83493672.53649
  22052515.400   115886951.70109  22052512.240    90301586.32547
  22493874.980   118206131.18509  22493870.660    92108675.44448
  23546762.200   123739081.79008  23546757.780    96420057.07446
  21455959.120   112752049.20909  21455954.880    87858811.20948
  21021410.440   110468318.97409  21021409.800    86079219.55949
 15 03 02 01 16 30.0000000  0  7G04G16G18G19G21G22G27
  23890725.140   125546671.84508  23890725.440    97828601.96145
  20390566.340   107153164.73009  20390562.920    83495963.52749
  22055425.600   115902245.58809  22055422.600    90313503.65847
  22482002.540   118143741.58609  22481998.320    92060060.20548
  23561042.040   123814122.75308  23561037.600    96478530.54646
  21446305.160   112701317.13609  21446300.880    87819279.76648
  21014810.120   110433633.93509  21014809.440    86052192.27049
 15 03 02 01 17  0.0000000  0  7G04G16G18G19G21G22G27
  23872520.480   125451006.52608  23872520.820    97754057.72245
  20391228.020   107156642.28709  20391224.740    83498673.29549
  22058429.500   115918031.58009  22058426.620    90325804.43847
  22470151.700   118081465.02509  22470147.520    92011533.01748
  23575330.820   123889210.71208  23575326.400    96537040.63446
  21436735.100   112651026.04709  21436730.780    87780091.93648
  21008242.060   110399118.50209  21008241.340    86025297.13049
 15 03 02 01 17 30.0000000  0  7G04G16G18G19G21G22G27
  23854351.880   125355531.06307  23854352.380    97679661.42845
  20391991.460   107160654.47509  20391988.280    83501799.67149
  22061526.380   115934305.68409  22061523.540    90338485.57247
  22458321.840   118019298.40709  22458317.600    91963091.51548
  23589627.720   123964341.13708  23589623.180    96595583.81646
  21427248.720   112601174.65009  21427244.360    87741246.73448
  21001705.760   110364769.84109  21001705.000    85998531.95349
 15 03 02 01 18  0.0000000  0  7G04G16G18G19G21G22G27
  23836220.280   125260250.36207  23836220.900    97605416.91245
  20392857.560   107165206.00009  20392854.400    83505346.30849
  22064716.760   115951071.33909  22064713.900    90351549.73147
  22446513.800   117957246.20209  22446509.480    91914739.16248
  23603933.260   124039517.27008  23603928.640    96654162.60446
  21417847.140   112551768.73709  21417842.660    87702748.65948
  20995202.140   110330592.76609  20995201.260    85971900.46949
 15 03 02 01 18 30.0000000  0  7G04G16G18G19G21G22G27
  23818125.120   125165161.08107  23818125.940    97531321.52445
  20393825.600   107170293.20309  20393822.480    83509310.35849
  22067999.680   115968323.38409  22067996.820    90364992.89347
  22434726.740   117895304.10909  22434722.340    91866472.61348
  23618246.420   124114733.14508  23618241.740    96712772.38946
  21408529.800   112502805.38609  21408525.160    87664595.43148
  20988730.320   110296583.25709  20988729.460    85945399.56049
 15 03 02 01 19  0.0000000  0  7G04G16G18G19G21G22G27
  23800067.160   125070267.22407  23800068.220    97457378.42346
  20394896.220   107175919.19409  20394893.060    83513694.22949
  22071375.760   115986064.68809  22071372.900    90378817.28847
  22422961.260   117833475.59509  22422956.800    91818294.55148
  23632567.380   124189990.17708  23632562.760    96771414.21646
  21399297.620   112454289.67109  21399292.860    87626791.00148
  20982291.060   110262745.10809  20982290.260    85919032.17449
 15 03 02 01 19 30.0000000  0  7G04G16G18G19G21G22G27
  23782046.420   124975568.92307  23782047.620    97383587.71745
  20396069.320   107182083.87609  20396066.080    83518497.88149
  22074844.760   116004294.25709  22074841.860    90393022.16347
  22411217.220   117771760.04609  22411212.700    91770204.54348
  23646895.740   124265286.30908  23646891.220    96830086.52846
  21390150.740   112406222.58709  21390145.960    87589336.17148
  20975884.380   110229078.14809  20975883.660    85892798.19049
 15 03 02 01 20  0.0000000  0  7G04G16G18G19G21G22G27
  23764063.380   124881068.29807  23764064.660    97309950.99645
  20397345.160   107188788.55309  20397341.880    83523722.28849
  22078406.740   116023012.50909  22078403.840    90407607.81247
  22399494.820   117710158.69909  22399490.340    91722203.51248
  23661231.460   124340621.34908  23661227.160    96888789.13046
  21381089.780   112358606.91309  21381085.000    87552233.07548
  20969510.640   110195584.19709  20969509.980    85866698.99949
 15 03 02 01 20 30.0000000  0  7G04G16G18G19G21G22G27
  23746117.820   124786763.91208  23746118.860    97236467.22045
  20398723.400   107196031.24209  20398720.140    83529365.94249
  22082061.080   116042216.15909  22082058.240    90422571.71147
  22387793.700   117648669.59509  22387789.320    91674289.94748
  23675573.900   124415991.75008  23675569.840    96947519.30546
  21372114.560   112311441.79309  21372109.780    87515481.06248
  20963169.460   110162261.45709  20963168.840    85840733.24249
 15 03 02 01 21  0.0000000  0  7G04G16G18G19G21G22G27
  23728210.540   124692660.45208  23728211.360    97163139.97444
  20400204.840   107203815.91509  20400201.500    83535431.90949
  22085808.420   116061908.53209  22085805.540    90437916.42247
  22376114.560   117587296.21409  22376110.300    91626466.54448
  23689923.520   124491399.83008  23689919.640    97006278.83246
  21363226.140   112264732.83809  21363221.360    87479084.50048
  20956861.760   110129114.29109  20956861.080    85814904.27949
 15 03 02 01 21 30.0000000  0  7G04G16G18G19G21G22G27
  23710341.100   124598755.53308  23710341.620    97089967.43845
  20401788.880   107212139.50509  20401785.420    83541917.81349
  22089648.060   116082086.06309  22089645.200    90453639.18547
  22364457.020   117526036.14309  22364452.820    91578731.45048
  23704279.460   124566841.11708  23704275.740    97065064.23546
  21354424.280   112218478.63109  21354419.500    87443042.30248
  20950586.940   110096140.22609  20950586.280    85789210.20849
 15 03 02 01 22  0.0000000  0  7G04G16G18G19G21G22G27
  23692509.900   124505051.50108  23692510.240    97016951.41645
  20403475.880   107221004.24809  20403472.280    83548825.38649
  22093580.180   116102749.28309  22093577.240    90469740.39647
  22352821.480   117464891.17509  22352817.200    91531086.03148
  23718641.660   124642315.18408  23718638.100    97123875.17346
  21345709.480   112172682.28209  21345704.720    87407356.85748
  20944345.440   110063341.23709  20944344.820    85763652.55549
 15 03 02 01 22 30.0000000  0  7G04G16G18G19G21G22G27
  23674716.820   124411547.68208  23674716.920    96944091.41645
  20405265.520   107230408.63109  20405261.880    83556153.47349
  22097604.240   116123895.72209  22097601.200    90486218.15247
  22341207.500   117403859.27409  22341203.120    91483528.71848
  23733009.700   124717819.54708  23733006.160    97182709.73946
  21337081.680   112127343.64609  21337077.000    87372028.08148
  20938137.080   110030716.20109  20938136.480    85738230.46149
 15 03 02 01 23  0.0000000  0  7G04G16G18G19G21G22G27
  23656962.440   124318247.70208  23656962.380    96871390.25145
  20407158.380   107240355.78509  20407154.780    83563904.48149
  22101720.540   116145527.05009  22101717.460    90503073.73547
  22329615.740   117342943.95109  22329611.240    91436062.23748
  23747383.840   124793356.07108  23747380.420    97241569.35946
  21328541.820   112082467.21709  21328537.240    87337059.46248
  20931962.520   109998268.67409  20931961.900    85712946.67849
 15 03 02 01 23 30.0000000  0  7G04G16G18G19G21G22G27
  23639246.880   124225152.03908  23639246.740    96798848.27345
  20409154.420   107250845.40309  20409150.920    83572078.20049
  22105929.120   116167643.41109  22105926.060    90520307.27347
  22318046.120   117282145.02009  22318041.580    91388686.46448
  23761763.700   124868922.75508  23761760.400    97300452.47446
  21320090.120   112038054.08509  21320085.660    87302451.85548
  20925821.820   109965998.95509  20925821.180    85687801.45049
 15 03 02 01 24  0.0000000  0  7G04G16G18G19G21G22G27
  23621570.480   124132262.39008  23621570.360    96726466.83145
  20411253.780   107261877.89009  20411250.360    83580674.93549
  22110229.940   116190244.12809  22110226.820    90537918.23047
  22306498.800   117221463.42509  22306494.240    91341402.11548
  23776149.140   124944518.86608  23776145.920    97359358.53046
  21311727.060   111994106.40709  21311722.680    87268206.93848
  20919715.260   109933908.28709  20919714.540    85662795.73549
 15 03 02 01 24 30.0000000  0  7G04G16G18G19G21G22G27
  23603933.540   124039580.22808  23603933.520    96654247.06045
  20413456.840   107273455.10109  20413453.480    83589696.13449
  22114622.960   116213329.37609  22114619.800    90555906.74147
  22294973.960   117160900.14809  22294969.420    91294209.96748
  23790540.100   125020144.09708  23790536.920    97418287.27346
  21303453.060   111950626.48809  21303448.680    87234326.51448
  20913643.100   109901998.18509  20913642.240    85637930.71849
 15 03 02 01 25  0.0000000  0  8G04G07G16G18G19G21G22G27
  23586335.660   123947103.07308  23586335.740    96582187.04845
  24537570.120   128945799.37008  24537566.200   100477237.44045
  20415762.860   107285573.14209  20415759.560    83599138.75549
  22119107.360   116236894.84409  22119104.160    90574269.44747
  22283471.040   117100451.92909  22283466.440    91247107.46548
  23804935.700   125095793.65408  23804932.540    97477234.98246
  21295267.760   111907612.53309  21295263.400    87200809.17348
  20907604.740   109870265.83709  20907603.740    85613204.21049
 15 03 02 01 25 30.0000000  0  8G04G07G16G18G19G21G22G27
  23568778.720   123854841.09608  23568778.760    96510294.70345
  24531891.520   128915959.57808  24531888.360   100453985.65045
  20418173.660   107298241.71109  20418170.380    83609010.36549
  22123684.720   116260948.99409  22123681.500    90593012.95547
  22271991.880   117040128.65209  22271987.280    91200102.33548
  23819337.340   125171475.10108  23819334.200    97536207.52046
  21287173.340   111865075.91609  21287168.960    87167663.79348
  20901602.080   109838721.20509  20901600.980    85588623.97849
 15 03 02 01 26  0.0000000  0  8G04G07G16G18G19G21G22G27
  23551260.320   123762781.49008  23551260.240    96438560.03945
  24526309.260   128886626.06008  24526306.640   100431128.34745
  20420686.560   107311446.93209  20420683.280    83619300.13349
  22128352.260   116285477.31009  22128349.000    90612125.93347
  22260533.900   116979916.71809  22260529.260    91153183.95348
  23833742.360   125247174.27308  23833739.140    97595193.88345
  21279167.280   111823003.87409  21279162.880    87134880.39948
  20895632.640   109807351.33909  20895631.480    85564179.92349
 15 03 02 01 26 30.0000000  0  8G04G07G16G18G19G21G22G27
  23533782.400   123670934.83908  23533782.220    96366991.32345
  24520825.160   128857808.96107  24520823.180   100408673.46145
  20423303.540   107325199.31009  20423300.280    83630016.26449
  22133111.760   116310488.78609  22133108.420    90631615.40547
  22249099.040   116919826.36309  22249094.460    91106360.32048
  23848152.360   125322899.32108  23848149.120    97654200.42145
  21271251.820   111781407.87409  21271247.340    87102467.96148
  20889698.420   109776166.74409  20889697.280    85539880.24549
 15 03 02 01 27  0.0000000  0  8G04G07G16G18G19G21G22G27
  23516343.960   123579295.78408  23516343.700    96295584.35445
  24515438.340   128829502.47608  24515436.780   100386616.45545
  20426023.340   107339492.39209  20426020.160    83641153.72049
  22137961.920   116335976.67209  22137958.600    90651476.10647
  22237686.120   116859851.61009  22237681.700    91059626.76248
  23862565.820   125398642.86408  23862562.580    97713221.34945
  21263426.060   111740283.33809  21263421.480    87070422.89648
  20883798.380   109745161.84809  20883797.300    85515720.58649
 15 03 02 01 27 30.0000000  0  8G04G07G16G18G19G21G22G27
  23498945.800   123487868.62708  23498945.560    96224342.51445
  24510149.720   128801710.67208  24510148.060   100364960.49045
  20428846.760   107354329.76309  20428843.620    83652715.29449
  22142903.220   116361943.67609  22142900.000    90671710.13647
  22226295.920   116799996.38009  22226291.680    91012986.33248
  23876983.280   125474407.35608  23876980.060    97772258.61346
  21255690.960   111699635.14509  21255686.280    87038749.00648
  20877933.380   109714340.88409  20877932.340    85491704.24249
 15 03 02 01 28  0.0000000  0  8G04G07G16G18G19G21G22G27
  23481587.840   123396652.57208  23481587.680    96153265.16545
  24504958.880   128774431.79908  24504957.020   100343704.21845
  20431773.300   107369708.88009  20431770.200    83664699.02149
  22147935.080   116388386.56209  22147931.960    90692314.99347
  22214928.160   116740259.12609  22214924.100    90966437.84548
  23891404.160   125550189.77108  23891400.920    97831309.84446
  21248046.440   111659462.78509  21248041.660    87007445.90148
  20872103.060   109683702.76109  20872102.160    85467830.39049
 15 03 02 01 28 30.0000000  0  8G04G07G16G18G19G21G22G27
  23464270.620   123305650.65008  23464270.520    96082354.65245
  24499866.260   128747668.68908  24499864.040   100322849.82945
  20434803.680   107385633.59509  20434800.600    83677107.87149
  22153057.900   116415307.50209  22153054.880    90713292.34747
  22203583.500   116680642.78709  22203579.540    90919983.56748
  23905828.620   125625990.98808  23905825.340    97890375.70246
  21240493.240   111619770.29309  21240488.360    86976516.70948
  20866308.120   109653250.75509  20866307.380    85444101.55249
 15 03 02 01 29  0.0000000  0  8G04G07G16G18G19G21G22G27
  23446994.220   123214862.98608  23446994.020    96011611.11245
  24494871.580   128721420.49907  24494869.260   100302396.69345
  20437937.640   107402102.46609  20437934.560    83689940.74649
  22158271.320   116442704.69809  22158268.400    90734640.81947
  22192261.780   116621146.38709  22192257.780    90873622.74448
  23920256.380   125701809.33908  23920253.100    97949454.92545
  21233031.420   111580558.06209  21233026.520    86945961.74648
  20860548.500   109622984.47809  20860547.860    85420517.43449
 15 03 02 01 29 30.0000000  0  8G04G07G16G18G19G21G22G27
  23429758.940   123124291.44908  23429758.720    95941035.97445
  24489975.100   128695688.95707  24489972.840   100282346.14445
  20441175.380   107419116.79109  20441172.320    83703198.66049
  22163575.320   116470577.97109  22163572.560    90756360.26747
  22180963.340   116561771.82309  22180959.220    90827356.87448
  23934687.400   125777644.58808  23934684.020    98008547.32046
  21225661.500   111541828.49509  21225656.520    86915782.89448
  20854824.640   109592906.05809  20854824.100    85397079.71149
 15 03 02 01 30  0.0000000  0  8G04G07G16G18G19G21G22G27
  23412565.280   123033938.70508  23412565.040    95870631.32545
  24485177.160   128670475.95708  24485175.100   100262699.61145
  20444517.200   107436678.04509  20444514.140    83716882.73349
  22168970.120   116498928.34309  22168967.520    90778451.46547
  22169688.440   116502521.10609  22169684.200    90781187.49548
  23949121.820   125853497.71108  23949118.380    98067653.63446
  21218384.100   111503585.13509  21218379.020    86885982.89148
  20849137.080   109563017.92309  20849136.560    85373790.25749
 15 03 02 01 30 30.0000000  0  8G04G07G16G18G19G21G22G27
  23395412.820   122943802.40508  23395412.600    95800395.35045
  24480477.240   128645778.39308  24480475.380   100243454.72045
  20447962.420   107454782.78809  20447959.340    83730990.30949
  22174454.940   116527751.60109  22174452.420    90800911.15647
  22158436.520   116443391.22309  22158432.140    90735112.28248
  23963558.700   125929363.81808  23963555.220    98126770.06646
  21211198.860   111465826.10009  21211193.680    86856560.28748
  20843485.260   109533317.48009  20843484.740    85350647.05649
 15 03 02 01 31  0.0000000  0  8G04G07G16G18G19G21G22G27
  23378301.780   122853883.67508  23378301.540    95730328.90146
  24475875.660   128621597.35008  24475873.960   100224612.32246
  20451511.200   107473431.72409  20451508.080    83745521.93549
  22180029.780   116557047.59009  22180027.260    90823739.20247
  22147207.800   116384383.28909  22147203.240    90689132.08648
  23977997.960   126005242.64108  23977994.480    98185896.40646
  21204106.000   111428552.75609  21204100.720    86827516.15048
  20837869.460   109503806.12309  20837868.880    85327651.20049
 15 03 02 01 31 30.0000000  0  8G04G07G16G18G19G21G22G27
  23361232.680   122764185.57708  23361232.460    95660434.35046
  24471372.880   128597934.61908  24471371.260   100206173.80845
  20455163.900   107492626.84709  20455160.720    83760479.16149
  22185694.900   116586817.46909  22185692.240    90846936.51047
  22136002.740   116325499.92809  22135998.040    90643248.96648
  23992439.800   126081134.79908  23992436.240    98245033.14845
  21197106.300   111391769.34709  21197100.980    86798853.77348
  20832290.240   109474486.73809  20832289.520    85304804.91949
 15 03 02 01 32  0.0000000  0  8G04G07G16G18G19G21G22G27
  23344204.840   122674704.35908  23344204.800    95590708.80846
  24466968.040   128574786.09608  24466966.260   100188135.96446
  20458919.600   107512363.26509  20458916.380    83775858.17449
  22191449.160   116617055.62609  22191446.340    90870498.71247
  22124820.580   116266736.94209  22124815.720    90597459.63648
  24006883.020   126157034.09108  24006879.340    98304175.44745
  21190199.100   111355472.18409  21190193.840    86770570.29448
  20826746.820   109445355.58509  20826746.020    85282105.31849
 15 03 02 01 32 30.0000000  0  8G04G07G16G18G19G21G22G27
  23327219.520   122585446.64408  23327219.560    95521157.42646
  24462662.240   128552157.79008  24462660.240   100170503.50045
  20462779.480   107532647.15309  20462776.220    83791663.78949
  22197293.520   116647767.08309  22197290.400    90894429.71047
  22113662.500   116208100.39709  22113657.500    90551768.83448
  24021328.760   126232946.67508  24021324.980    98363328.12345
  21183385.820   111319668.46309  21183380.660    86742671.31648
  20821240.500   109416419.30209  20821239.600    85259557.56549
 15 03 02 01 33  0.0000000  0  8G04G07G16G18G19G21G22G27
  23310276.260   122496409.86608  23310276.320    95451778.21646
  24458454.740   128530046.31408  24458452.520   100153273.74745
  20466742.820   107553474.70809  20466739.540    83807893.03049
  22203227.060   116678947.04809  22203223.640    90918725.79447
  22102527.880   116149587.42709  22102522.800    90506174.31448
  24035775.980   126308867.27408  24035772.200    98422487.01045
  21176666.000   111284356.02809  21176660.920    86715155.14948
  20815770.720   109387675.16009  20815769.760    85237159.52049
 15 03 02 01 33 30.0000000  0  8G04G07G16G18G19G21G22G27
  23293375.900   122407598.63908  23293375.920    95382574.77245
  24454346.260   128508455.57808  24454343.980   100136449.79545
  20470810.420   107574850.03009  20470807.180    83824549.11949
  22209250.220   116710598.42609  22209246.620    90943389.21447
  22091417.520   116091202.39909  22091412.480    90460679.50748
  24050225.240   126384798.86308  24050221.580    98481654.49445
  21170040.700   111249540.28509  21170035.740    86688026.02748
  20810338.440   109359128.07009  20810337.440    85214915.03849
 15 03 02 01 34  0.0000000  0  8G04G07G16G18G19G21G22G27
  23276517.660   122319008.38708  23276517.560    95313543.48646
  24450335.720   128487380.26608  24450333.540   100120027.45846
  20474981.060   107596766.89109  20474977.880    83841627.17249
  22215361.760   116742714.80109  22215358.180    90968414.96147
  22080330.400   116032940.01209  22080325.460    90415280.25748
  24064675.340   126460734.81908  24064671.860    98540825.34746
  21163509.120   111215216.78509  21163504.220    86661280.46548
  20804942.700   109330773.14409  20804941.720    85192820.29149
 15 03 02 01 34 30.0000000  0  8G04G07G16G18G19G21G22G27
  23259702.580   122230644.22208  23259702.300    95244688.38546
  24446424.160   128466825.12608  24446422.000   100104010.46645
  20479255.540   107619229.30409  20479252.400    83859130.34049
  22221562.400   116775299.81509  22221558.920    90993805.88947
  22069267.560   115974805.39109  22069262.780    90369980.57348
  24079126.900   126536678.76808  24079123.560    98600002.43645
  21157072.320   111181391.30609  21157067.440    86634922.96648
  20799584.580   109302615.88909  20799583.600    85170879.57949
 15 03 02 01 35  0.0000000  0  8G04G07G16G18G19G21G22G27
  23242930.320   122142505.10908  23242929.940    95176008.63446
  24442611.160   128446788.05708  24442608.960   100088397.15145
  20483633.720   107642236.25709  20483630.520    83877057.81949
  22227851.620   116808350.37809  22227848.140    91019559.58547
  22058228.780   115916797.06209  22058224.120    90324779.29648
  24093579.360   126612627.31508  24093576.120    98659183.11645
  21150730.180   111148063.12209  21150725.300    86608952.97948
  20794263.840   109274655.08309  20794262.860    85149091.93649
 15 03 02 01 35 30.0000000  0  8G04G07G16G18G19G21G22G27
  23226200.960   122054591.43508  23226200.420    95107504.57146
  24438896.720   128427268.77408  24438894.320   100073187.31845
  20488115.340   107665786.59009  20488112.020    83895408.72349
  22234229.040   116841864.61109  22234225.660    91045674.59047
  22047214.120   115858915.19809  22047209.520    90279676.55548
  24108032.420   126688578.98908  24108029.280    98718366.22245
  21144482.840   111115233.15009  21144477.960    86583371.20148
  20788980.500   109246891.15409  20788979.580    85127457.71149
 15 03 02 01 36  0.0000000  0  8G04G07G16G18G19G21G22G27
  23209514.780   121966904.92208  23209514.120    95039177.50246
  24435281.080   128408268.40508  24435278.440   100058381.81945
  20492700.440   107689881.00909  20492697.060    83914183.58449
  22240694.840   116875843.21309  22240691.600    91072151.42947
  22036223.880   115801161.12609  22036219.240    90234673.38848
  24122486.200   126764534.17408  24122483.180    98777552.06646
  21138330.640   111082903.37809  21138325.800    86558179.19648
  20783734.960   109219326.11809  20783734.180    85105978.45849
 15 03 02 01 36 30.0000000  0  8G04G07G16G18G19G21G22G27
  23192871.760   121879445.34908  23192871.080    94971027.28546
  24431763.980   128389785.77508  24431761.160   100043979.75845
  20497388.680   107714517.79309  20497385.260    83933381.07249
  22247248.620   116910283.79909  22247245.480    91098988.25347
  22025257.940   115743534.45209  22025253.220    90189769.48948
  24136940.220   126840490.39908  24136937.140    98836738.73446
  21132273.660   111051074.14109  21132268.900    86533377.21348
  20778527.260   109191959.69009  20778526.600    85084653.96749
 15 03 02 01 37  0.0000000  0  8G04G07G16G18G19G21G22G27
  23176272.100   121792214.00608  23176271.420    94903054.89346
  24428345.520   128371821.38108  24428342.540   100029981.51945
  20502180.160   107739697.44509  20502176.760    83953001.57049
  22253890.260   116945185.60009  22253887.080    91126184.47047
  22014316.420   115686036.05309  22014311.660    90144965.55848
  24151394.420   126916447.28608  24151391.300    98895925.91345
  21126312.300   111019747.35109  21126307.620    86508966.75148
  20773357.580   109164793.26909  20773357.060    85063485.33849
 15 03 02 01 37 30.0000000  0  8G04G07G16G18G19G21G22G27
  23159716.280   121705213.25508  23159715.620    94835262.19046
  24425025.980   128354376.73708  24425022.840   100016388.27545
  20507075.300   107765421.87909  20507071.980    83973046.57349
  22260619.840   116980549.31409  22260616.580    91153740.61147
  22003399.740   115628668.32809  22003394.980    90100263.44348
  24165849.020   126992405.82308  24165845.780    98955114.36745
  21120447.040   110988925.57209  21120442.440    86484949.79748
  20768226.420   109137829.40409  20768226.040    85042474.53249
 15 03 02 01 38  0.0000000  0  8G04G07G16G18G19G21G22G27
  23143204.380   121618442.95008  23143203.600    94767649.05345
  24421805.060   128337450.81708  24421801.980   100003199.22145
  20512073.780   107791689.28709  20512070.520    83993514.66049
  22267436.860   117016372.71509  22267433.520    91181654.95147
  21992507.720   115571430.49809  21992503.000    90055662.54048
  24180303.440   127068363.61608  24180300.120    99014302.25045
  21114677.900   110958608.71809  21114673.380    86461326.29748
  20763133.780   109111067.90209  20763133.520    85021621.41349
 15 03 02 01 38 30.0000000  0  8G04G07G16G18G19G21G22G27
  23126736.320   121531903.16308  23126735.460    94700215.55546
  24418682.680   128321042.84108  24418679.540    99990413.77345
  20517175.460   107818498.75109  20517172.200    84014405.14449
  22274341.000   117052653.95309  22274337.600    91209926.05047
  21981640.420   115514322.68509  21981635.760    90011162.95648
  24194757.480   127144319.41808  24194754.060    99073488.58345
  21109004.980   110928797.56409  21109000.480    86438096.84748
  20758079.760   109084509.18409  20758079.560    85000926.31249
 15 03 02 01 39  0.0000000  0  8G04G07G16G18G19G21G22G27
  23110313.300   121445600.18808  23110312.400    94632966.54746
  24415659.760   128305158.08808  24415656.940    99978036.00945
  20522381.320   107845855.37609  20522378.020    84035721.97649
  22281333.040   117089397.32109  22281329.680    91238557.24447
  21970798.960   115457350.83509  21970794.360    89966769.31548
  24209211.960   127220277.69208  24209208.520    99132676.81846
  21103429.580   110899498.61009  21103425.060    86415266.51048
  20753065.600   109058159.46409  20753065.380    84980394.05749
 15 03 02 01 39 30.0000000  0  8G04G07G16G18G19G21G22G27
  23093933.840   121359526.21508  23093933.040    94565895.97846
  24412734.800   128289788.30708  24412732.460    99966059.54045
  20527689.600   107873750.02309  20527686.200    84057458.05149
  22288411.180   117126593.46109  22288407.820    91267541.24647
  21959981.920   115400507.17709  21959977.320    89922475.57048
  24223665.100   127296228.95408  24223661.600    99191859.60245
  21097950.180   110870704.30809  21097945.700    86392829.40848
  20748089.860   109032011.41609  20748089.540    84960018.94949
 15 03 02 01 40  0.0000000  0  8G04G07G16G18G19G21G22G27
  23077599.180   121273687.39408  23077598.400    94499008.63045
  24409908.860   128274938.63308  24409906.900    99954488.34145
  20533101.320   107902188.32309  20533097.800    84079617.74649
  22295576.300   117164246.60709  22295572.880    91296881.36047
  21949190.380   115343797.37209  21949185.780    89878286.11848
  24238117.700   127372177.55908  24238114.260    99251040.31345
  21092568.100   110842421.40209  21092563.680    86370790.79648
  20743153.680   109006071.17409  20743153.240    84939805.77349
 15 03 02 01 40 30.0000000  0  8G04G07G16G18G19G21G22G27
  23061308.980   121188082.03308  23061308.140    94432303.23446
  24407181.560   128260606.43808  24407179.640    99943320.38546
  20538615.760   107931166.75409  20538612.180    84102198.32948
  22302827.600   117202352.95009  22302824.320    91326574.62547
  21938423.900   115287219.12809  21938419.260    89834199.18048
  24252569.100   127448120.15708  24252565.660    99310216.35645
  21087282.960   110814648.08809  21087278.580    86349149.28148
  20738256.720   108980336.98409  20738256.160    84919753.15549
 15 03 02 01 41  0.0000000  0  8G04G07G16G18G19G21G22G27
  23045063.260   121102710.54508  23045062.420    94365780.06446
  24404552.740   128246790.98708  24404550.820    99932555.07746
  20544232.880   107960684.99709  20544229.300    84125199.54449
  22310164.860   117240910.81109  22310161.720    91356619.71447
  21927682.580   115230773.39409  21927677.960    89790215.50348
  24267019.080   127524055.37508  24267015.560    99369386.65145
  21082095.020   110787385.56009  21082090.680    86327905.77648
  20733399.140   108954809.78709  20733398.460    84899861.83749
 15 03 02 01 41 30.0000000  0  9G04G07G11G16G18G19G21G22G27
  23028862.300   121017574.24108  23028861.420    94299440.14446
  24402022.320   128233492.55208  24402020.300    99922192.65046
  24718689.940   129897591.60108  24718689.320   101218899.10145
  20549952.700   107990742.85409  20549949.140    84148621.22849
  22317587.980   117279919.48909  22317584.880    91387016.08647
  21916966.620   115174461.28209  21916962.100    89746335.94448
  24281467.540   127599982.76307  24281464.020    99428550.83145
  21077004.500   110760635.03909  21077000.160    86307061.23048
  20728581.180   108929490.92909  20728580.460    84880132.85349
 15 03 02 01 42  0.0000000  0  9G04G07G11G16G18G19G21G22G27
  23012706.400   120932674.70308  23012705.500    94233284.73446
  24399590.460   128220712.06908  24399588.240    99912233.81846
  24701551.360   129807526.80208  24701550.380   101148718.82845
  20555775.320   108021340.94509  20555771.800    84172463.88049
  22325096.840   117319378.60109  22325093.720    91417763.44447
  21906276.340   115118284.04709  21906271.920    89702561.49148
  24295914.560   127675902.80407  24295911.060    99487709.30345
  21072011.860   110734398.57809  21072007.440    86286617.25548
  20723803.220   108904382.31209  20723802.480    84860567.69449
 15 03 02 01 42 30.0000000  0  9G04G07G11G16G18G19G21G22G27
  22996595.720   120848012.89108  22996594.800    94167314.55546
  24397257.040   128208449.41508  24397254.680    99902678.48545
  24684430.520   129717555.12908  24684429.260   101078611.10745
  20561700.760   108052479.04509  20561697.200    84196727.32249
  22332691.280   117359287.54809  22332688.140    91448861.33347
  21895611.960   115062242.74609  21895607.680    89658892.96148
  24310359.980   127751814.43807  24310356.480    99546861.21144
  21067117.360   110708677.62509  21067112.840    86266574.97548
  20719065.480   108879485.21309  20719064.740    84841167.35949
 15 03 02 01 43  0.0000000  0  9G04G07G11G16G18G19G21G22G27
  22980530.240   120763588.73108  22980529.380    94101529.54246
  24395021.860   128196703.43108  24395019.480    99893525.74546
  24667327.280   129627676.30808  24667325.780   101008575.75045
  20567728.640   108084155.58209  20567725.080    84221410.32349
  22340370.880   117399644.15809  22340367.720    91480308.04447
  21884973.380   115006336.87709  21884969.180    89615329.95948
  24324803.540   127827715.93908  24324800.080    99606005.24245
  21062320.900   110683471.50609  21062316.260    86246933.85148
  20714367.960   108854799.54909  20714367.180    84821931.77449
 15 03 02 01 43 30.0000000  0  9G04G07G11G16G18G19G21G22G27
  22964510.600   120679405.24708  22964509.800    94035932.06846
  24392885.340   128185476.30508  24392882.980    99884777.31946
  24650242.140   129537893.40408  24650240.600   100938615.11945
  20573859.340   108116372.54409  20573855.780    84246514.43549
  22348135.840   117440449.37909  22348132.780    91512104.32647
  21874361.220   114950569.55009  21874357.060    89571874.90848
  24339245.540   127903609.25608  24339241.980    99665142.89344
  21057623.120   110658783.84909  21057618.360    86227696.73448
  20709711.320   108830328.73309  20709710.480    84802863.60149
 15 03 02 01 44  0.0000000  0  9G04G07G11G16G18G19G21G22G27
  22948536.440   120595460.65308  22948535.720    93970520.76246
  24390847.060   128174764.97408  24390844.740    99876430.81946
  24633174.640   129448203.49408  24633173.000   100868726.95945
  20580092.140   108149126.46809  20580088.660    84272036.95549
  22355985.400   117481699.26609  22355982.360    91544247.09647
  21863775.100   114894938.80909  21863770.900    89528526.28248
  24353685.280   127979490.53108  24353681.680    99724271.14545
  21053023.660   110634613.35309  21053018.840    86208862.59548
  20705095.240   108806071.09809  20705094.380    84783961.54849
 15 03 02 01 44 30.0000000  0  9G04G07G11G16G18G19G21G22G27
  22932608.080   120511756.57708  22932607.380    93905296.85246
  24388907.180   128164570.28408  24388904.840    99868486.89946
  24616125.260   129358609.25608  24616123.660   100798913.35145
  20586427.280   108182418.27109  20586423.960    84297978.60549
  22363919.560   117523393.73709  22363916.520    91576736.30247
  21853215.360   114839446.38609  21853211.040    89485285.44348
  24368122.860   128055360.16608  24368119.200    99783390.34845
  21048522.880   110610961.76209  21048518.080    86190432.80948
  20700520.160   108782028.79809  20700519.260    84765227.29449
 15 03 02 01 45  0.0000000  0  9G04G07G11G16G18G19G21G22G27
  22916725.760   120428294.29108  22916725.020    93840261.35846
  24387065.660   128154892.20608  24387063.280    99860945.52145
  24599094.180   129269110.92908  24599092.560   100729174.46445
  20592864.720   108216247.63009  20592861.540    84324339.12549
  22371938.120   117565531.96209  22371935.120    91609571.28247
  21842682.160   114784093.36409  21842677.680    89442153.22248
  24382558.060   128131217.71408  24382554.540    99842500.11545
  21044121.080   110587830.42809  21044116.280    86172408.40548
  20695986.280   108758203.24009  20695985.400    84746661.91649
 15 03 02 01 45 30.0000000  0  9G04G07G11G16G18G19G21G22G27
  22900889.080   120345071.90808  22900888.340    93775412.81746
  24385321.960   128145728.36008  24385319.560    99853804.84946
  24582080.920   129179706.33208  24582079.340   100659508.64745
  20599403.940   108250611.57409  20599400.840    84351116.22149
  22380040.400   117608109.87209  22380037.340    91642748.89147
  21832175.140   114728877.94109  21832170.480    89399128.23448
  24396990.340   128207059.90208  24396986.900    99901597.92045
  21039817.960   110565217.56909  21039813.160    86154788.02448
  20691493.320   108734592.97309  20691492.500    84728264.31149
 15 03 02 01 46  0.0000000  0  9G04G07G11G16G18G19G21G22G27
  22885098.540   120262092.01809  22885097.780    93710753.19346
  24383676.160   128137079.41208  24383673.820    99847065.38745
  24565086.020   129090397.77408  24565084.360   100589917.62545
  20606045.040   108285510.73709  20606041.960    84378310.35449
  22388226.440   117651127.99009  22388223.340    91676269.49447
  21821694.760   114673802.51609  21821689.960    89356212.31648
  24411419.880   128282887.77308  24411416.620    99960684.55445
  21035614.080   110543125.98609  21035609.200    86137573.81648
  20687041.900   108711200.71809  20687041.140    84710036.57849
 15 03 02 01 46 30.0000000  0  9G04G07G11G16G18G19G21G22G27
  22869354.720   120179357.75908  22869353.960    93646284.97646
  24382128.720   128128947.51308  24382126.400    99840728.82446
  24548109.900   129001188.11408  24548108.240   100520403.68145
  20612788.420   108320947.45909  20612785.340    84405923.37249
  22396496.620   117694587.96109  22396493.440    91710134.41047
  21811241.660   114618870.33709  21811236.680    89313408.02148
  24425846.940   128358702.91607  24425843.820   100019761.25845
  21031509.980   110521558.94709  21031505.080    86120768.34848
  20682632.660   108688029.97209  20682631.940    84691981.44549
 15 03 02 01 47  0.0000000  0  9G04G07G11G16G18G19G21G22G27
  22853656.960   120096865.86508  22853656.280    93582005.62846
  24380678.800   128121328.39508  24380676.520    99834791.82646
  24531151.960   128912073.54008  24531150.180   100450963.82346
  20619633.240   108356917.36009  20619630.220    84433951.85249
  22404849.840   117738484.12809  22404846.560    91744339.21847
  21800815.080   114564077.92209  21800810.020    89270712.63648
  24440270.700   128434500.56707  24440267.640   100078824.34145
  21027505.080   110500513.18209  21027500.160    86104369.07348
  20678265.020   108665077.77609  20678264.300    84674096.62249
 15 03 02 01 47 30.0000000  0  9G04G07G11G16G18G19G21G22G27
  22838005.540   120014617.52308  22838004.860    93517916.05846
  24379326.520   128114222.46508  24379324.260    99829254.71545
  24514212.380   128823055.79108  24514210.640   100381599.40145
  20626579.380   108393419.94009  20626576.500    84462395.39849
  22413286.000   117782815.79909  22413282.600    91778883.37147
  21790415.320   114509426.79109  21790410.240    89228127.34148
  24454691.180   128510280.72507  24454688.140   100137873.80045
  21023599.800   110479990.46309  21023594.800    86088377.35448
  20673939.280   108642345.82809  20673938.560    84656383.41149
 15 03 02 01 48  0.0000000  0  9G04G07G11G16G18G19G21G22G27
  22822400.880   119932614.85508  22822400.120    93454017.90946
  24378071.980   128107630.32208  24378069.700    99824117.94845
  24497291.380   128734136.25008  24497289.660   100312311.52045
  20633626.980   108430455.79809  20633624.260    84491254.48449
  22421804.920   117827582.66409  22421801.440    91813766.63647
  21780042.780   114454918.95909  21780037.720    89185653.70448
  24469108.360   128586043.60907  24469105.340   100196909.79145
  21019794.320   110459992.43609  21019789.320    86072794.49248
  20669655.980   108619836.44809  20669655.140    84638843.62649
 15 03 02 01 48 30.0000000  0  9G04G07G11G16G18G19G21G22G27
  22806843.240   119850859.37008  22806842.440    93390312.39046
  24376915.320   128101552.55008  24376913.080    99819382.00846
  24480389.380   128645316.27608  24480387.640   100243101.21746
  20640776.180   108468025.36809  20640773.600    84520529.46549
  22430406.560   117872784.35609  22430403.040    91848988.74447
  21769697.780   114400556.26809  21769692.820    89143293.17648
  24483522.260   128661789.42507  24483519.220   100255932.49045
  21016089.100   110440521.02409  21016084.060    86057621.98048
  20665415.380   108597551.48509  20665414.460    84621478.72649
 15 03 02 01 49  0.0000000  0  9G04G07G11G16G18G19G21G22G27
  22791332.080   119769348.03609  22791331.200    93326797.11246
  24375855.740   128095984.68308  24375853.500    99815043.38145
  24463505.740   128556592.47508  24463504.020   100173965.84545
  20648026.120   108506123.95809  20648023.560    84550216.65149
  22439089.940   117918415.69209  22439086.440    91884545.62547
  21759379.640   114346335.07809  21759374.900    89101042.90048
  24497932.060   128737513.57207  24497928.940   100314938.28245
  21012483.440   110421572.97509  21012478.340    86042857.27448
  20661217.000   108575488.31109  20661215.960    84604286.63449
 15 03 02 01 49 30.0000000  0  9G04G07G11G16G18G19G21G22G27
  22775868.160   119688084.66208  22775867.240    93263475.04147
  24374893.760   128090929.36808  24374891.620    99811104.15045
  24446641.100   128467968.55108  24446639.380   100104908.31545
  20655377.200   108544753.88609  20655374.620    84580317.88449
  22447855.460   117964478.58109  22447852.000    91920438.79047
  21749089.260   114292259.63009  21749084.680    89058906.20248
  24512338.220   128813218.80007  24512335.240   100373929.34345
  21008978.120   110403152.34609  21008972.980    86028503.55448
  20657061.580   108553651.19509  20657060.480    84587270.70149
 15 03 02 01 50  0.0000000  0  9G04G07G11G16G18G19G21G22G27
  22760451.200   119607067.81209  22760450.240    93200345.06947
  24374028.880   128086384.14308  24374026.700    99807562.39645
  24429795.120   128379442.58908  24429793.440   100035927.11345
  20662828.860   108583912.45009  20662826.260    84610831.03348
  22456702.480   118010969.87809  22456699.100    91956665.76647
  21738826.440   114238328.53609  21738821.920    89016881.97748
  24526740.220   128888902.17907  24526737.360   100432903.37545
  21005572.900   110385257.59209  21005567.640    86014559.59448
  20652948.920   108532039.05209  20652947.780    84570430.06549
 15 03 02 01 50 30.0000000  0  9G04G07G11G16G18G19G21G22G27
  22745081.760   119526300.41309  22745080.660    93137409.46647
  24373261.340   128082350.34308  24373259.060    99804419.15745
  24412968.420   128291017.46808  24412966.660    99967024.48545
  20670381.360   108623601.19209  20670378.800    84641757.30949
  22465631.080   118057889.75309  22465627.720    91993226.71447
  21728591.780   114184545.03809  21728587.260    88974972.75748
  24541138.420   128964565.21407  24541135.480   100491861.57045
  21002268.280   110367891.64709  21002262.960    86001027.70548
  20648879.680   108510655.30409  20648878.540    84553767.40049
 15 03 02 01 51  0.0000000  0  9G04G07G11G16G18G19G21G22G27
  22729759.520   119445781.25409  22729758.320    93074667.31747
  24372590.720   128078825.56808  24372588.280    99801672.57845
  24396160.660   128202691.79308  24396158.720    99898199.34045
  20678034.240   108663817.36409  20678031.680    84673094.56749
  22474640.680   118105235.34809  22474637.320    92030119.39147
  21718385.020   114130907.87109  21718380.440    88933177.57248
  24555532.280   129040205.69307  24555529.300   100550802.19945
  20999064.040   110351053.68609  20999058.780    85987907.23648
  20644853.720   108489499.10109  20644852.640    84537282.04549
 15 03 02 01 51 30.0000000  0  9G04G07G11G16G18G19G21G22G27
  22714484.740   119365511.96908  22714483.560    93012119.86647
  24372017.040   128075810.35508  24372014.420    99799323.03946
  24379372.100   128114467.06608  24379369.940    99829452.83745
  20685787.500   108704560.77109  20685784.900    84704842.65149
  22483731.140   118153005.89509  22483727.780    92067343.19347
  21708206.460   114077418.63809  21708201.720    88891497.64548
  24569921.820   129115823.34707  24569918.780   100609725.02145
  20995960.540   110334745.00609  20995955.360    85975199.18048
  20640871.440   108468572.40409  20640870.420    84520975.50949
 15 03 02 01 52  0.0000000  0  9G04G07G11G16G18G19G21G22G27
  22699257.480   119285492.73409  22699256.400    92949767.26947
  24371540.060   128073303.72608  24371537.440    99797369.80445
  24362602.700   128026343.04808  24362600.400    99760784.82745
  20693641.020   108745830.64309  20693638.280    84737000.97549
  22492902.140   118201199.91809  22492898.860    92104896.97047
  21698056.080   114024077.72409  21698051.260    88849933.29848
  24584306.860   129191417.41807  24584303.880   100668629.48045
  20992957.840   110318965.88709  20992952.740    85962903.77548
  20636933.000   108447875.90709  20636932.000    84504848.36249
 15 03 02 01 52 30.0000000  0  9G04G07G11G16G18G19G21G22G27
  22684078.240   119205726.11508  22684077.240    92887611.53347
  24371159.940   128071306.62608  24371157.360    99795813.62046
  24345852.940   127938322.20708  24345850.560    99692197.20445
  20701594.900   108787627.77909  20701591.980    84769570.16749
  22502153.720   118249817.46409  22502150.500    92142780.78347
  21687934.420   113970887.96309  21687929.560    88808486.74148
  24598687.620   129266989.04507  24598684.680   100727516.47345
  20990056.300   110303718.55209  20990051.300    85951022.76148
  20633038.980   108427412.65209  20633037.960    84488902.96949
 15 03 02 01 53  0.0000000  0  9G04G07G11G16G18G19G21G22G27
  22668946.700   119126210.40808  22668945.800    92825651.29547
  24370876.200   128069816.16208  24370873.740    99794652.21945
  24329122.380   127850402.52408  24329119.940    99623688.37645
  20709648.440   108829948.77309  20709645.380    84802547.54949
  22511485.140   118298854.75909  22511482.060    92180991.66247
  21677841.200   113917847.82309  21677836.320    88767156.76448
  24613063.520   129342535.08807  24613060.560   100786383.50945
  20987255.600   110289001.25209  20987250.720    85939554.74548
  20629189.040   108407181.22509  20629188.060    84473138.21749
 15 03 02 01 53 30.0000000  0  9G04G07G11G16G18G19G21G22G27
  22653862.540   119046943.59209  22653861.800    92763885.00646
  24370688.200   128068828.92408  24370685.980    99793882.91645
  24312410.700   127762582.24708  24312408.240    99555257.04145
  20717801.040   108872790.71009  20717797.900    84835930.85848
  22520895.700   118348307.96209  22520892.720    92219526.62947
  21667776.140   113864955.77809  21667771.280    88725942.19048
  24627433.960   129418052.38107  24627431.020   100845228.14445
  20984555.500   110274812.55609  20984550.640    85928498.63348
  20625382.940   108387180.37609  20625382.040    84457553.14149
 15 03 02 01 54  0.0000000  0 10G04G07G11G16G18G19G21G22G27G32
  22638827.260   118967933.20608  22638826.620    92702318.53547
  24370597.260   128068351.46508  24370595.340    99793510.86246
  24295719.280   127674868.56608  24295716.820    99486908.77545
  20726053.780   108916159.30609  20726050.700    84869724.54548
  22530386.400   118398182.42609  22530383.520    92258389.84847
  21657740.640   113812219.02409  21657735.800    88684848.62048
  24641799.980   129493547.00607  24641797.120   100904055.09644
  20981957.360   110261159.58509  20981952.480    85917859.97148
  20621622.240   108367418.01909  20621621.420    84442153.90849
  24507895.820   128789861.55508  24507903.420   100355752.20644
 15 03 02 01 54 30.0000000  0 10G04G07G11G16G18G19G21G22G27G32
  22623838.360   118889166.32009  22623837.740    92640941.79547
  24370600.620   128068368.88508  24370598.840    99793524.40646
  24279045.540   127587247.85508  24279043.280    99418632.94844
  20734403.920   108960039.81909  20734400.920    84903917.13248
  22539954.280   118448462.52909  22539951.420    92297569.15147
  21647732.220   113759624.53809  21647727.420    88643865.91348
  24656159.200   129569005.13007  24656156.280   100962853.62845
  20979458.640   110248028.84109  20979453.700    85907628.23948
  20617904.500   108347881.53909  20617903.760    84426930.68149
  24485476.920   128672049.60108  24485484.880   100263951.16644
 15 03 02 01 55  0.0000000  0 10G04G07G11G16G18G19G21G22G27G32
  22608899.140   118810660.16809  22608898.520    92579768.21147
  24370701.340   128068897.35508  24370699.480    99793936.18846
  24262392.860   127499737.29708  24262390.660    99350442.94145
  20742854.500   109004447.84409  20742851.500    84938520.76949
  22549602.360   118499163.78409  22549599.440    92337076.62947
  21637754.280   113707190.44309  21637749.580    88603008.18748
  24670514.580   129644442.74807  24670511.640   101021636.18645
  20977062.700   110235437.96609  20977057.680    85897817.17748
  20614233.220   108328588.88209  20614232.500    84411897.44549
  24463058.740   128554242.58108  24463066.720   100172154.44245
 15 03 02 01 55 30.0000000  0 10G04G07G11G16G18G19G21G22G27G32
  22594008.160   118732407.66909  22594007.540    92518792.27847
  24370897.640   128069928.33608  24370895.640    99794739.52545
  24245759.900   127412330.16608  24245757.620    99282333.50945
  20751403.840   109049374.81809  20751400.800    84973528.78148
  22559328.840   118550277.09109  22559325.920    92376905.17847
  21627805.600   113654909.66409  21627800.980    88562269.92048
  24684864.440   129719851.28007  24684861.480   101080396.04645
  20974768.120   110223379.66709  20974763.000    85888421.11048
  20610607.120   108309533.39309  20610606.360    84397049.00949
  24440640.040   128436434.41808  24440648.140   100080356.76845
 15 03 02 01 56  0.0000000  0 10G04G07G11G16G18G19G21G22G27G32
  22579166.120   118654411.99609  22579165.420    92458016.47047
  24371189.780   128071463.82508  24371187.800    99795935.99846
  24229147.140   127325029.26008  24229144.740    99214306.87645
  20760052.320   109094822.59809  20760049.200    85008942.62348
  22569133.980   118601803.58709  22569131.040    92417055.69647
  21617886.840   113602786.16509  21617882.280    88521654.21748
  24699209.200   129795233.19807  24699206.300   101139135.18946
  20972575.480   110211857.04209  20972570.360    85879442.45448
  20607026.900   108290718.84009  20607026.060    84382388.31649
  24418221.960   128318630.09408  24418229.880    99988561.75245
 15 03 02 01 56 30.0000000  0 10G04G07G11G16G18G19G21G22G27G32
  22564372.580   118576671.31909  22564371.800    92397439.35847
  24371577.220   128073500.30408  24371575.220    99797522.82446
  24212554.200   127237832.53508  24212551.800    99146361.40545
  20768799.240   109140787.60309  20768796.000    85044759.48948
  22579016.960   118653739.21508  22579013.980    92457525.01547
  21607997.600   113550817.76409  21607993.080    88481159.36548
  24713548.240   129870584.79707  24713545.480   101197850.69845
  20970484.320   110200867.84309  20970479.240    85870879.45448
  20603492.220   108272143.78709  20603491.320    84367914.24149
  24395804.840   128200830.30208  24395812.720    99896770.11645
 15 03 02 01 57  0.0000000  0 10G04G07G11G16G18G19G21G22G27G32
  22549627.600   118499185.75309  22549626.720    92337061.03447
  24372059.840   128076036.93108  24372057.860    99799499.38946
  24195981.040   127150740.11208  24195978.700    99078497.21645
  20777644.200   109187268.22609  20777640.960    85080978.14248
  22588977.420   118706081.78309  22588974.360    92498311.43547
  21598137.940   113499004.84309  21598133.460    88440785.67048
  24727881.400   129945905.15507  24727878.480   101256541.84745
  20968494.700   110190412.23809  20968489.680    85862732.25048
  20600003.220   108253808.97609  20600002.320    84353627.37549
  24373389.120   128083037.51808  24373397.060    99804983.91245
 15 03 02 01 57 30.0000000  0 10G04G07G11G16G18G19G21G22G27G32
  22534931.300   118421955.96209  22534930.340    92276882.01747
  24372637.420   128079072.18108  24372635.300    99801864.47345
  24179427.740   127063752.50408  24179425.340    99010714.72245
  20786586.920   109234263.01709  20786583.760    85117597.42648
  22599015.100   118758829.98209  22599011.980    92539413.91647
  21588308.120   113447348.72209  21588303.680    88400534.15248
  24742208.640   130021194.17408  24742205.540   101315208.59245
  20966606.620   110180490.55809  20966601.680    85855001.07348
  20596560.180   108235715.68209  20596559.300    84339528.69849
  24350975.440   127965255.08908  24350983.360    99713205.90045
 15 03 02 01 58  0.0000000  0 10G04G07G11G16G18G19G21G22G27G32
  22520283.840   118344983.27908  22520282.920    92216903.34847
  24373309.960   128082605.96708  24373307.700    99804618.08645
  24162894.460   126976870.75007  24162892.240    98943014.73045
  20795627.600   109281772.45009  20795624.560    85154617.74948
  22609129.800   118811982.61609  22609126.600    92580831.56146
  21578508.400   113395850.79609  21578504.000    88360405.90848
  24756529.840   130096451.45508  24756526.520   101373850.62845
  20964820.400   110171104.26809  20964815.500    85847687.10148
  20593163.420   108217865.43209  20593162.520    84325619.41349
  24328564.400   127847486.26508  24328572.200    99621438.66345
 15 03 02 01 58 30.0000000  0 10G04G07G11G16G18G19G21G22G27G32
  22505684.980   118268266.02608  22505684.060    92157123.70547
  24374076.900   128086635.49108  24374074.420    99807757.95746
  24146380.960   126890093.18007  24146379.040    98875395.88745
  20804765.520   109329792.77009  20804762.560    85192036.16948
  22619320.820   118865536.31509  22619317.600    92622561.71447
  21568738.540   113344509.81609  21568734.120    88320399.96448
  24770844.540   130171675.04708  24770841.020   101432466.40545
  20963135.620   110162251.08109  20963130.780    85840788.53048
  20589812.840   108200257.59809  20589811.880    84311899.02049
  24306156.100   127729732.04808  24306163.800    99529682.95145
 15 03 02 01 59  0.0000000  0 10G04G07G11G16G18G19G21G22G27G32
  22491135.540   118191808.29708  22491134.620    92097546.29947
  24374938.620   128091163.35808  24374936.020    99811286.14645
  24129888.020   126803423.65407  24129886.340    98807861.24645
  20814001.180   109378326.39109  20813998.220    85229854.55548
  22629588.460   118919492.76709  22629585.220    92664605.69647
  21558999.380   113293330.13809  21558994.920    88280519.70348
  24785153.220   130246867.18707  24785149.640   101491057.69344
  20961553.120   110153935.10309  20961548.220    85834308.55848
  20586509.220   108182896.70509  20586508.200    84298371.04849
  24283751.680   127611998.47008  24283759.140    99437943.36445
 15 03 02 01 59 30.0000000  0 10G04G07G11G16G18G19G21G22G27G32
  22476635.560   118115610.49308  22476634.640    92038171.41747
  24375894.900   128096188.43908  24375892.300    99815201.78145
  24113415.740   126716862.06307  24113414.140    98740410.70545
  20823334.260   109427372.08409  20823331.300    85268071.95548
  22639932.440   118973850.45708  22639929.240    92706962.33647
  21549291.000   113242312.31409  21549286.480    88240765.56148
  24799455.760   130322027.32907  24799452.220   101549624.01145
  20960072.820   110146156.11409  20960067.900    85828247.01148
  20583252.740   108165783.70309  20583251.720    84285036.23549
  24261351.580   127494288.11908  24261358.700    99346221.96345
 15 03 02 02 00  0.0000000  0 10G04G07G11G16G18G19G21G22G27G32
  22462184.620   118039670.25408  22462183.660    91978997.25047
  24376944.840   128101706.31308  24376942.480    99819501.40546
  24096963.720   126630406.34108  24096962.120    98673042.65945
  20832764.020   109476925.82309  20832761.020    85306685.24448
  22650351.800   119028604.52209  22650348.620    92749627.84147
  21539613.040   113191454.45409  21539608.460    88201136.07248
  24813751.620   130397152.47507  24813748.060   101608163.07644
  20958694.220   110138911.78209  20958689.340    85822602.09648
  20580043.060   108148916.71609  20580042.040    84271893.12249
  24238955.760   127376600.75108  24238962.740    99254518.43645
 15 03 02 02 00 30.0000000  0 10G04G07G11G16G18G19G21G22G27G32
  22447782.820   117963988.18709  22447781.780    91920024.23347
  24378088.440   128107716.74608  24378086.420    99824184.80646
  24080532.060   126544057.05308  24080530.380    98605757.55545
  20842290.260   109526986.67309  20842287.320    85345693.68448
  22660846.320   119083753.63109  22660843.240    92792601.17447
  21529965.700   113140757.66609  21529961.120    88161632.09448
  24828040.640   130472241.55407  24828037.040   101666674.04644
  20957417.400   110132202.36009  20957412.600    85817373.99448
  20576880.420   108132297.15109  20576879.460    84258942.81649
  24216564.820   127258939.40908  24216571.640    99162835.20245
 15 03 02 02 01  0.0000000  0 10G04G07G11G16G18G19G21G22G27G32
  22433431.000   117888568.72209  22433429.860    91861255.88247
  24379326.380   128114222.34408  24379324.440    99829254.07645
  24064121.520   126457818.60808  24064119.760    98538558.77345
  20851913.460   109577557.20909  20851910.620    85385099.27248
  22671416.420   119139299.88909  22671413.420    92835883.97147
  21520349.940   113090226.60909  21520345.300    88122257.24448
  24842323.500   130547298.37707  24842319.860   101725159.89044
  20956243.140   110126031.99709  20956238.440    85812565.93348
  20573765.820   108115929.95209  20573764.900    84246189.14849
  24194180.020   127141310.67108  24194186.800    99071177.31845
 15 03 02 02 01 30.0000000  0 10G04G07G11G16G18G19G21G22G27G32
  22419128.520   117813408.44009  22419127.260    91802689.47447
  24380657.640   128121217.76008  24380655.560    99834705.03845
  24047731.300   126371687.21008  24047729.360    98471443.43744
  20861632.680   109628632.14609  20861629.900    85424897.90248
  22682060.980   119195237.62109  22682058.100    92879471.80847
  21510765.120   113039858.11909  21510760.460    88083009.07248
  24856599.300   130622318.08107  24856595.680   101783616.78644
  20955170.740   110120396.63109  20955166.080    85808174.74748
  20570698.680   108099812.18809  20570697.800    84233629.83949
  24171801.200   127023713.31708  24171807.920    98979543.86145
 15 03 02 02 02  0.0000000  0 10G04G07G11G16G18G19G21G22G27G32
  22404875.520   117738508.40709  22404874.240    91744325.84747
  24382082.180   128128702.83608  24382080.060    99840537.54246
  24031361.580   126285664.05908  24031359.600    98404412.45145
  20871447.800   109680210.67409  20871445.020    85465088.93848
  22692779.840   119251565.99208  22692777.120    92923364.03947
  21501211.580   112989654.02709  21501206.900    88043889.00248
  24870867.980   130697300.86506  24870864.240   101842044.93244
  20954200.460   110115297.67009  20954195.800    85804201.53748
  20567679.400   108083945.85909  20567678.520    84221266.46049
  24149429.060   126906150.99508  24149435.640    98887937.63746
 15 03 02 02 02 30.0000000  0 10G04G07G11G16G18G19G21G22G27G32
  22390672.600   117663871.91609  22390671.320    91686167.58147
  24383600.280   128136679.25708  24383598.240    99846752.92146
  24015012.940   126199752.31908  24015010.960    98337468.29545
  20881359.120   109732294.44009  20881356.280    85505673.67648
  22703573.160   119308285.50809  22703570.480    92967561.06647
  21491690.080   112939618.11209  21491685.400    88004899.99048
  24885129.960   130772249.23006  24885126.500   101900446.22844
  20953332.700   110110737.64509  20953328.040    85800648.28248
  20564708.680   108068334.74309  20564707.840    84209101.94849
  24127064.600   126788629.21608  24127071.120    98796363.00945
 15 03 02 02 03  0.0000000  0 10G04G07G11G16G18G19G21G22G27G32
  22376519.280   117589496.17709  22376518.040    91628212.49247
  24385211.060   128145142.67308  24385209.160    99853347.75946
  23998684.920   126113949.11908  23998683.060    98270608.70445
  20891365.780   109784879.32509  20891362.860    85546648.89348
  22714440.160   119365391.98309  22714437.420    93012059.62347
  21482200.080   112889747.66309  21482195.380    87966039.90848
  24899384.580   130847159.42106  24899381.220   101958817.79644
  20952566.920   110106713.83309  20952562.320    85797512.86148
  20561786.180   108052976.83409  20561785.380    84197134.74649
  24104707.860   126671147.87608  24104714.360    98704819.95245
 15 03 02 02 03 30.0000000  0 10G04G07G11G16G18G19G21G22G27G32
  22362415.820   117515382.41509  22362414.640    91570461.55447
  24386914.340   128154092.29508  24386912.300    99860321.47546
  23982377.820   126028255.36608  23982376.080    98203834.41145
  20901467.560   109837964.22509  20901464.620    85588013.73648
  22725380.540   119422884.11508  22725377.720    93056858.69146
  21472741.880   112840044.07409  21472737.100    87927309.84548
  24913631.900   130922031.10107  24913628.840   102017159.34544
  20951903.240   110103226.26009  20951898.680    85794795.28448
  20558912.120   108037873.65709  20558911.340    84185366.03749
  24082359.500   126553709.87008  24082365.820    98613310.58345
 15 03 02 02 04  0.0000000  0 10G04G07G11G16G18G19G21G22G27G32
  22348362.080   117441529.96709  22348361.000    91512914.22947
  24388709.540   128163526.00408  24388707.200    99867672.41046
  23966091.660   125942670.91308  23966089.880    98137145.27545
  20911664.020   109891546.78109  20911661.080    85629766.36548
  22736393.680   119480758.83808  22736390.720    93101955.87946
  21463315.540   112790507.92609  21463310.640    87888710.25548
  24927871.780   130996862.96707  24927868.840   102075469.85445
  20951341.580   110100274.64609  20951337.020    85792495.33948
  20556086.560   108023025.55709  20556085.860    84173796.08849
  24060020.000   126436317.33108  24060025.840    98521836.52645
 15 03 02 02 04 30.0000000  0 10G04G07G11G16G18G19G21G22G27G32
  22334358.420   117367940.39709  22334357.360    91455571.73647
  24390596.660   128173443.90008  24390594.100    99875400.63545
  23949826.720   125857197.49508  23949824.860    98070542.64345
  20921955.080   109945626.61909  20921952.180    85671906.47648
  22747479.600   119539015.82009  22747476.480    93147350.92646
  21453921.360   112741140.89609  21453916.380    87850242.43948
  24942104.220   131071655.36407  24942101.440   102133749.62845
  20950882.180   110097859.97609  20950877.520    85790613.78848
  20553309.960   108008434.73509  20553309.300    84162426.60749
  24037689.940   126318974.17308  24037695.500    98430400.90745
 15 03 02 02 05  0.0000000  0 10G04G07G11G16G18G19G21G22G27G32
  22320404.680   117294613.00109  22320403.620    91398433.53847
  24392575.520   128183843.65508  24392573.040    99883504.32246
  23933582.520   125771833.14408  23933580.660    98004025.01145
  20932340.340   110000201.56609  20932337.500    85714432.39248
  22758637.780   119597652.20409  22758634.520    93193041.61746
  21444559.280   112691942.73609  21444554.280    87811906.21748
  24956329.040   131146407.16907  24956326.380   102191997.76545
  20950524.700   110095980.88009  20950519.940    85789149.57248
  20550582.360   107994101.11409  20550581.680    84151257.55149
  24015369.660   126201682.09408  24015374.860    98339005.03945
 15 03 02 02 05 30.0000000  0 10G04G07G11G16G18G19G21G22G27G32
  22306501.600   117221551.86809  22306500.560    91341502.81547
  24394646.660   128194727.30608  24394644.280    99891985.04646
  23917359.940   125686582.55608  23917358.120    97937596.02345
  20942820.160   110055273.58109  20942817.400    85757345.62248
  22769868.500   119656669.45809  22769865.060    93239029.08246
  21435230.180   112642918.23209  21435225.180    87773705.30348
  24970546.740   131221121.06107  24970543.940   102250216.35245
  20950269.860   110094641.44509  20950265.040    85788105.86148
  20547904.640   107980029.44009  20547903.940    84140292.59649
  23993060.340   126084447.58408  23993065.260    98247654.00545
 15 03 02 02 06  0.0000000  0 10G04G07G11G16G18G19G21G22G27G32
  22292648.160   117148751.84109  22292647.120    91284775.57747
  24396808.600   128206088.13308  24396806.260    99900837.62845
  23901157.940   125601440.64708  23901156.260    97871251.74445
  20953393.200   110110835.36809  20953390.440    85800640.50648
  22781170.380   119716060.66609  22781166.800    93285307.95346
  21425933.200   112594062.60009  21425928.300    87735635.99448
  24984756.180   131295791.39807  24984753.220   102308401.03544
  20950116.600   110093835.99509  20950111.740    85787478.25248
  20545275.980   107966215.36009  20545275.220    84129528.37849
  23970761.460   125967267.98608  23970766.160    98156345.73945
 15 03 02 02 06 30.0000000  0 10G04G07G11G16G18G19G21G22G27G32
  22278845.540   117076219.01109  22278844.540    91228256.53647
  24399062.100   128217930.55508  24399059.600    99910065.46345
  23884977.680   125516413.38208  23884976.100    97804996.78245
  20964060.340   110166891.43309  20964057.500    85844320.53648
  22792544.080   119775829.28209  22792540.380    93331880.89246
  21416669.600   112545382.43209  21416664.820    87697703.39348
  24998958.340   131370423.41407  24998955.160   102366555.82345
  20950065.880   110093569.81209  20950061.040    85787270.84448
  20542697.600   107952665.56409  20542696.800    84118970.09149
  23948474.620   125850151.63808  23948479.120    98065086.74146
 15 03 02 02 07  0.0000000  0 10G04G07G11G16G18G19G21G22G27G32
  22265093.140   117003949.85309  22265092.140    91171942.95647
  24401406.100   128230249.18408  24401403.560    99919664.38445
  23868818.580   125431497.24808  23868817.040    97738828.40845
  20974820.600   110223436.85209  20974817.700    85888381.88648
  22803988.560   119835969.89909  22803984.800    93378743.70546
  21407438.820   112496874.69509  21407434.140    87659905.16248
  25013152.320   131445012.48907  25013149.020   102424677.16344
  20950116.980   110093838.73809  20950112.140    85787480.41048
  20540168.940   107939377.29709  20540168.160    84108615.59449
  23926199.620   125733097.67008  23926204.020    97973876.33645
 15 03 02 02 07 30.0000000  0 10G04G07G11G16G18G19G21G22G27G32
  22251391.360   116931946.43209  22251390.260    91115836.42647
  24403840.880   128243044.47808  24403838.500    99929634.70845
  23852681.080   125346694.49708  23852679.440    97672748.39645
  20985673.920   110280471.61209  20985671.100    85932824.53148
  22815503.840   119896482.71009  22815500.080    93425896.54246
  21398241.460   112448542.33909  21398236.820    87622243.58948
  25027338.360   131519559.91507  25027334.720   102482766.05944
  20950270.360   110094645.07909  20950265.540    85788108.74148
  20537690.520   107926353.54109  20537689.820    84098467.20649
  23903937.340   125616110.67508  23903941.680    97882718.11946
 15 03 02 02 08  0.0000000  0 10G04G07G11G16G18G19G21G22G27G32
  22237740.160   116860208.59209  22237738.960    91059936.86247
  24406366.040   128256314.58008  24406363.840    99939975.01945
  23836565.180   125262004.70608  23836563.460    97606756.39345
  20996619.840   110337993.14909  20996617.120    85977646.49648
  22827089.320   119957364.80308  22827085.660    93473337.14246
  21389077.620   112400385.85309  21389072.920    87584719.06348
  25041516.260   131594065.00407  25041512.480   102540821.93544
  20950525.880   110095987.89009  20950521.060    85789155.10848
  20535262.500   107913594.75609  20535261.880    84088525.30449
  23881688.320   125499192.90408  23881692.500    97791613.78746
 15 03 02 02 08 30.0000000  0 10G04G07G11G16G18G19G21G22G27G32
  22224139.700   116788737.59809  22224138.480    91004245.20947
  24408981.420   128270058.55008  24408979.400    99950684.57545
  23820471.000   125177428.89808  23820469.000    97540853.21445
  21007658.300   110396001.15209  21007655.700    86022847.51348
  22838744.840   120018615.12908  22838741.320    93521064.66746
  21379947.480   112352406.30809  21379942.700    87547332.39948
  25055685.960   131668527.09006  25055682.180   102598844.34544
  20950883.580   110097867.46709  20950878.740    85790619.72348
  20532885.240   107901102.60909  20532884.720    84078791.16549
  23859453.100   125382347.66908  23859457.180    97700565.97146
 15 03 02 02 09  0.0000000  0 10G04G07G11G16G18G19G21G22G27G32
  22210589.740   116717532.37209  22210588.560    90948760.63647
  24411686.580   128284273.99908  24411684.660    99961761.52846
  23804398.440   125092966.54208  23804396.060    97475038.42445
  21018788.900   110454492.83409  21018786.320    86068425.41648
  22850469.880   120080231.09708  22850466.520    93569077.11046
  21370851.020   112304603.93009  21370846.180    87510083.79848
  25069847.240   131742945.36606  25069843.360   102656832.57444
  20951343.260   110100282.67309  20951338.280    85792501.71148
  20530558.860   107888877.29709  20530558.320    84069264.94449
  23837232.060   125265576.92408  23837236.020    97609576.13846
 15 03 02 02 09 30.0000000  0 10G04G07G11G16G18G19G21G22G27G32
  22197091.140   116646596.97309  22197090.020    90893486.33647
  24414481.780   128298962.76408  24414479.900    99973207.30245
  23788348.140   125008621.25708  23788345.520    97409314.88045
  21030011.960   110513469.91109  21030009.340    86114381.55748
  22862264.660   120142213.82608  22862261.520    93617375.33646
  21361789.060   112256982.99809  21361784.240    87472976.58648
  25084000.460   131817322.27906  25083996.680   102714788.58644
  20951905.480   110103236.92009  20951900.420    85794803.72948
  20528284.140   107876923.25309  20528283.520    84059950.09249
  23815026.360   125148886.76208  23815030.200    97518649.04446
 15 03 02 02 10  0.0000000  0 10G04G07G11G16G18G19G21G22G27G32
  22183643.020   116575927.04109  22183641.960    90838418.91547
  24417365.920   128314119.03708  24417364.000    99985017.36545
  23772319.260   124924388.86108  23772316.480    97343679.28845
  21041326.260   110572926.28109  21041323.540    86160711.18448
  22874128.020   120204556.96808  22874125.180    93665954.42046
  21352760.880   112209539.80509  21352756.120    87436007.87048
  25098144.900   131891653.03805  25098141.480   102772708.60444
  20952569.300   110106725.18909  20952564.220    85797521.88048
  20526060.400   107865237.01809  20526059.660    84050843.93149
  23792835.720   125032275.41208  23792839.480    97427783.22846
 15 03 02 02 10 30.0000000  0 10G04G07G11G16G18G19G21G22G27G32
  22170246.020   116505525.54909  22170244.940    90783560.63047
  24420339.200   128329743.86308  24420337.300    99997192.52846
  23756312.380   124840272.28408  23756309.700    97278133.93445
  21052731.940   110632862.81109  21052729.100    86207414.94748
  22886060.160   120267261.55108  22886057.560    93714815.13046
  21343767.340   112162278.48109  21343762.600    87399180.86448
  25112281.020   131965939.83206  25112277.880   102830594.42344
  20953335.280   110110750.30409  20953330.140    85800658.33548
  20523888.380   107853822.43509  20523887.540    84041949.44149
  23770661.220   124915748.78208  23770664.980    97336983.47146
 15 03 02 02 11  0.0000000  0  9G04G07G11G16G18G19G22G27G32
  22156900.340   116435393.42209  22156899.180    90728912.26147
  24423401.460   128345836.25608  24423399.540   100009732.03846
  23740327.720   124756272.50708  23740324.980    97212679.62845
  21064228.820   110693278.66109  21064225.880    86254492.22348
  22898060.740   120330325.74208  22898058.340    93763956.06846
  21334808.580   112115200.02409  21334803.900    87362496.37348
  20954203.400   110115312.13509  20954198.200    85804213.02548
  20521768.280   107842681.00809  20521767.400    84033267.80949
  23748503.440   124799309.80808  23748507.120    97246251.92446
 15 03 02 02 11 30.0000000  0  9G04G07G11G16G18G19G22G27G32
  22143605.500   116365528.23309  22143604.220    90674471.87447
  24426551.860   128362391.98208  24426549.980   100022632.57345
  23724364.840   124672387.14008  23724362.140    97147314.44645
  21075815.980   110754169.43009  21075813.040    86301939.54848
  22910129.000   120393745.28908  22910126.720    93813373.88546
  21325884.360   112068302.85709  21325879.700    87325953.12648
  20955173.020   110120407.54309  20955167.800    85808183.47548
  20519699.820   107831811.22209  20519698.960    84024797.84049
  23726362.480   124682958.96108  23726366.140    97155589.08646
 15 03 02 02 12  0.0000000  0 10G01G04G07G11G16G18G19G22G27G32
  24600937.860   129278800.47807                                
  22130361.460   116295930.47709  22130360.140    90620239.87947
  24429790.180   128379409.82308  24429788.360   100035893.21045
  23708423.880   124588616.98508  23708421.180    97082039.03945
  21087493.160   110815533.70609  21087490.320    86349755.84148
  22922264.600   120457518.38708  22922262.300    93863067.20446
  21316994.880   112021588.09909  21316990.200    87289552.01848
  20956244.200   110126036.66709  20956239.000    85812569.81348
  20517683.360   107821214.56209  20517682.460    84016540.69849
  23704238.800   124566699.20708  23704242.400    97064997.15646
 15 03 02 02 12 30.0000000  0 10G01G04G07G11G16G18G19G22G27G32
  24584827.200   129194137.79207  24584831.020   100670770.88746
  22117169.240   116226604.97209  22117167.880    90566220.03647
  24433116.940   128396892.31208  24433115.200   100049515.92746
  23692505.680   124504966.47408  23692503.040    97016856.88645
  21099260.840   110877373.50509  21099258.080    86397942.68948
  22934468.000   120521647.56308  22934465.640    93913037.99746
  21308141.160   111975061.24409  21308136.460    87253297.34548
  20957417.700   110132203.47409  20957412.500    85817375.14448
  20515719.880   107810896.28609  20515718.980    84008500.48749
  23682133.920   124450537.98308  23682137.540    96974482.03146
 15 03 02 02 13  0.0000000  0 10G01G04G07G11G16G18G19G22G27G32
  24568744.940   129109624.59107  24568748.600   100604916.58646
  22104027.280   116157543.49609  22104025.880    90512405.92747
  24436530.300   128414829.47208  24436528.520   100063492.90846
  23676608.720   124421427.93708  23676606.120    96951761.95745
  21111117.320   110939679.81209  21111114.560    86446493.02148
  22946737.240   120586122.60508  22946734.800    93963278.26846
  21299321.760   111928714.91109  21299317.060    87217183.30648
  20958691.980   110138899.76109  20958686.780    85822593.02648
  20513808.060   107800849.27309  20513807.120    84000671.62449
  23660046.740   124334469.83808  23660050.420    96884039.45445
 15 03 02 02 13 30.0000000  0 10G01G04G07G11G16G18G19G22G27G32
  24552692.100   129025266.54407  24552695.740   100539183.22345
  22090936.680   116088751.87009  22090935.200    90458802.12347
  24440030.920   128433225.21808  24440029.200   100077827.24545
  23660734.040   124338006.66408  23660731.500    96886758.41945
  21123063.120   111002455.45709  21123060.400    86495409.09648
  22959072.940   120650946.73608  22959070.340    94013790.59146
  21290537.840   111882555.32009  21290533.180    87181214.80648
  20960067.840   110146129.75709  20960062.620    85828226.80748
  20511949.060   107791079.83709  20511948.060    83993059.07549
  23637978.860   124218502.99008  23637982.480    96793675.99546
 15 03 02 02 14  0.0000000  0 10G01G04G07G11G16G18G19G22G27G32
  24536668.880   128941064.14907  24536672.400   100473571.11146
  22077897.460   116020230.14709  22077895.920    90405408.59647
  24443618.500   128452077.97008  24443616.840   100092517.69745
  23644881.860   124254703.26608  23644879.380    96821846.70945
  21135098.040   111065699.18309  21135095.340    86544689.90348
  22971474.760   120716118.07008  22971471.940    94064573.44046
  21281789.600   111836583.64209  21281785.060    87145392.72848
  20961545.260   110153893.40209  20961539.960    85834276.41348
  20510143.060   107781589.13009  20510142.080    83985663.71549
  23615930.760   124102640.01508  23615934.320    96703393.42046
 15 03 02 02 14 30.0000000  0 10G01G04G07G11G16G18G19G22G27G32
  24520675.200   128857017.22507  24520678.620   100408080.13845
  22064909.520   115951978.18509  22064907.900    90352225.28447
  24447292.600   128471385.13108  24447290.880   100107562.19945
  23629052.000   124171517.23208  23629049.580    96757026.46845
  21147221.520   111129408.51409  21147218.860    86594333.51948
  22983942.160   120781634.06608  22983939.100    94115624.86346
  21273077.140   111790800.09909  21273072.720    87109717.25448
  20963124.020   110162189.60009  20963118.600    85840740.99748
  20508390.140   107772377.60709  20508389.200    83978485.90549
  23593902.900   123986883.38708  23593906.360    96613193.76746
 15 03 02 02 15  0.0000000  0 10G01G04G07G11G16G18G19G22G27G32
  24504711.400   128773127.29907  24504714.640   100342711.50845
  22051973.120   115883997.21409  22051971.480    90299253.12647
  24451053.080   128491146.36808  24451051.220   100122960.54145
  23613244.840   124088450.23208  23613242.280    96692298.96845
  21159433.340   111193582.19809  21159430.780    86644338.96448
  22996475.060   120847494.12508  22996471.720    94166944.39046
  21264400.940   111745206.89709  21264396.620    87074190.08749
  20964804.220   110171019.15009  20964798.780    85847621.17948
  20506690.700   107763447.52309  20506689.880    83971527.39249
  23571895.960   123871237.10108  23571899.320    96523080.15546
 15 03 02 02 15 30.0000000  0  9G01G04G11G16G18G19G22G27G32
  24488776.460   128689389.11007  24488779.540   100277461.10045
  22039087.240   115816281.89209  22039085.660    90246487.96647
  23597459.240   124005496.72008  23597456.640    96627659.91545
  21171732.300   111258213.64809  21171729.780    86694701.11548
  23009071.840   120913690.14908  23009068.320    94218525.70946
  21255760.120   111699799.38909  21255755.880    87038807.62248
  20966584.720   110180375.74609  20966579.220    85854912.04148
  20505043.920   107754794.23209  20505043.200    83964784.56249
  23549909.460   123755698.45408  23549912.740    96433050.57046
 15 03 02 02 16  0.0000000  0  9G01G04G11G16G18G19G22G27G32
  24472872.380   128605813.02407  24472875.300   100212336.99845
  22026253.860   115748842.42409  22026252.340    90193937.77247
  23581697.280   123922667.27908  23581694.660    96563117.53245
  21184119.740   111323310.27109  21184117.260    86745425.73248
  23021734.040   120980230.24308  23021730.440    94270375.14046
  21247156.760   111654588.38509  21247152.480    87003578.27848
  20968467.260   110190268.74209  20968461.760    85862620.87548
  20503452.000   107746428.86409  20503451.280    83958266.08649
  23527945.740   123640279.99708  23527948.900    96343114.61946
 15 03 02 02 16 30.0000000  0  9G01G04G11G16G18G19G22G27G32
  24456998.020   128522393.13807  24457000.820   100147334.61045
  22013471.800   115681672.49709  22013470.240    90141597.59547
  23565957.800   123839955.72208  23565955.120    96498666.99945
  21196594.220   111388864.11109  21196591.740    86796506.61948
  23034460.100   121047106.22908  23034456.480    94322486.29246
  21238589.840   111609568.79809  21238585.500    86968498.08948
  20970450.520   110200691.28009  20970445.140    85870742.33748
  20501913.920   107738346.14409  20501913.180    83951967.85249
  23506004.180   123524978.15008  23506007.200    96253269.46146
 15 03 02 02 17  0.0000000  0  9G01G04G11G16G18G19G22G27G32
  24441154.380   128439134.73907  24441157.200   100082458.06546
  22000742.080   115614777.38809  22000740.520    90089471.56647
  23550241.740   123757367.39308  23550239.000    96434312.49845
  21209156.380   111454878.51809  21209153.860    86847946.39048
  23047250.560   121114320.77908  23047246.960    94374861.26746
  21230060.440   111564746.32509  21230056.060    86933571.49348
  20972535.460   110211648.01809  20972530.180    85879280.06348
  20500430.820   107730552.02809  20500430.020    83945894.50649
  23484086.300   123409800.71808  23484089.160    96163521.21946
 15 03 02 02 17 30.0000000  0  9G01G04G11G16G18G19G22G27G32
  24425340.820   128356034.27007  24425343.640   100017704.58545
  21988063.960   115548153.44209  21988062.380    90037556.83547
  23534548.420   123674898.70708  23534545.740    96370051.21946
  21221804.900   111521346.96609  21221802.360    86899739.97048
  23060104.340   121181868.19308  23060100.820    94427495.61646
  21221568.060   111520118.39309  21221563.620    86898796.48948
  20974721.100   110223134.02009  20974715.920    85888230.20748
  20499002.100   107723043.75209  20499001.280    83940043.89749
  23462191.960   123294746.85908  23462194.660    96073869.27246
 15 03 02 02 18  0.0000000  0  9G01G04G11G16G18G19G22G27G32
  24409557.120   128273090.70307  24409559.800    99953073.35345
  21975437.240   115481799.51209  21975435.640    89985852.49947
  23518877.700   123592548.47308  23518874.940    96305882.25545
  21234539.400   111588267.11209  21234536.820    86951885.52048
  23073020.760   121249744.88508  23073017.400    94480386.54546
  21213112.560   111475684.32809  21213108.080    86864172.54648
  20977007.280   110235148.11109  20977002.180    85897591.84048
  20497627.680   107715820.98909  20497626.880    83934415.77349
  23440321.360   123179817.71708  23440323.860    95984314.43345
 15 03 02 02 18 30.0000000  0  9G01G04G11G16G18G19G22G27G32
  24393803.680   128190306.22707  24393806.260    99888566.05345
  21962862.300   115415717.64109  21962860.620    89934360.15847
  23503229.960   123510318.99208  23503227.280    96241807.37545
  21247359.680   111655638.14609  21247357.120    87004382.40348
  23085999.960   121317951.08108  23085996.720    94533534.22846
  21204694.540   111431447.22909  21204689.980    86829702.08648
  20979394.060   110247690.93509  20979389.100    85907365.47548
  20496308.160   107708886.65409  20496307.360    83929012.38749
  23418475.500   123065018.32208  23418477.680    95894860.68846
 15 03 02 02 19  0.0000000  0  9G01G04G11G16G18G19G22G27G32
  24378080.640   128107681.81907  24378083.280    99824183.49645
  21950339.300   115349908.55309  21950337.600    89883080.37647
  23487605.320   123428210.92808  23487602.660    96177827.10946
  21260265.660   111723459.42909  21260263.140    87057230.13348
  23099041.500   121386484.91208  23099038.420    94586937.22746
  21196314.260   111387408.54809  21196309.620    86795386.24848
  20981881.540   110260762.74909  20981876.620    85917551.31748
  20495043.880   107702242.42109  20495043.040    83923835.06949
  23396655.040   122950352.27408  23396657.060    95805510.94746
 15 03 02 02 19 30.0000000  0  9G01G04G11G16G18G19G22G27G32
  24362388.140   128025217.82107  24362390.820    99759925.90746
  21937868.240   115284372.46209  21937866.560    89832013.31747
  23472003.900   123346225.00008  23472001.200    96113942.01145
  21273256.920   111791728.54909  21273254.360    87110426.82148
  23112145.040   121455344.56108  23112142.080    94640594.09146
  21187971.900   111343569.17909  21187967.220    86761225.69948
  20984469.420   110274362.28409  20984464.520    85928148.35748
  20493835.020   107695889.26809  20493834.080    83918884.55149
  23374860.420   122835822.04708  23374862.240    95716267.00946
 15 03 02 02 20  0.0000000  0  9G01G04G11G16G18G19G22G27G32
  24346726.400   127942915.57607  24346729.040    99695794.40045
  21925449.400   115219110.57309  21925447.700    89781159.93048
  23456425.900   123264362.26508  23456423.240    96050152.92246
  21286333.240   111860444.43809  21286330.580    87163971.65048
  23125310.380   121524528.88208  23125307.580    94694503.94746
  21179667.940   111299931.60109  21179663.220    86727222.40448
  20987157.840   110288490.31309  20987152.980    85939157.22348
  20492681.940   107689829.34709  20492680.900    83914162.53549
  23353092.380   122721431.58808  23353094.060    95627131.92746
 15 03 02 02 20 30.0000000  0  9G01G04G11G16G18G19G22G27G32
  24331094.860   127860772.23506  24331097.520    99631786.69845
  21913082.120   115154119.78409  21913080.440    89730517.78148
  23440870.800   123182619.87508  23440868.180    95986457.61146
  21299493.640   111929602.21309  21299490.840    87217860.80048
  23138536.500   121594032.32208  23138533.720    94748662.47846
  21171401.920   111256493.53509  21171397.200    86693374.56948
  20989946.080   110303142.96509  20989941.280    85950574.88748
  20491584.220   107684060.53509  20491583.160    83909667.35649
  23331350.860   122607180.63008  23331352.480    95538105.51746
 15 03 02 02 21  0.0000000  0  9G01G04G11G16G18G19G22G27G32
  24315494.220   127778791.31706  24315496.940    99567905.56445
  21900767.020   115089403.39909  21900765.340    89680089.45648
  23425339.320   123101001.50708  23425336.700    95922858.95446
  21312738.280   111999202.78309  21312735.360    87272094.98848
  23151823.680   121663856.66208  23151820.860    94803071.05246
  21163174.620   111213258.97609  21163169.920    86659685.30248
  20992834.640   110318322.61009  20992829.880    85962403.18848
  20490542.580   107678587.03409  20490541.580    83905402.28549
  23309637.020   122493075.23308  23309638.600    95449192.54746
 15 03 02 02 21 30.0000000  0  9G01G04G11G16G18G19G22G27G32
  24299924.040   127696970.38906  24299926.900    99504149.08045
  21888503.620   115024958.84209  21888501.940    89629872.94248
  23409831.020   123019504.65408  23409828.300    95859354.96646
  21326066.260   112069241.23809  21326063.200    87326670.38648
  23165170.940   121733996.86008  23165168.100    94857725.74846
  21154985.760   111170226.48209  21154981.060    86626153.50048
  20995822.860   110334025.97009  20995818.140    85974639.58048
  20489556.760   107673407.24309  20489555.880    83901366.09049
  23287950.940   122379115.74508  23287952.520    95360393.34546
 15 03 02 02 22  0.0000000  0  9G01G04G11G16G18G19G22G27G32
  24284385.000   127615313.08406  24284388.000    99440520.09545
  21876292.580   114960789.86709  21876290.980    89579871.17248
  23394346.560   122938133.02108  23394343.780    95795948.56046
  21339477.920   112139719.56409  21339474.780    87381588.53948
  23178578.500   121804454.00308  23178575.660    94912627.42246
  21146836.160   111127400.24409  21146831.500    86592782.41348
  20998911.200   110350255.48209  20998906.540    85987285.96248
  20488627.620   107668525.50409  20488626.900    83897562.13849
  23266293.700   122265308.25408  23266295.340    95271712.61146
 15 03 02 02 22 30.0000000  0  9G01G04G11G16G18G19G22G27G32
  24268876.700   127533816.84307  24268879.620    99377016.63145
  21864133.360   114896893.50909  21864131.840    89530081.84048
  23378885.400   122856883.97708  23378882.560    95732637.65746
  21352972.240   112210632.38509  21352969.060    87436845.26648
  23192045.440   121875223.26608  23192042.600    94967772.30146
  21138725.500   111084778.55909  21138720.860    86559570.72248
  21002099.040   110367007.49509  21002094.360    86000339.49048
  20487754.880   107663939.96609  20487754.280    83893988.99749
  23244665.320   122151652.49408  23244667.020    95183150.09946
 15 03 02 02 23  0.0000000  0  9G01G04G11G16G18G19G22G27G32
  24253398.820   127452480.27906  24253401.500    99313637.56445
  21852025.720   114833268.08109  21852024.300    89480503.62048
  23363447.260   122775756.05308  23363444.400    95669421.12646
  21366548.420   112281975.47409  21366545.220    87492437.26148
  23205571.120   121946300.99508  23205568.200    95023157.55046
  21130653.660   111042360.78209  21130649.020    86526517.91748
  21005385.880   110384279.36209  21005381.060    86013798.09848
  20486938.460   107659650.09109  20486937.900    83890646.23649
  23223066.140   122038149.97908  23223067.840    95094707.00246
 15 03 02 02 23 30.0000000  0  9G01G04G11G16G18G19G22G27G32
  24237952.280   127371308.49906  24237955.020    99250386.89945
  21839970.700   114769918.90909  21839969.320    89431140.65248
  23348033.140   122694754.67708  23348030.300    95606303.20146
  21380207.160   112353752.69209  21380204.020    87548367.53848
  23219155.960   122017689.72708  23219152.940    95078785.13146
  21122621.800   111000152.96309  21122617.180    86493628.71649
  21008772.420   110402075.17709  21008767.420    86027664.97548
  20486179.500   107655661.66609  20486178.900    83887538.36649
  23201497.640   121924808.51208  23201499.280    95006389.56146
 15 03 02 02 24  0.0000000  0  9G01G04G11G16G18G19G22G27G32
  24222537.200   127290302.03607  24222540.040    99187265.07145
  21827968.260   114706845.98209  21827966.880    89381992.94348
  23332643.080   122613880.05408  23332640.300    95543284.06846
  21393948.060   112425961.78009  21393944.960    87604634.34648
  23232799.620   122089387.73608  23232796.520    95134653.71246
  21114630.120   110958156.24609  21114625.520    86460904.01148
  21012258.460   110420394.10709  21012253.300    86041939.47648
  20485478.240   107651976.02109  20485477.540    83884666.43649
  23179960.240   121811630.50808  23179961.800    94918199.29646
 15 03 02 02 24 30.0000000  0  9G01G04G11G16G18G19G22G27G32
  24207152.920   127209457.27707  24207155.800    99124269.23944
  21816017.680   114644045.71509  21816016.280    89333057.69747
  23317276.480   122533128.52008  23317273.760    95480360.83346
  21407769.900   112498596.27609  21407766.900    87661232.62748
  23246501.020   122161388.95008  23246497.740    95190758.55446
  21106678.060   110916367.74209  21106673.460    86428341.55948
  21015843.180   110439231.78809  21015837.940    86056618.19548
  20484834.060   107648590.28809  20484833.240    83882028.19749
  23158453.900   121698615.21908  23158455.240    94830135.73946
 15 03 02 02 25  0.0000000  0  9G01G04G11G16G18G19G22G27G32
  24191799.640   127128775.21807  24191802.480    99061400.16745
  21804119.080   114581518.87009  21804117.720    89284335.51147
  23301933.620   122452501.53808  23301930.860    95417534.65346
  21421672.440   112571654.80109  21421669.540    87718161.33448
  23260259.940   122233692.12908  23260256.340    95247098.70046
  21098766.060   110874789.47809  21098761.400    86395942.92248
  21019526.640   110458588.24909  21019521.320    86071701.16048
  20484247.260   107645506.21809  20484246.360    83879625.02249
  23136979.220   121585766.27808  23136980.440    94742201.78246
 15 03 02 02 25 30.0000000  0  9G01G04G11G16G18G19G22G27G32
  24176477.580   127048256.70507  24176480.320    98998658.52445
  21792272.640   114519266.20609  21792271.400    89235826.97047
  23286614.680   122371999.95208  23286611.940    95354806.16946
  21435655.480   112645136.31109  21435652.620    87775419.62948
  23274076.020   122306295.60008  23274072.220    95303672.83445
  21090894.420   110833423.15209  21090889.620    86363709.42248
  21023308.660   110478462.83809  21023303.280    86087187.86048
  20483718.100   107642725.48709  20483717.200    83877458.21049
  23115536.900   121473087.28208  23115538.060    94654400.21146
 15 03 02 02 26  0.0000000  0  9G01G04G11G16G18G19G22G27G32
  24161187.020   126967903.66307  24161189.640    98936045.82645
  21780478.700   114457289.40309  21780477.600    89187533.38847
  23271319.940   122291625.45608  23271317.180    95292176.74946
  21449718.920   112719040.38909  21449716.140    87833007.20248
  23287949.140   122379198.87008  23287945.160    95360480.57746
  21083063.560   110792271.26909  21083058.620    86331643.01748
  21027189.340   110498856.08009  21027183.980    86103078.70948
  20483247.140   107640250.74409  20483246.260    83875529.84149
  23094127.760   121360582.59008  23094128.900    94566734.46746
 15 03 02 02 26 30.0000000  0  9G01G04G11G16G18G19G22G27G32
  24145927.620   126887714.26807  24145930.200    98873560.67745
  21768736.920   114395586.43409  21768735.940    89139453.17747
  23256049.060   122211376.45008  23256046.300    95229645.10146
  21463861.860   112793362.20609  21463859.120    87890920.28848
  23301878.560   122452397.94808  23301874.380    95417518.83446
  21075273.280   110751332.90609  21075268.240    86299743.00248
  21031168.160   110519765.12509  21031162.820    86119371.47548
  20482834.200   107638080.95309  20482833.340    83873839.09049
  23072752.040   121248253.12708  23072753.060    94479205.23746
 15 03 02 02 27  0.0000000  0  9G01G04G11G16G18G19G22G27G32
  24130699.840   126807690.89007  24130702.160    98811204.87045
  21757047.760   114334159.48909  21757046.760    89091588.04647
  23240802.440   122131255.29708  23240799.740    95167213.07946
  21478084.400   112868102.21609  21478081.700    87949159.22848
  23315864.200   122525892.72708  23315859.920    95474787.49246
  21067524.180   110710611.27109  21067519.100    86268011.85848
  21035245.240   110541190.93509  21035240.040    86136066.91448
  20482479.900   107636219.29609  20482479.060    83872388.44149
  23051410.600   121136103.78608  23051411.560    94391816.35146
 15 03 02 02 27 30.0000000  0  9G01G04G11G16G18G19G22G27G32
  24115503.360   126727832.26507  24115505.500    98748977.44845
  21745410.900   114273007.46909  21745409.900    89043937.14247
  23225579.920   122051261.11408  23225577.360    95104880.00646
  21492385.780   112943256.47009  21492383.100    88007720.96648
  23329905.420   122599679.85808  23329901.160    95532283.95946
  21059816.280   110670106.04109  21059811.160    86236449.35548
  21039420.300   110563131.63009  21039415.260    86153163.57448
  20482184.200   107634665.30609  20482183.320    83871177.54149
  23030103.700   121024136.01708  23030104.580    94304568.94946
 15 03 02 02 28  0.0000000  0  9G01G04G11G16G18G19G22G27G32
  24100338.560   126648140.84207  24100340.700    98686880.34045
  21733826.660   114212132.30809  21733825.700    88996501.98847
  23210381.940   121971395.94908  23210379.500    95042647.46446
  21506766.040   113018825.26209  21506763.400    88066605.72048
  23344002.160   122673759.01308  23343997.940    95590007.98445
  21052150.200   110629820.55509  21052145.080    86205058.07848
  21043693.500   110585588.12309  21043688.600    86170662.15648
  20481947.640   107633422.16209  20481946.760    83870208.85149
  23008832.380   120912355.00408  23008833.100    94217467.05646
 15 03 02 02 28 30.0000000  0  9G01G04G11G16G18G19G22G27G32
  24085205.120   126568615.00907  24085207.300    98624912.22345
  21722294.800   114151532.25009  21722293.840    88949281.19547
  23195208.340   121891658.73408  23195205.940    94980514.60446
  21521224.340   113094804.24409  21521221.760    88125810.09748
  23358153.760   122748126.51908  23358149.580    95647956.70146
  21044525.780   110589754.21809  21044520.700    86173837.55948
  21048064.320   110608557.48109  21048059.560    86188560.36748
  20481770.080   107632489.13509  20481769.200    83869481.81249
  22987596.740   120800761.62808  22987597.340    94130511.36646
 15 03 02 02 29  0.0000000  0  9G01G04G11G16G18G19G22G27G32
  24070103.800   126489257.77708  24070105.980    98563075.51045
  21710815.880   114091210.36009  21710814.940    88902277.17047
  23180059.660   121812052.43508  23180057.440    94918483.77746
  21535760.760   113171193.81209  21535758.240    88185334.41548
  23372360.240   122822782.78008  23372356.280    95706130.41045
  21036943.700   110549910.76509  21036938.740    86142790.72748
  21052533.080   110632041.28109  21052528.380    86206859.44248
  20481652.200   107631869.94509  20481651.400    83868999.32449
  22966397.820   120689361.42608  22966398.340    94043706.21146
 15 03 02 02 29 30.0000000  0  9G01G04G11G16G18G19G22G27G32
  24055033.580   126410064.03608  24055035.600    98501366.16245
  21699388.800   114031161.02009  21699387.900    88855485.50047
  23164934.940   121732571.98108  23164932.760    94856551.00646
  21550373.860   113247986.35009  21550371.340    88245172.73848
  23386620.360   122897720.87308  23386616.620    95764523.72846
  21029403.220   110510285.81409  21029398.360    86111914.15049
  21057098.560   110656033.12209  21057093.880    86225554.39548
  20481593.200   107631560.37409  20481592.520    83868758.10149
  22945235.300   120578152.26408  22945235.740    93957049.90347
 15 03 02 02 30  0.0000000  0  9G01G04G11G16G18G19G22G27G32
  24039995.340   126331038.05508  24039997.180    98439787.55445
  21688014.460   113971388.76009  21688013.580    88808909.74647
  23149835.020   121653221.93908  23149832.860    94794719.87246
  21565064.120   113325184.24209  21565061.580    88305326.92148
  23400934.280   122972941.82108  23400930.760    95823137.46046
  21021905.380   110470884.87709  21021900.660    86081212.12749
  21061761.420   110680536.49309  21061756.660    86244647.93948
  20481594.060   107631565.41809  20481593.560    83868762.03249
  22924110.380   120467140.82708  22924110.820    93870547.66946
 15 03 02 02 30 30.0000000  0  9G01G04G11G16G18G19G22G27G32
  24024988.860   126252178.42108  24024990.460    98378338.54345
  21676692.500   113911891.69709  21676691.680    88762548.43547
  23134759.620   121574000.68708  23134757.480    94732989.06546
  21579830.720   113402783.30909  21579828.220    88365793.70048
  23415301.420   123048442.48508  23415298.120    95881969.15146
  21014450.080   110431707.16909  21014445.360    86050684.04149
  21066521.020   110705548.16509  21066516.220    86264137.56948
  20481654.740   107631884.51709  20481654.340    83869010.67449
  22903023.360   120356328.42208  22903023.760    93784200.50446
 15 03 02 02 31  0.0000000  0  9G01G04G11G16G18G19G22G27G32
  24010014.240   126173486.26708  24010015.800    98317020.04745
  21665423.080   113852670.74809  21665422.300    88716402.27648
  23119709.040   121494909.80408  23119706.960    94671359.83546
  21594673.340   113480781.64609  21594670.840    88426571.59048
  23429721.580   123124221.59408  23429718.540    95941017.79846
  21007037.720   110392755.11409  21007033.020    86020331.79949
  21071377.360   110731068.24909  21071372.520    86284023.34848
  20481775.640   107632519.57009  20481775.220    83869505.51249
  22881974.940   120245718.85108  22881975.300    93698011.38846
 15 03 02 02 31 30.0000000  0  9G01G04G11G16G18G19G22G27G32
  23995071.640   126094962.20808  23995073.160    98255832.54945
  21654206.380   113793726.47809  21654205.580    88670471.71348
  23104683.460   121415949.97208  23104681.360    94609832.74046
  21609591.780   113559178.14909  21609589.240    88487659.76448
  23444194.420   123200277.61708  23444191.640    96000282.24846
  20999668.560   110354030.10609  20999663.880    85990156.48049
  21076330.300   110757095.87509  21076325.400    86304304.63348
  20481957.020   107633472.01909  20481956.460    83870247.68749
  22860965.680   120135315.40708  22860966.160    93611982.91447
 15 03 02 02 32  0.0000000  0  9G01G04G11G16G18G19G22G27G32
  23980161.080   126016606.60508  23980162.640    98194776.31745
  21643042.480   113735059.23409  21643041.560    88624757.01848
  23089682.920   121337121.50008  23089680.840    94548408.01246
  21624585.620   113637970.82709  21624583.020    88549056.63348
  23458719.540   123276608.11908  23458716.840    96059760.55446
  20992342.800   110315533.20609  20992338.180    85960158.90249
  21081379.620   110783630.18809  21081374.700    86324980.73248
  20482199.040   107634743.03609  20482198.300    83871238.08949
  22839996.240   120025121.08908  22839996.800    93526117.37147
 15 03 02 02 32 30.0000000  0  9G01G04G11G16G18G19G22G27G32
  23965282.260   125938417.82108  23965283.860    98133850.07145
  21631930.960   113676666.87409  21631929.820    88579256.49448
  23074707.140   121258423.07908  23074705.000    94487084.58146
  21639653.920   113717155.04409  21639651.300    88610758.59448
  23473296.180   123353209.25408  23473293.460    96119449.74745
  20985060.380   110277263.91709  20985055.780    85930338.67948
  21086524.720   110810668.03409  21086519.820    86346049.18848
  20482501.440   107636331.78309  20482500.620    83872476.06449
  22819066.800   119915136.97708  22819067.380    93440415.62447
 15 03 02 02 33  0.0000000  0  9G01G04G11G16G18G19G22G27G32
  23950435.040   125860395.43708  23950436.880    98073053.47645
  21620871.700   113618549.08809  21620870.320    88533969.93048
  23059756.120   121179854.49508  23059753.800    94425862.33446
  21654796.120   113796727.93909  21654793.560    88672763.42548
  23487923.840   123430078.25808  23487921.080    96179347.68246
  20977821.420   110239223.05209  20977816.840    85900696.45748
  21091765.340   110838207.76809  21091760.380    86367508.73048
  20482864.340   107638238.72009  20482863.520    83873961.99349
  22798177.760   119805365.30308  22798178.340    93354879.42047
 15 03 02 02 33 30.0000000  0  9G01G04G11G16G18G19G22G27G32
  23935620.060   125782542.56708  23935621.840    98012388.95545
  21609865.240   113560708.88909  21609863.640    88488899.67048
  23044830.420   121101418.81809  23044827.900    94364743.62746
  21670012.340   113876689.97309  21670009.860    88735071.47248
  23502602.740   123507215.99908  23502599.920    96239455.02545
  20970626.740   110201414.60409  20970622.140    85871235.33248
  21097101.840   110866251.15909  21097096.780    86389360.72848
  20483288.540   107640467.74509  20483287.700    83875698.87749
  22777330.240   119695811.87908  22777330.840    93269513.26947
 15 03 02 02 34  0.0000000  0  9G01G04G11G16G18G19G22G27G32
  23920837.100   125704858.12108  23920838.860    97951855.67646
  21598911.280   113503144.80209  21598909.520    88444044.57047
  23029929.860   121023115.24309  23029927.160    94303727.89946
  21685302.080   113957038.03609  21685299.640    88797680.32648
  23517332.220   123584619.37408  23517329.340    96299769.34146
  20963476.260   110163838.31009  20963471.600    85841955.10948
  21102533.740   110894795.74709  21102528.620    86411603.27248
  20483773.980   107643018.58409  20483773.140    83877686.54049
  22756524.640   119586478.36209  22756525.160    93184318.47546
 15 03 02 02 34 30.0000000  0  9G01G04G11G16G18G19G22G27G32
  23906086.100   125627341.99708  23906087.940    97891453.58546
  21588009.740   113445856.73809  21588007.940    88399404.55948
  23015054.340   120944943.74208  23015051.600    94242815.07846
  21700664.780   114037769.07509  21700662.260    88860587.60948
  23532111.680   123662285.52108  23532108.820    96360288.42746
  20956370.120   110126494.90309  20956365.380    85812856.35949
  21108060.720   110923839.84809  21108055.520    86434235.05548
  20484320.780   107645891.88009  20484319.960    83879925.47249
  22735761.340   119477367.15909  22735761.780    93099296.90647
 15 03 02 02 35  0.0000000  0  9G01G04G11G16G18G19G22G27G32
  23891367.540   125549996.30408  23891369.420    97831184.28846
  21577160.980   113388846.34809  21577159.140    88354980.89947
  23000204.380   120866906.69908  23000201.640    94182007.01846
  21716100.340   114118882.72009  21716097.680    88923793.02448
  23546941.120   123740214.26808  23546938.160    96421012.13545
  20949308.920   110089387.73609  20949304.120    85783941.68248
  21113682.920   110953384.31909  21113677.640    86457256.72948
  20484929.500   107649090.65909  20484928.720    83882418.02749
  22715041.340   119368483.21809  22715041.660    93014452.41847
 15 03 02 02 35 30.0000000  0  9G01G04G11G16G18G19G22G27G32
  23876680.780   125472817.62408  23876682.660    97771045.13846
  21566364.400   113332110.33209  21566362.600    88310771.05347
  22985379.380   120789000.93508  22985376.620    94121301.26846
  21731607.620   114200373.21709  21731604.780    88987292.09548
  23561819.440   123818400.03708  23561816.360    96481936.11445
  20942292.200   110052514.34309  20942287.340    85755209.16948
  21119399.380   110983424.26209  21119394.040    86480664.48948
  20485599.660   107652612.27909  20485598.920    83885162.14549
  22694364.520   119259825.86409  22694364.680    92929784.49547
 15 03 02 02 36  0.0000000  0  9G01G04G11G16G18G19G22G27G32
  23862026.000   125395806.50308  23862027.820    97711036.54946
  21555619.960   113275648.80109  21555618.260    88266775.09247
  22970579.480   120711227.19308  22970576.760    94060698.39946
  21747186.200   114282238.56409  21747183.260    89051083.25748
  23576746.400   123896841.25008  23576743.160    96543059.13945
  20935320.240   110015876.24109  20935315.360    85726660.01149
  21125209.880   111013958.72909  21125204.560    86504457.59148
  20486331.500   107656458.12209  20486330.780    83888158.91149
  22673731.420   119151398.26809  22673731.380    92845295.59647
 15 03 02 02 36 30.0000000  0  9G01G04G11G16G18G19G22G27G32
  23847403.960   125318967.10708  23847405.600    97651161.75246
  21544928.580   113219466.04509  21544926.940    88222996.35447
  22955805.460   120633589.68508  22955802.820    94000201.67746
  21762836.320   114364480.25809  21762833.340    89115167.66648
  23591722.240   123975539.51808  23591718.940    96604382.46345
  20928394.080   109979478.83309  20928389.160    85698298.39649
  21131115.060   111044990.59709  21131109.720    86528638.27348
  20487125.940   107660633.23509  20487125.240    83891412.24449
  22653143.340   119043207.33309  22653143.180    92760991.10647
 15 03 02 02 37  0.0000000  0  9G01G04G11G16G18G19G22G27G32
  23832814.220   125242297.29508  23832815.760    97591419.11546
  21534289.820   113163559.64109  21534288.140    88179432.94847
  22941056.960   120556086.41408  22941054.420    93939809.55346
  21778557.080   114447093.41009  21778554.100    89179541.53148
  23606746.180   124054490.26408  23606742.760    96665902.52145
  20921513.520   109943320.90209  20921508.560    85670123.38748
  21137114.120   111076515.90409  21137108.740    86553203.45848
  20487982.780   107665136.20109  20487982.120    83894921.04649
  22632600.340   118935253.53609  22632600.080    92676871.41047
 15 03 02 02 37 30.0000000  0  9G01G04G11G16G18G19G22G27G32
  23818256.660   125165796.94608  23818258.140    97531808.51246
  21523703.700   113107929.38109  21523701.900    88136084.71647
  22926334.100   120478717.47608  22926331.580    93879522.09346
  21794348.020   114530075.31709  21794345.040    89244202.73248
  23621817.740   124133691.25308  23621814.160    96727617.58146
  20914678.760   109907403.53809  20914673.740    85642135.83148
  21143206.820   111108533.36109  21143201.480    86578152.13648
  20488902.160   107669967.79309  20488901.520    83898685.92049
  22612102.940   118827539.59209  22612102.620    92592938.59147
 15 03 02 02 38  0.0000000  0  9G01G04G11G16G18G19G22G27G32
  23803731.520   125089467.11408  23803733.020    97472330.78746
  21513170.320   113052575.88009  21513168.340    88092952.13147
  22911637.120   120401484.22208  22911634.560    93819340.36346
  21810208.920   114613424.96209  21810205.980    89309150.47848
  23636936.680   124213141.27708  23636932.980    96789526.67745
  20907890.120   109871728.65509  20907885.080    85614337.21348
  21149393.040   111141042.40009  21149387.760    86603483.86148
  20489884.480   107675129.88809  20489883.840    83902708.33149
  22591651.840   118720069.16109  22591651.520    92509195.53847
 15 03 02 02 38 30.0000000  0 10G01G04G11G14G16G18G19G22G27G32
  23789238.880   125013308.11608  23789240.380    97412986.17746
  21502689.700   112997499.65309  21502687.640    88050035.61348
  22896966.140   120324387.29508  22896963.480    93759264.87446
  24716435.140   129885740.89508  24716433.260   101209657.31344
  21826139.360   114697140.22609  21826136.480    89374383.12248
  23652102.580   124292838.15208  23652098.820    96851628.13145
  20901147.800   109836297.46109  20901142.800    85586728.49749
  21155672.560   111174041.79509  21155667.320    86629197.68948
  20490929.900   107680623.62109  20490929.260    83906989.16049
  22571247.680   118612845.35109  22571247.320    92425644.65747
 15 03 02 02 39  0.0000000  0 10G01G04G11G14G16G18G19G22G27G32
  23774777.280   124937312.34708  23774778.840    97353768.76246
  21492260.360   112942692.73609  21492258.240    88007328.94348
  22882319.720   120247419.32809  22882316.940    93699289.86246
  24703500.420   129817769.71508  24703498.680   101156692.97643
  21842137.340   114781210.34109  21842134.480    89439892.28148
  23667313.640   124372772.17608  23667309.780    96913914.39045
  20894450.640   109801103.82409  20894445.700    85559304.88149
  21162043.700   111207522.93209  21162038.580    86655286.89748
  20492037.120   107686442.18309  20492036.500    83911523.09849
  22550889.500   118505863.29509  22550889.120    92342282.14447
 15 03 02 02 39 30.0000000  0 10G01G04G11G14G16G18G19G22G27G32
  23760350.060   124861497.19608  23760351.720    97294692.09546
  21481885.580   112888172.42109  21481883.420    87964845.59948
  22867701.080   120170597.83308  22867698.180    93639428.98346
  24690581.380   129749881.02007  24690580.320   101103792.90843
  21858205.680   114865650.07709  21858202.880    89505689.44348
  23682572.640   124452958.44208  23682568.740    96976397.19246
  20887802.200   109766166.08909  20887797.280    85532080.66449
  21168509.460   111241501.23409  21168504.440    86681763.49448
  20493209.560   107692603.82209  20493209.020    83916324.36549
  22530581.160   118399143.04409  22530580.820    92259123.65047
 15 03 02 02 40  0.0000000  0 10G01G04G11G14G16G18G19G22G27G32
  23745955.100   124785851.62208  23745956.800    97235747.57446
  21471563.160   112833927.45709  21471560.980    87922576.82248
  22853108.220   120093911.95708  22853105.340    93579673.78846
  24677676.440   129682066.61907  24677675.860   101050950.77543
  21874341.820   114950446.06509  21874339.080    89571764.21048
  23697877.040   124533383.62808  23697873.180    97039066.18145
  20881200.600   109731474.21309  20881195.660    85505048.04149
  21175067.500   111275964.32509  21175062.580    86708617.85748
  20494445.300   107699098.30509  20494444.860    83921385.00349
  22510321.140   118292676.37709  22510320.720    92176162.74947
 15 03 02 02 40 30.0000000  0 10G01G04G11G14G16G18G19G22G27G32
  23731592.440   124710375.60808  23731594.120    97176935.14846
  21461293.080   112779957.65109  21461290.940    87880522.45148
  22838541.180   120017362.24408  22838538.340    93520024.70246
  24664786.100   129614329.39807  24664786.060   100998168.73843
  21890545.320   115035595.90109  21890542.640    89638114.70548
  23713226.400   124614045.45008  23713222.740    97101919.54946
  20874645.980   109697029.46009  20874641.100    85478207.98049
  21181717.540   111310910.54209  21181712.660    86735848.68348
  20495744.620   107705926.49809  20495744.180    83926705.67149
  22490109.880   118186465.87809  22490109.400    92093401.44847
 15 03 02 02 41  0.0000000  0 10G01G04G11G14G16G18G19G22G27G32
  23717262.620   124635072.51308  23717264.280    97118257.47546
  21451075.920   112726266.24409  21451073.820    87838685.02148
  22824000.720   119940952.22108  22823997.960    93460484.46346
  24651911.560   129546675.46507  24651911.940   100945451.63543
  21906816.280   115121100.16209  21906813.620    89704741.38048
  23728620.940   124694944.80308  23728617.420    97164958.01046
  20868139.280   109662836.26809  20868134.420    85451563.95149
  21188459.820   111346341.61509  21188454.960    86763457.31848
  20497108.240   107713092.57209  20497107.840    83932289.62349
  22469948.560   118080517.73909  22469948.000    92010844.58547
 15 03 02 02 41 30.0000000  0 10G01G04G11G14G16G18G19G22G27G32
  23702964.980   124559938.48108  23702966.660    97059711.51946
  21440910.900   112672849.26909  21440908.860    87797061.42648
  22809486.180   119864678.22608  22809483.420    93401050.20446
  24639052.800   129479103.63807  24639053.180   100892798.50144
  21923153.400   115206952.35209  21923150.800    89771639.15348
  23744059.580   124776075.97208  23744056.200    97228177.09445
  20861679.840   109628891.68709  20861674.940    85425113.63049
  21195293.360   111382252.30109  21195288.500    86791439.67348
  20498535.640   107720593.48609  20498535.220    83938134.48349
  22449836.920   117974830.82509  22449836.340    91928491.27547
 15 03 02 02 42  0.0000000  0 10G01G04G11G14G16G18G19G22G27G32
  23688699.660   124484974.42508  23688701.300    97001298.02246
  21430798.200   112619707.38909  21430796.220    87755652.19048
  22794997.800   119788541.44609  22794995.020    93341722.87247
  24626210.480   129411617.33007  24626210.820   100840211.99944
  21939556.420   115293150.94609  21939553.920    89838806.85848
  23759541.980   124857437.48908  23759538.800    97291575.67945
  20855268.040   109595197.93409  20855263.220    85398858.76449
  21202218.040   111418641.78509  21202213.080    86819795.12148
  20500027.160   107728430.98809  20500026.640    83944241.62349
  22429775.620   117869408.64709  22429775.040    91846344.24047
 15 03 02 02 42 30.0000000  0 10G01G04G11G14G16G18G19G22G27G32
  23674466.960   124410181.72308  23674468.600    96943018.04846
  21420738.140   112566841.72409  21420736.120    87714458.19448
  22780535.860   119712543.33409  22780533.000    93282503.58846
  24613385.440   129344220.80607  24613385.520   100787695.43844
  21956025.100   115379694.58509  21956022.640    89906243.42348
  23775068.040   124939028.67308  23775065.120    97355153.21945
  20848904.400   109561757.32409  20848899.660    85372801.15049
  21209233.780   111455509.87409  21209228.740    86848523.50648
  20501583.200   107736607.23509  20501582.500    83950612.72049
  22409765.500   117764255.37709  22409764.900    91764406.74147
 15 03 02 02 43  0.0000000  0 10G01G04G11G14G16G18G19G22G27G32
  23660266.820   124335559.77008  23660268.480    96884871.11947
  21410730.560   112514251.54709  21410728.460    87673478.85848
  22766100.240   119636683.74909  22766097.420    93223392.24447
  24600577.960   129276916.25707  24600577.660   100735250.54944
  21972558.880   115466580.31209  21972556.460    89973946.55648
  23790637.180   125020846.07508  23790634.440    97418907.04545
  20842589.060   109528570.33609  20842584.340    85346941.16149
  21216340.240   111492854.62609  21216335.140    86877623.32348
  20503203.760   107745122.48409  20503202.880    83957247.97549
  22389806.960   117659373.20309  22389806.380    91682680.48947
 15 03 02 02 43 30.0000000  0 10G01G04G11G14G16G18G19G22G27G32
  23646099.700   124261110.98808  23646101.380    96826859.13147
  21400775.880   112461939.08809  21400773.680    87632715.91548
  22751691.500   119560965.51708  22751688.740    93164391.05047
  24587788.840   129209709.00407  24587788.300   100682881.49345
  21989157.620   115553807.45809  21989155.300    90041915.72448
  23806249.420   125102889.89608  23806246.780    97482837.28945
  20836322.780   109495641.00109  20836318.080    85321281.94549
  21223537.580   111530676.65309  21223532.420    86907095.03548
  20504889.420   107753979.98209  20504888.400    83964149.91849
  22369901.000   117554767.22709  22369900.460    91601169.44547
 15 03 02 02 44  0.0000000  0 10G01G04G11G14G16G18G19G22G27G32
  23631965.300   124186833.87108  23631966.880    96768980.90247
  21390873.780   112409902.99309  21390871.560    87592168.32548
  22737309.360   119485387.14509  22737306.640    93105498.84146
  24575018.380   129142600.52707  24575017.840   100630589.35745
  22005820.640   115641372.08509  22005818.360    90110147.86048
  23821904.240   125185157.04508  23821901.500    97546941.57345
  20830105.400   109462968.58009  20830100.700    85295822.91649
  21230825.180   111568972.88209  21230819.920    86936936.25648
  20506639.980   107763179.08009  20506638.940    83971318.04249
  22350047.840   117450438.63409  22350047.260    91519874.53647
 15 03 02 02 44 30.0000000  0 10G01G04G11G14G16G18G19G22G27G32
  23617863.180   124112726.47508  23617864.700    96711234.93746
  21381023.840   112358141.00409  21381021.600    87551834.31448
  22722953.560   119409947.26909  22722950.840    93046714.55747
  24562266.760   129075591.38908  24562266.340   100578374.64945
  22022547.040   115729269.67109  22022544.740    90178639.45648
  23837600.760   125267642.80208  23837597.940    97611216.18845
  20823936.820   109430552.49709  20823932.120    85270563.63249
  21238202.340   111607739.69609  21238196.920    86967144.16948
  20508455.220   107772718.60909  20508454.280    83978751.43949
  22330247.620   117346388.33809  22330247.000    91438796.49447
 15 03 02 02 45  0.0000000  0 10G01G04G11G14G16G18G19G22G27G32
  23603794.120   124038793.13208  23603795.620    96653624.58447
  21371226.780   112306657.17009  21371224.620    87511717.05448
  22708624.980   119334650.51408  22708622.340    92988041.78847
  24549535.460   129008688.87508  24549535.040   100526242.99945
  22039337.160   115817502.05009  22039334.840    90247391.92348
  23853339.360   125350349.64508  23853336.500    97675663.08345
  20817818.020   109398398.24609  20817813.360    85245508.37849
  21245669.600   111646980.02909  21245664.080    86997721.05648
  20510336.160   107782603.72209  20510335.380    83986454.11849
  22310501.700   117242623.24309  22310501.080    91357940.68647
 15 03 02 02 45 30.0000000  0 10G01G04G11G14G16G18G19G22G27G32
  23589757.320   123965029.80708  23589758.920    96596146.71847
  21361481.840   112255447.40109  21361479.700    87471813.35348
  22694322.920   119259492.98108  22694320.340    92929477.50946
  24536824.280   128941891.73608  24536823.680   100474193.45245
  22056189.780   115906062.78809  22056187.400    90316400.25748
  23869118.840   125433271.02808  23869115.860    97740277.15245
  20811748.420   109366502.78509  20811743.820    85220654.77649
  21253225.820   111686688.00709  21253220.260    87028662.34448
  20512282.280   107792831.25109  20512281.640    83994423.61749
  22290809.900   117139142.25909  22290809.140    91277306.25247
 15 03 02 02 46  0.0000000  0 10G01G04G11G14G16G18G19G22G27G32
  23575753.300   123891438.66108  23575755.000    96538803.01547
  21351789.420   112204513.45509  21351787.260    87432124.58748
  22680047.840   119184477.31308  22680045.320    92871023.76946
  24524134.040   128875204.49508  24524133.400   100422229.54445
  22073104.600   115994950.39909  22073102.180    90385663.29848
  23884939.240   125516406.91308  23884936.140    97805058.36645
  20805728.720   109334869.50709  20805724.180    85196005.46549
  21260871.120   111726864.03509  21260865.560    87059968.34648
  20514294.160   107803404.13009  20514293.620    84002662.21649
  22271173.080   117035950.00309  22271172.180    91196896.79347
 15 03 02 02 46 30.0000000  0 10G01G04G11G14G16G18G19G22G27G32
  23561782.100   123818019.96408  23561783.920    96481593.68847
  21342149.580   112153855.67009  21342147.360    87392651.01048
  22665799.880   119109604.00709  22665797.380    92812680.96746
  24511465.380   128808630.68708  24511464.680   100370354.01545
  22090081.420   116084163.77309  22090078.940    90455180.18248
  23900800.120   125599755.59908  23900796.900    97870005.38545
  20799759.240   109303499.89109  20799754.720    85171561.61649
  21268605.220   111767506.82409  21268599.700    87091638.05748
  20516372.000   107814323.47309  20516371.480    84011170.78749
  22251591.780   116933049.62909  22251590.800    91116714.78847
 15 03 02 02 47  0.0000000  0 10G01G04G11G14G16G18G19G22G27G32
  23547843.660   123744773.09808  23547845.500    96424518.26447
  21332562.180   112103473.20709  21332559.840    87353391.96748
  22651578.980   119034872.91709  22651576.460    92754448.97446
  24498818.720   128742172.54408  24498818.020   100318568.61545
  22107119.380   116173698.60409  22107116.860    90524947.55248
  23916700.880   125683313.88908  23916697.560    97935115.74845
  20793840.100   109272394.57909  20793835.560    85147323.71349
  21276427.680   111808614.05209  21276422.220    87123669.67048
  20518515.860   107825589.45009  20518515.260    84019949.46649
  22232066.440   116830443.21709  22232065.440    91036761.84647
 15 03 02 02 47 30.0000000  0 10G01G04G11G14G16G18G19G22G27G32
  23533938.040   123671698.61408  23533939.860    96367577.16447
  21323027.200   112053366.61209  21323024.840    87314347.89148
  22637385.380   118960285.08308  22637382.780    92696328.61446
  24486194.700   128675833.52008  24486193.920   100266876.02145
  22124218.220   116263553.80909  22124215.740    90594964.56948
  23932641.260   125767080.48708  23932637.880    98000388.42545
  20787971.640   109241555.34609  20787967.020    85123293.14249
  21284338.320   111850184.83509  21284332.900    87156062.50148
  20520725.940   107837203.45609  20520725.280    84028999.33949
  22212597.640   116728134.10909  22212596.640    90957040.57047
 15 03 02 02 48  0.0000000  0 10G01G04G11G14G16G18G19G22G27G32
  23520065.100   123598795.78308  23520066.800    96310769.82547
  21313544.460   112003534.86609  21313542.220    87275517.97948
  22623218.860   118885839.27809  22623216.060    92638318.92546
  24473593.840   128609615.96108  24473592.960   100215278.06445
  22141377.240   116353725.33109  22141374.820    90665228.06348
  23948620.580   125851052.00208  23948617.080    98065820.78745
  20782153.840   109210982.62209  20782149.200    85099470.24449
  21292336.640   111892216.49309  21292331.280    87188814.45248
  20523002.200   107849165.55909  20523001.560    84038320.45449
  22193185.760   116626124.30909  22193184.760    90877552.51847
 15 03 02 02 48 30.0000000  0 10G01G04G11G14G16G18G19G22G27G32
  23506225.180   123526066.46808  23506226.800    96254097.66647
  21304114.320   111953979.67109  21304112.160    87236903.55848
  22609079.940   118811538.57909  22609076.980    92580422.29746
  24461016.860   128543523.92408  24461015.780   100163777.92744
  22158596.400   116444212.83009  22158594.040    90735737.77248
  23964638.860   125935228.63908  23964635.320    98131412.97645
  20776387.340   109180679.32809  20776382.640    85075857.29849
  21300422.720   111934709.31909  21300417.400    87221925.74548
  20525345.220   107861478.43809  20525344.640    84047914.90249
  22173831.640   116524418.41309  22173830.680    90798301.26547
 15 03 02 02 49  0.0000000  0 10G01G04G11G14G16G18G19G22G27G32
  23492417.980   123453509.38908  23492419.560    96197559.72147
  21294736.540   111904699.53309  21294734.440    87198503.46748
  22594968.400   118737381.89109  22594965.400    92522637.88746
  24448464.120   128477559.11207  24448462.740   100112376.90344
  22175874.900   116535012.23609  22175872.600    90806490.51948
  23980695.480   126019606.91808  23980692.020    98197162.27645
  20770672.140   109150645.52109  20770667.340    85052454.32549
  21308595.960   111977660.17709  21308590.700    87255393.94848
  20527754.940   107874141.63109  20527754.400    84057782.32149
  22154535.640   116423017.80809  22154534.720    90719287.90347
 15 03 02 02 49 30.0000000  0 10G01G04G11G14G16G18G19G22G27G32
  23478643.660   123381124.97808  23478645.200    96141156.33147
  21285411.200   111855694.92409  21285409.120    87160318.07648
  22580884.380   118663370.15509  22580881.500    92464966.44446
  24435936.180   128411724.87107  24435934.500   100061077.60344
  22193212.280   116626121.21609  22193210.060    90877484.50347
  23996790.060   126104184.84008  23996786.560    98263067.16045
  20765008.560   109120882.97109  20765003.680    85029262.73449
  21316856.160   112021068.05209  21316850.960    87289218.27748
  20530231.580   107887156.39409  20530231.060    84067923.69249
  22135298.420   116321925.72709  22135297.400    90640514.94447
 15 03 02 02 50  0.0000000  0 10G01G04G11G14G16G18G19G22G27G32
  23464902.220   123308913.37308  23464903.700    96084887.58147
  21276138.280   111806965.69209  21276136.260    87122347.25048
  22566828.060   118589503.75009  22566825.160    92407408.23147
  24423433.600   128346024.07607  24423431.700   100009882.29844
  22210608.180   116717537.36909  22210606.000    90948717.83848
  24012922.260   126188960.38408  24012918.880    98329126.00345
  20759396.900   109091393.11509  20759391.940    85006283.62549
  21325203.020   112064931.27909  21325197.900    87323397.41448
  20532775.280   107900523.67009  20532774.800    84078339.73949
  22116120.480   116221145.05109  22116119.340    90561984.62747
 15 03 02 02 50 30.0000000  0 10G01G04G11G14G16G18G19G22G27G32
  23451193.840   123236875.20008  23451195.260    96028753.97047
  21266917.800   111758512.30009  21266915.940    87084591.37048
  22552799.560   118515783.56709  22552796.640    92349963.94846
  24410957.040   128280460.75607  24410955.240    99958794.11744
  22228062.080   116809258.30109  22228059.940    91020188.65548
  24029091.720   126273931.89808  24029088.480    98395337.55645
  20753837.460   109062177.57409  20753832.380    84983518.26349
  21333636.380   112109248.77509  21333631.260    87357930.52648
  20535386.420   107914244.80409  20535385.900    84089031.52349
  22097002.420   116120678.98309  22097001.220    90483699.45847
 15 03 02 02 51  0.0000000  0 10G01G04G11G14G16G18G19G22G27G32
  23437518.560   123165010.76108  23437519.900    95972755.76047
  21257749.800   111710334.71009  21257748.140    87047050.41448
  22538799.040   118442210.36709  22538796.120    92292634.21247
  24398507.020   128215037.50907  24398505.520    99907815.05844
  22245573.620   116901282.08109  22245571.480    91091895.46048
  24045298.080   126359097.61908  24045295.020    98461700.45845
  20748330.560   109033238.07609  20748325.380    84960968.00449
  21342155.880   112154018.81009  21342150.700    87392816.27648
  20538065.160   107928320.91309  20538064.540    84099999.92049
  22077944.820   116020530.65809  22077943.540    90405661.88647
 15 03 02 02 51 30.0000000  0 10G01G04G11G14G16G18G19G22G27G32
  23423875.680   123093316.75408  23423877.080    95916890.35747
  21248633.720   111662429.87809  21248632.200    87009721.99748
  22524825.880   118368781.15409  22524823.000    92235416.66546
  24386083.660   128149754.20807  24386082.400    99856945.06444
  22263141.620   116993602.29409  22263139.360    91163833.25247
  24061540.480   126444452.33908  24061537.460    98528210.62944
  20742875.740   109004572.40109  20742870.500    84938631.11749
  21350760.560   112199236.55909  21350755.380    87428050.88948
  20540810.900   107942749.54009  20540810.260    84111243.00249
  22058947.520   115920699.48609  22058946.280    90327871.44647
 15 03 02 02 52  0.0000000  0 10G01G04G11G14G16G18G19G22G27G32
  23410266.000   123021797.63108  23410267.480    95861161.22347
  21239570.360   111614801.74409  21239568.880    86972609.18048
  22510881.140   118295501.09309  22510878.240    92178315.33546
  24373688.360   128084618.21407  24373687.460    99806189.88344
  22280766.460   117086221.15909  22280764.180    91236003.75547
  24077819.340   126529998.08908  24077816.340    98594869.64945
  20737474.040   108976186.19209  20737468.760    84916511.98948
  21359450.920   112244904.74909  21359445.780    87463636.48748
  20543624.640   107957535.88109  20543624.040    84122764.81649
  22040011.880   115821192.57809  22040010.700    90250333.67347
 15 03 02 02 52 30.0000000  0 10G01G04G11G14G16G18G19G22G27G32
  23396688.600   122950448.63008  23396690.240    95805564.66347
  21230558.820   111567445.51609  21230557.240    86935708.24648
  22496964.000   118222365.87409  22496960.980    92121326.88346
  24361320.720   128019627.55107  24361319.940    99755547.86344
  22298446.680   117179131.24509  22298444.400    91308401.18447
  24094133.260   126615727.94108  24094130.300    98661672.13344
  20732124.860   108948076.03009  20732119.600    84894607.96849
  21368225.680   112291016.83609  21368220.640    87499567.98448
  20546505.700   107972675.99509  20546505.080    84134562.31049
  22021137.480   115722007.94509  22021136.420    90173047.03147
 15 03 02 02 53  0.0000000  0 10G01G04G11G14G16G18G19G22G27G32
  23383144.200   122879273.49708  23383146.040    95750103.58947
  21221599.760   111520364.73909  21221597.960    86899021.94148
  22483075.200   118149379.38009  22483072.100    92064454.32147
  24348982.000   127954788.63207  24348981.240    99705024.14944
  22316182.560   117272333.70009  22316180.300    91381026.42847
  24110482.640   126701643.76708  24110479.560    98728619.54045
  20726829.200   108920247.16709  20726823.960    84872923.14649
  21377085.280   112337574.82909  21377080.300    87535846.94248
  20549454.900   107988174.40109  20549454.280    84146638.98349
  22002325.560   115623151.95509  22002324.660    90096016.47147
 15 03 02 02 53 30.0000000  0 10G01G04G11G14G16G18G19G22G27G32
  23369632.520   122808270.12408  23369634.460    95694776.34647
  21212692.720   111473557.42909  21212690.740    86862548.73448
  22469214.380   118076539.97409  22469211.260    92007696.36147
  24336672.340   127890102.29407  24336671.440    99654619.31244
  22333973.220   117365823.82409  22333970.980    91453875.84247
  24126866.560   126787741.14908  24126863.360    98795708.41945
  20721586.900   108892698.62609  20721581.620    84851456.75749
  21386029.000   112384574.61809  21386024.060    87572470.16748
  20552472.020   108004029.79109  20552471.420    84158993.83549
  21983576.400   115524625.33409  21983575.620    90019242.56947
 15 03 02 02 54  0.0000000  0 10G01G04G11G14G16G18G19G22G27G32
  23356153.920   122737440.45508  23356155.880    95639584.44847
  21203837.960   111427025.08309  21203835.920    86826289.77648
  22455381.980   118003849.94809  22455378.800    91951054.80347
  24324392.800   127825573.59807  24324391.920    99604337.28844
  22351818.540   117459600.73309  22351816.200    91526948.71647
  24143284.940   126874019.66108  24143281.620    98862938.42145
  20716398.460   108865433.41109  20716393.180    84830211.12849
  21395056.880   112432016.58709  21395052.000    87609437.93548
  20555557.640   108020244.86509  20555557.020    84171628.94749
  21964890.860   115426432.64709  21964890.060    89942728.86047
 15 03 02 02 54 30.0000000  0 10G01G04G11G14G16G18G19G22G27G32
  23342708.060   122666782.25208  23342709.940    95584526.17446
  21195035.060   111380765.37909  21195032.980    86790243.27448
  22441577.620   117931307.47309  22441574.360    91894528.21747
  24312143.420   127761203.34407  24312142.560    99554178.74445
  22369717.360   117553658.88409  22369714.900    91600240.73648
  24159737.040   126960475.11308  24159733.560    98930306.30944
  20711263.760   108838450.57709  20711258.540    84809185.54049
  21404168.120   112479896.66009  21404163.240    87646747.08348
  20558711.480   108036818.15409  20558710.780    84184543.18849
  21946269.020   115328574.41209  21946268.160    89866475.76647
 15 03 02 02 55  0.0000000  0 10G01G04G11G14G16G18G19G22G27G32
  23329295.380   122596298.01108  23329297.100    95529603.44847
  21186284.480   111334780.66009  21186282.420    86754411.04448
  22427801.820   117858915.47409  22427798.540    91838118.90047
  24299925.140   127696996.61907  24299924.440    99504147.63345
  22387669.740   117647998.52109  22387667.220    91673752.10348
  24176222.920   127047108.20408  24176219.280    98997812.62645
  20706183.460   108811754.03309  20706178.380    84788383.04449
  21413362.840   112528215.50809  21413357.960    87684398.13948
  20561934.140   108053752.97909  20561933.340    84197739.14949
  21927711.820   115231055.76809  21927710.820    89790487.28647
 15 03 02 02 55 30.0000000  0 10G01G04G11G14G16G18G19G22G27G32
  23315915.500   122525986.38508  23315917.080    95474815.21646
  21177585.920   111289069.45009  21177583.900    86718791.93648
  22414054.520   117786673.56009  22414051.340    91781826.52447
  24287738.320   127632954.95508  24287737.720    99454245.12345
  22405675.040   117742616.27309  22405672.440    91747480.17848
  24192741.880   127133915.28308  24192738.180    99065454.51945
  20701157.720   108785344.11109  20701152.800    84767803.88249
  21422640.500   112576970.29309  21422635.660    87722388.88048
  20565225.480   108071048.71909  20565224.600    84211216.34649
  21909219.500   115133878.12809  21909218.400    89714764.52147
 15 03 02 02 56  0.0000000  0 10G01G04G11G14G16G18G19G22G27G32
  23302568.180   122455845.72708  23302569.720    95420160.21746
  21168939.060   111243629.95509  21168937.100    86683384.55748
  22400335.480   117714580.14709  22400332.380    91725649.87146
  24275583.300   127569079.73907  24275582.760    99404472.30945
  22423732.380   117837507.52809  22423729.660    91821421.38148
  24209293.180   127220892.56608  24209289.440    99133229.03045
  20696186.320   108759219.89509  20696181.580    84747447.34849
  21432000.400   112626157.21209  21431995.580    87760716.35848
  20568585.280   108088704.49309  20568584.360    84224974.08749
  21890792.300   115037042.49109  21890791.100    89639308.25447
 15 03 02 02 56 30.0000000  0 10G01G04G11G14G16G18G19G22G27G32
  23289253.980   122385879.24108  23289255.480    95365640.91646
  21160344.500   111198465.32409  21160342.580    86648191.35648
  22386645.400   117642639.02409  22386642.380    91669591.86546
  24263461.080   127505377.02207  24263460.540    99354833.90845
  22441841.740   117932672.48409  22441839.020    91895575.84147
  24225877.100   127308041.30408  24225873.280    99201137.12045
  20691270.220   108733386.07209  20691265.600    84727317.09449
  21441442.820   112675777.73209  21441437.960    87799381.69848
  20572014.300   108106724.25109  20572013.420    84239015.44949
  21872431.300   114940554.74809  21872430.040    89564123.05548
 15 03 02 02 57  0.0000000  0 10G01G04G11G14G16G18G19G22G27G32
  23275972.720   122316085.72508  23275974.200    95311256.40146
  21151801.940   111153574.11209  21151800.060    86613211.19648
  22372984.200   117570849.31409  22372981.200    91613651.84846
  24251372.000   127441848.34107  24251371.440    99305331.12645
  22460002.460   118028107.42609  22459999.760    91969940.67147
  24242492.960   127395357.99908  24242489.120    99269176.08445
  20686409.440   108707842.80809  20686404.900    84707413.24849
  21450967.160   112725828.67109  21450962.240    87838382.42348
  20575512.500   108125107.56409  20575511.680    84253340.10049
  21854136.800   114844416.40209  21854135.540    89489210.11548
 15 03 02 02 57 30.0000000  0 10G01G04G11G14G16G18G19G22G27G32
  23262724.280   122246464.74508  23262725.820    95257006.34046
  21143311.280   111108955.51609  21143309.380    86578443.47548
  22359351.920   117499211.22809  22359348.900    91557829.98647
  24239316.480   127378496.22707  24239315.840    99255965.95145
  22478213.900   118123809.07609  22478211.220    92044513.33747
  24259140.240   127482840.14308  24259136.440    99337343.98545
  20681604.120   108682590.75009  20681599.600    84687736.31949
  21460573.000   112776307.74809  21460568.020    87877716.77848
  20579079.980   108143854.74009  20579079.160    84267948.28149
  21835909.160   114748629.65209  21835907.900    89414571.14747
 15 03 02 02 58  0.0000000  0 10G01G04G11G14G16G18G19G22G27G32
  23249508.860   122177017.42108  23249510.420    95202891.57646
  21134872.740   111064610.86309  21134870.860    86543889.20648
  22345748.880   117427726.26609  22345745.760    91502127.42847
  24227295.440   127315325.12507  24227294.580    99206741.78945
  22496475.880   118219776.18409  22496473.140    92119292.84647
  24275818.780   127570486.66208  24275814.960    99405639.97145
  20676854.820   108657632.71309  20676850.260    84668288.48649
  21470260.200   112827214.25109  21470255.200    87917384.18148
  20582717.060   108162967.64509  20582716.260    84282841.44049
  21817749.100   114653198.31309  21817747.860    89340209.12048
 15 03 02 02 58 30.0000000  0 10G01G04G11G14G16G18G19G22G27G32
  23236326.060   122107741.49708  23236327.660    95148910.38446
  21126485.800   111020537.60609  21126484.000    86509546.42648
  22332174.640   117356392.55209  22332171.460    91446542.73247
  24215309.020   127252335.14008  24215307.880    99157658.76645
  22514787.460   118316003.96109  22514784.660    92194275.48247
  24292527.700   127658293.40908  24292523.940    99474060.80744
  20672161.220   108632967.47309  20672156.580    84649068.82149
  21480028.020   112878544.36309  21480022.960    87957381.67548
  20586423.440   108182444.80609  20586422.680    84298018.44849
  21799656.760   114558122.81809  21799655.520    89266124.38248
 15 03 02 02 59  0.0000000  0 10G01G04G11G14G16G18G19G22G27G32
  23223176.480   122038640.34508  23223178.100    95095065.38447
  21118151.160   110976738.94209  21118149.420    86475417.61248
  22318629.940   117285214.12909  22318626.720    91391079.04647
  24203358.320   127189532.72408  24203356.880    99108721.88045
  22533148.660   118412492.34009  22533145.780    92269461.18747
  24309267.340   127746261.68108  24309263.560    99542607.49844
  20667524.220   108608599.56709  20667519.520    84630080.83649
  21489876.720   112930299.58109  21489871.680    87997710.41448
  20590199.920   108202290.25909  20590199.200    84313482.43149
  21781633.260   114463409.22809  21781632.020    89192321.63448
 15 03 02 02 59 30.0000000  0 10G01G04G11G14G16G18G19G22G27G32
  23210059.020   121969707.84308  23210060.660    95041351.79346
  21109867.580   110933208.60909  21109865.960    86441497.89448
  22305113.660   117214185.42709  22305110.440    91335732.02547
  24191442.700   127126914.94307  24191441.060    99059928.88445
  22551557.900   118509233.08609  22551554.980    92344843.55047
  24326036.180   127834383.46808  24326032.540    99611273.84644
  20662942.900   108584524.46509  20662938.220    84611321.02449
  21499804.800   112982471.72309  21499799.740    88038364.03748
  20594045.460   108222498.60009  20594044.780    84329229.18449
  21763677.980   114369054.02609  21763676.720    89118798.16548
 15 03 02 03 00  0.0000000  0 10G01G04G11G14G16G18G19G22G27G32
  23196975.280   121900952.58008  23196976.880    94987776.30246
  21101636.760   110889955.34509  21101635.200    86407794.06848
  22291627.560   117143315.58809  22291624.380    91280508.79047
  24179564.300   127064493.13007  24179562.480    99011288.57845
  22570016.240   118606232.06509  22570013.340    92420427.12147
  24342835.520   127922665.17908  24342831.940    99680064.79045
  20658419.260   108560751.95909  20658414.480    84592796.98849
  21509813.440   113035067.38409  21509808.340    88079347.66748
  20597961.840   108243079.22409  20597961.200    84345266.02849
  21745793.060   114275068.47609  21745791.760    89045562.72948
 15 03 02 03 00 30.0000000  0 10G01G04G11G14G16G18G19G22G27G32
  23183924.020   121832367.71408  23183925.500    94934333.60146
  21093457.280   110846971.73209  21093455.720    86374300.36948
  22278170.420   117072598.08409  22278167.240    91225404.25847
  24167722.280   127002263.11607  24167720.440    98962797.73744
  22588521.940   118703479.96009  22588519.080    92496204.64847
  24359663.620   128011097.79308  24359660.160    99748973.33344
  20653952.160   108537276.57509  20653947.280    84574504.48149
  21519901.100   113088078.06109  21519895.940    88120654.69048
  20601947.860   108264025.95509  20601947.280    84361588.15249
  21727977.700   114181448.41909  21727976.360    88972612.08648
 15 03 02 03 01  0.0000000  0 10G01G04G11G14G16G18G19G22G27G32
  23170905.620   121763955.09508  23170906.900    94881025.11646
  21085329.520   110804259.81009  21085327.900    86341018.36848
  22264742.700   117002035.25509  22264739.520    91170420.25347
  24155917.680   126940229.96008  24155915.800    98914460.28145
  22607074.700   118800975.45809  22607071.980    92572175.11347
  24376520.460   128099681.19808  24376516.960    99817999.36344
  20649542.080   108514101.27509  20649537.200    84556445.80549
  21530067.760   113141503.89409  21530062.560    88162285.20948
  20606004.040   108285341.37009  20606003.460    84378197.56049
  21710232.760   114088198.28409  21710231.400    88899949.70148
 15 03 02 03 01 30.0000000  0 10G01G04G11G14G16G18G19G22G27G32
  23157919.940   121695714.21908  23157921.000    94827850.45246
  21077253.240   110761818.65109  21077251.540    86307947.36448
  22251344.460   116931627.39409  22251341.320    91115557.00547
  24144151.040   126878395.81008  24144149.020    98866277.88645
  22625674.000   118898715.70809  22625671.420    92648336.29547
  24393405.500   128188412.94008  24393401.840    99887141.00044
  20645189.320   108491227.19609  20645184.440    84538621.84849
  21540312.820   113195341.80909  21540307.560    88204236.83948
  20610130.420   108307025.62709  20610129.840    84395094.39049
  21692558.620   113995320.19409  21692557.220    88827577.22048
 15 03 02 03 02  0.0000000  0 10G01G04G11G14G16G18G19G22G27G32
  23144967.480   121627648.14608  23144968.320    94774811.99147
  21069229.060   110719651.28809  21069227.280    86275089.70148
  22237976.380   116861377.89009  22237973.260    91060817.14747
  24132423.480   126816766.62808  24132421.340    98818255.20845
  22644319.940   118996700.70709  22644317.440    92724688.19447
  24410318.960   128277293.97708  24410315.320    99956398.96544
  20640894.720   108468658.69509  20640889.820    84521036.00249
  21550636.560   113249593.49209  21550631.320    88246510.88248
  20614327.620   108329082.60109  20614327.120    84412281.63449
  21674956.420   113902819.95609  21674955.000    88755499.16848
 15 03 02 03 02 30.0000000  0 10G01G04G11G14G16G18G19G22G27G32
  23132047.600   121559753.22208  23132048.320    94721906.89047
  21061256.220   110677753.85209  21061254.380    86242442.36248
  22224637.860   116791283.83609  22224634.840    91006198.42447
  24120734.980   126755342.18408  24120732.560    98770392.05045
  22663011.340   119094924.75909  22663009.000    92801226.34447
  24427259.780   128366318.62107  24427256.220   100025768.81045
  20636657.760   108446393.34309  20636652.880    84503686.37649
  21561038.020   113304253.62209  21561032.820    88289103.19248
  20618595.200   108351509.24509  20618594.760    84429756.93549
  21657425.920   113810696.36509  21657424.500    88683714.60548
 15 03 02 03 03  0.0000000  0 10G01G04G11G14G16G18G19G22G27G32
  23119160.640   121492031.56408  23119161.300    94669136.80146
  21053335.140   110636128.49209  21053333.280    86210007.03448
  22211329.320   116721347.48009  22211326.420    90951702.57247
  24109086.340   126694127.19508  24109083.720    98722692.11645
  22681748.120   119193386.87609  22681745.780    92877950.01347
  24444227.940   128455486.98507  24444224.360   100095250.64244
  20632479.140   108424434.68909  20632474.260    84486575.73049
  21571517.160   113359322.24809  21571512.020    88332013.80948
  20622933.740   108374308.41409  20622933.300    84447522.51149
  21639968.060   113718954.33709  21639966.580    88612227.35148
 15 03 02 03 03 30.0000000  0 10G01G04G11G14G16G18G19G22G27G32
  23106306.180   121424481.08908  23106306.840    94616500.10447
  21045465.400   110594772.91309  21045463.480    86177781.91948
  22198050.520   116651567.45909  22198047.740    90897328.54047
  24097477.660   126633122.40608  24097474.920    98675155.96145
  22700529.240   119292082.10709  22700526.940    92954855.32047
  24461222.760   128544795.36707  24461219.320   100164841.58544
  20628358.740   108402781.99009  20628353.860    84469703.49149
  21582073.260   113414795.15109  21582068.200    88375239.44048
  20627342.920   108397478.67909  20627342.480    84465577.25349
  21622582.860   113627594.25509  21622581.280    88541037.71248
 15 03 02 03 04  0.0000000  0 10G01G04G11G14G16G18G19G22G27G32
  23093484.380   121357102.55808  23093485.080    94563997.37647
  21037647.140   110553687.78209  21037645.160    86145767.54848
  22184801.840   116581945.68809  22184799.140    90843077.83647
  24085909.540   126572331.54808  24085906.800    98627786.49345
  22719354.540   119391009.37509  22719352.220    93031941.44347
  24478243.900   128634241.84608  24478240.500   100234540.14044
  20624296.920   108381437.26309  20624292.080    84453071.24049
  21592706.160   113470671.34709  21592701.080    88418779.33048
  20631822.980   108421021.55109  20631822.540    84483922.33849
  21605270.980   113536619.54309  21605269.260    88470148.37148
 15 03 02 03 04 30.0000000  0 10G01G04G11G14G16G18G19G22G27G32
  23080695.640   121289898.19608  23080696.440    94511630.38347
  21029880.700   110512875.01209  21029878.720    86113965.40148
  22171583.780   116512484.38209  22171581.040    90788952.16447
  24074383.040   126511759.61308  24074380.340    98580587.62345
  22738223.780   119490167.77109  22738221.500    93109207.66247
  24495291.440   128723826.88708  24495288.000   100304346.66144
  20620294.420   108360404.11009  20620289.600    84436681.76849
  21603415.820   113526950.76909  21603410.720    88462633.42448
  20636374.520   108444939.82709  20636374.040    84502559.94949
  21588033.300   113446034.99409  21588031.540    88399563.05848
 15 03 02 03 05  0.0000000  0 10G01G04G11G14G16G18G19G22G27G32
  23067939.460   121222865.00008  23067940.360    94459396.75547
  21022165.520   110472331.75609  21022163.600    86082373.26648
  22158395.840   116443181.07509  22158393.000    90734949.60747
  24062898.100   126451406.71108  24062895.520    98533559.45145
  22757135.740   119589550.92309  22757133.480    93186649.01247
  24512364.480   128813546.05008  24512360.900   100374257.69945
  20616350.860   108339680.67009  20616346.060    84420533.62949
  21614201.400   113583628.93609  21614196.260    88506798.23148
  20640997.000   108469231.20209  20640996.540    84521488.28349
  21570869.740   113355840.21709  21570867.960    88329281.46248
 15 03 02 03 05 30.0000000  0 10G01G04G11G14G16G18G19G22G27G32
  23055216.100   121156004.08508  23055217.120    94407297.38847
  21014501.740   110432058.70409  21014499.880    86050991.68048
  22145238.340   116374037.68809  22145235.420    90681071.66147
  24051455.620   126391277.13408  24051453.200    98486705.26845
  22776090.280   119689157.76909  22776088.020    93264264.67447
  24529462.760   128903397.81508  24529459.220   100444272.05845
  20612466.780   108319269.89909  20612462.020    84404629.13149
  21625062.640   113640705.03809  21625057.560    88551273.11348
  20645690.800   108493897.44809  20645690.400    84540708.73049
  21553781.000   113266038.80209  21553779.240    88259306.38348
 15 03 02 03 06  0.0000000  0 10G01G04G11G14G16G18G19G22G27G32
  23042525.640   121089315.60408  23042526.700    94355332.39147
  21006889.380   110392056.07609  21006887.620    86019820.81548
  22132111.400   116305055.00009  22132108.420    90627318.94047
  24040056.180   126331373.51108  24040053.880    98440027.17545
  22795086.840   119788985.23909  22795084.580    93342052.25047
  24546585.960   128993380.57108  24546582.360   100514388.48444
  20608642.460   108299172.96009  20608637.720    84388969.17749
  21635999.180   113698176.92509  21635994.160    88596056.41248
  20650456.100   108518939.38409  20650455.700    84560221.92349
  21536767.660   113176633.57009  21536765.900    88189640.01148
 15 03 02 03 06 30.0000000  0 10G01G04G11G14G16G18G19G22G27G32
  23029867.720   121022798.09908  23029868.900    94303500.59947
  20999328.180   110352322.18509  20999326.540    85988859.36248
  22119014.820   116236231.85309  22119011.780    90573690.53647
  24028700.000   126271697.01808  24028697.620    98393526.05145
  22814124.880   119889030.51809  22814122.620    93420009.54047
  24563733.420   129083491.03908  24563729.860   100584604.43644
  20604877.820   108279389.56709  20604873.040    84373553.55149
  21647010.420   113756041.46609  21647005.460    88641145.66748
  20655292.740   108544356.26909  20655292.400    84580027.28849
  21519829.920   113087625.65009  21519828.220    88120283.23648
 15 03 02 03 07  0.0000000  0 10G01G04G11G14G16G18G19G22G27G32
  23017242.580   120956452.48008  23017243.800    94251802.74347
  20991818.340   110312857.76809  20991816.720    85958107.88448
  22105948.840   116167569.83809  22105945.760    90520187.67847
  24017387.840   126212252.00908  24017385.560    98347205.30245
  22833204.040   119989291.57909  22833201.720    93498134.97147
  24580905.000   129173728.14408  24580901.520   100654919.06344
  20601173.280   108259922.18009  20601168.500    84358384.16349
  21658096.200   113814297.62009  21658091.260    88686540.07348
  20660201.020   108570149.50709  20660200.700    84600125.91349
  21502968.440   112999018.40809  21502966.800    88051238.67248
 15 03 02 03 07 30.0000000  0 10G01G04G11G14G16G18G19G22G27G32
  23004650.360   120890280.05608  23004651.620    94200239.85647
  20984360.100   110273664.03709  20984358.420    85927567.33548
  22092913.980   116099071.27809  22092910.820    90466812.19747
  24006120.480   126153042.69708  24006118.420    98301068.22545
  22852323.900   120089766.38609  22852321.540    93576426.95847
  24598100.480   129264091.04008  24598096.960   100725331.70744
  20597529.420   108240773.57209  20597524.620    84343463.17349
  21669256.280   113872944.66409  21669251.420    88732239.07248
  20665181.320   108596321.15809  20665181.020    84620519.40349
  21486183.960   112910815.80709  21486182.340    87982509.41648
 15 03 02 03 08  0.0000000  0 10G01G04G11G14G16G18G19G22G27G32
  22992090.660   120824278.69508  22992091.980    94148810.26147
  20976952.940   110234738.74409  20976951.180    85897235.95448
  22079909.840   116030734.26409  22079906.660    90413562.59447
  23994898.060   126094069.64808  23994896.260    98255115.24945
  22871483.420   120190449.97709  22871481.080    93654881.63247
  24615319.180   129354575.81208  24615315.680   100795839.30544
  20593946.020   108221942.84609  20593941.220    84328789.87649
  21680489.940   113931978.29509  21680485.180    88778239.29848
  20670233.360   108622869.66009  20670233.060    84641206.53349
  21469476.520   112823018.20309  21469474.960    87914095.73548
 15 03 02 03 08 30.0000000  0 10G01G04G11G14G16G18G19G22G27G32
  22979563.520   120758448.21908  22979564.780    94097513.83347
  20969596.780   110196081.56009  20969594.900    85867113.48448
  22066936.560   115962559.27209  22066933.400    90360439.23847
  23983721.120   126035335.66208  23983719.500    98209348.54545
  22890682.240   120291340.20509  22890679.980    93733497.32047
  24632560.620   129445180.31108  24632557.260   100866440.23444
  20590423.380   108203431.22409  20590418.560    84314365.23649
  21691796.900   113991396.74509  21691792.160    88824539.39148
  20675357.180   108649795.46109  20675356.860    84662187.66649
  21452846.580   112735627.89009  21452845.100    87845999.42548
 15 03 02 03 09  0.0000000  0 10G01G04G11G14G16G18G19G22G27G32
  22967069.300   120692791.03608  22967070.520    94046352.42347
  20962292.040   110157694.77109  20962290.060    85837201.71748
  22053994.680   115894549.39109  22053991.560    90307444.54847
  23972590.660   125976846.04308  23972589.300    98163772.28445
  22909920.220   120392436.24909  22909918.020    93812273.37847
  24649824.900   129535904.97507  24649821.640   100937134.78244
  20586962.220   108185242.67709  20586957.340    84300192.34249
  21703177.240   114051200.35409  21703172.380    88871139.60648
  20680553.380   108677101.61609  20680553.060    84683465.18449
  21436295.160   112648649.94309  21436293.680    87778224.44848
 15 03 02 03 09 30.0000000  0 10G01G04G11G14G16G18G19G22G27G32
  22954607.640   120627304.76508  22954608.800    93995324.19347
  20955038.260   110119575.78409  20955036.220    85807498.61448
  22041083.980   115826703.11609  22041080.860    90254577.33947
  23961506.840   125918601.37107  23961505.760    98118386.88745
  22929196.380   120493733.14808  22929194.300    93891205.94547
  24667111.200   129626745.54207  24667108.000   101007919.65143
  20583562.240   108167375.74809  20583557.340    84286270.05749
  21714630.100   114111384.77809  21714625.080    88918036.56048
  20685821.640   108704786.28509  20685821.280    84705037.64149
  21419822.240   112562084.35609  21419820.780    87710770.79348
 15 03 02 03 10  0.0000000  0 10G01G04G11G14G16G18G19G22G27G32
  22942178.380   120561988.87308  22942179.560    93944428.72547
  20947835.300   110081724.09209  20947833.220    85778003.79348
  22028204.360   115759020.15609  22028201.220    90201837.39147
  23950470.240   125860604.13808  23950469.180    98073194.27045
  22948510.160   120595227.91009  22948508.200    93970292.67647
  24684419.140   129717699.46407  24684415.840   101078792.83344
  20580223.600   108149831.22609  20580218.740    84272598.99549
  21726154.860   114171947.46909  21726149.820    88965228.26748
  20691161.900   108732849.54409  20691161.500    84726905.10549
  21403428.200   112475933.17609  21403426.720    87643640.04048
 15 03 02 03 10 30.0000000  0 10G01G04G11G14G16G18G19G22G27G32
  22929781.360   120496842.32408  22929782.580    93893665.23047
  20940683.000   110044138.57809  20940680.860    85748716.39048
  22015355.780   115691500.27809  22015352.640    90149224.51647
  23939481.060   125802855.81708  23939479.980    98028195.63645
  22967860.880   120696916.63509  22967859.000    94049530.56647
  24701748.100   129808763.67707  24701744.820   101149751.95244
  20576946.380   108132609.52909  20576941.580    84259179.49349
  21737751.000   114232885.43909  21737745.980    89012712.40148
  20696574.100   108761290.95709  20696573.680    84749067.24149
  21387113.300   112390197.71909  21387111.760    87576833.23348
 15 03 02 03 11  0.0000000  0 10G01G04G11G14G16G18G19G22G27G32
  22917417.260   120431868.70608  22917418.540    93843036.47947
  20933582.000   110006822.52909  20933579.760    85719638.95648
  22002539.020   115624147.71609  22002535.920    90096742.02247
  23928540.640   125745363.08908  23928539.440    97983396.13645
  22987248.700   120798800.07009  22987246.840    94128920.16747
  24719098.400   129899940.26307  24719094.940   101220798.63244
  20573731.600   108115715.82509  20573726.820    84246015.56649
  21749418.800   114294200.38109  21749413.820    89060490.27848
  20702059.020   108790114.72109  20702058.620    84771527.30949
  21370878.640   112304884.15709  21370877.140    87510355.17048
 15 03 02 03 11 30.0000000  0 10G01G04G11G14G16G18G19G22G27G32
  22905085.520   120367065.03508  22905086.800    93792540.14747
  20926531.680   109969772.87109  20926529.380    85690769.10848
  21989753.640   115556960.20309  21989750.600    90044388.13747
  23917648.800   125688125.75508  23917647.480    97938795.65945
  23006672.620   120900873.04109  23006670.760    94208457.45347
  24736469.200   129991224.28607  24736465.600   101291929.03844
  20570578.920   108099148.59209  20570574.180    84233106.03049
  21761157.320   114355887.17909  21761152.480    89108557.91148
  20707616.260   108819318.42209  20707615.800    84794283.42749
  21354724.160   112219992.00509  21354722.700    87444205.47248
 15 03 02 03 12  0.0000000  0 10G01G04G11G14G16G18G19G22G27G32
  22892786.520   120302433.79008  22892787.860    93742178.18947
  20919532.480   109932992.03509  20919530.200    85662108.73348
  21977000.280   115489940.97609  21976997.260    89992165.37447
  23906806.540   125631149.43008  23906805.160    97894398.58145
  23026132.540   121003134.99308  23026130.620    94288142.01147
  24753860.540   130082616.25807  24753856.920   101363143.55144
  20567489.060   108082911.27909  20567484.340    84220453.57649
  21772966.660   114417946.22109  21772961.940    89156915.61248
  20713246.320   108848905.07309  20713245.860    84817337.95749
  21338650.740   112135526.08009  21338649.380    87378387.91548
 15 03 02 03 12 30.0000000  0 10G01G04G11G14G16G18G19G22G27G32
  22880519.600   120237971.14808  22880520.940    93691947.59847
  20912583.700   109896476.13309  20912581.480    85633654.79648
  21964278.260   115423086.60309  21964275.300    89940071.07247
  23896013.740   125574432.92608  23896012.360    97850203.95145
  23045627.180   121105579.55808  23045625.220    94367968.84146
  24771271.380   130174110.58207  24771267.620   101434437.82644
  20564461.540   108067001.50409  20564456.820    84208056.34149
  21784845.760   114480371.70509  21784841.060    89205558.84248
  20718948.660   108878871.38509  20718948.180    84840688.31549
  21322658.140   112051485.01209  21322656.860    87312901.40248
 15 03 02 03 13  0.0000000  0 10G01G04G11G14G16G18G19G22G27G32
  22868285.300   120173680.02408  22868286.640    93641850.64947
  20905685.840   109860227.83709  20905683.720    85605409.38848
  21951588.260   115356400.64709  21951585.300    89888108.01247
  23885271.500   125517982.28908  23885270.180    97806216.49145
  23065156.640   121208207.23209  23065154.600    94447938.36746
  24788701.820   130265708.04208  24788698.160   101505812.46744
  20561497.160   108051423.67709  20561492.460    84195917.77249
  21796794.860   114543164.78809  21796790.160    89254488.52048
  20724723.980   108909220.92509  20724723.460    84864337.29749
  21306747.460   111967874.33209  21306746.220    87247750.26148
 15 03 02 03 13 30.0000000  0 10G01G04G11G14G16G18G19G22G27G32
  22856083.540   120109559.69708  22856084.840    93591886.78947
  20898838.720   109824246.23009  20898836.700    85577371.78548
  21938930.340   115289883.14409  21938927.380    89836276.21047
  23874580.200   125461799.21808  23874578.800    97762437.51345
  23084720.320   121311014.51809  23084718.280    94528047.84847
  24806151.400   130357406.06208  24806147.760   101577265.46244
  20558595.980   108036178.13509  20558591.320    84184038.12349
  21808813.460   114606322.81609  21808808.680    89303702.55948
  20730572.220   108939953.36609  20730571.620    84888284.64149
  21290919.040   111884695.53409  21290917.760    87182935.63948
 15 03 02 03 14  0.0000000  0 10G01G04G11G14G16G18G19G22G27G32
  22843914.260   120045609.47908  22843915.440    93542055.49947
  20892042.220   109788530.52409  20892040.280    85549541.38148
  21926304.600   115223534.49609  21926301.600    89784575.98347
  23863940.380   125405886.38408  23863938.740    97718869.12045
  23104317.480   121413997.95208  23104315.460    94608294.59447
  24823619.640   130449202.07308  24823615.900   101648794.82145
  20555758.200   108021265.75309  20555753.580    84172418.09349
  21820901.000   114669842.84409  21820896.080    89353198.69748
  20736493.360   108971068.63909  20736492.700    84912530.30849
  21275173.260   111801950.47809  21275171.860    87118459.00848
 15 03 02 03 14 30.0000000  0 10G01G04G11G14G16G18G19G22G27G32
  22831777.420   119981829.42608  22831778.500    93492356.79747
  20885296.380   109753080.68009  20885294.460    85521918.14848
  21913711.080   115157354.86209  21913707.940    89733007.45847
  23853352.540   125350246.38408  23853350.760    97675513.30945
  23123947.620   121517154.53008  23123945.640    94688676.25747
  24841106.240   130541094.48108  24841102.400   101720399.29544
  20552984.120   108006688.17409  20552979.540    84161058.94349
  21833057.060   114733722.77709  21833051.960    89402975.27448
  20742487.480   109002567.29809  20742486.740    84937074.72049
  21259510.480   111719641.49609  21259509.000    87054322.17148
 15 03 02 03 15  0.0000000  0 10G01G04G11G14G16G18G19G22G27G32
  22819672.840   119918218.95808  22819673.840    93442790.21547
  20878601.040   109717896.09709  20878598.980    85494501.59648
  21901149.820   115091344.50409  21901146.500    89681570.82747
  23842817.200   125294881.57908  23842815.080    97632371.92345
  23143610.120   121620481.62308  23143608.220    94769190.77846
  24858610.720   130633080.99207  24858606.840   101792077.09244
  20550273.940   107992446.10909  20550269.320    84149961.22549
  21845281.140   114797960.28809  21845275.840    89453030.47448
  20748554.540   109034449.31109  20748553.800    84961917.83949
  21243931.020   111637770.58709  21243929.440    86990526.69348
 15 03 02 03 15 30.0000000  0 10G01G04G11G14G16G18G19G22G27G32
  22807600.860   119854779.86308  22807601.820    93393357.17447
  20871956.500   109682978.43309  20871954.240    85467293.03148
  21888621.320   115025506.15109  21888617.820    89630268.22347
  23832335.100   125239796.62108  23832332.640    97589448.61245
  23163304.780   121723977.77308  23163303.020    94849837.02247
  24876133.060   130725161.49507  24876129.080   101863828.11045
  20547628.220   107978542.37009  20547623.500    84139127.14149
  21857573.220   114862555.26309  21857567.740    89503364.21448
  20754694.960   109066716.94009  20754694.220    84987061.43649
  21228435.640   111556341.83109  21228434.040    86927075.74948
 15 03 02 03 16  0.0000000  0 10G01G04G11G14G16G18G19G22G27G32
  22795561.200   119791510.99608  22795562.180    93344056.79847
  20865362.460   109648326.17009  20865360.000    85440291.28448
  21876125.420   114959839.26209  21876121.820    89579099.23347
  23821906.500   125184993.25608  23821903.740    97546744.74345
  23183031.000   121827639.74008  23183029.360    94930612.49347
  24893672.580   130817332.70407  24893668.660   101935649.84444
  20545046.960   107964977.26109  20545042.140    84128556.93449
  21869932.660   114927504.24609  21869927.080    89553973.82048
  20760908.580   109099369.48309  20760907.880    85012504.97649
  21213024.580   111475356.29009  21213022.980    86863970.17248
 15 03 02 03 16 30.0000000  0 10G01G04G11G14G16G18G19G22G27G32
  22783553.960   119728412.63708  22783554.940    93294889.27647
  20858819.000   109613939.78709  20858816.440    85413496.71548
  21863662.280   114894344.92009  21863658.680    89528064.70147
  23811532.000   125130474.51508  23811528.980    97504262.64245
  23202788.300   121931464.93108  23202786.760    95011515.13346
  24911229.100   130909593.37307  24911225.080   102007541.25045
  20542530.460   107951752.50709  20542525.560    84118251.92949
  21882359.100   114992805.63109  21882353.500    89604858.01248
  20767195.580   109132407.77909  20767194.900    85038249.09249
  21197698.360   111394816.75509  21197696.800    86801212.12348
 15 03 02 03 17  0.0000000  0 10G01G04G11G14G16G18G19G22G27G32
  22771578.580   119665482.00308  22771579.600    93245852.44747
  20852325.500   109579816.41709  20852322.940    85386907.09848
  21851231.500   114829020.89309  21851227.960    89477162.87447
  23801211.620   125076240.64408  23801208.440    97462002.52345
  23222575.580   122035447.91608  23222574.200    95092540.71946
  24928801.800   131001938.92407  24928797.760   102079498.84443
  20540078.400   107938866.54509  20540073.400    84108210.92449
  21894851.680   115058454.80309  21894846.120    89656013.21548
  20773555.520   109165829.52309  20773554.840    85064292.00849
  21182456.960   111314722.86809  21182455.380    86738801.33248
 15 03 02 03 17 30.0000000  0  9G01G04G11G14G16G19G22G27G32
  22759636.220   119602724.68208  22759637.280    93196950.65947
  20845882.940   109545961.14509  20845880.520    85360526.37748
  21838834.320   114763873.48709  21838830.860    89426398.67847
  23790946.940   125022299.91508  23790943.720    97419970.82345
  23242393.480   122139591.52308  23242392.120    95173691.47546
  20537692.120   107926326.50409  20537687.140    84098439.45949
  21907411.020   115124455.05109  21907405.540    89707441.97948
  20779989.520   109199640.74409  20779988.920    85090638.40649
  21167301.800   111235082.39309  21167300.240    86676743.84848
 15 03 02 03 18  0.0000000  0  9G01G04G11G14G16G19G22G27G32
  22747725.540   119540133.73108  22747726.680    93148178.50847
  20839490.140   109512367.32209  20839487.820    85334349.38448
  21826469.500   114698896.41109  21826466.140    89375767.21147
  23780737.340   124968648.28608  23780734.100    97378164.37745
  23262240.160   122243885.95008  23262238.740    95254959.76146
  20535370.540   107914126.40009  20535365.560    84088932.87949
  21920035.460   115190797.48009  21920030.120    89759137.37448
  20786496.440   109233834.95809  20786495.880    85117283.24149
  21152232.020   111155890.65509  21152230.520    86615036.04248
 15 03 02 03 18 30.0000000  0 10G01G03G04G11G14G16G19G22G27G32
  22735847.080   119477712.08908  22735848.200    93099538.29847
  24640891.420   129488759.32708                                
  20833147.600   109479037.55109  20833145.360    85308378.14048
  21814137.860   114634093.61509  21814134.580    89325271.54047
  23770583.880   124915291.53808  23770580.740    97336587.72445
  23282115.760   122348332.21308  23282114.340    95336346.34946
  20533114.520   107902270.79609  20533109.600    84079694.74849
  21932725.200   115257483.03109  21932719.920    89811100.14648
  20793076.920   109268415.55109  20793076.360    85144229.15049
  21137248.700   111077153.02409  21137247.200    86553682.08048
 15 03 02 03 19  0.0000000  0 10G01G03G04G11G14G16G19G22G27G32
  22724000.560   119415458.20908  22724001.620    93051028.81447
  24620107.800   129379540.38308  24620112.980   100815243.98745
  20826855.040   109445970.17209  20826852.860    85282611.36248
  21801839.160   114569463.85009  21801835.920    89274910.70047
  23760486.800   124862230.87208  23760483.800    97295241.78146
  23302019.380   122452925.46709  23302017.920    95417847.49646
  20530923.980   107890759.39409  20530919.100    84070724.82449
  21945479.580   115324508.21309  21945474.360    89863327.56448
  20799730.700   109303381.38209  20799730.140    85171475.24649
  21122351.900   110998870.19609  21122350.440    86492682.51048
 15 03 02 03 19 30.0000000  0 10G01G03G04G11G14G16G19G22G27G32
  22712187.040   119353377.88208  22712188.000    93002654.55347
  24599342.680   129270419.52708  24599347.920   100730214.96945
  20820613.580   109413171.01309  20820611.380    85257053.58348
  21789574.800   114505014.24209  21789571.500    89224690.24347
  23750447.600   124809474.74608  23750444.780    97254133.16446
  23321951.540   122557668.54508  23321950.020    95499465.38546
  20528800.300   107879599.33309  20528795.480    84062028.67249
  21958299.260   115391876.50409  21958294.120    89915822.34048
  20806459.040   109338738.74009  20806458.420    85199026.43249
  21107543.240   110921050.20909  21107541.720    86432043.59548
 15 03 02 03 20  0.0000000  0 10G01G03G04G11G14G16G19G22G27G32
  22700404.980   119291463.16408  22700405.920    92954409.33947
  24578595.000   129161390.88908  24578600.420   100645257.88445
  20814421.660   109380632.01709  20814419.400    85231698.52848
  21777343.380   114440737.38609  21777339.960    89174604.39847
  23740465.400   124757018.19108  23740462.640    97213257.96645
  23341910.300   122662551.93508  23341908.760    95581192.60746
  20526742.240   107868784.13109  20526737.440    84053601.24049
  21971182.440   115459578.11909  21971177.300    89968576.85248
  20813260.460   109374480.06209  20813259.780    85226876.81149
  21092821.640   110843687.37209  21092820.100    86371760.89348
 15 03 02 03 20 30.0000000  0 10G01G03G04G11G14G16G19G22G27G32
  22688655.520   119229719.87608  22688656.480    92906297.71747
  24557866.300   129052462.45908  24557871.840   100560378.88145
  20808280.280   109348358.68209  20808277.980    85206550.49148
  21765146.060   114376639.66109  21765142.540    89124658.13747
  23730541.900   124704869.85508  23730539.220    97172622.92745
  23361896.220   122767578.21508  23361894.660    95663031.17746
  20524751.120   107858320.69009  20524746.340    84045447.91449
  21984129.760   115527616.82909  21984124.640    90021594.03548
  20820136.100   109410611.53709  20820135.380    85255031.20749
  21078188.580   110766789.76009  21078186.900    86311840.70448
 15 03 02 03 21  0.0000000  0 10G01G03G04G11G14G16G19G22G27G32
  22676937.780   119168143.20008  22676938.780    92858315.90547
  24537156.180   128943631.69108  24537161.780   100475575.99245
  20802188.540   109316346.33009  20802186.260    85181605.79948
  21752981.980   114312717.05509  21752978.440    89074848.32847
  23720676.660   124653027.66608  23720673.900    97132226.45346
  23381907.840   122872739.98508  23381906.400    95744975.30746
  20522826.300   107848205.72409  20522821.500    84037566.11449
  21997139.940   115595985.77809  21997134.780    90074868.53748
  20827085.160   109447128.83609  20827084.420    85283486.23749
  21063643.600   110690354.90609  21063641.820    86252281.10348
 15 03 02 03 21 30.0000000  0 10G01G03G04G11G14G16G19G22G27G32
  22665252.100   119106734.74408  22665253.120    92810465.19447
  24516465.360   128834902.38008  24516471.120   100390852.20645
  20796146.680   109284596.14409  20796144.480    85156865.40948
  21740851.620   114248972.12709  21740848.220    89025176.97047
  23710870.480   124601495.88208  23710867.660    97092071.86346
  23401945.060   122978036.13908  23401943.740    95827024.16646
  20520968.300   107838442.00209  20520963.520    84029958.02249
  22010212.900   115664684.53409  22010207.700    90128400.04048
  20834107.980   109484033.88609  20834107.260    85312243.41949
  21049187.320   110614386.45809  21049185.500    86193084.94048
 15 03 02 03 22  0.0000000  0 10G01G03G04G11G14G16G19G22G27G32
  22653598.560   119045494.89409  22653599.540    92762745.85347
  24495794.320   128726277.13408  24495800.080   100306209.58945
  20790154.840   109253108.58909  20790152.660    85132329.66248
  21728755.300   114185405.98009  21728752.020    88975644.92847
  23701123.940   124550277.61808  23701121.100    97052161.57546
  23422007.360   123083464.15908  23422006.180    95909175.76146
  20519177.460   107829031.10409  20519172.660    84022624.85849
  22023348.340   115733711.42709  22023343.060    90182187.23448
  20841204.740   109521327.46709  20841204.020    85341303.35249
  21034820.260   110538887.05909  21034818.460    86134254.26848
 15 03 02 03 22 30.0000000  0 10G01G03G04G11G14G16G19G22G27G32
  22641976.620   118984421.00909  22641977.560    92715155.83047
  24475142.920   128617755.52008  24475148.640   100221647.78845
  20784212.460   109221881.08209  20784210.300    85107996.55648
  21716692.700   114122016.80509  21716689.500    88926250.78847
  23691437.100   124499373.27208  23691434.280    97012495.89145
  23442093.720   123189018.62708  23442092.600    95991425.90246
  20517453.560   107819971.90109  20517448.720    84015565.74749
  22036545.300   115803061.58609  22036539.980    90236226.31548
  20848374.940   109559007.30709  20848374.280    85370664.26449
  21020542.320   110463856.24909  21020540.560    86075788.72648
 15 03 02 03 23  0.0000000  0 10G01G03G04G11G14G16G19G22G27G32
  22630387.220   118923517.96709  22630388.120    92667698.93547
  24454512.540   128509344.87908  24454518.300   100137172.67445
  20778320.400   109190918.04209  20778318.180    85083869.52648
  21704664.920   114058810.21109  21704661.700    88876998.90947
  23681811.460   124448790.35008  23681808.620    96973080.65246
  23462204.900   123294703.21608  23462203.820    96073777.41946
  20515797.800   107811270.47609  20515792.860    84008785.41249
  22049804.380   115872738.08809  22049798.940    90290519.69548
  20855619.600   109597078.63509  20855619.040    85400330.22449
  21006354.920   110389301.17609  21006353.180    86017693.88548
 15 03 02 03 23 30.0000000  0 10G01G03G04G11G14G16G19G22G27G32
  22618829.300   118862780.25409  22618830.120    92620370.86547
  24433902.480   128401041.52308  24433908.220   100052781.20045
  20772477.600   109160214.00509  20772475.300    85059944.30948
  21692671.020   113995781.33909  21692667.700    88827885.51447
  23672246.520   124398526.09908  23672243.660    96933913.74045
  23482339.160   123400508.79608  23482338.020    96156223.23046
  20514209.340   107802922.63409  20514204.300    84002280.59249
  22063124.080   115942733.33409  22063118.580    90345061.44648
  20862937.780   109635536.30109  20862937.300    85430297.23249
  20992257.380   110315218.32709  20992255.680    85959967.01048
 15 03 02 03 24  0.0000000  0 10G01G03G04G11G14G16G19G22G27G32
  22607303.240   118802210.41009  22607304.000    92573173.60547
  24413313.700   128292850.00108  24413319.520    99968476.82046
  20766684.500   109129771.39809  20766682.200    85036222.80548
  21680711.540   113932933.44309  21680708.100    88778913.14447
  23662743.200   124348585.85708  23662740.340    96894999.31945
  23502496.280   123506434.78008  23502495.120    96238762.86946
  20512688.900   107794932.42109  20512683.780    83996054.46049
  22076504.540   116013048.15809  22076499.060    90399852.22748
  20870330.020   109674383.14709  20870329.620    85460567.50649
  20978250.620   110241612.46109  20978248.940    85902611.82548
 15 03 02 03 24 30.0000000  0 10G01G03G04G11G14G16G19G22G27G32
  22595809.300   118741809.63709  22595810.080    92526108.07847
  24392746.900   128184773.76708  24392752.700    99884262.23246
  20760941.400   109099591.50109  20760939.120    85012705.99848
  21668786.900   113870268.61609  21668783.360    88730083.41147
  23653302.240   124298973.31408  23653299.460    96856340.22345
  23522676.080   123612479.81708  23522674.960    96321395.25546
  20511236.900   107787302.18309  20511231.760    83990108.80849
  22089945.460   116083680.88509  22089940.060    90454890.71448
  20877796.600   109713620.72109  20877796.300    85491142.22449
  20964335.220   110168486.94009  20964333.600    85845630.92048
 15 03 02 03 25  0.0000000  0 10G01G03G04G11G14G16G19G22G27G32
  22584347.000   118681575.51608  22584347.880    92479172.42847
  24372202.040   128076812.57108  24372207.760    99800137.24146
  20755247.780   109069671.46009  20755245.540    84989391.69448
  21656896.760   113807785.53809  21656893.120    88681395.31047
  23643923.720   124249688.91708  23643920.940    96817936.83245
  23542877.760   123718639.84908  23542876.640    96404117.26846
  20509853.180   107780030.88309  20509848.020    83984442.85949
  22103446.060   116154627.23509  22103440.740    90510173.58248
  20885337.140   109753246.89409  20885336.880    85522019.75149
  20950511.140   110095841.43209  20950509.540    85789024.07048
 15 03 02 03 25 30.0000000  0 10G01G03G04G11G14G16G19G22G27G32
  22572916.840   118621510.45308  22572917.900    92432368.51148
  24351680.000   127968970.99308  24351685.580    99716105.42246
  20749604.120   109040014.01609  20749601.940    84966282.00648
  21645041.760   113745487.21009  21645038.040    88632851.17147
  23634608.640   124200737.82208  23634605.840    96779793.14446
  23563101.180   123824914.16808  23563100.020    96486928.32946
  20508538.320   107773121.85609  20508533.240    83979059.19649
  22117006.460   116225887.90709  22117001.280    90565701.37248
  20892952.120   109793264.38309  20892951.900    85553202.19849
  20936779.280   110023680.41309  20936777.680    85732794.73648
 15 03 02 03 26  0.0000000  0 10G01G03G04G11G14G16G19G22G27G32
  22561517.740   118561608.36908  22561518.960    92385691.58848
  24331180.040   127861245.18908  24331185.420    99632163.78846
  20744009.220   109010612.70709  20744007.060    84943371.90748
  21633220.880   113683368.34009  21633217.140    88584446.88347
  23625356.380   124152116.93608  23625353.620    96741906.78345
  23583344.680   123931294.18708  23583343.520    96569821.74846
  20507291.500   107766570.58509  20507286.600    83973954.31349
  22130625.120   116297454.75509  22130620.080    90621467.75448
  20900640.480   109833667.45009  20900640.280    85584685.10849
  20923138.840   109951999.87409  20923137.300    85676939.81648
 15 03 02 03 26 30.0000000  0 10G01G03G04G11G14G16G19G22G27G32
  22550150.900   118501875.64508  22550152.180    92339146.63048
  24310703.780   127753643.68408  24310708.960    99548319.00046
  20738464.300   108981473.79309  20738462.140    84920666.26448
  21621435.520   113621436.14709  21621431.780    88536188.04247
  23616168.540   124103834.77708  23616165.720    96704284.35745
  23603608.900   124037782.92708  23603607.800    96652799.89346
  20506114.180   107760384.70909  20506109.480    83969134.15349
  22144302.960   116369332.05309  22144297.980    90677476.03648
  20908403.460   109874462.70609  20908403.300    85616473.60849
  20909591.480   109880808.28209  20909589.900    85621465.87948
 15 03 02 03 27  0.0000000  0 10G01G03G04G11G14G16G19G22G27G32
  22538815.620   118442308.49108  22538816.920    92292730.69947
  24290250.800   127646164.86608  24290255.900    99464569.77146
  20732968.560   108952593.37409  20732966.440    84898162.04648
  21609685.140   113559687.54609  21609681.400    88488072.24947
  23607044.980   124055890.49708  23607042.220    96666925.20745
  23623892.680   124144374.42208  23623891.660    96735858.09446
  20505005.940   107754561.54909  20505001.380    83964596.62549
  22158038.700   116441513.82809  22158033.780    90733721.57948
  20916240.460   109915646.62409  20916240.300    85648564.96249
  20896136.840   109810103.86609  20896135.260    85566371.56848
 15 03 02 03 27 30.0000000  0 10G01G03G04G11G14G16G19G22G27G32
  22527512.540   118382910.56008  22527513.860    92246446.62748
  24269822.380   127538814.62608  24269827.300    99380920.70446
  20727522.660   108923974.98109  20727520.580    84875861.99748
  21597970.580   113498127.22809  21597966.880    88440103.17647
  23597986.900   124008290.58308  23597984.220    96629834.38645
  23644196.340   124251070.24708  23644195.320    96818997.59246
  20503967.820   107749106.13109  20503963.260    83960345.64649
  22171832.680   116514001.62909  22171827.820    90790205.57248
  20924152.160   109957223.10809  20924152.040    85680962.20549
  20882776.020   109739892.21509  20882774.420    85511661.21048
 15 03 02 03 28  0.0000000  0 10G01G03G04G11G14G16G19G22G27G32
  22516241.060   118323678.47808  22516242.360    92200291.79348
  24249418.300   127431591.71808  24249422.920    99297370.82046
  20722125.940   108895615.37309  20722123.960    84853763.61648
  21586291.320   113436752.63609  21586287.720    88392278.83147
  23588994.140   123961034.17708  23588991.560    96593011.24346
  23664518.620   124357863.90608  23664517.500    96902213.34646
  20502999.300   107744016.21409  20502994.740    83956379.47949
  22185683.900   116586790.11609  22185679.060    90846923.87748
  20932138.020   109999189.06009  20932137.920    85713662.93849
  20869508.760   109670172.14009  20869507.120    85457333.91348
 15 03 02 03 28 30.0000000  0 10G01G03G04G11G14G16G19G22G27G32
  22505001.100   118264611.90008  22505002.360    92154265.90448
  24229038.760   127324497.97008  24229043.200    99213921.57746
  20716778.360   108867513.97109  20716776.480    84831866.42448
  21574647.460   113375564.22509  21574643.980    88344599.55247
  23580067.160   123914123.62908  23580064.720    96556457.59846
  23684858.900   124464752.09408  23684857.680    96985502.73146
  20502100.620   107739293.01809  20502095.940    83952699.05849
  22199591.900   116659876.90809  22199587.020    90903874.62248
  20940198.060   110041544.34609  20940197.920    85746667.04749
  20856335.340   109600945.17209  20856333.640    85403390.85548
 15 03 02 03 29  0.0000000  0 10G01G03G04G11G14G16G19G22G27G32
  22493792.880   118205712.05708  22493794.060    92108369.96048
  24208684.440   127217536.79208  24208688.700    99130575.58746
  20711480.180   108839671.89709  20711478.340    84810171.31548
  21563039.400   113314563.90509  21563036.020    88297066.85947
  23571206.740   123867562.62208  23571204.460    96520176.32745
  23705217.020   124571734.00708  23705215.760    97068865.16046
  20501272.140   107734938.79509  20501267.380    83949306.15749
  22213556.460   116733261.25309  22213551.580    90961057.23048
  20948332.480   110084290.45209  20948332.280    85779975.68749
  20843256.400   109532214.55809  20843254.580    85349834.55748
 15 03 02 03 29 30.0000000  0 10G01G03G04G11G14G16G19G22G27G32
  22482615.880   118146976.53008  22482616.940    92062602.05247
  24188355.320   127110707.94608  24188359.420    99047332.72546
  20706230.880   108812086.63209  20706229.020    84788676.32048
  21551466.880   113253750.37209  21551463.560    88249679.72847
  23562412.920   123821351.47008  23562410.740    96484167.68145
  23725591.980   124678804.76308  23725590.720    97152296.81346
  20500513.620   107730952.51909  20500508.820    83946199.97349
  22227576.780   116806938.57909  22227571.840    91018468.13848
  20956540.880   110127425.12609  20956540.560    85813587.11749
  20830271.840   109463979.80609  20830269.860    85296664.65048
 15 03 02 03 30  0.0000000  0 10G01G03G04G11G14G16G19G22G27G32
  22471470.680   118088407.96508  22471471.640    92016964.22747
  24168052.300   127004016.22708  24168056.260    98964196.66746
  20701030.880   108784760.57309  20701029.000    84767383.28548
  21539930.500   113193126.85409  21539927.260    88202440.63348
  23553686.780   123775495.45508  23553684.540    96448435.74646
  23745983.800   124785964.06408  23745982.620    97235797.44346
  20499825.680   107727337.56709  20499820.940    83943383.11949
  22241652.960   116880909.58809  22241647.920    91076107.87748
  20964823.720   110170951.20809  20964823.300    85847503.52649
  20817382.500   109396245.51809  20817380.440    85243884.70148
 15 03 02 03 30 30.0000000  0 10G01G03G04G11G14G16G19G22G27G32
  22460356.980   118030005.13709  22460357.860    91971455.54047
  24147775.560   126897462.60308  24147779.240    98881168.21146
  20695880.020   108757692.67409  20695878.100    84746291.41548
  21528430.260   113132693.12309  21528427.040    88155349.42747
  23545028.540   123729996.10208  23545026.220    96412981.73145
  23766391.700   124893207.75408  23766390.460    97319363.82746
  20499208.500   107724094.55909  20499203.840    83940856.08349
  22255784.300   116955170.63009  22255779.240    91133973.61047
  20973180.880   110214867.71809  20973180.360    85881724.16349
  20804588.480   109329012.43709  20804586.440    85191495.29748
 15 03 02 03 31  0.0000000  0 10G01G03G04G11G14G16G19G22G27G32
  22449274.460   117971766.01009  22449275.260    91926074.42247
  24127525.140   126791047.17308  24127528.640    98798247.42046
  20690777.920   108730880.75809  20690775.900    84725399.02148
  21516965.960   113072447.98609  21516962.720    88108405.17447
  23536438.320   123684853.91808  23536435.800    96377806.02645
  23786814.860   125000531.65608  23786813.600    97402992.73146
  20498661.900   107721222.46109  20498657.320    83938618.07849
  22269970.120   117029717.81209  22269965.020    91192062.32347
  20981611.880   110259172.73309  20981611.360    85916247.54749
  20791889.740   109262280.35209  20791887.760    85139496.29948
 15 03 02 03 31 30.0000000  0 10G01G03G04G11G14G16G19G22G27G32
  22438223.600   117913693.19309  22438224.360    91880822.90448
  24107301.880   126684774.68008  24107305.380    98715438.00346
  20685724.980   108704327.14009  20685722.860    84704707.90548
  21505538.260   113012394.95609  21505535.000    88061610.62447
  23527916.980   123640074.06608  23527914.320    96342912.67445
  23807253.260   125107935.94908  23807252.020    97486684.26746
  20498186.700   107718725.06909  20498182.080    83936672.06449
  22284210.520   117104551.68209  22284205.400    91250374.43047
  20990117.280   110303869.05809  20990116.860    85951075.85049
  20779287.160   109196053.77009  20779285.240    85087891.20148
 15 03 02 03 32  0.0000000  0 10G01G03G04G11G14G16G19G22G27G32
  22427204.120   117855785.14609  22427204.840    91835699.76748
  24087105.860   126578645.76508  24087109.340    98632740.46046
  20680720.940   108678030.29609  20680718.700    84684216.85848
  21494146.980   112952533.23409  21494143.640    88014965.13047
  23519464.780   123595657.61808  23519462.120    96308302.48345
  23827706.200   125215416.20708  23827704.920    97570435.00146
  20497782.800   107716602.19209  20497778.120    83935017.86349
  22298504.920   117179668.84609  22298499.740    91308907.27648
  20998696.840   110348955.30009  20998696.560    85986207.98149
  20766780.820   109130332.97509  20766778.920    85036680.21448
 15 03 02 03 32 30.0000000  0 10G01G03G04G11G14G16G19G22G27G32
  22416215.720   117798040.46709  22416216.360    91790703.93448
  24066937.400   126472661.18208  24066940.820    98550155.34046
  20675765.480   108651988.78409  20675763.200    84663924.77648
  21482792.120   112892862.65809  21482788.640    87968468.58647
  23511081.980   123551605.80608  23511079.340    96273976.43145
  23848172.880   125322968.60108  23848171.520    97654241.94646
  20497450.160   107714853.55009  20497445.360    83933655.27849
  22312852.580   117255065.66409  22312847.260    91367658.03648
  21007350.400   110394430.15109  21007350.220    86021642.92249
  20754370.840   109065118.48709  20754368.940    84985863.75248
 15 03 02 03 33  0.0000000  0 10G01G03G04G11G14G16G19G22G27G32
  22405258.740   117740461.00409  22405259.340    91745836.83248
  24046797.160   126366824.90008  24046800.540    98467685.79546
  20670858.940   108626204.37209  20670856.640    84643833.03748
  21471474.100   112833385.58409  21471470.520    87922122.82647
  23502769.340   123507922.85408  23502766.740    96239937.79545
  23868652.920   125430591.87408  23868651.660    97738104.12146
  20497189.260   107713481.98109  20497184.340    83932586.51749
  22327253.340   117330741.68009  22327247.940    91426626.35847
  21016078.300   110440295.63109  21016078.220    86057382.25249
  20742057.860   109000413.91809  20742056.020    84935444.63448
 15 03 02 03 33 30.0000000  0 10G01G03G04G11G14G16G19G22G27G32
  22394333.200   117683047.21709  22394333.840    91701098.83848
  24026685.620   126261139.54108  24026689.000    98385333.83646
  20666001.320   108600677.32709  20665999.040    84623941.84048
  21460193.160   112774103.40209  21460189.460    87875928.92448
  23494527.440   123464611.70008  23494524.900    96206188.86946
  23889146.120   125538284.35608  23889145.060    97822020.18746
  20497000.440   107712489.23909  20496995.420    83931812.94349
  22341706.980   117406695.55109  22341701.500    91485811.18248
  21024880.640   110486552.30009  21024880.640    86093426.39649
  20729842.360   108936221.65009  20729840.620    84885424.70848
 15 03 02 03 34  0.0000000  0 10G01G03G04G11G14G16G19G22G27G32
  22383438.600   117625796.22009  22383439.300    91656487.69248
  24006602.720   126155604.37708  24006606.000    98303098.89146
  20661192.160   108575404.83409  20661189.860    84604248.99448
  21448948.900   112715014.11509  21448945.100    87829885.33847
  23486356.360   123421672.26608  23486353.800    96172729.60146
  23909651.440   125646040.75608  23909650.520    97905986.07346
  20496883.300   107711873.47509  20496878.260    83931333.12349
  22356212.500   117482922.32609  22356207.000    91545208.66747
  21033756.880   110533197.35909  21033756.960    86129773.18249
  20717724.160   108872540.52309  20717722.500    84835803.07348
 15 03 02 03 34 30.0000000  0 10G01G03G04G11G14G16G19G22G27G32
  22372575.560   117568711.09809  22372576.320    91612005.80148
  23986549.440   126050224.60408  23986552.620    98220985.03046
  20656431.920   108550389.72809  20656429.620    84584756.71048
  21437742.020   112656121.59209  21437738.180    87783995.08147
  23478257.140   123379110.03708  23478254.400    96139564.25646
  23930169.020   125753861.51608  23930168.380    97990002.12546
  20496838.720   107711639.15309  20496833.680    83931150.54149
  22370770.160   117559423.04609  22370764.660    91604819.61747
  21042707.620   110580233.99909  21042707.780    86166425.10749
  20705704.220   108809375.33309  20705702.600    84786583.47148
 15 03 02 03 35  0.0000000  0 10G01G03G04G11G14G16G19G22G27G32
  22361743.760   117511790.05709  22361744.560    91567651.76448
  23966525.840   125945000.54908  23966528.960    98138992.48746
  20651720.260   108525630.16309  20651717.980    84565463.54048
  21426572.400   112597425.13509  21426568.640    87738257.58847
  23470229.720   123336925.59708  23470226.960    96106693.28645
  23950698.020   125861742.11608  23950697.540    98074064.77046
  20496866.660   107711785.67609  20496861.540    83931264.70749
  22385379.200   117636193.74609  22385373.660    91664640.93247
  21051732.600   110627660.48409  21051732.740    86203380.79149
  20693782.500   108746726.01709  20693780.860    84737765.84048
 15 03 02 03 35 30.0000000  0 10G01G03G04G11G14G16G19G22G27G32
  22350943.260   117455033.20609  22350944.040    91523425.66948
  23946532.300   125839934.47508  23946535.280    98057123.04246
  20647057.260   108501126.26909  20647055.000    84546369.60148
  21415440.240   112538925.60409  21415436.560    87692673.55647
  23462274.640   123295121.46908  23462271.840    96074118.67645
  23971237.940   125969679.93708  23971237.560    98158172.00846
  20496967.280   107712314.33009  20496962.120    83931676.64549
  22400039.200   117713232.36709  22400033.660    91724671.02847
  21060831.800   110675477.00809  21060831.920    86240640.41249
  20681959.300   108684594.48209  20681957.640    84689351.68248
 15 03 02 03 36  0.0000000  0 10G01G03G04G11G14G16G19G22G27G32
  22340174.160   117398441.11509  22340174.880    91479327.95248
  23926569.340   125735029.07708  23926572.280    97975378.77946
  20642443.040   108476878.50509  20642440.720    84527475.23848
  21404345.840   112480624.66209  21404342.320    87647244.25547
  23454392.540   123253701.10908  23454389.760    96041843.11445
  23991788.420   126077673.13408  23991788.120    98242322.39346
  20497140.960   107713226.83809  20497135.740    83932387.68049
  22414749.940   117790537.62709  22414744.400    91784908.89148
  21070005.380   110723684.17309  21070005.380    86278204.41949
  20670235.100   108622982.99809  20670233.360    84641342.75048
 15 03 02 03 36 30.0000000  0 10G01G03G04G11G14G16G19G22G27G32
  22329435.940   117342011.24308  22329436.660    91435356.64248
  23906636.880   125630283.88108  23906639.780    97893759.33046
  20637877.080   108452884.13409  20637874.720    84508778.32548
  21393288.940   112422520.43109  21393285.580    87601968.23948
  23446583.360   123212664.16408  23446580.780    96009866.29846
  24012348.480   126185716.31408  24012348.180    98326511.72046
  20497387.340   107714521.51609  20497382.100    83933396.52249
  22429510.500   117868104.74109  22429504.980    91845350.79847
  21079252.860   110772279.44109  21079252.740    86316070.84949
  20658609.680   108561890.69109  20658607.860    84593738.37148
 15 03 02 03 37  0.0000000  0 10G01G03G04G11G14G16G19G22G27G32
  22318728.660   117285744.33008  22318729.420    91391512.32548
  23886735.400   125525701.76008  23886738.420    97812266.98147
  20633359.500   108429143.83109  20633357.120    84490279.39648
  21382269.880   112364615.07109  21382266.620    87556847.19648
  23438847.820   123172013.77408  23438845.340    95978190.70246
  24032917.760   126293807.85508  24032917.480    98410738.72046
  20497706.800   107716200.46309  20497701.640    83934704.79249
  22444320.580   117945932.26309  22444315.160    91905995.62148
  21088574.320   110821263.59709  21088574.020    86354240.30749
  20647083.460   108501319.98509  20647081.620    84546540.44548
 15 03 02 03 37 30.0000000  0 10G01G03G04G11G14G16G19G22G27G32
  22308052.720   117229642.16808  22308053.500    91347796.37948
  23866865.660   125421286.64408  23866868.760    97730904.74546
  20628890.600   108405659.36909  20628888.200    84471979.82348
  21371289.120   112306910.81409  21371285.940    87511882.85048
  23431186.800   123131754.51908  23431184.280    95946819.87346
  24053496.180   126401947.33608  24053495.840    98495003.08646
  20498099.920   107718266.46709  20498094.820    83936314.66149
  22459180.180   118024020.23309  22459174.840    91966843.37947
  21097970.120   110870638.45409  21097969.680    86392714.20649
  20635657.140   108441274.27409  20635655.260    84499751.58748
 15 03 02 03 38  0.0000000  0 10G01G03G04G11G14G16G19G22G27G32
  22297407.620   117173702.11108  22297408.440    91304206.75248
  23847027.600   125317037.98308  23847030.720    97649672.20546
  20624469.840   108382428.17909  20624467.500    84453877.61548
  21360346.320   112249406.03809  21360343.160    87467073.94648
  23423600.160   123091885.88108  23423597.580    95915753.44146
  24074082.760   126510129.47808  24074082.260    98579300.67545
  20498566.460   107720718.32009  20498561.460    83938225.19649
  22474088.440   118102363.92009  22474083.100    92027890.41047
  21107439.740   110920401.36809  21107439.180    86431490.48949
  20624330.540   108381752.54209  20624328.640    84453371.04248
 15 03 02 03 38 30.0000000  0 10G01G03G04G11G14G16G19G22G27G32
  22286793.440   117117924.48408  22286794.320    91260743.69748
  23827221.720   125212958.18308  23827224.760    97568571.24847
  20620097.220   108359450.22909  20620094.940    84435972.73848
  21349441.720   112192101.98409  21349438.540    87422421.45048
  23416088.320   123052410.61208  23416085.720    95884993.51946
  24094676.980   126618351.49908  24094676.260    98663629.33246
  20499106.640   107723557.13709  20499101.740    83940437.25949
  22489045.080   118180961.67809  22489039.680    92089135.41847
  21116983.200   110970552.63009  21116982.580    86470569.38349
  20613103.980   108322756.70709  20613102.100    84407400.28848
 15 03 02 03 39  0.0000000  0 10G01G03G04G11G14G16G19G22G27G32
  22276210.200   117062309.21408  22276211.080    91217407.14148
  23807448.380   125109049.27108  23807451.340    97487603.44147
  20615772.780   108336725.48209  20615770.520    84418265.14548
  21338575.440   112134999.45209  21338572.280    87377925.97748
  23408651.720   123013330.99708  23408649.120    95854541.89346
  24115278.340   126726611.12108  24115277.440    98747987.27045
  20499720.720   107726784.10409  20499715.840    83942951.77149
  22504049.600   118259811.24409  22504044.240    92150576.63447
  21126600.500   111021092.14009  21126599.860    86509950.80149
  20601977.760   108264288.33409  20601975.920    84361840.53548
 15 03 02 03 39 30.0000000  0 10G01G03G04G11G14G16G19G22G27G32
  22265658.140   117006857.62509  22265658.960    91174198.13148
  23787708.260   125005314.68608  23787711.140    97406771.46547
  20611496.760   108314255.08209  20611494.480    84400755.74848
  21327747.980   112078100.66909  21327744.760    87333589.26948
  23401291.040   122974650.74808  23401288.520    95824401.46546
  24135886.600   126834907.37008  24135885.800    98832373.74345
  20500409.140   107730401.57109  20500404.200    83945770.57049
  22519101.840   118338911.56909  22519096.460    92212213.24347
  21136291.900   111072021.19309  21136291.260    86549635.76749
  20590952.420   108206350.35209  20590950.640    84316694.08248
 15 03 02 03 40  0.0000000  0 10G01G03G04G11G14G16G19G22G27G32
  22255136.740   116951567.09209  22255137.500    91131114.62248
  23768001.280   124901753.87308  23768003.980    97326074.87746
  20607268.700   108292036.41909  20607266.340    84383442.51348
  21316958.960   112021403.93909  21316955.700    87289410.01748
  23394006.320   122936369.73008  23394003.960    95794572.12946
  24156500.820   126943234.74508  24156500.080    98916784.45545
  20501171.540   107734407.81609  20501166.580    83948892.31749
  22534200.900   118418258.08609  22534195.580    92274041.69847
  21146056.900   111123337.06909  21146056.280    86589622.15449
  20580027.780   108148941.60109  20580026.040    84271960.01748
 15 03 02 03 40 30.0000000  0 10G01G03G04G11G14G16G19G22G27G32
  22244646.440   116896439.85709  22244647.140    91088158.35048
  23748328.120   124798371.17908  23748330.680    97245517.08747
  20603088.960   108270071.54009  20603086.540    84366327.02448
  21306209.020   111964912.50409  21306205.660    87245390.72448
  23386798.460   122898492.60108  23386796.260    95765057.50746
  24177120.840   127051592.43108  24177120.220    99001218.46245
  20502008.540   107738806.10209  20502003.500    83952319.54549
  22549346.920   118497851.35709  22549341.620    92336062.41847
  21155895.900   111175041.94909  21155895.380    86629911.65649
  20569204.620   108092065.81609  20569202.860    84227641.24448
 15 03 02 03 41  0.0000000  0 10G01G03G04G11G14G16G19G22G27G32
  22234187.140   116841475.79109  22234187.880    91045329.23048
  23728689.120   124695168.47908  23728691.580    97165099.55847
  20598957.500   108248360.32409  20598955.000    84349409.20048
  21295498.420   111908627.34609  21295494.840    87201532.16348
  23379667.900   122861021.38208  23379665.780    95735859.18146
  24197746.420   127159978.95908  24197745.880    99085675.14946
  20502920.400   107743597.72709  20502915.280    83956053.27349
  22564539.520   118577689.03009  22564534.160    92398273.59647
  21165808.900   111227135.65209  21165808.500    86670504.13949
  20558483.160   108035724.39709  20558481.420    84183738.85848
 15 03 02 03 41 30.0000000  0 10G01G03G04G11G14G16G19G22G27G32
  22223758.040   116786670.66108  22223758.820    91002623.95448
  23709084.000   124592143.68408  23709086.340    97084820.64547
  20594873.460   108226898.57009  20594870.940    84332685.76448
  21284826.440   111852545.00309  21284822.660    87157831.63848
  23372614.280   122823954.34508  23372612.180    95706975.80746
  24218376.100   127268387.13008  24218375.780    99170148.81745
  20503906.380   107748779.34209  20503901.260    83960090.88849
  22579777.400   118657764.49309  22579772.000    92460670.05147
  21175795.140   111279613.83609  21175794.780    86711396.21949
  20547862.900   107979914.57009  20547861.160    84140250.70048
 15 03 02 03 42  0.0000000  0 10G01G03G04G11G14G16G19G22G27G32
  22213360.080   116732029.33809  22213360.920    90960046.31648
  23689514.040   124489303.64608  23689516.280    97004685.68846
  20590837.720   108205690.98109  20590835.260    84316160.37448
  21274194.100   111796671.20609  21274190.160    87114293.61348
  23365638.940   122787298.41608  23365636.840    95678412.75946
  24239010.260   127376819.09808  24239010.080    99254641.08845
  20504967.660   107754356.80509  20504962.580    83964436.95249
  22595061.140   118738080.71909  22595055.720    92523254.10847
  21185855.520   111332481.18809  21185855.100    86752591.54449
  20537345.000   107924642.68509  20537343.300    84097181.71748
 15 03 02 03 42 30.0000000  0 11G01G03G04G11G14G16G19G22G27G28G32
  22202992.740   116677548.74109  22202993.580    90917593.91748
  23669979.100   124386647.38008  23669981.180    96924693.92546
  20586849.720   108184734.32809  20586847.320    84299830.52048
  21263600.980   111741003.89109  21263596.960    87070916.49247
  23358741.560   122751052.74708  23358739.540    95650169.39746
  24259647.860   127485269.25108  24259647.760    99339147.53346
  20506103.900   107760328.16009  20506098.920    83969089.94749
  22610389.720   118818632.59009  22610384.220    92586021.80247
  21195989.380   111385734.56609  21195988.860    86794087.66649
  25090918.360   131853663.83707  25090914.880   102743107.91643
  20526929.120   107869907.05309  20526927.460    84054530.60248
 15 03 02 03 43  0.0000000  0 11G01G03G04G11G14G16G19G22G27G28G32
  22192653.820   116623217.70409  22192654.680    90875258.07348
  23650477.460   124284165.79308  23650479.420    96844838.28246
  20582907.400   108164017.31809  20582905.040    84283687.40548
  21253045.080   111685532.95809  21253041.160    87027692.39948
  23351920.520   122715208.58608  23351918.640    95622238.91546
  24280286.360   127593724.35208  24280286.380    99423657.90545
  20507313.200   107766683.12909  20507308.260    83974041.86949
  22625760.620   118899407.01809  22625755.120    92648962.91347
  21206194.540   111439362.66309  21206193.980    86835875.78149
  25075380.840   131772012.86707  25075377.500   102679483.78144
  20516613.460   107815697.94909  20516611.800    84012289.76848
 15 03 02 03 43 30.0000000  0 11G01G03G04G11G14G16G19G22G27G28G32
  22182348.600   116569063.41809  22182349.420    90833059.94048
  23631014.660   124181888.09208  23631016.520    96765141.49146
  20579015.940   108143567.37309  20579013.580    84267752.38448
  21242531.880   111630286.41009  21242528.100    86984643.15148
  23345181.420   122679795.33008  23345179.680    95594644.19946
  24300930.320   127702208.53208  24300930.420    99508190.97745
  20508600.940   107773450.09609  20508596.020    83979314.82849
  22641178.600   118980429.08909  22641173.200    92712096.98647
  21216476.120   111493392.51009  21216475.560    86877976.95549
  25059899.920   131690658.24107  25059896.240   102616090.49344
  20506403.460   107762043.93709  20506401.780    83970481.46948
 15 03 02 03 44  0.0000000  0 11G01G03G04G11G14G16G19G22G27G28G32
  22172073.280   116515066.18909  22172074.000    90790984.19848
  23611587.220   124079796.64408  23611589.100    96685589.86146
  20575171.500   108123364.39209  20575169.080    84252009.80148
  21232057.880   111575245.60209  21232054.220    86941754.21848
  23338521.060   122644795.66108  23338519.440    95567371.76846
  24321575.640   127810699.80608  24321575.780    99592729.54446
  20509963.480   107780610.00109  20509958.560    83984893.97349
  22656639.560   119061676.95309  22656634.260    92775407.00847
  21226830.300   111547804.28209  21226829.820    86920375.72449
  25044471.920   131609582.75307  25044468.180   102552914.76544
  20496295.660   107708926.65809  20496293.900    83929091.39948
 15 03 02 03 44 30.0000000  0 11G01G03G04G11G14G16G19G22G27G28G32
  22161829.060   116461232.19809  22161829.620    90749035.65348
  23592196.740   123977899.63308  23592198.600    96606189.72646
  20571375.200   108103414.65409  20571372.780    84236464.55348
  21221624.400   111520417.61009  21221620.840    86899031.11548
  23331941.100   122610217.94308  23331939.480    95540428.11045
  24342222.940   127919201.66408  24342223.140    99677276.30745
  20511402.200   107788170.37309  20511397.320    83990785.17249
  22672144.320   119143154.90209  22672139.100    92838896.31247
  21237258.260   111602603.90509  21237257.880    86963076.71249
  25029098.560   131528795.18808  25029094.940   102489963.42144
  20486291.460   107656353.67609  20486289.580    83888125.45648
 15 03 02 03 45  0.0000000  0 11G01G03G04G11G14G16G19G22G27G28G32
  22151615.120   116407557.39709  22151615.600    90707211.15048
  23572842.860   123876195.04308  23572844.740    96526939.52947
  20567626.260   108083713.98309  20567623.880    84221113.37848
  21211230.920   111465799.50409  21211227.380    86856471.55248
  23325441.140   122576060.19708  23325439.340    95513811.70546
  24362870.960   128027707.48908  24362871.280    99761826.14146
  20512916.540   107796128.08109  20512911.680    83996985.97749
  22687691.680   119224856.72709  22687686.520    92902560.07047
  21247759.260   111657787.14809  21247758.940    87006076.63449
  25013779.700   131448293.72808  25013776.120   102427234.95445
  20476390.320   107604322.20609  20476388.300    83847581.47048
 15 03 02 03 45 30.0000000  0 11G01G03G04G11G14G16G19G22G27G28G32
  22141432.160   116354045.51809  22141432.640    90665513.59448
  23553526.700   123774688.60708  23553528.640    96447843.72147
  20563925.400   108064266.01909  20563923.060    84205959.11948
  21200878.220   111411395.63009  21200874.740    86814078.92348
  23319022.300   122542328.58708  23319020.420    95487527.35246
  24383520.040   128136218.56108  24383520.380    99846380.15846
  20514507.440   107804487.84909  20514502.480    84003500.07449
  22703281.900   119306784.13109  22703276.820    92966399.59747
  21258333.940   111713357.54609  21258333.640    87049378.22849
  24998516.420   131368084.59208  24998512.880   102364734.32244
  20466593.120   107552837.29409  20466591.040    83807463.37148
 15 03 02 03 46  0.0000000  0 11G01G03G04G11G14G16G19G22G27G28G32
  22131279.180   116300691.17109  22131279.640    90623938.80548
  23534247.640   123673376.96008  23534249.560    96368899.70347
  20560271.640   108045065.44109  20560269.340    84190997.64048
  21190565.500   111357201.76809  21190562.060    86771849.94848
  23312683.860   122509019.88808  23312681.920    95461572.53946
  24404168.720   128244727.52108  24404168.940    99930932.61745
  20516173.940   107813244.98509  20516168.860    84010323.81249
  22718913.580   119388929.34009  22718908.600    93030408.84947
  21268981.240   111769309.50609  21268981.000    87092977.14649
  24983308.160   131288164.81708  24983304.740   102302459.17545
  20456899.060   107501894.79909  20456897.000    83767767.93748
 15 03 02 03 46 30.0000000  0 11G01G03G04G11G14G16G19G22G27G28G32
  22121156.960   116247498.64109  22121157.440    90582490.10148
  23515006.840   123572266.41708  23515008.740    96290112.38647
  20556665.720   108026116.23009  20556663.480    84176232.02548
  21180293.740   111303223.19209  21180290.320    86729788.73448
  23306426.980   122476140.12508  23306425.000    95435951.97446
  24424817.240   128353235.70808  24424817.360   100015484.41645
  20517917.000   107822404.95809  20517911.880    84017461.44649
  22734587.220   119471294.99709  22734582.280    93094589.88347
  21279701.960   111825647.01009  21279701.780    87136876.49149
  24968156.160   131208540.85908  24968152.960   102240414.51244
  20447309.260   107451500.29309  20447307.260    83728499.51248
 15 03 02 03 47  0.0000000  0 11G01G03G04G11G14G16G19G22G27G28G32
  22111065.000   116194465.23309  22111065.540    90541165.39448
  23495804.160   123471356.23108  23495806.060    96211481.19147
  20553107.120   108007415.61609  20553104.900    84161660.12648
  21170062.600   111249458.35709  21170059.200    86687894.07148
  23300251.720   122443689.11708  23300249.780    95410665.50346
  24445464.540   128461737.94408  24445464.740   100100031.57845
  20519736.360   107831966.00909  20519731.220    84024911.61749
  22750301.900   119553876.45809  22750297.040    93158939.07147
  21290495.540   111882367.15309  21290495.340    87181073.99149
  24953060.520   131129212.72408  24953057.380   102178600.36145
  20437823.420   107401652.30409  20437821.500    83689656.94148
 15 03 02 03 47 30.0000000  0 11G01G03G04G11G14G16G19G22G27G28G32
  22101003.640   116141592.65309  22101004.220    90499966.00348
  23476640.340   123370650.18908  23476642.300    96133009.06747
  20549596.160   107988965.41509  20549593.980    84147283.35048
  21159872.560   111195909.92109  21159869.240    86646168.03648
  23294158.800   122411670.56108  23294156.780    95385716.01246
  24466110.520   128570233.25208  24466110.600   100184573.39045
  20521632.500   107841930.79909  20521627.420    84032676.38749
  22766057.500   119636673.07108  22766052.780    93223455.90647
  21301362.180   111939471.39809  21301361.980    87225570.79349
  24938021.940   131050184.49308  24938018.920   102117019.91845
  20428442.140   107352353.76209  20428440.240    83651242.51248
 15 03 02 03 48  0.0000000  0 11G01G03G04G11G14G16G19G22G27G28G32
  22090972.720   116088880.00709  22090973.380    90458891.22648
  23457515.500   123270149.23108  23457517.480    96054696.75747
  20546132.680   107970764.73609  20546130.440    84133101.00548
  21149723.640   111142577.37309  21149720.320    86604610.21248
  23288148.420   122380085.61208  23288146.180    95361104.38646
  24486754.420   128678718.22808  24486754.580   100269107.00745
  20523605.420   107852299.02409  20523600.380    84040755.51649
  22781853.500   119719681.68709  22781848.900    93288137.93547
  21312301.660   111996958.50709  21312301.520    87270365.92649
  24923040.720   130971457.71608  24923037.820   102055674.37245
  20419165.400   107303604.81609  20419163.580    83613256.33648
 15 03 02 03 48 30.0000000  0 11G01G03G04G11G14G16G19G22G27G28G32
  22080972.100   116036326.75609  22080972.900    90417940.65648
  23438429.960   123169854.92608  23438432.020    95976545.47247
  20542716.500   107952812.71509  20542714.180    84119112.42548
  21139616.040   111089461.81809  21139612.680    86563221.46848
  23282220.940   122348935.88008  23282218.500    95336831.88846
  24507395.820   128787189.90008  24507396.120   100353630.22844
  20525655.240   107863071.28209  20525650.220    84049149.48149
  22797689.540   119802900.34709  22797684.940    93352983.64647
  21323313.860   112054827.71709  21323313.720    87315458.80349
  24908117.140   130893034.18607  24908114.360   101994565.12045
  20409993.420   107255406.22209  20409991.660    83575699.00948
 15 03 02 03 49  0.0000000  0 11G01G03G04G11G14G16G19G22G27G28G32
  22071001.960   115983933.61909  22071002.840    90377114.84548
  23419384.300   123069769.87308  23419386.360    95898557.23147
  20539347.780   107935110.07709  20539345.400    84105318.16248
  21129550.020   111036564.54109  21129546.560    86522002.81348
  23276376.800   122318224.07808  23276374.240    95312900.64046
  24528034.380   128895646.45208  24528034.760   100438141.61045
  20527782.260   107874249.21009  20527777.260    84057859.54749
  22813565.240   119886327.42509  22813560.620    93417991.75047
  21334398.780   112113079.32509  21334398.680    87360849.64849
  24893251.780   130814916.61207  24893248.880   101933694.28144
  20400926.460   107207759.69109  20400924.760    83538571.85548
 15 03 02 03 49 30.0000000  0 11G01G03G04G11G14G16G19G22G27G28G32
  22061061.940   115931698.72709  22061062.900    90336412.36448
  23400378.520   122969894.20808  23400380.580    95820732.15347
  20536026.160   107917654.84409  20536023.720    84091716.68848
  21119525.400   110983884.97109  21119521.920    86480953.80348
  23270615.980   122287950.51208  23270613.380    95289310.87646
  24548669.340   129004083.81407  24548669.940   100522638.09844
  20529986.320   107885831.74709  20529981.360    84066884.90149
  22829479.840   119969958.97109  22829475.200    93483159.18447
  21345556.100   112171711.22509  21345555.980    87406536.83449
  24878444.860   130737105.89107  24878441.960   101873062.57445
  20391964.460   107160664.51209  20391962.760    83501874.33048
 15 03 02 03 50  0.0000000  0 11G01G03G04G11G14G16G19G22G27G28G32
  22051152.340   115879623.62209  22051153.340    90295834.37948
  23381413.200   122870231.40408  23381415.200    95743072.93847
  20532751.940   107900448.68809  20532749.460    84078309.30248
  21109542.700   110931425.60209  21109539.180    86440076.37548
  23264939.200   122258118.75308  23264936.520    95266065.38246
  24569300.520   129112500.99508  24569301.280   100607118.98845
  20532267.860   107897821.30709  20532262.940    84076227.41549
  22845433.300   120053794.54609  22845428.500    93548485.60647
  21356786.040   112230724.56609  21356785.860    87452521.24649
  24863697.040   130659605.56607  24863694.080   101812672.71944
  20383107.900   107114123.26709  20383106.220    83465608.44348
 15 03 02 03 50 30.0000000  0 11G01G03G04G11G14G16G19G22G27G28G32
  22041273.060   115827707.68709  22041274.000    90255380.41848
  23362488.660   122770782.81908  23362490.660    95665580.64847
  20529524.980   107883490.80709  20529522.480    84065095.37748
  21099602.020   110879186.86309  21099598.440    86399370.87448
  23259346.640   122228730.04108  23259344.000    95243165.11546
  24589927.380   129220895.03507  24589928.000   100691581.90145
  20534626.920   107910217.97809  20534622.020    84085887.15249
  22861425.120   120137831.43609  22861420.160    93613968.90847
  21368088.380   112290118.42709  21368088.160    87498802.17349
  24849008.800   130582417.96808  24849005.620   101752526.52444
  20374356.920   107068136.57209  20374355.240    83429774.67648
 15 03 02 03 51  0.0000000  0 11G01G03G04G11G14G16G19G22G27G28G32
  22031423.640   115775948.65409  22031424.460    90215048.72048
  23343604.900   122671548.13008  23343606.780    95588255.01147
  20526344.800   107866778.72209  20526342.320    84052072.97548
  21089703.060   110827167.46609  21089699.460    86358836.28248
  23253838.340   122199784.09408  23253835.720    95220609.84446
  24610548.820   129329260.91108  24610549.420   100776022.68945
  20537063.220   107923020.60009  20537058.320    84095863.22049
  22877454.440   120222065.45109  22877449.340    93679605.80447
  21379462.600   112349890.15509  21379462.360    87545377.53049
  24834380.060   130505542.79208  24834376.680   101692623.78044
  20365711.220   107022702.99909  20365709.520    83394371.90248
 15 03 02 03 51 30.0000000  0 11G01G03G04G11G14G16G19G22G27G28G32
  22021604.900   115724350.82709  22021605.540    90174842.63948
  23324763.040   122572533.50808  23324764.820    95511100.87347
  20523212.200   107850316.83509  20523209.780    84039245.54148
  21079846.860   110775372.54409  21079843.280    86318476.60648
  23248415.480   122171287.13008  23248412.880    95198404.45046
  24631165.280   129437600.57708  24631166.000   100860443.07345
  20539577.760   107936234.20309  20539572.800    84106159.53149
  22893521.580   120306498.69109  22893516.440    93745397.93847
  21390909.440   112410043.64209  21390909.220    87592250.36949
  24819812.040   130428986.87107  24819808.720   101632969.82744
  20357171.840   106977827.90709  20357170.080    83359404.31248
 15 03 02 03 52  0.0000000  0 11G01G03G04G11G14G16G19G22G27G28G32
  22011816.320   115672911.67809  22011816.820    90134760.20448
  23305962.900   122473738.38208  23305964.600    95434117.76347
  20520126.660   107834102.46009  20520124.300    84026610.96548
  21070033.080   110723800.46909  21070029.540    86278290.58048
  23243077.960   122143238.80908  23243075.500    95176548.63046
  24651775.880   129545909.03608  24651776.620   100944839.20145
  20542170.180   107949856.96809  20542165.160    84116774.67349
  22909625.700   120391126.71508  22909620.540    93811341.83847
  21402428.420   112470575.95609  21402428.180    87639418.38649
  24805304.660   130352749.85908  24805301.320   101573564.36644
  20348738.460   106933509.77309  20348736.640    83324870.72248
 15 03 02 03 52 30.0000000  0 11G01G03G04G11G14G16G19G22G27G28G32
  22002058.080   115621631.89409  22002058.520    90094801.94948
  23287204.940   122375165.32808  23287206.640    95357307.68847
  20517088.360   107818136.30409  20517086.060    84014169.80248
  21060262.020   110672452.95009  21060258.500    86238279.52248
  23237826.240   122115641.69108  23237823.960    95155044.40346
  24672380.080   129654183.98408  24672380.680   101029209.16245
  20544840.720   107963890.47509  20544835.680    84127709.86149
  22925766.620   120475948.17709  22925761.500    93877436.47247
  21414019.540   112531487.40409  21414019.240    87686881.83349
  24790858.580   130276834.76208  24790855.020   101514409.71444
  20340411.360   106889750.18909  20340409.460    83290772.36148
 15 03 02 03 53  0.0000000  0 11G01G03G04G11G14G16G19G22G27G28G32
  21992329.600   115570508.50709  21992330.060    90054965.55048
  23268489.020   122276813.29808  23268490.820    95280669.84347
  20514096.660   107802415.26109  20514094.420    84001919.64348
  21050533.320   110621328.24509  21050529.840    86198442.09548
  23232660.160   122088494.51408  23232657.920    95133890.77746
  24692976.900   129762420.71208  24692977.460   101113549.30345
  20547588.980   107978332.55509  20547583.920    84138963.43049
  22941943.400   120560958.09508  22941938.300    93943677.96447
  21425682.100   112592774.55209  21425681.800    87734638.03449
  24776473.600   130201240.70708  24776469.920   101455505.22144
  20332190.140   106846547.15809  20332188.180    83257107.67548
 15 03 02 03 53 30.0000000  0 11G01G03G04G11G14G16G19G22G27G28G32
  21982631.560   115519544.78709  21982632.040    90015253.58548
  23249816.140   122178687.40808  23249817.960    95204208.20247
  20511152.180   107786942.49209  20511150.040    83989862.95048
  21040847.720   110570430.22509  21040844.340    86158781.31248
  23227580.720   122061802.51308  23227578.500    95113091.83546
  24713566.620   129870619.94508  24713567.240   101197860.26145
  20550415.680   107993187.10509  20550410.620    84150538.40049
  22958156.240   120646157.75708  22958151.280    94010067.30547
  21437416.700   112654440.21209  21437416.340    87782689.19249
  24762150.760   130125973.52708  24762147.020   101396855.46444
  20324075.580   106803904.75209  20324073.600    83223879.83948
 15 03 02 03 54  0.0000000  0 11G01G03G04G11G14G16G19G22G27G28G32
  21972963.900   115468740.28409  21972964.280    89975665.67148
  23231186.580   122080789.18208  23231188.440    95127923.96947
  20508254.920   107771717.67909  20508252.860    83977999.45648
  21031205.360   110519759.73609  21031202.080    86119297.83048
  23222588.200   122035567.39408  23222586.000    95092648.91446
  24734148.580   129978778.34207  24734149.180   101282139.38044
  20553320.900   108008454.58409  20553315.920    84162435.13249
  22974404.720   120731544.46608  22974399.780    94076602.39947
  21449223.100   112716483.57009  21449222.740    87831034.65149
  24747890.460   130051035.21908  24747886.760   101338461.96544
  20316067.840   106761823.52909  20316065.820    83191089.28648
 15 03 02 03 54 30.0000000  0 11G01G03G04G11G14G16G19G22G27G28G32
  21963325.840   115418091.32209  21963326.120    89936198.95148
  23212600.000   121983116.75408  23212601.880    95051815.67347
  20505404.140   107756736.80609  20505402.120    83966326.04348
  21021605.740   110469314.05209  21021602.560    86079989.51148
  23217682.260   122009786.82908  23217680.020    95072560.17246
  24754721.640   130086890.21507  24754722.200   101366382.20444
  20556304.140   108024132.02609  20556299.220    84174651.31349
  22990687.760   120817112.71008  22990682.820    94143278.95147
  21461100.540   112778900.34909  21461100.160    87879671.08648
  24733692.420   129976424.27208  24733688.780   101280323.53244
  20308166.360   106720300.62509  20308164.300    83158733.78448
 15 03 02 03 55  0.0000000  0 11G01G03G04G11G14G16G19G22G27G28G32
  21953718.040   115367601.55309  21953718.260    89896856.27548
  23194057.500   121885675.66308  23194059.340    94975887.64347
  20502600.580   107742003.64109  20502598.500    83954845.64948
  21012049.860   110419098.01309  21012046.700    86040860.13248
  23212864.040   121984466.57808  23212861.680    95052830.12146
  24775285.940   130194956.47807  24775286.780   101450589.45644
  20559366.280   108040223.79309  20559361.380    84187190.34449
  23007005.620   120902864.06908  23007000.740    94210098.18547
  21473049.660   112841693.78209  21473049.240    87928601.01948
  24719557.800   129902146.46408  24719554.120   101222444.70045
  20300371.940   106679340.45309  20300369.860    83126816.77748
 15 03 02 03 55 30.0000000  0 11G01G03G04G11G14G16G19G22G27G28G32
  21944140.340   115317270.24209  21944140.560    89857637.08148
  23175559.280   121788467.01108  23175561.080    94900140.72947
  20499844.000   107727517.28709  20499841.820    83943557.58748
  21002537.760   110369111.90809  21002534.620    86001909.93248
  23208133.700   121959607.91408  23208131.240    95033459.74846
  24795840.940   130302973.80607  24795841.880   101534758.59344
  20562507.240   108056729.70909  20562502.340    84200052.09549
  23023357.780   120988795.53908  23023352.880    94277057.77447
  21485070.220   112904862.58709  21485069.840    87977823.45148
  24705486.940   129828203.33308  24705483.200   101164826.64944
  20292684.560   106638943.12209  20292682.480    83095338.36048
 15 03 02 03 56  0.0000000  0 11G01G03G04G11G14G16G19G22G27G28G32
  21934592.180   115267094.60409  21934592.440    89818539.19448
  23157105.120   121691489.72508  23157106.880    94824574.09947
  20497133.720   107713274.75609  20497131.540    83932459.51348
  20993069.080   110319353.65609  20993065.940    85963137.26248
  23203490.920   121935209.26808  23203488.320    95014447.83646
  24816385.760   130410937.38707  24816386.940   101618885.78944
  20565726.580   108073647.61609  20565721.680    84213234.87149
  23039743.320   121074902.43708  23039738.420    94344154.05747
  21497161.580   112968403.25509  21497161.200    88027335.64348
  24691479.660   129754594.25908  24691475.940   101107468.91744
  20285103.820   106599106.35609  20285101.740    83064296.74148
 15 03 02 03 56 30.0000000  0 11G01G03G04G11G14G16G19G22G27G28G32
  21925073.880   115217076.19109  21925074.220    89779563.82348
  23138695.720   121594747.54308  23138697.400    94749190.66547
  20494470.060   107699277.79109  20494468.020    83921552.79148
  20983644.360   110269826.15809  20983641.200    85924544.40948
  23198936.300   121911274.43608  23198933.580    94995797.34546
  24836920.220   130518846.05107  24836921.540   101702970.19445
  20569024.880   108090980.51509  20569020.020    84226741.02049
  23056162.280   121161185.00408  23056157.460    94411387.22347
  21509324.000   113032317.25809  21509323.600    88077138.74648
  24677536.760   129681323.37608  24677533.000   101050374.71645
  20277630.280   106559833.01109  20277628.260    83033694.14548
 15 03 02 03 57  0.0000000  0 11G01G03G04G11G14G16G19G22G27G28G32
  21915586.040   115167218.08309  21915586.520    89740713.37448
  23120331.960   121498245.17508  23120333.560    94673994.10447
  20491853.680   107685529.37509  20491851.800    83910839.74848
  20974264.300   110220533.21409  20974261.080    85886134.33248
  23194470.780   121887808.17308  23194468.000    94977511.97146
  24857444.440   130626700.70407  24857445.880   101787012.54345
  20572402.800   108108731.65409  20572397.980    84240573.07849
  23072614.720   121247643.48008  23072610.020    94478757.46247
  21521557.940   113096606.86009  21521557.520    88127234.53049
  24663659.140   129608395.94308  24663655.480   100993548.12944
  20270264.660   106521126.54609  20270262.660    83003533.27748
 15 03 02 03 57 30.0000000  0 11G01G03G04G11G14G16G19G22G27G28G32
  21906127.920   115117516.17609  21906128.560    89701984.63848
  23102013.380   121401980.35108  23102014.960    94598982.63547
  20489283.860   107672025.29009  20489282.080    83900317.09448
  20964928.360   110171472.00009  20964925.040    85847904.81748
  23190093.940   121864808.05208  23190091.180    94959589.81746
  24877957.240   130734494.86908  24877958.700   101871007.70345
  20575859.600   108126897.30509  20575854.800    84254728.12949
  23089099.460   121334271.81808  23089094.780    94546260.06147
  21533862.480   113161267.45709  21533862.100    88177619.39449
  24649846.440   129535810.26108  24649842.860   100936987.87845
  20263006.300   106482983.64309  20263004.260    82973811.54748
