     2.11           OBSERVATION DATA    G                   RINEX VERSION / TYPE
SPIDER V4,0,0,3554                      2015 03 17 00:00    PGM / RUN BY / DATE 
ABZH                                                        MARKER NAME         
ABZH                                                        MARKER NUMBER       
                                                            OBSERVER / AGENCY   
462405              LEICA GRX1200PRO    8.20/2.127          REC # / TYPE / VERS 
103261              LEIAT504                                ANT # / TYPE        
  5106694.6829   270584.9059  3799508.1083                  APPROX POSITION XYZ 
        0.0770        0.0000        0.0000                  ANTENNA: DELTA H/E/N
     1     1                                                WAVELENGTH FACT L1/2
     4    C1    L1    P2    L2                              # / TYPES OF OBSERV 
    30.000                                                  INTERVAL            
  2015    02    24    00    00    0.0000000     GPS         TIME OF FIRST OBS   
  2015    02    24    23    59   30.0000000     GPS         TIME OF LAST OBS    
    16                                                      LEAP SECONDS        
    30                                                      # OF SATELLITES     
   G 1   819   819   819   819                              PRN / # OF OBS      
   G 2   920   920   916   916                              PRN / # OF OBS      
   G 3   832   832   832   832                              PRN / # OF OBS      
   G 4   833   833   833   833                              PRN / # OF OBS      
   G 5   662   662   662   662                              PRN / # OF OBS      
   G 6   787   787   787   787                              PRN / # OF OBS      
   G 7   662   662   662   662                              PRN / # OF OBS      
   G 9   783   783   783   783                              PRN / # OF OBS      
   G10   769   769   769   769                              PRN / # OF OBS      
   G11   784   784   784   784                              PRN / # OF OBS      
   G12   810   810   810   810                              PRN / # OF OBS      
   G13   807   807   807   807                              PRN / # OF OBS      
   G14   915   915   906   906                              PRN / # OF OBS      
   G15   720   720   720   720                              PRN / # OF OBS      
   G16   681   681   678   678                              PRN / # OF OBS      
   G17   925   925   923   923                              PRN / # OF OBS      
   G18   913   913   913   913                              PRN / # OF OBS      
   G19   768   768   768   768                              PRN / # OF OBS      
   G20   794   794   794   794                              PRN / # OF OBS      
   G21   705   705   705   705                              PRN / # OF OBS      
   G22   753   753   752   752                              PRN / # OF OBS      
   G23   732   732   732   732                              PRN / # OF OBS      
   G24   827   827   827   827                              PRN / # OF OBS      
   G25   838   838   838   838                              PRN / # OF OBS      
   G27   816   816   816   816                              PRN / # OF OBS      
   G28   879   879   879   879                              PRN / # OF OBS      
   G29   746   746   746   746                              PRN / # OF OBS      
   G30   697   697   697   697                              PRN / # OF OBS      
   G31   823   823   822   822                              PRN / # OF OBS      
   G32   746   746   746   746                              PRN / # OF OBS      
BIT 2 OF LLI FLAGS DATA COLLECTED UNDER A/S CONDITION       COMMENT             
SNR is mapped to RINEX snr flag value [2-9]                 COMMENT             
Lx:     = 25dBHz -> 1; 26-27dBHz -> 2; 28-31dBHz -> 3       COMMENT             
       32-35dBHz -> 4; 36-38dBHz -> 5; 39-41dBHz -> 6       COMMENT             
       42-44dBHz -> 7; 45-48dBHz -> 8; >=49dBHz -> 9        COMMENT             
                                                            END OF HEADER       
 15 02 24 00 00  0.0000000  0  7G16G18G21G25G27G29G31
  21978898.420   115499914.14508  21978897.580    89999937.47746
  23148543.860   121646419.79707  23148543.760    94789416.60744
  21116434.820   110967622.39108  21116433.800    86468276.64548
  24627726.480   129419556.50906  24627729.580   100846415.55243
  23136083.020   121580953.46408  23136085.420    94738420.80845
  23578366.540   123905141.16007  23578367.700    96549456.74045
  22465228.600   118055559.97808  22465228.140    91991339.12746
 15 02 24 00 00 30.0000000  0  7G16G18G21G25G27G29G31
  21964590.200   115424725.03908  21964589.580    89941348.58946
  23135264.340   121576635.47807  23135264.200    94735039.25844
  21121281.580   110993092.49408  21121280.540    86488123.48748
  24646448.700   129517942.58305  24646451.880   100923079.96644
  23123017.920   121512296.15207  23123020.400    94684921.63945
  23592828.140   123981137.38707  23592829.520    96608674.55045
  22481614.920   118141670.75008  22481614.560    92058438.40746
 15 02 24 00 01  0.0000000  0  7G16G18G21G25G27G29G31
  21950323.700   115349755.28208  21950323.220    89882930.62246
  23122024.160   121507057.64407  23122023.900    94680822.80344
  21126203.560   111018957.79708  21126202.520    86508278.27548
  24665199.560   129616479.88005  24665202.980   100999862.25444
  23109976.120   121443761.95007  23109978.660    94631518.39545
  23607295.400   124057163.40607  23607296.860    96667915.56745
  22498052.620   118228051.67208  22498052.320    92125748.20546
 15 02 24 00 01 30.0000000  0  7G16G18G21G25G27G29G31
  21936098.260   115275000.38508  21936097.840    89824680.06346
  23108822.500   121437682.03207  23108822.080    94626763.90344
  21131199.080   111045209.44808  21131198.040    86528734.11748
  24683977.600   129715160.13905  24683981.300   101076755.87944
  23096956.460   121375343.89007  23096958.920    94578205.67446
  23621767.100   124133212.18807  23621768.520    96727174.31744
  22514539.860   118314693.06608  22514539.580    92193260.95946
 15 02 24 00 02  0.0000000  0  7G16G18G21G25G27G29G31
  21921914.740   115200465.36608  21921914.280    89766600.83046
  23095660.400   121368514.15207  23095659.740    94572866.88644
  21136268.520   111071849.59808  21136267.540    86549492.67948
  24702783.260   129813985.27205  24702787.240   101153762.45043
  23083959.520   121307045.12707  23083962.140    94524985.89146
  23636243.500   124209286.76107  23636245.100    96786453.19445
  22531076.720   118401595.19608  22531076.420    92260976.87946
 15 02 24 00 02 30.0000000  0  8G16G18G21G22G25G27G29G31
  21907773.840   115126154.23508  21907773.360    89708696.07946
  23082538.520   121299558.45107  23082537.900    94519135.20544
  21141411.920   111098878.29508  21141410.940    86570554.02048
  24557032.240   129048075.16106  24557032.900   100556936.81744
  24721616.480   129912955.82705  24721620.980   101230882.36144
  23070985.660   121238867.51807  23070988.460    94471860.54045
  23650724.980   124285388.53207  23650726.680    96845753.24844
  22547663.000   118488757.15308  22547662.680    92328895.26746
 15 02 24 00 03  0.0000000  0  8G16G18G21G22G25G27G29G31
  21893672.360   115052050.30508  21893671.820    89650952.77746
  23069453.900   121230799.25007  23069453.540    94465556.65344
  21146625.620   111126276.17108  21146624.600    86591903.01248
  24539417.440   128955507.27006  24539417.700   100484806.12243
  24740473.680   130012051.98604  24740478.320   101308100.07941
  23058031.420   121170792.57207  23058034.160    94418815.15245
  23665208.160   124361498.38807  23665209.800    96905059.61543
  22564294.620   118576157.40508  22564294.340    92396999.33346
 15 02 24 00 03 30.0000000  0  8G16G18G21G22G25G27G29G31
  21879615.860   114978182.93308  21879615.380    89593393.81346
  23056412.380   121162266.40907  23056412.260    94412154.47644
  21151914.320   111154068.15408  21151913.200    86613559.11348
  24521790.240   128862875.82206  24521790.140   100412626.00441
  24759359.740   130111299.49005  24759364.400   101385435.73144
  23045101.820   121102847.31807  23045104.520    94365870.86145
  23679698.080   124437643.67306  23679699.700    96964393.59344
  22580976.160   118663819.92108  22580976.020    92465307.77546
 15 02 24 00 04  0.0000000  0  8G16G18G21G22G25G27G29G31
  21865602.460   114904542.16908  21865602.020    89536011.41246
  23043411.940   121093950.03907  23043412.060    94358920.98244
  21157275.540   111182241.42608  21157274.360    86635512.32548
  24504148.980   128770171.45206  24504149.180   100340388.95843
  24778272.300   130210685.08805  24778276.900   101462879.05041
  23032194.540   121035019.81907  23032197.400    94313018.29346
  23694192.380   124513812.14406  23694194.180    97023745.61745
  22597704.900   118751730.12708  22597704.940    92533809.20946
 15 02 24 00 04 30.0000000  0  8G16G18G21G22G25G27G29G31
  21851632.740   114831130.34308  21851632.140    89478807.40446
  23030453.400   121025853.47107  23030453.600    94305858.76044
  21162709.040   111210794.67508  21162707.900    86657761.61548
  24486494.260   128677396.73306  24486494.640   100268097.15544
  24797210.980   130310207.62705  24797215.480   101540429.05043
  23019309.760   120967310.19707  23019312.780    94260257.60046
  23708691.060   124590002.93006  23708693.040    97083115.03544
  22614480.380   118839885.21008  22614480.500    92602501.45746
 15 02 24 00 05  0.0000000  0  8G16G18G21G22G25G27G29G31
  21837707.220   114757950.65808  21837706.460    89421784.28946
  23017537.460   120957979.87407  23017537.540    94252970.26844
  21168214.760   111239727.45508  21168213.640    86680306.65148
  24468826.740   128584555.12606  24468827.420   100195753.17943
  24816175.800   130409867.00006  24816179.800   101618085.62841
  23006447.740   120899719.72407  23006450.640    94207589.73746
  23723194.380   124666217.91506  23723196.380    97142503.29645
  22631302.220   118928283.61408  22631302.320    92671383.30446
 15 02 24 00 05 30.0000000  0  7G16G18G21G22G27G29G31
  21823826.420   114685006.29908  21823825.540    89364944.52946
  23004664.980   120890333.70508  23004664.740    94200259.00644
  21173792.600   111269039.24108  21173791.540    86703147.01248
  24451147.240   128491650.73906  24451148.360   100123360.31243
  22993608.680   120832249.75607  22993611.460    94155015.78646
  23737702.340   124742458.08806  23737704.360    97201911.22144
  22648170.040   119016923.61608  22648170.020    92740453.41146
 15 02 24 00 06  0.0000000  0  7G16G18G21G22G27G29G31
  21809990.340   114612297.50208  21809989.440    89308288.32946
  22991835.760   120822914.83907  22991835.140    94147724.87244
  21179441.880   111298726.32708  21179440.800    86726279.81648
  24433455.840   128398683.54906  24433457.180   100050918.49944
  22980792.040   120764897.87607  22980794.840    94102533.85145
  23752214.620   124818720.29807  23752216.520    97261336.28745
  22665082.780   119105800.16208  22665082.680    92809707.83446
 15 02 24 00 06 30.0000000  0  7G16G18G21G22G27G29G31
  21796199.260   114539825.26008  21796198.460    89251816.47146
  22979050.140   120755725.30108  22979049.360    94095369.41544
  21185162.260   111328787.13708  21185161.220    86749703.83348
  24415752.960   128305655.22706  24415754.120    99978429.02143
  22967997.800   120697663.40507  22968000.580    94050143.37446
  23766730.940   124895003.90907  23766732.700    97320778.03744
  22682039.680   119194909.39708  22682039.480    92879143.57446
 15 02 24 00 07  0.0000000  0  7G16G18G21G22G27G29G31
  21782453.500   114467591.37708  21782452.860    89195530.35346
  22966308.460   120688766.86908  22966307.620    94043194.03944
  21190953.240   111359218.92108  21190952.220    86773416.92048
  24398038.780   128212567.53207  24398039.880    99905893.31044
  22955225.820   120630545.65007  22955228.500    93997843.88046
  23781251.360   124971308.00907  23781252.880    97380235.75744
  22699040.140   119284247.86908  22699039.860    92948757.96446
 15 02 24 00 07 30.0000000  0  7G16G18G21G22G27G29G31
  21768753.660   114395598.11409  21768753.000    89139431.71246
  22953611.260   120622042.52507  22953610.460    93991201.07744
  21196814.660   111390020.84708  21196813.640    86797418.42048
  24380314.060   128119423.91206  24380314.860    99833314.00142
  22942476.180   120563545.39607  22942478.720    93945635.91346
  23795775.860   125047632.86707  23795777.160    97439709.65144
  22716083.880   119373813.42508  22716083.520    93018549.28045
 15 02 24 00 08  0.0000000  0  7G16G18G21G22G27G29G31
  21755100.500   114323850.12108  21755099.760    89083524.19847
  22940959.460   120555557.54007  22940958.920    93939394.62844
  21202746.700   111421193.97708  21202745.700    86821709.18748
  24362579.600   128026229.22906  24362580.300    99760694.91343
  22929749.260   120496664.99107  22929751.720    93893521.33945
  23810304.760   125123980.99707  23810305.700    97499201.67844
  22733170.800   119463605.63808  22733170.400    93088517.22146
 15 02 24 00 08 30.0000000  0  7G16G18G21G22G27G29G31
  21741494.320   114252349.32309  21741493.520    89027809.29846
  22928353.660   120489314.43107  22928353.340    93887776.64144
  21208749.060   111452736.78908  21208748.080    86846288.01048
  24344835.740   127932985.44306  24344835.960    99688037.55043
  22917045.100   120429904.23208  22917047.500    93841500.00045
  23824837.860   125200351.95207  23824838.480    97558711.48044
  22750300.280   119553621.21608  22750299.840    93158659.19645
 15 02 24 00 09  0.0000000  0  7G16G18G21G22G27G29G31
  21727935.040   114181094.99609  21727934.240    88972286.46146
  22915793.720   120423312.48607  22915793.680    93836346.58744
  21214820.840   111484644.50808  21214819.900    86871151.17147
  24327082.560   127839692.22806  24327082.300    99615341.63341
  22904363.100   120363260.06408  22904365.420    93789569.51646
  23839374.660   125276742.31107  23839375.160    97618236.42944
  22767471.120   119643854.08208  22767470.620    93228970.48946
 15 02 24 00 09 30.0000000  0  7G16G18G21G22G27G29G31
  21714423.360   114110090.63109  21714422.620    88916958.40446
  22903280.480   120357555.85707  22903280.780    93785107.69045
  21220962.080   111516917.27808  21220961.200    86896298.79348
  24309320.840   127746353.77806  24309320.380    99542610.46543
  22891703.580   120296734.24208  22891705.920    93737731.24245
  23853915.400   125353153.54306  23853915.800    97677777.61644
  22784682.980   119734303.11408  22784682.560    93299450.23445
 15 02 24 00 10  0.0000000  0  7G16G18G21G22G27G29G31
  21700960.280   114039341.91508  21700959.620    88861829.55146
  22890815.200   120292050.66207  22890815.680    93734064.72644
  21227173.120   111549556.66908  21227172.220    86921732.09047
  24291551.540   127652975.80706  24291550.840    99469848.57044
  22879067.280   120230329.96108  22879069.580    93685987.67946
  23868460.480   125429588.64806  23868460.920    97737337.39044
  22801936.020   119824968.77408  22801935.660    93370098.77045
 15 02 24 00 10 30.0000000  0  7G16G18G21G22G27G29G31
  21687545.600   113968847.54008  21687545.040    88806898.88046
  22878397.600   120226795.82307  22878398.080    93683216.81644
  21233453.000   111582557.76608  21233452.040    86947447.24348
  24273774.520   127559557.44906  24273773.820    99397055.15043
  22866453.460   120164043.94408  22866455.700    93634336.26946
  23883009.500   125506044.04906  23883009.880    97796913.02344
  22819228.980   119915844.32608  22819228.760    93440910.88645
 15 02 24 00 11  0.0000000  0  7G16G18G21G22G27G29G31
  21674179.700   113898609.34609  21674179.160    88752167.84846
  22866028.120   120161793.62808  22866028.500    93632565.79444
  21239801.380   111615918.73808  21239800.380    86973442.80847
  24255990.280   127466101.39606  24255989.460    99324232.34644
  22853862.180   120097876.14808  22853864.400    93582776.97745
  23897562.320   125582519.41106  23897562.620    97856504.18944
  22836561.360   120006927.34108  22836561.280    93511884.64145
 15 02 24 00 11 30.0000000  0  7G16G18G21G22G27G29G31
  21660863.500   113828631.90608  21660862.900    88697639.98946
  22853707.600   120097049.22907  22853707.940    93582115.63345
  21246218.500   111649640.99208  21246217.480    86999719.89547
  24238199.780   127372612.50206  24238199.160    99251384.01143
  22841293.780   120031829.11007  22841296.040    93531311.79845
  23912119.400   125659017.81906  23912119.780    97916113.30944
  22853933.220   120098217.24508  22853933.140    93583019.60845
 15 02 24 00 12  0.0000000  0  7G16G18G21G22G27G29G31
  21647596.880   113758915.33708  21647596.180    88643315.39846
  22841436.220   120032562.82608  22841436.480    93531866.51244
  21252703.600   111683720.32808  21252702.540    87026275.23447
  24220402.960   127279090.79306  24220402.640    99178510.04044
  22828747.880   119965900.40207  22828750.120    93479938.82345
  23926680.160   125735535.95407  23926680.780    97975737.78944
  22871343.480   120189708.61308  22871343.340    93654311.55945
 15 02 24 00 12 30.0000000  0  7G16G18G21G22G27G29G31
  21634380.400   113689462.30508  21634379.700    88589196.16747
  22829214.620   119968337.68708  22829214.760    93481820.97744
  21259256.540   111718156.42308  21259255.500    87053108.55348
  24202600.640   127185539.95806  24202600.360    99105613.40844
  22816224.680   119900091.05407  22816226.880    93428658.84346
  23941244.900   125812074.68906  23941245.640    98035378.31945
  22888791.660   120281399.45708  22888791.580    93725758.93746
 15 02 24 00 13  0.0000000  0  7G16G18G21G22G27G29G31
  21621214.160   113620273.20709  21621213.480    88535282.60147
  22817042.680   119904373.55807  22817042.700    93431978.82544
  21265876.580   111752945.00008  21265875.540    87080216.54148
  24184792.900   127091960.08606  24184792.320    99032694.13444
  22803723.800   119834398.68107  22803726.060    93377470.01146
  23955813.120   125888631.53307  23955813.900    98095032.99344
  22906276.720   120373284.33308  22906276.800    93797357.51746
 15 02 24 00 13 30.0000000  0  7G16G18G21G22G27G29G31
  21608099.100   113551353.06009  21608098.380    88481578.60047
  22804921.720   119840677.53107  22804921.680    93382345.56944
  21272564.120   111788088.10708  21272563.060    87107600.79147
  24166980.760   126998357.24206  24166980.180    98959756.95944
  22791245.680   119768826.82607  22791248.200    93326375.07846
  23970385.480   125965209.69706  23970386.120    98154704.26644
  22923798.960   120465364.06808  22923799.020    93869107.95046
 15 02 24 00 14  0.0000000  0  7G16G18G21G22G27G29G31
  21595035.620   113482703.53609  21595034.720    88428085.47346
  22792852.060   119777251.13407  22792852.020    93332922.45044
  21279318.640   111823583.25508  21279317.500    87135259.34347
  24149164.560   126904733.64106  24149164.100    98886803.61443
  22778790.380   119703374.97307  22778793.140    93275373.66346
  23984961.700   126041808.73106  23984962.520    98214391.78644
  22941357.580   120557635.04708  22941357.740    93941007.40046
 15 02 24 00 14 30.0000000  0  7G16G18G21G22G27G29G31
  21582023.320   113414323.13609  21582022.280    88374802.05446
  22780833.440   119714092.83907  22780833.400    93283708.22444
  21286139.300   111859425.72908  21286138.100    87163188.55447
  24131344.340   126811087.90206  24131343.880    98813832.99744
  22766357.360   119638039.46707  22766360.180    93224462.91846
  23999541.260   126118424.65706  23999541.940    98274092.47544
  22958951.460   120650090.90108  22958951.580    94013050.88245
 15 02 24 00 15  0.0000000  0  7G16G18G21G22G27G29G31
  21569063.500   113346218.80109  21569062.420    88321733.75446
  22768867.180   119651209.87607  22768867.100    93234708.53144
  21293026.520   111895618.00708  21293025.280    87191390.32747
  24113521.340   126717427.15006  24113520.680    98740850.67544
  22753947.400   119572824.95707  22753950.180    93173646.43946
  24014124.740   126195061.81106  24014125.220    98333809.73244
  22976580.780   120742732.89108  22976580.760    94085239.42345
 15 02 24 00 15 30.0000000  0  7G16G18G21G22G27G29G31
  21556156.240   113278391.02309  21556155.200    88268880.95247
  22756953.400   119588603.01207  22756953.460    93185923.99345
  21299979.660   111932156.94908  21299978.460    87219862.23648
  24095695.560   126623752.50906  24095694.820    98667857.53844
  22741560.080   119507729.85807  22741562.840    93122923.03546
  24028711.920   126271718.67606  24028712.500    98393542.34844
  22994244.780   120835556.72308  22994244.500    94157569.65545
 15 02 24 00 16  0.0000000  0  7G16G18G21G22G27G29G31
  21543301.760   113210840.79509  21543300.820    88216244.43147
  22745092.440   119526273.43308  22745092.620    93137355.50645
  21306998.300   111969040.14608  21306997.100    87248602.38748
  24077867.440   126530065.59806  24077866.620    98594854.84245
  22729195.240   119442753.13907  22729198.100    93072291.86846
  24043302.680   126348393.82406  24043303.260    98453289.19844
  23011942.500   120928558.29908  23011942.020    94230038.38145
 15 02 24 00 16 30.0000000  0  7G16G18G21G22G27G29G31
  21530500.700   113143570.96009  21530499.800    88163826.39246
  22733284.940   119464224.63108  22733285.240    93089005.83144
  21314082.140   112006266.33608  21314081.020    87277609.81747
  24060037.560   126436369.45806  24060036.660    98521844.94745
  22716853.140   119377895.67507  22716856.140    93021753.62546
  24057897.100   126425088.01906  24057897.600    98513050.84744
  23029673.540   121021735.57808  23029673.020    94302644.03645
 15 02 24 00 17  0.0000000  0  7G16G18G21G22G27G29G31
  21517753.220   113076582.50609  21517752.260    88111627.60046
  22721531.220   119402458.20008  22721531.520    93040876.16545
  21321230.840   112043833.12408  21321229.700    87306882.63247
  24042206.280   126342665.80906  24042205.260    98448829.23544
  22704533.760   119313156.34707  22704536.720    92971307.41446
  24072494.880   126501800.06005  24072495.520    98572826.40444
  23047437.160   121115084.40108  23047436.680    94375383.35045
 15 02 24 00 17 30.0000000  0  7G16G18G21G22G27G29G31
  21505060.100   113009879.95209  21505059.180    88059651.60147
  22709832.080   119340978.27908  22709832.180    92992969.77045
  21328444.420   112081740.88708  21328443.260    87336421.15347
  24024374.460   126248959.44406  24024373.500    98375811.36043
  22692237.340   119248537.39107  22692240.200    92920955.01446
  24087096.440   126578531.95206  24087097.220    98632617.48244
  23065233.300   121208603.93707  23065232.960    94448255.68946
 15 02 24 00 18  0.0000000  0  7G16G18G21G22G27G29G31
  21492421.300   112943462.68309  21492420.380    88007897.89747
  22698187.480   119279785.06208  22698187.320    92945286.75644
  21335722.040   112119985.11208  21335720.920    87366221.84848
  24006542.120   126155250.15106  24006541.080    98302791.20143
  22679963.320   119184036.14008  22679965.980    92870694.30946
  24101701.340   126655280.68806  24101701.920    98692421.65844
  23083060.880   121302288.62607  23083060.660    94521256.71946
 15 02 24 00 18 30.0000000  0  7G16G18G21G22G27G29G31
  21479837.720   112877335.41909  21479836.720    87956370.16746
  22686598.280   119218882.90008  22686597.900    92897830.56145
  21343063.820   112158566.57008  21343062.700    87396285.32447
  23988710.040   126061542.85006  23988709.040    98229772.64445
  22667712.120   119119655.09207  22667714.640    92820527.28746
  24116309.980   126732048.67406  24116310.540    98752240.86044
  23100919.960   121396138.00508  23100919.740    94594386.09745
 15 02 24 00 19  0.0000000  0  7G16G18G21G22G27G29G31
  21467309.720   112811500.00809  21467308.560    87905069.84347
  22675064.860   119158274.46408  22675064.420    92850603.23745
  21350469.460   112197483.82108  21350468.380    87426610.45048
  23970878.780   125967840.23106  23970877.920    98156757.68044
  22655483.740   119055394.10708  22655486.060    92770453.79246
  24130922.140   126808835.58606  24130922.880    98812074.76844
  23118809.800   121490148.69207  23118809.540    94667641.11945
 15 02 24 00 19 30.0000000  0  7G16G18G21G22G27G29G31
  21454837.600   112745958.68608  21454836.400    87853998.68747
  22663587.720   119097961.79908  22663587.240    92803606.37944
  21357938.740   112236735.19908  21357937.660    87457195.94247
  23953048.920   125874144.62006  23953048.120    98083748.21144
  22643278.160   118991253.07508  22643280.400    92720473.79646
  24145537.920   126885641.29606  24145538.820    98871923.33244
  23136729.800   121584317.97408  23136729.440    94741019.74945
 15 02 24 00 20  0.0000000  0  7G16G18G21G22G27G29G31
  21442421.400   112680711.46909  21442420.340    87803156.71447
  22652166.960   119037945.66308  22652166.500    92756840.56945
  21365470.920   112276317.06508  21365469.800    87488038.95048
  23935220.680   125780457.20106  23935220.040    98010745.12844
  22631095.140   118927230.57608  22631097.380    92670586.17346
  24160157.000   126962463.91306  24160157.860    98931785.11544
  23154678.960   121678641.23107  23154678.500    94814518.36645
 15 02 24 00 20 30.0000000  0  7G16G18G21G22G27G29G31
  21430062.040   112615763.26909  21430061.260    87752547.74847
  22640803.580   118978230.88908  22640803.260    92710309.61045
  21373066.160   112316230.17308  21373065.000    87519140.07347
  23917395.040   125686782.77506  23917394.200    97937752.16344
  22618935.100   118863329.04008  22618937.300    92620792.79146
  24174779.780   127039305.91306  24174780.480    98991661.94244
  23172657.100   121773117.79607  23172656.700    94888136.44245
 15 02 24 00 21  0.0000000  0  7G16G18G21G22G27G29G31
  21417760.040   112551116.28309  21417759.420    87702173.48947
  22629497.980   118918819.76508  22629497.800    92664015.25045
  21380724.160   112356472.82708  21380722.920    87550497.98647
  23899572.300   125593123.73106  23899571.260    97864771.18044
  22606798.180   118799548.53208  22606800.220    92571093.71346
  24189406.100   127116167.21606  24189406.840    99051553.89044
  23190663.740   121867744.74707  23190663.580    94961871.69245
 15 02 24 00 21 30.0000000  0  7G16G18G21G22G27G29G31
  21405515.880   112486772.71709  21405515.260    87652035.64347
  22618250.600   118859714.78908  22618250.540    92617959.44945
  21388444.500   112397043.16208  21388443.260    87582111.22748
  23881753.120   125499483.22906  23881751.800    97791804.61644
  22594684.200   118735889.05108  22594686.240    92521488.94546
  24204035.940   127193047.44606  24204036.600    99111460.51443
  23208698.460   121962519.03307  23208698.560    95035721.74245
 15 02 24 00 22  0.0000000  0  7G16G18G21G22G27G29G31
  21393329.480   112422732.99709  21393328.920    87602134.57947
  22607061.600   118800916.51008  22607061.500    92572142.62745
  21396226.760   112437938.74908  21396225.500    87613977.92148
  23863937.640   125405862.24507  23863936.200    97718853.27344
  22582592.920   118672349.02708  22582595.020    92471977.24446
  24218669.020   127269944.87706  24218669.520    99171380.57244
  23226760.480   122057436.24007  23226760.680    95109683.17945
 15 02 24 00 22 30.0000000  0  7G16G18G21G22G27G29G31
  21381201.480   112358999.81609  21381200.880    87552472.36947
  22595931.540   118742427.92608  22595931.320    92526567.13945
  21404070.480   112479157.48708  21404069.220    87646096.42047
  23846126.380   125312263.68306  23846124.760    97645919.41144
  22570524.500   118608929.10208  22570526.660    92422559.14146
  24233305.460   127346860.29006  24233306.020    99231314.63144
  23244849.460   122152493.91207  23244849.580    95183754.07445
 15 02 24 00 23  0.0000000  0  7G16G18G21G22G27G29G31
  21369132.420   112295576.10709  21369131.700    87503051.30347
  22584860.960   118684252.07708  22584860.680    92481235.32744
  21411975.460   112520698.50308  21411974.240    87678466.04148
  23828320.120   125218690.86106  23828318.280    97573005.61444
  22558479.040   118545629.97208  22558481.180    92373235.15946
  24247945.300   127423793.98606  24247945.880    99291262.93544
  23262964.780   122247689.78607  23262964.760    95257932.63045
 15 02 24 00 23 30.0000000  0  7G16G18G21G22G27G29G31
  21357122.500   112232463.10509  21357121.660    87453872.34647
  22573850.180   118626390.63608  22573850.000    92436148.51945
  21419941.240   112562559.37208  21419940.100    87711084.90247
  23810519.000   125125145.82006  23810517.180    97500113.44444
  22546456.360   118482451.07908  22546458.520    92324004.86246
  24262588.580   127500745.34606  24262589.100    99351225.00743
  23281105.680   122343020.13607  23281105.500    95332215.96545
 15 02 24 00 24  0.0000000  0  7G16G18G21G22G27G29G31
  21345172.020   112169662.36809  21345171.120    87404936.71347
  22562899.600   118568845.11608  22562899.400    92391307.87045
  21427967.460   112604737.58708  21427966.320    87743951.04547
  23792723.420   125031630.22807  23792721.540    97427244.21944
  22534456.360   118419391.57108  22534458.600    92274867.59946
  24277235.160   127577713.55406  24277235.620    99411200.21043
  23299271.500   122438481.29507  23299271.200    95406601.25145
 15 02 24 00 24 30.0000000  0  7G16G18G21G22G27G29G31
  21333281.480   112107176.97209  21333280.560    87356246.79847
  22552009.740   118511618.90408  22552009.600    92346716.03345
  21436054.020   112647232.92608  21436052.900    87777064.29047
  23774934.220   124938148.02606  23774932.240    97354400.99244
  22522479.400   118356452.74908  22522481.640    92225824.39246
  24291885.120   127654699.45406  24291885.540    99471189.21844
  23317461.780   122534071.42607  23317461.400    95481087.02345
 15 02 24 00 25  0.0000000  0  7G16G18G21G22G27G29G31
  21321451.320   112045008.93009  21321450.400    87307804.17647
  22541181.100   118454713.96408  22541180.940    92302374.54844
  21444200.480   112690043.06408  21444199.440    87810422.84147
  23757151.920   124844701.73706  23757149.880    97281585.76944
  22510525.400   118293634.50708  22510527.700    92176875.12746
  24306538.380   127731702.70506  24306538.860    99531191.73144
  23335675.980   122629787.46407  23335675.580    95555670.91545
 15 02 24 00 25 30.0000000  0  7G16G18G21G22G27G29G31
  21309682.280   111983162.04709  21309681.340    87259611.80247
  22530414.420   118398134.31908  22530414.160    92258286.52745
  21452406.920   112733168.30308  21452405.920    87844026.92347
  23739377.260   124751295.43707  23739375.320    97208801.70745
  22498594.640   118230938.38108  22498597.040    92128021.02546
  24321195.220   127808724.82406  24321195.600    99591208.94244
  23353913.760   122725627.80207  23353913.380    95630351.66344
 15 02 24 00 26  0.0000000  0  7G16G18G21G22G27G29G31
  21297974.860   111921639.13709  21297973.880    87211671.87647
  22519710.120   118341882.66708  22519709.760    92214454.08345
  21460673.000   112776607.09608  21460672.100    87877875.33647
  23721610.740   124657932.36106  23721608.940    97136051.32844
  22486687.220   118168365.07107  22486689.720    92079262.62746
  24335855.440   127885766.09306  24335855.960    99651241.07943
  23372174.720   122821590.15007  23372174.500    95705127.46745
 15 02 24 00 26 30.0000000  0  7G16G18G21G22G27G29G31
  21286328.760   111860438.80709  21286327.820    87163983.31847
  22509067.940   118285957.82008  22509067.540    92170876.30345
  21468997.860   112820354.68508  21468997.000    87911964.36647
  23703852.440   124564611.94606  23703850.820    97063334.18544
  22474802.540   118105911.39207  22474805.260    92030597.44447
  24350518.860   127962823.46106  24350519.620    99711285.76143
  23390457.740   122917668.59907  23390457.680    95779993.74845
 15 02 24 00 27  0.0000000  0  7G16G18G21G22G27G29G31
  21274744.580   111799564.08009  21274743.660    87116548.47747
  22498488.620   118230363.02608  22498488.180    92127555.71545
  21477381.160   112864409.49508  21477380.420    87946292.78747
  23686102.960   124471337.42906  23686101.360    96990652.80044
  22462940.920   118043578.15608  22462943.680    91982026.11446
  24365185.380   128039897.44505  24365186.360    99771343.40143
  23408762.580   123013860.80907  23408762.520    95854948.67445
 15 02 24 00 27 30.0000000  0  7G16G18G21G22G27G29G31
  21263222.520   111739015.61109  21263221.660    87069367.86547
  22487972.380   118175099.22308  22487971.780    92084493.03445
  21485822.380   112908768.44708  21485821.680    87980858.21347
  23668362.420   124378110.42806  23668360.800    96918008.45944
  22451102.080   117981364.09308  22451104.680    91933547.65246
  24379854.920   128116986.73906  24379856.140    99831412.94244
  23427088.320   123110162.27707  23427088.120    95929988.73044
 15 02 24 00 28  0.0000000  0  7G16G18G21G22G27G29G31
  21251763.720   111678799.26309  21251762.840    87022446.03947
  22477520.220   118120172.35008  22477519.540    92041692.88745
  21494321.980   112953434.22608  21494321.240    88015662.71047
  23650632.180   124284936.91207  23650630.360    96845405.77944
  22439286.660   117919272.98208  22439289.080    91885164.98146
  24394528.020   128194094.69505  24394529.340    99891497.01844
  23445434.960   123206573.60707  23445434.600    96005114.40045
 15 02 24 00 28 30.0000000  0  7G16G18G21G22G27G29G31
  21240368.260   111618915.83009  21240367.400    86975783.63447
  22467132.240   118065583.08908  22467131.640    91999155.81945
  21502879.360   112998403.53508  21502878.580    88050703.74047
  23632912.480   124191818.34307  23632910.480    96772845.90444
  22427494.360   117857303.43908  22427496.660    91836877.05246
  24409204.440   128271220.27805  24409206.040    99951594.85044
  23463801.640   123303090.45207  23463801.100    96080322.28244
 15 02 24 00 29  0.0000000  0  7G16G18G21G22G27G29G31
  21229036.560   111559367.62509  21229035.740    86929382.44047
  22456808.960   118011334.04108  22456808.480    91956883.83445
  21511494.200   113043674.86908  21511493.400    88085980.09647
  23615203.880   124098757.76107  23615201.680    96700331.20644
  22415725.260   117795455.95208  22415727.500    91788684.22346
  24423884.200   128348363.55206  24423886.000   100011706.48444
  23482187.900   123399710.43007  23482187.260    96155610.54045
 15 02 24 00 29 30.0000000  0  7G16G18G21G22G27G29G31
  21217769.020   111500156.50009  21217768.180    86883243.91347
  22446550.680   117957426.82308  22446550.360    91914878.24745
  21520166.180   113089246.13508  21520165.260    88121490.17147
  23597506.640   124005757.34307  23597504.240    96627863.39944
  22403979.300   117733730.22908  22403981.460    91740586.28646
  24438567.300   128425523.54805  24438569.140   100071831.16543
  23500592.960   123496430.22507  23500592.480    96230976.56745
 15 02 24 00 30  0.0000000  0  7G16G18G21G22G27G29G31
  21206565.860   111441283.23709  21206564.940    86837368.64947
  22436357.620   117903862.49308  22436357.440    91873139.82445
  21528894.620   113135113.97108  21528893.580    88157231.34247
  23579821.000   123912818.33107  23579818.580    96555443.44944
  22392256.260   117672124.98808  22392258.300    91692582.21646
  24453253.660   128502699.55906  24453255.140   100131968.26243
  23519016.040   123593245.37807  23519015.920    96306416.91345
 15 02 24 00 30 30.0000000  0  7G16G18G21G22G27G29G31
  21195427.820   111382752.32609  21195426.900    86791760.15547
  22426230.640   117850645.31208  22426230.460    91831671.90945
  21537679.460   113181278.39108  21537678.320    88193203.61147
  23562147.920   123819945.76107  23562145.480    96483075.25144
  22380556.560   117610642.65508  22380558.500    91644673.92946
  24467943.360   128579893.38905  24467944.480   100192119.25843
  23537457.300   123690155.39707  23537457.480    96381931.16144
 15 02 24 00 31  0.0000000  0  7G16G18G21G22G27G29G31
  21184355.500   111324566.77309  21184354.600    86746420.77047
  22416170.360   117797778.39608  22416170.100    91790476.92245
  21546520.700   113227739.17408  21546519.460    88229406.81947
  23544488.100   123727143.19507  23544485.680    96410761.63044
  22368880.360   117549284.12308  22368882.300    91596862.09846
  24482636.500   128657106.04505  24482637.660   100252284.97944
  23555916.320   123787158.18607  23555916.640    96457517.69845
 15 02 24 00 31 30.0000000  0  7G16G18G21G22G27G29G31
  21173348.920   111266726.88909  21173348.060    86701350.73847
  22406176.840   117745262.19908  22406176.520    91749555.21445
  21555417.680   113274492.57308  21555416.280    88265838.04547
  23526841.840   123634411.95707  23526839.380    96338503.56544
  22357227.540   117488048.00908  22357229.400    91549145.65046
  24497332.700   128734335.81805  24497334.280   100312463.96544
  23574392.260   123884249.04707  23574392.500    96533172.86544
 15 02 24 00 32  0.0000000  0  7G16G18G21G22G27G29G31
  21162408.540   111209234.81509  21162407.680    86656551.72547
  22396250.520   117693099.03808  22396250.240    91708908.63245
  21564370.080   113321537.42108  21564368.620    88302496.35647
  23509209.600   123541754.47007  23509207.260    96266302.96044
  22345598.000   117426934.30608  22345599.860    91501524.61147
  24512032.140   128811582.41105  24512033.960   100372656.08944
  23592884.540   123981425.20707  23592884.600    96608894.50044
 15 02 24 00 32 30.0000000  0  7G16G18G21G22G27G29G31
  21151534.480   111152090.98609  21151533.540    86612024.06947
  22386391.500   117641289.03108  22386391.140    91668537.20245
  21573377.120   113368869.42008  21573375.660    88339378.43147
  23491591.540   123449171.52507  23491589.380    96194160.47845
  22333991.400   117365941.20608  22333993.200    91453997.54147
  24526734.580   128888844.18106  24526736.220   100432860.02544
  23611392.080   124078681.72007  23611391.980    96684678.71345
 15 02 24 00 33  0.0000000  0  7G16G18G21G22G27G29G31
  21140727.820   111095301.99409  21140726.940    86567772.91647
  22376600.860   117589838.68708  22376600.500    91628446.04545
  21582439.400   113416491.51608  21582437.860    88376486.55647
  23473989.000   123356670.07907  23473987.040    96122081.47244
  22322408.600   117305073.32608  22322410.320    91406568.04446
  24541440.680   128966125.32906  24541442.280   100493079.08744
  23629914.940   124176019.82007  23629914.840    96760526.51044
 15 02 24 00 33 30.0000000  0  8G16G18G19G21G22G27G29G31
  21129989.540   111038871.84109  21129988.620    86523801.37147
  22366879.540   117538752.79008  22366879.300    91588638.86945
  24548565.320   129003579.93006  24548563.300   100522265.98744
  21591556.980   113464404.33308  21591555.380    88413821.21147
  23456402.900   123264255.37707  23456401.200    96050070.07545
  22310850.120   117244333.16108  22310851.880    91359238.06246
  24556151.060   129043428.36505  24556152.260   100553315.20444
  23648453.180   124273439.54307  23648453.160    96836437.92144
 15 02 24 00 34  0.0000000  0  7G16G18G19G21G22G27G31
  21119311.320   110982757.70509  21119310.460    86480076.07647
  22357219.200   117487987.64908  22357219.040    91549081.62545
  24533100.060   128922311.85506  24533098.940   100458940.27344
  21600720.860   113512560.94808  21600719.260    88451345.84347
  23438825.220   123171884.60207  23438823.740    95978092.90544
  22299307.400   117183675.50808  22299309.180    91311972.37747
  23666997.620   124370892.25307  23666997.700    96912375.07545
 15 02 24 00 34 30.0000000  0  7G16G18G19G21G22G27G31
  21108709.860   110927046.48609  21108708.960    86436664.74147
  22347636.500   117437630.55708  22347636.440    91509842.35745
  24517658.240   128841165.48605  24517658.100   100395709.39444
  21609946.940   113561044.47808  21609945.320    88489125.21147
  23421272.580   123079645.54007  23421271.200    95906218.35045
  22287796.560   117123185.40208  22287798.400    91264837.26047
  23685563.980   124468460.13407  23685564.420    96988401.92845
 15 02 24 00 35  0.0000000  0  7G16G18G19G21G22G27G31
  21098175.820   110871689.86409  21098174.940    86393529.72048
  22338122.100   117387632.67908  22338122.180    91470882.98745
  24502230.000   128760089.72406  24502229.980   100332533.52343
  21619225.220   113609802.17908  21619223.620    88527118.22147
  23403735.880   122987490.03207  23403734.600    95834408.91745
  22276307.960   117062812.28308  22276309.800    91217793.29446
  23704142.100   124566089.53607  23704142.980    97064476.71144
 15 02 24 00 35 30.0000000  0  7G16G18G19G21G22G27G31
  21087710.760   110816695.60509  21087709.840    86350677.05147
  22328677.700   117338002.24008  22328677.720    91432209.92645
  24486816.360   128679091.02206  24486816.340   100269417.71244
  21628556.420   113658838.26508  21628554.900    88565328.15447
  23386216.920   122895427.07907  23386215.700    95762671.58545
  22264842.740   117002562.32708  22264844.560    91170845.28446
  23722732.620   124663783.61707  23722733.680    97140601.90144
 15 02 24 00 36  0.0000000  0  7G16G18G19G21G22G27G31
  21077314.620   110762063.44909  21077313.700    86308106.54448
  22319303.220   117288738.81208  22319303.100    91393822.85745
  24471417.000   128598166.73406  24471416.940   100206359.85844
  21637939.760   113708148.62508  21637938.400    88603751.80147
  23368715.660   122803457.04807  23368714.320    95691006.68145
  22253400.420   116942433.23408  22253402.320    91123991.46446
  23741334.600   124761536.97007  23741335.660    97216773.26545
 15 02 24 00 36 30.0000000  0  7G16G18G19G21G22G27G31
  21066988.640   110707799.89809  21066987.660    86265823.25848
  22309999.840   117239848.99508  22309999.540    91355726.90745
  24456032.760   128517321.72406  24456032.620   100143363.81044
  21647375.840   113757735.92008  21647374.600    88642391.25247
  23351233.320   122711586.75007  23351231.960    95619419.48545
  22241982.000   116882429.48608  22241983.980    91077235.31546
  23759948.180   124859350.94507  23759949.200    97292991.87544
 15 02 24 00 37  0.0000000  0  7G16G18G19G21G22G27G31
  21056733.000   110653905.72009  21056731.980    86223827.79748
  22300767.480   117191332.82308  22300767.080    91317922.11245
  24440663.300   128436554.31105  24440663.020   100080428.22744
  21656863.960   113807596.89208  21656862.820    88681243.95947
  23333770.220   122619817.35607  23333768.780    95547910.92445
  22230587.240   116822549.87608  22230589.280    91030575.89546
  23778572.400   124957221.24606  23778573.420    97369254.37545
 15 02 24 00 37 30.0000000  0  7G16G18G19G21G22G27G31
  21046547.980   110600382.83209  21046546.940    86182121.65448
  22291606.780   117143192.62308  22291606.220    91280410.27445
  24425308.640   128355864.63706  24425308.400   100017553.21644
  21666403.800   113857729.60008  21666402.740    88720308.40047
  23316326.840   122528151.66707  23316325.220    95476483.13945
  22219216.100   116762794.48608  22219218.160    90984013.26846
  23797206.820   125055145.00607  23797207.600    97445558.52045
 15 02 24 00 38  0.0000000  0  7G16G18G19G21G22G27G31
  21036433.780   110547232.43909  21036432.800    86140705.76947
  22282517.800   117095429.55308  22282517.140    91243192.31645
  24409968.720   128275251.97806  24409968.380    99954738.19744
  21675994.860   113908131.40908  21675993.900    88759582.54047
  23298903.460   122436591.45307  23298901.860    95405137.56145
  22207868.540   116703162.56108  22207870.540    90937546.84446
  23815850.760   125153118.45807  23815851.040    97521901.38244
 15 02 24 00 38 30.0000000  0  7G16G18G19G21G22G27G31
  21026391.780   110494461.39909  21026390.820    86099585.47548
  22273501.820   117048050.46008  22273501.180    91206273.56345
  24394644.200   128194721.06306  24394643.860    99891986.88744
  21685637.760   113958805.57708  21685636.900    88799068.89447
  23281501.680   122345144.41607  23281500.100    95333880.17445
  22196545.360   116643659.04908  22196547.280    90891180.48246
  23834504.600   125251143.51407  23834504.420    97598284.43644
 15 02 24 00 39  0.0000000  0  7G16G18G19G21G22G27G31
  21016421.600   110442067.76809  21016420.680    86058759.27548
  22264558.460   117001052.81308  22264557.860    91169652.01945
  24379334.440   128114267.89205  24379333.980    99829296.11845
  21695331.400   114009745.88108  21695330.520    88838762.62947
  23264121.160   122253809.25607  23264119.620    95262709.97144
  22185245.880   116584280.05408  22185247.740    90844911.14846
  23853166.980   125349213.14107  23853166.400    97674702.25144
 15 02 24 00 39 30.0000000  0  7G16G18G19G21G22G27G31
  21006524.240   110390057.03409  21006523.360    86018231.43448
  22255688.820   116954442.58508  22255688.220    91133332.37345
  24364040.100   128033896.22106  24364039.560    99766668.89744
  21705075.960   114060953.92108  21705075.100    88878664.99647
  23246762.900   122162591.68107  23246761.360    95191631.36145
  22173970.820   116525029.26908  22173972.680    90798741.71746
  23871837.940   125447327.88507  23871837.220    97751155.18244
 15 02 24 00 40  0.0000000  0  7G16G18G19G21G22G27G31
  20996698.040   110338420.29909  20996697.260    85977995.02148
  22246891.160   116908210.48808  22246890.600    91097307.37145
  24348759.360   127953595.07206  24348758.680    99704096.62344
  21714869.140   114112417.60308  21714868.300    88918766.56047
  23229425.580   122071483.86207  23229423.960    95120638.29044
  22162718.060   116465895.91508  22162719.940    90752663.79846
  23890514.700   125545474.05407  23890514.120    97827632.62244
 15 02 24 00 40 30.0000000  0  7G16G18G19G21G22G27G31
  20986944.820   110287167.16809  20986944.140    85938057.52548
  22238167.260   116862366.21308  22238166.780    91061584.58245
  24333493.600   127873372.15506  24333492.740    99641585.32444
  21724712.000   114164142.44108  21724711.120    88959071.62347
  23212110.980   121980495.79407  23212109.320    95049738.53544
  22151489.120   116406887.66308  22151491.040    90706683.35646
  23909198.100   125643656.19706  23909197.720    97904138.09844
 15 02 24 00 41  0.0000000  0  7G16G18G19G21G22G27G31
  20977265.860   110236304.31109  20977265.260    85898424.13248
  22229518.300   116816915.83108  22229517.840    91026168.71045
  24318243.400   127793231.94705  24318242.540    99579138.47044
  21734605.060   114216131.06108  21734604.240    88999582.22847
  23194820.600   121889634.82607  23194819.020    94978937.83345
  22140284.900   116348009.21108  22140286.860    90660804.06746
  23927888.480   125741876.08406  23927888.440    97980672.97044
 15 02 24 00 41 30.0000000  0  7G16G18G19G21G22G27G31
  20967661.680   110185834.30609  20967661.100    85859096.86248
  22220944.740   116771861.82108  22220944.280    90991061.69845
  24303008.820   127713175.20505  24303008.260    99516756.60044
  21744548.100   114268382.18908  21744547.320    89040297.38647
  23177555.180   121798904.33407  23177553.560    94908238.76544
  22129105.500   116289261.38808  22129107.500    90615026.55946
  23946585.500   125840131.12406  23946585.840    98057235.23745
 15 02 24 00 42  0.0000000  0  7G16G18G19G21G22G27G31
  20958130.820   110135749.42009  20958130.160    85820069.68147
  22212445.260   116727196.72908  22212444.700    90956257.74846
  24287788.520   127633192.01805  24287787.880    99454432.09944
  21754538.820   114320883.68508  21754538.060    89081207.63847
  23160313.220   121708297.23007  23160311.560    94837635.89345
  22117949.200   116230634.62508  22117951.220    90569343.37446
  23965287.060   125938409.01607  23965287.520    98133815.31444
 15 02 24 00 42 30.0000000  0  7G16G18G19G21G22G27G31
  20948675.660   110086062.13209  20948674.920    85781352.31448
  22204022.000   116682932.57708  22204021.500    90921766.22845
  24272584.160   127553293.09705  24272583.600    99392173.23544
  21764579.120   114373645.59408  21764578.400    89122320.80447
  23143097.140   121617826.37907  23143095.460    94767139.15645
  22106818.040   116172139.51708  22106819.960    90523762.79246
  23983994.620   126036717.36107  23983995.000    98210419.08643
 15 02 24 00 43  0.0000000  0  7G16G18G19G21G22G27G31
  20939295.180   110036767.20309  20939294.380    85742940.68047
  22195673.980   116639063.56508  22195673.500    90887582.58245
  24257394.580   127473471.17405  24257394.060    99329974.38343
  21774667.020   114426657.54608  21774666.280    89163628.80847
  23125906.240   121527487.60107  23125904.500    94696745.33845
  22095710.500   116113768.70608  22095712.320    90478279.05246
  24002706.120   126135045.55907  24002706.440    98287038.34544
 15 02 24 00 43 30.0000000  0  7G16G18G19G21G22G27G31
  20929990.260   109987869.37209  20929989.440    85704838.47948
  22187402.140   116595594.83108  22187401.660    90853710.85446
  24242220.140   127393729.21105  24242219.520    99267837.82144
  21784802.900   114479921.36408  21784802.060    89205133.07447
  23108741.580   121437286.49307  23108739.780    94626458.79545
  22084627.280   116055525.60808  22084629.000    90432894.82647
  24021421.500   126233394.06806  24021421.820    98363673.41744
 15 02 24 00 44  0.0000000  0  7G16G18G19G21G22G27G31
  20920761.440   109939371.56609  20920760.660    85667047.99248
  22179207.000   116552529.20008  22179206.620    90820153.22446
  24227061.000   127314064.48105  24227059.840    99205769.56544
  21794986.460   114533435.76008  21794985.540    89246832.59947
  23091603.780   121347226.50507  23091602.020    94556282.20345
  22073568.600   115997411.33208  22073570.260    90387610.98747
  24040140.260   126331760.92206  24040140.680    98440322.77944
 15 02 24 00 44 30.0000000  0  7G16G18G19G21G22G27G31
  20911608.840   109891274.09509  20911608.000    85629569.43847
  22171088.560   116509866.29008  22171088.200    90786909.40545
  24211916.900   127234482.83605  24211915.520    99143757.90444
  21805217.020   114587197.20608  21805216.020    89288724.62547
  23074492.940   121257308.30007  23074491.220    94486216.10045
  22062534.000   115939423.85808  22062535.700    90342425.95246
  24058861.380   126430140.74606  24058862.100    98516982.27644
 15 02 24 00 45  0.0000000  0  7G16G18G19G21G22G27G31
  20902532.340   109843576.36609  20902531.340    85592402.37947
  22163046.640   116467605.78308  22163046.320    90753979.16145
  24196787.580   127154978.25106  24196786.500    99081806.34543
  21815493.820   114641201.74208  21815492.800    89330806.06947
  23057409.100   121167532.35407  23057407.420    94416260.85245
  22051523.040   115881561.20608  22051524.840    90297338.20047
  24077584.060   126528528.91007  24077584.860    98593648.23644
 15 02 24 00 45 30.0000000  0  7G16G18G19G21G22G27G31
  20893532.500   109796281.57509  20893531.400    85555549.29347
  22155081.800   116425750.54208  22155081.480    90721364.69245
  24181673.280   127075551.50106  24181672.240    99019915.39744
  21825816.720   114695448.39308  21825815.580    89373076.19347
  23040352.960   121077902.10108  23040351.380    94346419.13045
  22040536.140   115823824.87008  22040537.920    90252348.86146
  24096307.920   126626923.70006  24096309.000    98670319.36644
 15 02 24 00 46  0.0000000  0  7G16G18G19G21G22G27G31
  20884610.820   109749397.67509  20884609.720    85519016.38848
  22147195.480   116384307.61908  22147195.180    90689071.51945
  24166574.960   126996208.86306  24166573.880    98958090.00044
  21836186.380   114749941.28808  21836185.200    89415538.17846
  23023326.360   120988426.90307  23023324.780    94276698.23144
  22029574.360   115766220.85508  22029576.240    90207462.62947
  24115033.700   126725328.18306  24115034.920    98746998.03044
 15 02 24 00 46 30.0000000  0  7G16G18G19G21G22G27G31
  20875766.800   109702921.99709  20875765.700    85482801.57048
  22139387.160   116343274.76008  22139386.900    90657097.87345
  24151491.780   126916945.76506  24151490.640    98896326.59845
  21846601.780   114804674.32908  21846600.540    89458187.29547
  23006328.860   120899104.66907  23006327.300    94207096.53145
  22018637.000   115708744.74008  22018638.880    90162676.06847
  24133759.920   126823734.72606  24133760.920    98823678.29644
 15 02 24 00 47  0.0000000  0  7G16G18G19G21G22G27G31
  20867000.920   109656857.27009  20866999.900    85446906.98648
  22131657.420   116302654.52408  22131657.060    90625445.74945
  24136423.920   126837762.91706  24136422.640    98834625.72544
  21857062.560   114859646.09408  21857061.300    89501022.43347
  22989361.040   120809938.92707  22989359.620    94137616.76745
  22007724.220   115651397.60808  22007726.060    90117990.01947
  24152486.240   126922141.36106  24152486.840    98900358.63144
 15 02 24 00 47 30.0000000  0  7G16G18G19G21G22G27G31
  20858313.700   109611205.70809  20858312.660    85411334.34248
  22124006.560   116262448.59108  22124006.100    90594116.45946
  24121371.400   126758660.90406  24121370.080    98772987.81345
  21867568.540   114914855.14208  21867567.320    89544042.46447
  22972423.440   120720932.06607  22972422.200    94068260.81044
  21996835.980   115594179.70108  21996837.900    90073404.65647
  24171212.060   127020545.15306  24171212.220    98977036.72044
 15 02 24 00 48  0.0000000  0  7G16G18G19G21G22G27G31
  20849705.160   109565967.84309  20849704.180    85376084.05748
  22116434.520   116222657.40508  22116434.180    90563110.36045
  24106334.140   126679638.69706  24106332.700    98711412.11744
  21878119.040   114970298.63008  21878117.900    89587245.17247
  22955516.480   120632086.05607  22955515.280    93999030.18845
  21985972.120   115537090.13408  21985974.160    90028919.30647
  24189936.700   127118942.47906  24189936.340    99053709.82844
 15 02 24 00 48 30.0000000  0  7G16G18G19G21G22G27G31
  20841176.700   109521150.75909  20841175.800    85341161.65848
  22108942.760   116183287.99608  22108942.400    90532432.91345
  24091312.720   126600701.07506  24091311.300    98649902.30644
  21888714.800   115025979.92908  21888713.720    89630633.18946
  22938641.520   120543408.18407  22938640.480    93929930.58045
  21975133.660   115480134.16508  21975135.700    89984538.05447
  24208660.500   127217335.40606  24208659.940    99130379.45344
 15 02 24 00 49  0.0000000  0  7G16G18G19G21G22G27G31
  20832727.760   109476751.33509  20832726.920    85306564.70248
  22101530.600   116144336.51108  22101530.100    90502081.11145
  24076306.440   126521842.78607  24076304.980    98588454.33844
  21899354.320   115081891.27908  21899353.260    89674200.47046
  22921798.280   120454896.43708  22921797.200    93860960.41645
  21964319.680   115423306.82908  21964321.760    89940257.03346
  24227381.820   127315715.69706  24227381.600    99207039.23844
 15 02 24 00 49 30.0000000  0  7G16G18G19G21G22G27G31
  20824359.100   109432773.71909  20824358.240    85272296.42847
  22094198.640   116105807.04308  22094198.180    90472058.16145
  24061315.840   126443066.68607  24061314.460    98527070.38843
  21910037.880   115138034.18608  21910036.840    89717948.18846
  22904987.620   120366556.02507  22904986.520    93792123.76845
  21953530.720   115366610.96308  21953532.840    89896078.45347
  24246100.680   127414083.41106  24246100.880    99283689.20244
 15 02 24 00 50  0.0000000  0  7G16G18G19G21G22G27G31
  20816071.000   109389219.38609  20816070.080    85238357.98747
  22086947.240   116067700.74008  22086946.820    90442364.95445
  24046340.780   126364372.04607  24046339.300    98465749.90644
  21920764.960   115194405.58708  21920763.880    89761873.95346
  22888209.900   120278388.55308  22888208.680    93723421.87344
  21942766.640   115310045.84808  21942768.780    89852001.76046
  24264816.440   127512434.68107  24264816.900    99360326.39144
 15 02 24 00 50 30.0000000  0  7G16G18G19G21G22G27G31
  20807863.820   109346090.04609  20807862.820    85204750.70948
  22079776.620   116030018.93508  22079776.120    90413002.51545
  24031381.220   126285759.04907  24031379.700    98404493.07644
  21931535.200   115251003.56208  21931534.140    89805976.26146
  22871465.620   120190396.69408  22871464.280    93654856.82144
  21932027.580   115253611.82808  21932029.680    89808027.21946
  24283528.520   127610766.85006  24283529.440    99436948.63744
 15 02 24 00 51  0.0000000  0  7G16G18G19G21G22G27G31
  20799738.380   109303390.48909  20799737.380    85171478.31948
  22072687.540   115992766.24108  22072687.040    90383974.45845
  24016437.680   126207230.83607  24016436.180    98343302.26744
  21942348.800   115307829.41308  21942347.800    89850256.13546
  22854755.800   120102585.76908  22854754.340    93586432.76045
  21921314.060   115197312.13908  21921316.180    89764157.35747
  24302236.820   127709079.89506  24302238.420    99513556.00044
 15 02 24 00 51 30.0000000  0  7G16G18G19G21G22G27G31
  20791693.660   109261115.15609  20791692.680    85138536.50548
  22065679.060   115955936.45908  22065678.520    90355275.94345
  24001508.900   126128779.38907  24001507.220    98282171.30644
  21953204.100   115364874.29208  21953203.100    89894706.68846
  22838079.580   120014951.70708  22838078.020    93518146.51145
  21910624.700   115141139.39908  21910626.840    89720386.41747
  24320939.580   127807363.62606  24320941.540    99590140.52143
 15 02 24 00 52  0.0000000  0  7G16G18G19G21G22G27G31
  20783731.420   109219273.43109  20783730.480    85105932.56148
  22058752.880   115919539.20808  22058752.360    90326914.45545
  23986596.240   126050412.83706  23986594.640    98221106.47343
  21964102.200   115422144.12608  21964101.180    89939332.52046
  22821438.960   119927504.56108  22821437.340    93450005.91345
  21899961.060   115085101.58808  21899963.240    89676720.61747
  24339637.680   127905622.91206  24339639.720    99666705.95544
 15 02 24 00 52 30.0000000  0  7G16G18G19G21G22G27G31
  20775851.260   109177863.32609  20775850.400    85073664.95548
  22051908.440   115883572.09008  22051908.020    90298888.15245
  23971698.940   125972127.28106  23971697.480    98160104.79243
  21975041.940   115479632.79308  21975040.960    89984128.88446
  22804833.660   119840242.80308  22804831.900    93382009.77245
  21889322.400   115029195.04408  21889324.540    89633157.10347
  24358329.980   128003850.97307  24358331.840    99743247.07243
 15 02 24 00 53  0.0000000  0  7G16G18G19G21G22G27G31
  20768054.380   109136890.37409  20768053.520    85041737.97348
  22045146.920   115848040.17308  22045146.540    90271200.94145
  23956817.700   125893926.65405  23956816.480    98099169.29444
  21986023.580   115537341.75008  21986022.620    90029096.89846
  22788264.880   119753173.02108  22788263.040    93314163.21845
  21878709.380   114973423.61008  21878711.540    89589698.86547
  24377016.720   128102048.72306  24377018.060    99819764.58843
 15 02 24 00 53 30.0000000  0  7G16G18G19G21G22G27G31
  20760340.920   109096355.78409  20760340.060    85010152.57348
  22038468.380   115812944.29808  22038468.060    90243853.51646
  23941952.380   125815810.37005  23941951.420    98038299.51044
  21997046.700   115595268.91008  21997045.760    90074234.93746
  22771733.060   119666297.51308  22771731.120    93246468.04645
  21868122.040   114917787.05708  21868124.240    89546345.71947
  24395697.020   128200212.49706  24395697.940    99896255.56243
 15 02 24 00 54  0.0000000  0  7G16G18G19G21G22G27G31
  20752710.480   109056257.79309  20752709.700    84978907.38948
  22031872.400   115778282.26808  22031872.120    90216844.16345
  23927102.460   125737774.43405  23927101.340    97977492.34844
  22008110.340   115653409.16208  22008109.460    90119539.02946
  22755237.960   119579614.96008  22755235.920    93178923.22745
  21857559.840   114862281.99608  21857561.920    89503095.03847
  24414369.740   128298336.20806  24414370.480    99972715.32443
 15 02 24 00 54 30.0000000  0  7G16G18G19G21G22G27G31
  20745164.160   109016601.61109  20745163.420    84948006.46248
  22025360.040   115744059.07308  22025359.560    90190176.74045
  23912268.420   125659822.63805  23912267.660    97916750.64144
  22019214.900   115711764.08908  22019214.020    90165010.40146
  22738780.720   119493131.52208  22738778.560    93111533.56845
  21847023.400   114806912.08608  21847025.360    89459949.67547
  24433034.820   128396420.40206  24433035.180   100049144.32743
 15 02 24 00 55  0.0000000  0  7G16G18G19G21G22G27G31
  20737701.420   108977384.76309  20737700.660    84917447.87948
  22018930.600   115710271.83208  22018930.080    90163849.03745
  23897449.840   125581951.08706  23897449.240    97856071.59944
  22030359.180   115770327.76808  22030358.280    90210644.42846
  22722361.000   119406845.65008  22722358.760    93044297.86344
  21836511.900   114751673.39508  21836513.780    89416906.55147
  24451690.860   128494458.25506  24451691.160   100125537.18644
 15 02 24 00 55 30.0000000  0  7G16G18G19G21G22G27G31
  20730323.720   108938614.64009  20730322.940    84887237.39448
  22012585.320   115676927.17208  22012584.860    90137866.21145
  23882647.620   125504165.45005  23882647.120    97795459.43944
  22041543.740   115829102.99608  22041542.780    90256443.30146
  22705980.500   119320765.67808  22705978.220    92977222.56845
  21826026.460   114696571.72308  21826028.340    89373970.19147
  24470338.580   128592452.51906  24470339.040   100201896.06744
 15 02 24 00 56  0.0000000  0  7G16G18G19G21G22G27G31
  20723030.440   108900288.39509  20723029.620    84857372.78748
  22006323.860   115644022.80908  22006323.320    90112226.45045
  23867860.860   125426460.72506  23867860.480    97734910.31943
  22052767.520   115888084.34708  22052766.520    90302402.79246
  22689638.760   119234889.43108  22689636.540    92910306.04745
  21815566.280   114641602.80408  21815568.140    89331137.28047
  24488976.460   128690395.46006  24488977.320   100278214.95544
 15 02 24 00 56 30.0000000  0  7G16G18G19G21G22G27G31
  20715822.160   108862408.82209  20715821.380    84827856.24148
  22000146.580   115611560.64708  22000145.940    90086931.25545
  23853089.840   125348838.44106  23853089.400    97674425.43343
  22064030.340   115947270.63208  22064029.340    90348521.97346
  22673336.440   119149220.38408  22673334.300    92843550.97245
  21805131.560   114586767.98508  21805133.420    89288408.86047
  24507604.460   128788285.51206  24507605.440   100354492.68443
 15 02 24 00 57  0.0000000  0  7G16G18G19G21G22G27G31
  20708699.760   108824980.40009  20708699.020    84798691.23248
  21994054.100   115579544.29108  21994053.460    90061983.45745
  23838335.020   125271301.01007  23838334.460    97614006.68243
  22075332.360   116006663.17408  22075331.420    90394801.86946
  22657074.600   119063764.28208  22657072.480    92776961.82245
  21794722.900   114532069.89008  21794724.660    89245786.99047
  24526222.500   128886122.58806  24526223.460   100430729.02144
 15 02 24 00 57 30.0000000  0  7G16G18G19G21G22G27G31
  20701663.340   108788003.48509  20701662.560    84769878.04848
  21988046.540   115547973.98208  21988045.840    90037383.23745
  23823596.140   125193847.31607  23823595.560    97553653.19544
  22086672.980   116066258.45808  22086671.960    90441239.74546
  22640853.600   118978522.40708  22640851.520    92710539.61345
  21784340.120   114477507.78108  21784341.740    89203271.07147
  24544829.780   128983902.62806  24544830.760   100506920.93043
 15 02 24 00 58  0.0000000  0  7G16G18G19G21G22G27G31
  20694713.400   108751481.29309  20694712.620    84741419.19748
  21982124.400   115516853.22108  21982123.740    90013133.31145
  23808873.480   125116478.87607  23808873.020    97493366.13845
  22098052.220   116126056.30808  22098051.080    90487835.46446
  22624674.120   118893498.60308  22624671.960    92644287.32045
  21773983.580   114423083.31508  21773985.060    89160862.40547
  24563425.960   129081624.44306  24563427.000   100583067.47744
 15 02 24 00 58 30.0000000  0  7G16G18G19G21G22G27G31
  20687849.760   108715412.71309  20687848.960    84713313.80648
  21976287.400   115486180.01008  21976286.820    89989232.10845
  23794166.540   125039193.20407  23794166.100    97433143.54444
  22109469.100   116186051.90808  22109467.840    90534585.28246
  22608536.060   118808692.74108  22608533.820    92578204.85545
  21763652.700   114368794.10108  21763654.160    89118559.12147
  24582010.000   129179282.41906  24582010.920   100659164.32543
 15 02 24 00 59  0.0000000  0  7G16G18G19G21G22G27G31
  20681073.360   108679802.42809  20681072.500    84685565.53048
  21970536.440   115455958.67608  21970535.900    89965683.02546
  23779475.920   124961993.17807  23779475.500    97372987.72345
  22120923.760   116246246.38208  22120922.400    90581490.05646
  22592440.600   118724110.37208  22592438.280    92512296.53845
  21753348.100   114314643.31208  21753349.580    89076363.70547
  24600581.880   129276876.76205  24600583.180   100735211.53244
 15 02 24 00 59 30.0000000  0  7G16G18G19G21G22G27G31
  20674384.460   108644651.56409  20674383.520    84658175.24648
  21964871.500   115426189.54208  21964870.960    89942486.31746
  23764801.560   124884878.22807  23764800.940    97312898.17645
  22132415.920   116306637.64108  22132414.360    90628548.18046
  22576388.140   118639753.79208  22576385.760    92446564.17345
  21743069.820   114260630.64908  21743071.220    89034275.92047
  24619140.800   129374403.96206  24619142.800   100811206.40245
 15 02 24 01 00  0.0000000  0  7G16G18G19G21G22G27G31
  20667783.260   108609961.82709  20667782.300    84631144.28448
  21959292.940   115396874.30808  21959292.360    89919643.29045
  23750143.340   124807848.69907  23750142.580    97252875.19744
  22143945.240   116367224.09308  22143943.500    90675758.39746
  22560379.120   118555625.67708  22560376.600    92381009.82645
  21732817.920   114206756.61208  21732819.240    88992296.16746
  24637686.560   129471861.64806  24637689.160   100887147.13445
 15 02 24 01 00 30.0000000  0  7G16G18G19G21G22G27G31
  20661269.780   108575733.14809  20661268.820    84604472.58848
  21953800.540   115368011.82708  21953799.960    89897153.05045
  23735501.080   124730902.52307  23735500.080    97192917.16444
  22155511.020   116428002.13108  22155509.180    90723117.90445
  22544413.700   118471726.76008  22544411.060    92315634.06945
  21722592.080   114153019.64108  21722593.420    88950423.21146
  24656218.100   129569245.26905  24656221.160   100963030.11141
 15 02 24 01 01  0.0000000  0  7G16G18G19G21G22G27G31
  20654844.960   108541970.36009  20654843.940    84578163.92247
  21948395.300   115339607.55408  21948394.920    89875019.86845
  23720875.240   124654043.39306  23720874.140    97133026.96045
  22167113.440   116488972.95708  22167111.580    90770627.62745
  22528492.940   118388062.33108  22528490.220    92250441.03845
  21712392.980   114099423.22408  21712394.460    88908659.78346
  24674735.840   129666554.98406  24674739.040   101038855.51544
 15 02 24 01 01 30.0000000  0  7G16G18G19G21G22G27G31
  20648508.700   108508672.56809  20648507.500    84552217.58347
  21943076.960   115311659.72508  21943076.700    89853242.34745
  23706265.540   124577268.86807  23706264.560    97073202.69144
  22178751.700   116550132.51008  22178749.800    90818284.41646
  22512616.940   118304633.45908  22512614.280    92185431.55245
  21702220.180   114045965.28308  21702221.720    88867004.25547
  24693238.740   129763786.00206  24693241.760   101114619.56844
 15 02 24 01 02  0.0000000  0  6G16G18G19G21G22G27
  20642259.340   108475831.84209  20642258.120    84526627.41548
  21937843.940   115284159.83008  21937843.640    89831813.86445
  23691670.000   124500569.12106  23691669.080    97013436.70844
  22190423.600   116611469.28408  22190421.760    90866079.29846
  22496784.380   118221432.80008  22496781.740    92120599.91145
  21692071.900   113992636.36008  21692073.580    88825449.27146
 15 02 24 01 02 30.0000000  0  6G16G18G19G21G22G27
  20636102.280   108443476.30409  20636101.040    84501415.30447
  21932701.440   115257135.43408  21932701.100    89810755.91645
  23677093.800   124423971.13506  23677092.840    96953749.98844
  22202134.000   116673008.00708  22202132.240    90914031.55445
  22481000.780   118138489.30108  22480998.100    92055968.63645
  21681953.320   113939463.50708  21681955.160    88784015.88747
 15 02 24 01 03  0.0000000  0  6G16G18G19G21G22G27
  20630034.260   108411588.92309  20630033.080    84476567.99947
  21927646.080   115230569.11508  21927645.680    89790054.89445
  23662533.380   124347456.06606  23662532.620    96894127.89844
  22213878.960   116734728.36408  22213877.320    90962125.33545
  22465262.940   118055786.77208  22465260.340    91991525.13945
  21671861.000   113886428.32808  21671862.920    88742689.79646
 15 02 24 01 03 30.0000000  0  6G16G18G19G21G22G27
  20624056.340   108380175.08509  20624055.240    84452089.68948
  21922678.760   115204465.75308  21922678.320    89769714.61845
  23647989.540   124271028.56506  23647988.780    96834573.99444
  22225658.800   116796632.31908  22225657.320    91010362.17745
  22449572.180   117973331.85308  22449569.720    91927274.58345
  21661795.680   113833534.90908  21661797.600    88701474.15747
 15 02 24 01 04  0.0000000  0  6G16G18G19G21G22G27
  20618168.520   108349234.42709  20618167.420    84427980.08348
  21917799.480   115178824.70108  21917798.880    89749734.58845
  23633461.840   124194685.76607  23633461.040    96775086.15543
  22237472.860   116858716.28608  22237471.560    91058739.29145
  22433928.660   117891125.05508  22433926.360    91863217.36945
  21651757.100   113780781.76008  21651758.980    88660367.82246
 15 02 24 01 04 30.0000000  0  6G16G18G19G21G22G27
  20612370.900   108318767.84909  20612369.800    84404239.89447
  21913008.260   115153646.19508  21913007.580    89730114.98745
  23618950.440   124118427.41906  23618949.580    96715664.11744
  22249320.680   116920977.67508  22249319.580    91107254.65245
  22418332.700   117809168.41008  22418330.520    91799355.09145
  21641745.180   113728168.46108  21641747.040    88619370.46647
 15 02 24 01 05  0.0000000  0  6G16G18G19G21G22G27
  20606664.680   108288781.57109  20606663.600    84380873.96747
  21908306.220   115128936.34008  21908305.400    89710860.57145
  23604455.920   124042258.57506  23604455.180    96656311.79844
  22261202.840   116983419.16508  22261201.780    91155910.37145
  22402785.800   117727469.13508  22402783.600    91735693.34545
  21631760.840   113675700.18408  21631762.720    88578486.11947
 15 02 24 01 05 30.0000000  0  6G16G18G19G21G22G27
  20601049.760   108259275.03609  20601048.660    84357881.85848
  21903693.060   115104693.69208  21903692.080    89691970.20445
  23589978.060   123966177.01306  23589977.200    96597027.49044
  22273118.580   117046037.34008  22273117.580    91204703.73746
  22387288.040   117646027.74108  22387285.840    91672232.54145
  21621803.680   113623375.12608  21621805.580    88537713.35747
 15 02 24 01 06  0.0000000  0  6G16G18G19G21G22G27
  20595526.100   108230248.15609  20595525.000    84335263.51447
  21899168.600   115080917.72008  21899167.500    89673443.47745
  23575516.640   123890181.31506  23575515.640    96537810.11443
  22285067.300   117108828.76308  22285066.340    91253632.11945
  22371839.400   117564844.92408  22371837.280    91608973.23445
  21611873.540   113571192.07708  21611875.420    88497051.25546
 15 02 24 01 06 30.0000000  0  6G16G18G19G21G22G27
  20590094.240   108201703.54209  20590093.140    84313020.95748
  21894733.340   115057610.53408  21894732.200    89655282.05245
  23561071.920   123814272.67107  23561070.600    96478660.56744
  22297048.840   117171792.17108  22297047.880    91302694.51246
  22356440.660   117483924.48508  22356438.640    91545918.38545
  21601970.760   113519152.41008  21601972.540    88456500.87747
 15 02 24 01 07  0.0000000  0  6G16G18G19G21G22G27
  20584754.600   108173643.60709  20584753.540    84291156.07548
  21890387.600   115034773.97108  21890386.580    89637487.33746
  23546643.920   123738452.18907  23546642.440    96419579.69744
  22309063.160   117234927.76208  22309062.220    91351891.07446
  22341092.620   117403269.86208  22341090.520    91483070.64545
  21592095.520   113467257.53408  21592097.220    88416063.32847
 15 02 24 01 07 30.0000000  0  6G16G18G19G21G22G27
  20579508.240   108146073.84409  20579507.240    84269673.14348
  21886132.340   115012413.11508  21886131.580    89620063.29346
  23532233.260   123662723.86007  23532231.760    96360570.61744
  22321110.680   117298237.67008  22321109.760    91401223.46446
  22325796.320   117322887.56508  22325794.200    91420435.10645
  21582248.640   113415511.77008  21582250.360    88375741.97647
 15 02 24 01 08  0.0000000  0  6G16G18G19G21G22G27
  20574354.100   108118988.65609  20574353.160    84248567.80348
  21881966.460   114990521.94508  21881965.960    89603005.25045
  23517838.880   123587081.12407  23517837.300    96301628.24844
  22333189.680   117361713.10908  22333188.820    91450684.84446
  22310551.000   117242773.23808  22310548.920    91358008.39246
  21572428.920   113363908.62008  21572430.540    88335531.74147
 15 02 24 01 08 30.0000000  0  6G16G18G19G21G22G27
  20569293.360   108092394.37409  20569292.440    84227844.98748
  21877891.140   114969106.08608  21877890.640    89586317.57545
  23503461.500   123511528.40707  23503459.960    96242756.02944
  22345300.640   117425356.35808  22345299.840    91500276.98146
  22295358.200   117162934.43508  22295356.040    91295796.34845
  21562637.300   113312453.08808  21562638.840    88295436.53747
 15 02 24 01 09  0.0000000  0  6G16G18G19G21G22G27
  20564325.780   108066289.50209  20564324.880    84207503.52648
  21873906.000   114948163.85808  21873905.460    89569998.97046
  23489100.880   123436063.14707  23489099.380    96183951.95744
  22357442.780   117489163.62108  22357442.080    91549996.92346
  22280217.740   117083370.63908  22280215.620    91233798.61246
  21552873.320   113261142.79308  21552874.800    88255454.50547
 15 02 24 01 09 30.0000000  0  6G16G18G19G21G22G27
  20559451.820   108040676.63509  20559451.000    84187545.45648
  21870011.320   114927696.98508  21870010.740    89554050.77046
  23474757.320   123360686.76007  23474755.740    96125217.13944
  22369615.920   117553134.12408  22369615.300    91599844.06246
  22265130.080   117004084.77108  22265127.980    91172017.44345
  21543137.240   113209979.27908  21543138.700    88215586.84647
 15 02 24 01 10  0.0000000  0  6G16G18G19G21G22G27
  20554671.780   108015557.39709  20554671.000    84167972.01848
  21866207.280   114907706.68008  21866206.760    89538473.91346
  23460430.680   123285399.66707  23460429.000    96066551.87144
  22381819.820   117617266.16008  22381819.220    91649817.07846
  22250096.120   116925080.78108  22250093.940    91110455.91645
  21533429.200   113158963.27708  21533430.700    88175834.13547
 15 02 24 01 10 30.0000000  0  6G16G18G19G21G22G27
  20549985.840   107990932.77109  20549985.080    84148783.99848
  21862494.060   114888193.50608  21862493.560    89523268.84945
  23446121.040   123210201.61507  23446119.200    96007956.01544
  22394054.220   117681558.11608  22394053.600    91699914.69845
  22235116.120   116846360.36508  22235113.860    91049115.35345
  21523749.240   113108094.90409  21523750.780    88136196.45847
 15 02 24 01 11  0.0000000  0  6G16G18G19G21G22G27
  20545394.720   107966806.22009  20545393.900    84129984.08848
  21858872.100   114869160.01808  21858871.600    89508437.57546
  23431828.680   123135094.44607  23431826.820    95949430.98445
  22406319.020   117746009.74908  22406318.440    91750136.74645
  22220190.880   116767927.93908  22220188.620    90987999.19945
  21514097.720   113057376.12408  21514099.260    88096675.32947
 15 02 24 01 11 30.0000000  0  6G16G18G19G21G22G27
  20540898.580   107943178.69309  20540897.700    84111573.01948
  21855341.500   114850606.67608  21855341.000    89493980.42845
  23417553.620   123060078.14507  23417551.760    95890976.76045
  22418613.740   117810618.46608  22418613.120    91800481.19545
  22205320.800   116689785.40608  22205318.520    90927108.93145
  21504474.740   113006807.12509  21504476.220    88057270.91847
 15 02 24 01 12  0.0000000  0  6G16G18G19G21G22G27
  20536497.720   107920052.04609  20536496.820    84093552.25448
  21851902.560   114832535.18208  21851902.080    89479898.76345
  23403295.860   122985153.04207  23403294.040    95832593.60244
  22430938.220   117875384.01908  22430937.580    91850947.84745
  22190506.480   116611935.91608  22190504.140    90866447.01045
  21494880.460   112956388.98208  21494881.940    88017984.05646
 15 02 24 01 12 30.0000000  0  6G16G18G19G21G22G27
  20532192.300   107897426.89609  20532191.440    84075922.27048
  21848555.320   114814945.40408  21848554.800    89466192.44845
  23389055.340   122910319.38506  23389053.580    95774281.70845
  22443292.180   117940304.25208  22443291.420    91901535.04345
  22175748.300   116534381.64508  22175746.000    90806015.12746
  21485314.940   112906121.79108  21485316.460    87978814.82247
 15 02 24 01 13  0.0000000  0  6G16G18G19G21G22G27
  20527982.940   107875306.49709  20527982.120    84058685.59648
  21845300.220   114797839.73508  21845299.680    89452863.36246
  23374832.320   122835578.49206  23374830.880    95716042.09044
  22455675.420   118005378.64908  22455674.560    91952242.35345
  22161047.040   116457125.98908  22161044.700    90745815.93345
  21475778.520   112856007.25508  21475780.060    87939764.53147
 15 02 24 01 13 30.0000000  0  6G16G18G19G21G22G27
  20523869.000   107853687.19109  20523868.060    84041839.38448
  21842136.560   114781214.44008  21842136.020    89439908.59845
  23360626.240   122760925.66506  23360624.780    95657871.07144
  22468086.840   118070601.03508  22468085.940    92003064.98645
  22146402.300   116380167.29008  22146399.940    90685848.13246
  21466270.320   112806041.17508  21466271.860    87900829.92247
 15 02 24 01 14  0.0000000  0  6G16G18G19G21G22G27
  20519851.100   107832572.74809  20519850.100    84025386.56748
  21839064.860   114765072.40508  21839064.240    89427330.39645
  23346437.620   122686364.23506  23346436.200    95599771.30245
  22480526.620   118135972.28108  22480525.600    92054003.60545
  22131815.040   116303510.67708  22131812.680    90626115.72545
  21456790.920   112756226.72808  21456792.480    87862013.48147
 15 02 24 01 14 30.0000000  0  6G16G18G19G21G22G27
  20515929.440   107811964.43809  20515928.460    84009328.14348
  21836085.280   114749414.50408  21836084.580    89415129.44246
  23332266.320   122611893.71106  23332265.020    95541742.35345
  22492994.340   118201490.49508  22492993.240    92105056.75745
  22117285.720   116227158.34808  22117283.300    90566620.42446
  21447340.320   112706564.22308  21447342.000    87823315.43347
 15 02 24 01 15  0.0000000  0  6G16G18G19G21G22G27
  20512104.560   107791864.86309  20512103.620    83993666.13448
  21833198.160   114734242.44408  21833197.380    89403307.06645
  23318112.620   122537515.58906  23318111.280    95483785.37545
  22505490.000   118267155.24008  22505488.820    92156224.07245
  22102814.980   116151114.00408  22102812.560    90507365.11045
  21437918.960   112657055.26008  21437920.680    87784737.02447
 15 02 24 01 15 30.0000000  0  6G16G18G19G21G22G27
  20508376.760   107772275.40909  20508375.880    83978401.62548
  21830403.720   114719557.45808  21830402.880    89391864.22645
  23303976.620   122463230.19207  23303975.140    95425900.69745
  22518013.300   118332965.16308  22518011.980    92207504.51945
  22088403.280   116075380.11708  22088400.960    90448351.70446
  21428527.060   112607700.72309  21428528.760    87746278.94647
 15 02 24 01 16  0.0000000  0  6G16G18G19G21G22G27
  20504745.980   107753195.66809  20504745.120    83963534.29748
  21827701.760   114705358.51508  21827700.860    89380800.13145
  23289858.140   122389036.50607  23289856.460    95368087.45644
  22530563.600   118398917.04308  22530562.160    92258895.58045
  22074050.880   115999957.64408  22074048.640    90389580.97046
  21419164.420   112558499.40009  21419166.000    87707940.24847
 15 02 24 01 16 30.0000000  0  6G16G18G19G21G22G27
  20501212.740   107734628.62209  20501211.900    83949066.46848
  21825092.680   114691647.54408  21825091.760    89370116.26246
  23275757.440   122314936.32306  23275755.640    95310347.08644
  22543140.960   118465011.03308  22543139.420    92310397.38045
  22059758.480   115924850.68008  22059756.280    90331056.07746
  21409831.320   112509453.38109  21409832.800    87669722.56747
 15 02 24 01 17  0.0000000  0  6G16G18G19G21G22G27
  20497777.980   107716578.90409  20497777.100    83935001.74948
  21822577.280   114678428.88408  21822576.360    89359816.01045
  23261675.020   122240933.01906  23261673.340    95252682.20945
  22555745.680   118531248.79208  22555744.000    92362011.20645
  22045527.240   115850065.22708  22045525.040    90272781.70946
  21400528.520   112460566.71909  21400529.900    87631629.06447
 15 02 24 01 17 30.0000000  0  6G16G18G19G21G22G27
  20494440.560   107699040.51509  20494439.640    83921335.46848
  21820154.320   114665696.03508  21820153.420    89349894.31746
  23247609.840   122167019.62407  23247608.100    95195087.37844
  22568376.020   118597621.46608  22568374.400    92413730.15945
  22031356.320   115775596.61108  22031354.140    90214754.23646
  21391254.780   112411832.90008  21391256.120    87593654.65347
 15 02 24 01 18  0.0000000  0  6G16G18G19G21G22G27
  20491201.800   107682020.65909  20491200.920    83908073.23848
  21817824.860   114653454.86108  21817824.000    89340355.75646
  23233562.940   122093202.42907  23233561.140    95137567.49845
  22581032.840   118664133.26808  22581031.260    92465557.52045
  22017247.220   115701453.03208  22017245.120    90156980.03546
  21382011.320   112363258.18409  21382012.720    87555804.22647
 15 02 24 01 18 30.0000000  0  6G16G18G19G21G22G27
  20488061.440   107665517.89009  20488060.580    83895213.94048
  21815588.780   114641704.46808  21815588.000    89331199.60746
  23219533.840   122019479.02207  23219532.140    95080120.71644
  22593715.400   118730780.50008  22593713.840    92517490.41845
  22003199.980   115627634.42108  22003198.000    90099459.05046
  21372797.780   112314840.63708  21372799.340    87518076.27047
 15 02 24 01 19  0.0000000  0  6G16G18G19G21G22G27
  20485019.960   107649534.71809  20485019.100    83882759.51448
  21813446.360   114630446.39008  21813445.720    89322427.08746
  23205522.960   121945851.67907  23205521.300    95022748.76545
  22606423.580   118797562.81708  22606422.080    92569528.57746
  21989215.400   115554144.74708  21989213.400    90042194.38946
  21363614.540   112266582.34309  21363616.280    87480472.40548
 15 02 24 01 19 30.0000000  0  6G16G18G19G21G22G27
  20482077.360   107634071.00109  20482076.420    83870709.85848
  21811397.520   114619679.74708  21811396.920    89314037.50546
  23191530.040   121872318.58507  23191528.300    94965450.25045
  22619156.900   118864477.25208  22619155.440    92621669.68345
  21975293.620   115480984.96308  21975291.500    89985186.77346
  21354461.420   112218482.32809  21354463.300    87442991.88048
 15 02 24 01 20  0.0000000  0  6G16G18G19G21G22G27
  20479233.900   107619128.14209  20479232.880    83859066.06648
  21809442.420   114609405.59808  21809441.820    89306031.68346
  23177555.300   121798880.57107  23177553.400    94908225.83945
  22631915.060   118931522.39008  22631913.760    92673912.62146
  21961435.000   115408157.69908  21961432.940    89928438.28346
  21345338.680   112170541.62709  21345340.520    87405635.49448
 15 02 24 01 20 30.0000000  0  6G16G18G19G21G22G27
  20476489.820   107604707.74409  20476488.760    83847829.38848
  21807581.080   114599624.26108  21807580.580    89298409.86046
  23163598.660   121725538.10807  23163596.660    94851075.90845
  22644698.020   118998697.34208  22644696.820    92726256.74046
  21947640.200   115335665.68608  21947638.200    89871951.01246
  21336246.420   112122761.15008  21336248.160    87368403.95548
 15 02 24 01 21  0.0000000  0  6G16G18G19G21G22G27
  20473845.420   107590811.05509  20473844.360    83837000.79748
  21805813.660   114590336.68508  21805813.280    89291172.80946
  23149660.300   121652291.82607  23149658.180    94794000.86945
  22657505.360   119066000.20808  22657504.220    92778700.52146
  21933909.840   115263512.17508  21933907.800    89815727.51646
  21327184.700   112075141.66909  21327186.440    87331297.86448
 15 02 24 01 21 30.0000000  0  6G16G18G19G21G22G27
  20471300.800   107577439.13409  20471299.760    83826581.11448
  21804140.400   114581543.65008  21804140.040    89284321.09946
  23135740.300   121579142.02707  23135738.320    94737001.04745
  22670336.860   119133430.38208  22670335.720    92831243.48745
  21920244.120   115191698.98908  21920242.160    89759769.20946
  21318153.740   112027683.83509  21318155.480    87294317.74048
 15 02 24 01 22  0.0000000  0  6G16G18G19G21G22G27
  20468855.840   107564590.84309  20468854.780    83816569.45548
  21802560.900   114573243.08508  21802560.520    89277853.13046
  23121838.320   121506086.51107  23121836.480    94680074.69245
  22683191.820   119200983.55308  22683190.640    92883882.31845
  21906643.240   115120226.33108  21906641.300    89704076.24246
  21309153.240   111980386.00609  21309155.040    87257462.28548
 15 02 24 01 22 30.0000000  0  6G16G18G19G21G22G27
  20466511.480   107552271.26109  20466510.460    83806969.77648
  21801075.900   114565439.12608  21801075.440    89271772.13146
  23107955.120   121433129.64207  23107953.400    94623225.19245
  22696070.580   119268661.75708  22696069.340    92936618.56445
  21893108.360   115049100.62708  21893106.520    89648653.63747
  21300183.980   111933252.52909  21300185.840    87220734.90448
 15 02 24 01 23  0.0000000  0  6G16G18G19G21G22G27
  20464267.580   107540479.45809  20464266.600    83797781.35248
  21799685.220   114558130.83008  21799684.680    89266077.36346
  23094090.460   121360269.94207  23094088.720    94566451.41846
  22708972.620   119336462.38008  22708971.420    92989450.21045
  21879639.640   114978322.41508  21879637.880    89593501.80047
  21291245.820   111886282.45709  21291247.740    87184134.85448
 15 02 24 01 23 30.0000000  0  6G16G18G19G21G22G27
  20462124.060   107529214.96109  20462123.040    83789003.81848
  21798388.620   114551317.36608  21798388.040    89260768.17746
  23080244.120   121287506.66107  23080242.320    94509752.79246
  22721897.340   119404382.40508  22721896.320    93042374.88845
  21866237.320   114907892.84208  21866235.540    89538621.63046
  21282338.700   111839475.15509  21282340.540    87147661.63048
 15 02 24 01 24  0.0000000  0  6G16G18G19G21G22G27
  20460081.860   107518482.84909  20460080.780    83780641.12548
  21797186.940   114545002.40108  21797186.340    89255847.43746
  23066416.820   121214843.56207  23066415.000    94453132.21645
  22734845.160   119472423.70808  22734844.220    93095394.07746
  21852902.480   114837817.51508  21852900.560    89484017.48546
  21273463.380   111792834.66509  21273465.100    87111318.39348
 15 02 24 01 24 30.0000000  0  6G16G18G19G21G22G27
  20458140.960   107508283.05409  20458139.780    83772693.22748
  21796080.040   114539185.58108  21796079.420    89251314.84646
  23052608.360   121142279.75407  23052606.580    94396589.01145
  22747815.580   119540583.70908  22747814.740    93148505.75745
  21839635.220   114768097.69008  21839633.280    89429690.36746
  21264619.740   111746360.69809  21264621.320    87075104.90448
 15 02 24 01 25  0.0000000  0  6G16G18G19G21G22G27
  20456301.000   107498614.04309  20456299.840    83765158.93148
  21795067.480   114533864.76308  21795066.780    89247168.76446
  23038818.380   121069813.31607  23038816.700    94340121.68846
  22760808.020   119608859.21608  22760807.300    93201707.43645
  21826435.860   114698734.63008  21826433.940    89375641.25246
  21255807.480   111700051.85109  21255809.060    87039020.08448
 15 02 24 01 25 30.0000000  0  6G16G18G19G21G22G27
  20454562.360   107489477.48609  20454561.240    83758039.52948
  21794149.480   114529041.05508  21794148.840    89243410.04046
  23025047.180   120997445.53707  23025045.460    94283731.23145
  22773822.220   119677249.31707  22773821.580    93254998.40745
  21813304.920   114629730.62208  21813302.900    89321871.90746
  21247026.860   111653909.43409  21247028.500    87003064.95848
 15 02 24 01 26  0.0000000  0  6G16G18G19G21G22G27
  20452925.640   107480876.31209  20452924.540    83751337.31048
  21793326.480   114524716.51608  21793325.940    89240040.26946
  23011295.160   120925178.56307  23011293.460    94227419.33245
  22786858.160   119745753.66808  22786857.720    93308378.41145
  21800243.060   114561089.70408  21800240.860    89268385.49046
  21238278.360   111607935.82209  21238280.080    86967241.36248
 15 02 24 01 26 30.0000000  0  6G16G18G19G21G22G27
  20451390.920   107472811.26509  20451389.800    83745052.84748
  21792598.440   114520891.05508  21792597.940    89237059.39646
  22997562.200   120853012.34307  22997560.640    94171185.94946
  22799915.660   119814371.31208  22799915.280    93361846.69746
  21787250.620   114492813.75308  21787248.380    89215183.45847
  21229562.020   111562131.39309  21229563.800    86931549.60148
 15 02 24 01 27  0.0000000  0  6G16G18G19G21G22G27
  20449957.820   107465280.48109  20449956.740    83739184.70048
  21791965.040   114517562.85408  21791964.600    89234465.99546
  22983848.040   120780944.50507  22983846.560    94115029.21545
  22812993.920   119883098.17908  22812993.540    93415400.07745
  21774327.640   114424902.96608  21774325.440    89162265.97046
  21220877.560   111516494.33409  21220879.340    86895988.26548
 15 02 24 01 27 30.0000000  0  6G16G18G19G21G22G27
  20448627.360   107458288.85109  20448626.320    83733736.67248
  21791427.100   114514735.81908  21791426.600    89232263.12046
  22970153.480   120708979.41707  22970151.840    94058952.55545
  22826093.320   119951936.48807  22826092.940    93469040.30945
  21761475.280   114357363.29308  21761473.060    89109637.66146
  21212225.900   111471029.32809  21212227.580    86860560.99247
 15 02 24 01 28  0.0000000  0  6G16G18G19G21G22G27
  20447398.640   107451832.01209  20447397.680    83728705.36548
  21790983.620   114512405.03208  21790983.080    89230446.92746
  22956477.700   120637112.60307  22956475.940    94002952.44945
  22839212.620   120020879.37907  22839212.300    93522762.03946
  21748693.060   114290191.95808  21748690.760    89057296.37647
  21203606.160   111425731.95509  21203607.680    86825264.33348
 15 02 24 01 28 30.0000000  0  6G16G18G19G21G22G27
  20446272.780   107445915.47809  20446271.820    83724095.07548
  21790635.380   114510574.94708  21790634.920    89229020.89346
  22942821.460   120565348.45607  22942819.600    93947032.35145
  22852352.560   120089930.50007  22852352.260    93576568.10345
  21735982.100   114223395.72008  21735979.880    89005247.37147
  21195019.160   111380607.17309  21195020.640    86790102.17048
 15 02 24 01 29  0.0000000  0  6G16G18G19G21G22G27
  20445249.660   107440538.85208  20445248.720    83719905.49048
  21790382.380   114509245.26608  21790381.940    89227984.78246
  22929184.700   120493686.48407  22929182.840    93891191.87545
  22865512.600   120159086.98307  22865512.260    93630456.24745
  21723342.900   114156976.06008  21723340.660    88953491.80747
  21186464.940   111335654.80108  21186466.460    86755074.34548
 15 02 24 01 29 30.0000000  0  6G16G18G19G21G22G27
  20444328.880   107435700.27208  20444327.980    83716135.16248
  21790224.100   114508413.34908  21790223.640    89227336.53947
  22915567.000   120422125.06608  22915565.180    93835429.73146
  22878692.140   120228345.37308  22878691.720    93684423.81346
  21710775.240   114090932.43708  21710772.880    88902029.26247
  21177943.260   111290873.30209  21177944.800    86720179.67648
 15 02 24 01 30  0.0000000  0  6G16G18G19G21G22G27
  20443511.540   107431405.38209  20443510.700    83712788.49048
  21790161.340   114508083.67408  21790160.880    89227079.64846
  22901969.240   120350668.30008  22901967.360    93779749.15145
  22891891.640   120297708.46007  22891891.120    93738472.95146
  21698280.380   114025271.56008  21698277.920    88850864.95747
  21169455.040   111246267.49109  21169456.580    86685421.91048
 15 02 24 01 30 30.0000000  0  6G16G18G19G21G22G27
  20442797.060   107427651.05309  20442796.260    83709863.03548
  21790193.480   114508252.55508  21790192.960    89227211.25846
  22888390.780   120279312.90608  22888388.820    93724147.56145
  22905109.980   120367170.66108  22905109.420    93792599.33245
  21685858.140   113959992.09608  21685855.600    88799997.85447
  21160999.680   111201834.43509  21161001.280    86650798.75648
 15 02 24 01 31  0.0000000  0  6G16G18G19G21G22G27
  20442186.240   107424441.10109  20442185.380    83707361.76448
  21790321.000   114508922.86908  21790320.500    89227733.57446
  22874832.360   120208062.49208  22874830.260    93668627.76645
  22918347.600   120436734.40908  22918346.980    93846804.84345
  21673509.460   113895099.13408  21673506.860    88749431.91647
  21152577.920   111157577.80609  21152579.560    86616313.07548
 15 02 24 01 31 30.0000000  0  6G16G18G19G21G22G27
  20441679.160   107421776.27808  20441678.240    83705285.27448
  21790544.140   114510095.80108  21790543.660    89228647.55146
  22861293.960   120136917.53808  22861291.780    93613190.14845
  22931604.040   120506397.69207  22931603.480    93901087.89645
  21661234.720   113830595.19208  21661232.180    88699169.11446
  21144189.900   111113498.60209  21144191.560    86581965.64548
 15 02 24 01 32  0.0000000  0  6G16G18G19G21G22G27
  20441275.880   107419657.02709  20441275.000    83703633.91048
  21790862.900   114511771.01208  21790862.520    89229952.91446
  22847775.600   120065878.38208  22847773.460    93557834.99045
  22944879.260   120576159.17908  22944878.560    93955447.49245
  21649034.360   113766482.25708  21649031.880    88649210.99746
  21135835.820   111069597.57909  21135837.400    86547757.05847
 15 02 24 01 32 30.0000000  0  6G16G18G19G21G22G27
  20440975.980   107418081.19508  20440975.140    83702405.98248
  21791276.600   114513944.85708  21791276.160    89231646.82646
  22834276.820   119994942.31607  22834274.680    93502560.15045
  22958172.420   120646014.76407  22958171.440    94009880.41644
  21636908.240   113702759.31008  21636905.760    88599556.76346
  21127515.220   111025872.20009  21127516.660    86513685.34447
 15 02 24 01 33  0.0000000  0  7G04G16G18G19G21G22G27
  24575907.800   129147261.85605  24575910.500   100634238.02943
  20440780.620   107417054.43708  20440779.720    83701605.89548
  21791786.240   114516622.82308  21791785.700    89233733.56146
  22820798.660   119924114.79007  22820796.660    93447369.89744
  22971484.020   120715967.45507  22971482.880    94064388.98445
  21624857.700   113639433.80208  21624855.280    88550212.22646
  21119229.140   110982328.38209  21119230.540    86479755.09848
 15 02 24 01 33 30.0000000  0  7G04G16G18G19G21G22G27
  24556777.100   129046731.21705  24556780.180   100555902.58844
  20440692.140   107416589.37708  20440691.200    83701243.50848
  21792394.060   114519816.69208  21792393.360    89236222.29646
  22807343.580   119853408.13007  22807341.620    93392273.83345
  22984816.340   120786028.89408  22984815.120    94118982.29345
  21612885.480   113576519.70308  21612883.140    88501188.26746
  21110979.920   110938978.69309  21110981.400    86445976.13048
 15 02 24 01 34  0.0000000  0  7G04G16G18G19G21G22G27
  24537670.400   128946326.39205  24537673.560   100477665.17443
  20440704.860   107416656.00309  20440703.860    83701295.41248
  21793094.200   114523496.11508  21793093.440    89239089.39146
  22793905.780   119782792.26907  22793903.880    93337248.51445
  22998163.260   120856166.57308  22998161.960    94173635.01544
  21600986.160   113513988.66708  21600983.880    88452462.79946
  21102762.020   110895793.41109  21102763.500    86412325.26947
 15 02 24 01 34 30.0000000  0  7G04G16G18G19G21G22G27
  24518590.540   128846061.97906  24518593.740   100399537.22144
  20440821.400   107417268.63009  20440820.460    83701772.78848
  21793889.220   114527674.47008  21793888.580    89242345.25446
  22780487.920   119712281.22808  22780486.100    93282304.85645
  23011526.940   120926392.36008  23011525.600    94228356.37945
  21589162.740   113451856.28408  21589160.400    88404047.96747
  21094578.120   110852786.90709  21094579.580    86378813.70248
 15 02 24 01 35  0.0000000  0  7G04G16G18G19G21G22G27
  24499538.020   128745940.50506  24499541.180   100321520.60344
  20441042.200   107418429.05708  20441041.280    83702677.00548
  21794779.520   114532353.33008  21794778.920    89245991.11346
  22767090.340   119641876.73607  22767088.580    93227444.22445
  23024907.380   120996706.52707  23024906.040    94283146.62745
  21577415.800   113390125.99708  21577413.400    88355946.44646
  21086428.640   110809961.42708  21086430.080    86345443.19548
 15 02 24 01 35 30.0000000  0  7G04G16G18G19G21G22G27
  24480513.380   128645965.02906  24480516.520   100243617.74142
  20441367.740   107420139.95508  20441366.900    83704010.16148
  21795765.460   114537534.42808  21795764.900    89250028.33646
  22753713.400   119571581.35807  22753711.800    93172668.64045
  23038304.600   121067109.75307  23038303.360    94338006.25345
  21565746.280   113328802.41808  21565743.900    88308161.85247
  21078314.120   110767319.78808  21078315.620    86312215.95148
 15 02 24 01 36  0.0000000  0  7G04G16G18G19G21G22G27
  24461516.380   128546134.43106  24461519.320   100165827.78243
  20441797.720   107422399.75108  20441796.920    83705771.03848
  21796846.560   114543215.58608  21796846.000    89254455.22346
  22740356.880   119501393.16307  22740355.340    93117976.57745
  23051718.180   121137599.04107  23051716.980    94392932.96245
  21554154.060   113267885.15908  21554151.740    88260693.86646
  21070234.320   110724860.39409  21070235.960    86279130.71747
 15 02 24 01 36 30.0000000  0  7G04G16G18G19G21G22G27
  24442547.380   128446451.05905  24442550.080   100088152.55843
  20442332.520   107425210.16508  20442331.740    83707960.95848
  21798023.060   114549398.25908  21798022.540    89259272.89046
  22727021.080   119431314.10407  22727019.740    93063369.55945
  23065148.020   121208173.91507  23065146.920    94447926.36345
  21542639.820   113207377.61408  21542637.540    88213545.13447
  21062189.720   110682585.65209  21062191.420    86246189.36148
 15 02 24 01 37  0.0000000  0  7G04G16G18G19G21G22G27
  24423606.420   128346915.85005  24423609.100   100010592.76144
  20442972.220   107428571.79109  20442971.480    83710580.39848
  21799294.900   114556081.65008  21799294.380    89264480.72746
  22713706.340   119361344.38707  22713704.920    93008847.73245
  23078593.940   121278833.28507  23078592.800    94502985.60445
  21531203.860   113147281.77208  21531201.700    88166717.21947
  21054180.400   110640496.07609  21054182.100    86213392.28748
 15 02 24 01 37 30.0000000  0  7G04G16G18G19G21G22G27
  24404693.680   128247530.30705  24404696.500    99933149.58643
  20443716.980   107432485.24209  20443716.180    83713629.83548
  21800662.160   114563266.22408  21800661.560    89270079.10046
  22700412.680   119291484.82308  22700411.120    92954411.74745
  23092055.720   121349575.79507  23092054.680    94558109.61544
  21519846.700   113087599.65108  21519844.560    88120211.67247
  21046206.480   110598592.74409  21046208.220    86180740.35048
 15 02 24 01 38  0.0000000  0  7G04G16G18G19G21G22G27
  24385809.500   128148294.85905  24385812.720    99855823.37942
  20444566.740   107436950.60009  20444565.860    83717109.32348
  21802124.640   114570951.43508  21802124.000    89276067.57846
  22687140.100   119221735.68808  22687138.340    92900061.80946
  23105532.980   121420399.34007  23105532.020    94613296.76245
  21508568.740   113028333.42108  21508566.540    88074030.21147
  21038268.120   110556876.09909  21038269.800    86148233.87248
 15 02 24 01 38 30.0000000  0  7G04G16G18G19G21G22G27
  24366954.360   128049211.76405  24366957.740    99778615.87944
  20445521.780   107441969.26208  20445520.880    83721019.96248
  21803682.480   114579137.95008  21803681.900    89282446.69146
  22673888.540   119152097.95808  22673886.660    92845798.68745
  23119025.700   121491304.35107  23119024.800    94668547.42445
  21497370.500   112969486.09708  21497368.200    88028175.17146
  21030365.680   110515347.90509  21030367.200    86115874.23848
 15 02 24 01 39  0.0000000  0  7G04G16G18G19G21G22G27
  24348128.200   127950280.34305  24348131.660    99701526.58143
  20446581.900   107447540.10609  20446580.980    83725360.87448
  21805335.380   114587824.02408  21805334.840    89289215.06946
  22660657.960   119082570.83808  22660656.020    92791621.74145
  23132533.340   121562287.78307  23132532.540    94723859.16344
  21486252.180   112911058.20008  21486249.620    87982646.94147
  21022498.940   110474007.66909  21022500.400    86083661.06948
 15 02 24 01 39 30.0000000  0  7G04G16G18G19G21G22G27
  24329331.060   127851500.70505  24329334.140    99624555.48243
  20447747.040   107453662.73509  20447746.060    83730131.74148
  21807083.080   114597008.67308  21807082.600    89296371.94246
  22647448.300   119013153.79308  22647446.280    92737530.58445
  23146055.460   121633347.27107  23146054.660    94779230.18244
  21475213.740   112853050.48608  21475211.160    87937446.13646
  21014667.900   110432855.09409  21014669.340    86051594.13048
 15 02 24 01 40  0.0000000  0  7G04G16G18G19G21G22G27
  24310563.560   127752876.06005  24310566.120    99547705.22943
  20449017.660   107460339.57308  20449016.600    83735334.46148
  21808926.040   114606693.77408  21808925.580    89303918.78246
  22634260.200   118943849.81508  22634258.020    92683527.50546
  23159592.060   121704483.66207  23159591.300    94834661.12344
  21464256.040   112795467.35808  21464253.480    87892576.17447
  21006873.080   110391893.32009  21006874.580    86019675.86648
 15 02 24 01 40 30.0000000  0  7G04G16G18G19G21G22G27
  24291825.560   127654406.85606  24291827.720    99470976.04942
  20450393.680   107467570.74109  20450392.640    83740969.13448
  21810864.040   114616878.25608  21810863.580    89311854.74546
  22621093.540   118874658.78808  22621091.340    92629612.45145
  23173143.080   121775695.60907  23173142.340    94890150.93844
  21453379.440   112738309.96608  21453376.800    87848037.95146
  20999114.580   110351122.56609  20999116.160    85987906.45648
 15 02 24 01 41  0.0000000  0  7G04G16G18G19G21G22G27
  24273117.280   127556093.78206  24273119.180    99394368.53743
  20451875.060   107475355.31109  20451874.040    83747035.02448
  21812897.020   114627561.64608  21812896.520    89320179.47446
  22607948.340   118805580.40708  22607946.080    92575785.15845
  23186708.240   121846981.05107  23186707.340    94945698.02744
  21442584.120   112681579.95608  21442581.480    87803832.76146
  20991392.600   110310543.14809  20991394.080    85956286.11847
 15 02 24 01 41 30.0000000  0  7G04G16G18G19G21G22G27
  24254439.080   127457939.38006  24254441.040    99317884.65543
  20453462.220   107483695.68609  20453461.220    83753534.00548
  21815025.100   114638745.03408  21815024.620    89328893.80746
  22594825.000   118736616.90208  22594822.740    92522047.39045
  23200287.480   121918340.30707  23200286.660    95001302.61845
  21431870.780   112625280.97708  21431868.200    87759963.43946
  20983707.500   110270157.52809  20983708.880    85924816.80548
 15 02 24 01 42  0.0000000  0  7G04G16G18G19G21G22G27
  24235790.800   127359942.12606  24235792.460    99241523.24244
  20455154.720   107492589.91009  20455153.720    83760464.55948
  21817247.920   114650426.05308  21817247.420    89337995.89946
  22581723.200   118667766.27108  22581720.940    92468397.57045
  23213880.100   121989769.66307  23213879.340    95056961.82444
  21421239.360   112569412.26908  21421236.760    87716429.39146
  20976058.940   110229964.17909  20976060.320    85893497.32148
 15 02 24 01 42 30.0000000  0  7G04G16G18G19G21G22G27
  24217173.000   127262104.80306  24217174.460    99165286.46543
  20456952.980   107502039.88209  20456951.940    83767828.17048
  21819565.620   114662605.63808  21819565.100    89347486.48746
  22568643.240   118599030.55408  22568640.940    92414837.27146
  23227486.180   122061269.35007  23227485.360    95112675.84344
  21410690.400   112513977.51809  21410687.840    87673233.49946
  20968447.500   110189965.72809  20968448.880    85862329.70348
 15 02 24 01 43  0.0000000  0  7G04G16G18G19G21G22G27
  24198585.940   127164429.39806  24198587.700    99089175.89543
  20458857.220   107512046.84408  20458856.200    83775625.79048
  21821978.340   114675284.48808  21821977.800    89357366.11745
  22555585.540   118530411.66008  22555583.140    92361368.02545
  23241105.680   122132839.75107  23241104.800    95168444.96844
  21400224.720   112458980.23208  21400222.200    87630378.48047
  20960873.520   110150164.04309  20960874.940    85831315.40348
 15 02 24 01 43 30.0000000  0  7G04G16G18G19G21G22G27
  24180028.880   127066911.39806  24180030.700    99013187.91743
  20460866.420   107522605.32709  20460865.480    83783853.17348
  21824484.980   114688456.88608  21824484.400    89367630.33646
  22542549.040   118461904.51108  22542546.540    92307985.85746
  23254737.200   122204473.89007  23254736.380    95224263.77644
  21389841.580   112404416.27608  21389839.060    87587861.11847
  20953336.060   110110554.39409  20953337.600    85800450.75248
 15 02 24 01 44  0.0000000  0  7G04G16G18G19G21G22G27
  24161503.800   126969562.14906  24161505.800    98937331.38643
  20462982.560   107533725.58908  20462981.660    83792518.30448
  21827087.460   114702132.68008  21827086.840    89378286.81046
  22529535.840   118393520.12208  22529533.300    92254699.32545
  23268382.620   122276180.72307  23268381.880    95280139.22845
  21379543.160   112350298.02408  21379540.680    87545691.07647
  20945837.340   110071148.14409  20945838.920    85769744.58548
 15 02 24 01 44 30.0000000  0  7G04G16G18G19G21G22G27
  24143009.700   126872375.90706  24143011.840    98861601.93943
  20465204.540   107545401.76309  20465203.600    83801616.61148
  21829784.240   114716304.58108  21829783.740    89389329.85446
  22516544.700   118325251.80108  22516542.240    92201503.24945
  23282040.480   122347952.43607  23282039.800    95336065.21045
  21369328.680   112296620.21709  21369326.120    87503864.21947
  20938376.120   110031939.28409  20938377.680    85739192.22548
 15 02 24 01 45  0.0000000  0  7G04G16G18G19G21G22G27
  24124547.140   126775355.15606  24124549.360    98786001.37443
  20467532.600   107557635.36409  20467531.600    83811149.27648
  21832575.620   114730973.68908  21832575.240    89400760.33046
  22503576.080   118257101.74707  22503573.680    92148399.33246
  23295710.680   122419789.20807  23295710.060    95392041.88445
  21359198.720   112243386.64008  21359196.120    87462383.51447
  20930952.880   109992930.23409  20930954.400    85708795.56248
 15 02 24 01 45 30.0000000  0  7G04G16G18G19G21G22G27
  24106116.020   126678499.89406  24106118.160    98710529.79144
  20469966.420   107570425.13008  20469965.440    83821115.31948
  21835461.360   114746138.50508  21835461.040    89412577.08646
  22490629.900   118189069.85907  22490627.660    92095387.49545
  23309392.800   122491688.97907  23309392.260    95448067.65344
  21349153.160   112190597.43308  21349150.700    87421249.08147
  20923567.720   109954120.92409  20923569.220    85678554.54248
 15 02 24 01 46  0.0000000  0  7G04G16G18G19G21G22G27
  24087716.460   126581809.88506  24087718.160    98635187.00843
  20472505.980   107583770.48508  20472505.000    83831514.28848
  21838441.240   114761797.94608  21838440.920    89424779.24146
  22477706.080   118121155.51207  22477704.040    92042467.25946
  23323086.580   122563649.37207  23323085.920    95504140.68745
  21339192.620   112138254.37109  21339190.200    87380462.28847
  20916220.520   109915511.35909  20916222.060    85648469.16848
 15 02 24 01 46 30.0000000  0  7G04G16G18G19G21G22G27
  24069348.900   126485287.73506  24069350.200    98559975.01541
  20475151.500   107597672.72809  20475150.540    83842347.19348
  21841515.360   114777952.67108  21841514.960    89437367.35346
  22464805.080   118053360.66708  22464803.160    91989640.11245
  23336791.940   122635670.95207  23336791.240    95560261.35944
  21329317.540   112086360.46508  21329315.180    87340025.48647
  20908911.820   109877103.81609  20908913.340    85618541.21848
 15 02 24 01 47  0.0000000  0  7G04G16G18G19G21G22G27
  24051013.800   126388936.06806  24051014.820    98484895.84944
  20477903.360   107612133.89208  20477902.420    83853615.62248
  21844683.940   114794603.82908  21844683.460    89450342.28646
  22451927.400   117985687.73108  22451925.460    91936907.97845
  23350508.920   122707754.26807  23350508.280    95616430.14945
  21319528.520   112034919.05708  21319526.240    87299941.29747
  20901642.040   109838900.97409  20901643.560    85588772.77948
 15 02 24 01 47 30.0000000  0  7G04G16G18G19G21G22G27
  24032710.720   126292753.02506  24032711.720    98409948.10643
  20480761.020   107627151.06808  20480760.080    83865317.30948
  21847946.340   114811747.85108  21847945.860    89463701.26846
  22439072.400   117918134.22107  22439070.420    91884268.89045
  23364236.860   122779895.00307  23364236.260    95672643.70144
  21309825.440   111983928.93308  21309823.100    87260208.73047
  20894410.740   109800900.74809  20894412.320    85559162.22348
 15 02 24 01 48  0.0000000  0  7G04G16G18G19G21G22G27
  24014440.400   126196742.90206  24014441.840    98335135.08244
  20483725.180   107642727.83609  20483724.280    83877455.04148
  21851303.140   114829387.91008  21851302.660    89477446.77046
  22426240.880   117850704.26808  22426238.900    91831726.08446
  23377976.140   122852095.60907  23377975.600    95728903.91345
  21300209.200   111933395.52608  21300206.860    87220832.06447
  20887218.860   109763107.63209  20887220.500    85529713.04448
 15 02 24 01 48 30.0000000  0  7G04G16G18G19G21G22G27
  23996202.940   126100905.96106  23996204.980    98260456.98943
  20486795.600   107658863.01809  20486794.720    83890027.89348
  21854754.160   114847522.66908  21854753.620    89491577.76245
  22413432.760   117783397.54008  22413430.820    91779279.30945
  23391726.440   122924354.31807  23391725.980    95785209.36544
  21290679.940   111883319.31308  21290677.680    87181811.64747
  20880066.480   109725521.73709  20880068.200    85500425.33548
 15 02 24 01 49  0.0000000  0  7G04G16G18G19G21G22G27
  23977998.080   126005239.25706  23978000.360    98185911.54643
  20489971.620   107675553.06109  20489970.680    83903033.11548
  21858298.500   114866147.99108  21858297.900    89506091.00945
  22400647.640   117716211.13108  22400645.660    91726926.26946
  23405486.780   122996665.89207  23405486.340    95841556.01645
  21281237.540   111833698.83508  21281235.220    87143146.34347
  20872953.140   109688140.26309  20872954.740    85471296.91648
 15 02 24 01 49 30.0000000  0  7G04G16G18G19G21G22G27
  23959826.160   125909745.29906  23959828.620    98111500.74444
  20493253.560   107692799.77209  20493252.580    83916472.10148
  21861936.340   114885264.57808  21861935.600    89520987.05646
  22387885.800   117649146.83108  22387883.800    91674668.39346
  23419257.360   123069030.46807  23419256.780    95897943.97944
  21271882.220   111784536.95408  21271879.960    87104838.40247
  20865879.140   109650965.59809  20865880.640    85442329.63848
 15 02 24 01 50  0.0000000  0  7G04G16G18G19G21G22G27
  23941687.680   125814426.51206  23941690.100    98037226.47543
  20496641.700   107710604.49409  20496640.700    83930345.89848
  21865667.680   114904872.80208  21865666.820    89536266.20245
  22375147.640   117582207.08508  22375145.700    91622507.55946
  23433038.200   123141449.07107  23433037.360    95954374.04144
  21262614.880   111735837.05309  21262612.600    87066890.44047
  20858844.860   109614000.28309  20858846.380    85413525.50948
 15 02 24 01 50 30.0000000  0  7G04G16G18G19G21G22G27
  23923582.800   125719283.68506  23923584.940    97963089.20943
  20500135.980   107728966.91209  20500134.980    83944654.26748
  21869492.380   114924971.95708  21869491.580    89551927.88145
  22362433.340   117515392.44708  22362431.340    91570444.22346
  23446828.840   123213920.14106  23446828.100    96010844.96944
  21253435.840   111687600.51008  21253433.460    87029303.53147
  20851850.520   109577245.06209  20851852.040    85384885.07548
 15 02 24 01 51  0.0000000  0  7G04G16G18G19G21G22G27
  23905511.560   125624317.91106  23905513.420    97889089.95243
  20503736.280   107747886.60609  20503735.300    83959396.87448
  21873410.440   114945562.03808  21873409.760    89567972.10245
  22349742.860   117448703.24608  22349740.840    91518478.62846
  23460629.300   123286442.86707  23460628.720    96067356.17244
  21244345.300   111639829.27309  21244342.860    86992079.20147
  20844896.380   109540701.04609  20844897.920    85356409.22948
 15 02 24 01 51 30.0000000  0  7G04G16G18G19G21G22G27
  23887474.020   125529529.62506  23887475.680    97815229.01343
  20507442.540   107767363.20209  20507441.540    83974573.43048
  21877421.740   114966641.74508  21877421.180    89584397.85646
  22337076.300   117382139.65008  22337074.200    91466610.91246
  23474439.320   123359015.43807  23474438.880    96123906.20945
  21235343.520   111592524.44509  21235341.040    86955218.30247
  20837982.560   109504368.68209  20837984.120    85328098.29648
 15 02 24 01 52  0.0000000  0  7G04G16G18G19G21G22G27
  23869470.380   125434919.76106  23869471.820    97741507.13643
  20511254.840   107787397.07109  20511253.840    83990184.22448
  21881526.100   114988210.25008  21881525.640    89601204.48345
  22324433.740   117315702.35508  22324431.600    91414841.60946
  23488258.740   123431637.02006  23488258.440    96180494.43444
  21226430.760   111545687.59608  21226428.340    86918722.06947
  20831109.260   109468249.05009  20831110.820    85299953.13248
 15 02 24 01 52 30.0000000  0  7G04G16G18G19G21G22G27
  23851500.960   125340490.75206  23851502.360    97667926.08343
  20515173.360   107807989.15909  20515172.380    84006229.99948
  21885723.800   115010268.86108  21885723.280    89618393.01746
  22311815.720   117249393.98308  22311813.500    91363172.75446
  23502087.640   123504308.12007  23502087.340    96237121.25143
  21217607.640   111499322.24709  21217605.360    86882593.24447
  20824276.920   109432344.85609  20824278.500    85271975.84248
 15 02 24 01 53  0.0000000  0  7G04G16G18G19G21G22G27
  23833565.660   125246240.91606  23833567.000    97594484.73843
  20519197.680   107829137.01909  20519196.740    84022708.84548
  21890014.080   115032814.19508  21890013.480    89635960.81446
  22299221.840   117183212.38508  22299219.480    91311602.66746
  23515925.280   123577024.58107  23515924.800    96293783.39644
  21208874.120   111453427.28709  21208871.840    86846830.94247
  20817485.240   109396654.17909  20817486.800    85244164.92548
 15 02 24 01 53 30.0000000  0  7G04G16G18G19G21G22G27
  23815664.740   125152171.52106  23815666.120    97521183.94443
  20523327.760   107850840.48108  20523326.780    84039620.61748
  21894396.740   115055845.29208  21894396.100    89653907.12445
  22286652.120   117117158.35508  22286649.780    91260132.01945
  23529771.520   123649786.17307  23529770.760    96350480.71343
  21200230.420   111408004.27708  21200228.040    86811436.39647
  20810734.420   109361178.43509  20810736.000    85216521.48848
 15 02 24 01 54  0.0000000  0  7G04G16G18G19G21G22G27
  23797798.640   125058285.10506  23797800.140    97448025.77843
  20527563.820   107873101.08709  20527562.840    84056966.53248
  21898872.020   115079363.21508  21898871.360    89672232.78845
  22274107.060   117051234.19708  22274104.820    91208762.55046
  23543626.460   123722593.42207  23543625.300    96407213.59844
  21191677.140   111363056.66608  21191674.660    86776412.30047
  20804025.020   109325920.32109  20804026.620    85189047.63848
 15 02 24 01 54 30.0000000  0  7G04G16G18G19G21G22G27
  23779967.620   124964583.29306  23779969.380    97375011.43243
  20531905.980   107895919.38609  20531904.980    84074747.01848
  21903439.940   115103367.78108  21903439.220    89690937.64546
  22261586.960   116985441.44008  22261584.860    91157495.48046
  23557489.960   123795446.12307  23557488.460    96463981.89144
  21183214.800   111318586.84309  21183212.220    86741760.49647
  20797357.380   109290881.58109  20797358.980    85161744.72548
 15 02 24 01 55  0.0000000  0  7G04G16G18G19G21G22G27
  23762171.540   124871065.56706  23762173.520    97302140.53043
  20536353.940   107919293.83709  20536353.060    84092960.86448
  21908100.160   115127857.51008  21908099.440    89710020.54746
  22249091.860   116919779.87708  22249089.840    91106330.63246
  23571361.640   123868341.83107  23571359.800    96520783.73444
  21174843.420   111274594.90409  21174840.860    86707481.07447
  20790731.440   109256062.06609  20790733.060    85134612.64248
 15 02 24 01 55 30.0000000  0  7G04G16G18G19G21G22G27
  23744410.540   124777732.22206  23744412.740    97229413.30844
  20540907.480   107943222.69109  20540906.660    84111606.71648
  21912852.340   115152830.42108  21912851.620    89729479.97046
  22236621.720   116854248.84908  22236619.660    91055267.50846
  23585241.080   123941278.36607  23585238.980    96577617.39344
  21166563.040   111231081.19009  21166560.460    86673574.29447
  20784147.200   109221461.61409  20784148.820    85107651.25748
 15 02 24 01 56  0.0000000  0  7G04G16G18G19G21G22G27
  23726685.040   124684585.22906  23726687.400    97156831.28843
  20545566.920   107967708.03209  20545566.060    84130686.18648
  21917696.540   115178286.81208  21917695.820    89749316.11246
  22224176.800   116788850.47908  22224174.800    91004307.75346
  23599128.380   124014256.37007  23599126.220    96634483.33944
  21158374.440   111188049.33609  21158371.800    86640042.98547
  20777605.120   109187082.87809  20777606.760    85080862.62948
 15 02 24 01 56 30.0000000  0  7G04G16G18G19G21G22G27
  23708995.000   124591623.93006  23708997.360    97084393.95543
  20550331.780   107992747.38009  20550330.840    84150197.35648
  21922632.300   115204224.17708  21922631.520    89769527.05246
  22211756.840   116723583.73208  22211755.020    90953450.56046
  23613023.020   124087273.04907  23613020.900    96691379.40844
  21150277.380   111145498.69109  21150274.740    86606886.65747
  20771105.160   109152925.05809  20771106.700    85054246.14648
 15 02 24 01 57  0.0000000  0  7G04G16G18G19G21G22G27
  23691340.700   124498850.15406  23691343.180    97012102.75144
  20555202.120   108018341.01609  20555201.100    84170140.43748
  21927659.680   115230642.71908  21927658.800    89790112.93646
  22199362.260   116658450.10008  22199360.540    90902697.08946
  23626925.020   124160328.30007  23626923.040    96748305.54044
  21142272.200   111103431.28909  21142269.640    86574106.86947
  20764647.540   109118990.18609  20764649.100    85027803.39248
 15 02 24 01 57 30.0000000  0  7G04G16G18G19G21G22G27
  23673722.160   124406263.89106  23673724.520    96939957.63743
  20560177.820   108044488.35109  20560176.780    84190514.97348
  21932778.280   115257541.11208  21932777.320    89811072.72546
  22186993.160   116593450.03808  22186991.360    90852047.70946
  23640834.160   124233420.65907  23640832.220    96805260.61544
  21134359.180   111061848.48208  21134356.720    86541704.69047
  20758232.440   109085278.53409  20758233.960    85001534.57748
 15 02 24 01 58  0.0000000  0  7G04G16G18G19G21G22G27
  23656139.560   124313865.66706  23656141.580    96867959.09544
  20565258.700   108071188.49609  20565257.720    84211320.27248
  21937987.940   115284918.00808  21937986.940    89832405.37546
  22174649.600   116528583.80108  22174647.580    90801502.59546
  23654749.980   124306548.56906  23654748.060    96862243.41243
  21126538.560   111020751.30409  21126536.200    86509680.92947
  20751860.000   109051790.91309  20751861.460    84975440.32248
 15 02 24 01 58 30.0000000  0  7G04G16G18G19G21G22G27
  23638593.700   124221661.01906  23638595.300    96796111.38743
  20570445.400   108098445.05609  20570444.520    84232559.13448
  21943289.240   115312776.59108  21943288.240    89854113.36346
  22162332.360   116463856.42808  22162330.240    90751065.70646
  23668673.080   124379715.41006  23668671.340    96919256.49744
  21118811.400   110980145.10909  21118809.100    86478039.74247
  20745531.140   109018532.61309  20745532.600    84949524.76448
 15 02 24 01 59  0.0000000  0  7G04G16G18G19G21G22G27
  23621084.260   124129648.04206  23621085.820    96724412.96944
  20575737.460   108126255.21109  20575736.640    84254229.37748
  21948681.580   115341113.71008  21948680.620    89876194.24446
  22150041.180   116399266.30408  22150039.060    90700735.75546
  23682602.840   124452917.93606  23682601.480    96976297.36944
  21111177.640   110940029.46409  21111175.360    86446780.81247
  20739245.680   108985502.37709  20739247.160    84923786.92848
 15 02 24 01 59 30.0000000  0  7G04G16G18G19G21G22G27
  23603610.980   124037825.14406  23603612.380    96652862.72644
  20581134.380   108154616.35309  20581133.620    84276328.95648
  21954164.340   115369925.87608  21954163.480    89898645.28946
  22137775.800   116334811.45708  22137773.720    90650511.21146
  23696538.840   124526152.70907  23696537.820    97033363.38944
  21103636.980   110900402.93309  21103634.660    86415903.00047
  20733003.300   108952698.65109  20733004.840    84898225.58148
 15 02 24 02 00  0.0000000  0  7G04G16G18G19G21G22G27
  23586174.300   123946194.63006  23586175.440    96581462.36944
  20586636.340   108183529.42209  20586635.660    84298858.61848
  21959737.620   115399213.64508  21959736.740    89921466.93446
  22125536.720   116270494.18508  22125534.540    90600393.86546
  23710481.140   124599420.03007  23710480.220    97090454.81144
  21096189.880   110861268.24009  21096187.560    86385408.44947
  20726804.520   108920123.98609  20726806.140    84872842.73248
 15 02 24 02 00 30.0000000  0  7G04G16G18G19G21G22G27
  23568774.800   123854759.68006  23568775.940    96510214.38944
  20592243.720   108212996.21409  20592243.020    84321819.73848
  21965401.640   115428978.42008  21965400.780    89944660.25646
  22113324.440   116206317.72408  22113322.100    90550386.23446
  23724429.860   124672721.41906  23724429.000    97147572.76944
  21088837.080   110822629.21008  21088834.800    86355300.12648
  20720649.980   108887781.82309  20720651.700    84847641.04648
 15 02 24 02 01  0.0000000  0  7G04G16G18G19G21G22G27
  23551412.240   123763519.43406  23551413.400    96439118.15044
  20597956.000   108243014.16409  20597955.260    84345210.33448
  21971155.900   115459217.32108  21971155.080    89968223.03446
  22101138.720   116142280.98308  22101136.200    90500487.48246
  23738384.460   124746054.13306  23738383.660    97204715.11544
  21081578.460   110784484.87309  21081576.140    86325577.27048
  20714539.540   108855671.38109  20714541.260    84822619.92548
 15 02 24 02 01 30.0000000  0  7G04G16G18G19G21G22G27
  23534086.580   123672472.68606  23534087.640    96368172.67644
  20603772.700   108273581.00508  20603771.920    84369028.63848
  21976999.800   115489927.24908  21976999.040    89992152.86446
  22088979.300   116078382.47408  22088976.700    90450696.44446
  23752344.560   124819415.27606  23752343.980    97261879.62844
  21074413.980   110746835.16808  21074411.580    86296239.84648
  20708473.000   108823791.68509  20708474.760    84797778.60748
 15 02 24 02 02  0.0000000  0  7G04G16G18G19G21G22G27
  23516798.340   123581622.28206  23516799.360    96297380.19044
  20609694.080   108304698.15108  20609693.320    84393275.75648
  21982933.480   115521109.30808  21982932.820    90016450.57046
  22076846.680   116014625.05708  22076844.180    90401015.34847
  23766310.360   124892805.89306  23766310.100    97319067.10944
  21067344.180   110709683.07908  21067341.780    86267290.17447
  20702451.000   108792145.97109  20702452.820    84773119.61448
 15 02 24 02 02 30.0000000  0  7G04G16G18G19G21G22G27
  23499547.680   123490969.56006  23499548.840    96226741.76944
  20615720.060   108336364.75609  20615719.320    84417951.01648
  21988956.900   115552762.80208  21988956.240    90041115.63246
  22064741.160   115951010.38308  22064738.900    90351445.48747
  23780281.700   124966225.31006  23780281.580    97376277.00145
  21060369.460   110673030.40009  21060367.040    86238729.66147
  20696473.880   108760735.74909  20696475.680    84748644.11448
 15 02 24 02 03  0.0000000  0  7G04G16G18G19G21G22G27
  23482334.740   123400514.77106  23482336.060    96156257.54244
  20621850.680   108368581.09509  20621849.840    84443054.64348
  21995069.840   115584886.57108  21995069.140    90066147.14946
  22052662.900   115887538.81708  22052660.840    90301987.12947
  23794258.260   125039672.77806  23794258.060    97433508.76244
  21053489.900   110636878.31009  21053487.480    86210559.20947
  20690541.760   108729561.71209  20690543.460    84724352.65648
 15 02 24 02 03 30.0000000  0  7G04G16G18G19G21G22G27
  23465159.680   123310258.85906  23465160.960    96085928.31944
  20628085.600   108401345.78109  20628084.740    84468585.55948
  22001272.120   115617479.72208  22001271.360    90091544.40746
  22040611.960   115824210.88608  22040610.000    90252640.70246
  23808239.780   125113147.15206  23808239.600    97490761.48644
  21046705.860   110601227.93609  21046703.340    86182779.71047
  20684654.760   108698625.06609  20684656.380    84700246.18148
 15 02 24 02 04  0.0000000  0  8G04G07G16G18G19G21G22G27
  23448022.560   123220202.34906  23448023.820    96015754.46344
  24513658.340   128820144.67406  24513658.540   100379344.84143
  20634424.720   108434658.13909  20634423.860    84494543.22848
  22007563.380   115650540.35908  22007562.560    90117305.94746
  22028588.460   115761027.09608  22028586.500    90203406.59047
  23822226.280   125186647.18906  23822226.000    97548034.25743
  21040017.420   110566079.87609  21040014.820    86155391.61947
  20678812.980   108667926.50509  20678814.660    84676325.22648
 15 02 24 02 04 30.0000000  0  8G04G07G16G18G19G21G22G27
  23430922.640   123130341.77107  23430923.920    95945733.28244
  24512303.220   128813025.13405  24512303.400   100373797.08843
  20640867.200   108468513.49009  20640866.400    84520924.01148
  22013942.540   115684063.04708  22013941.740    90143427.52646
  22016591.840   115697984.34808  22016589.800    90154282.38547
  23836216.980   125260168.06306  23836216.500    97605323.24145
  21033424.020   110531431.35709  21033421.380    86128392.78947
  20673015.900   108637462.99109  20673017.620    84652587.42748
 15 02 24 02 05  0.0000000  0  8G04G07G16G18G19G21G22G27
  23413861.520   123040685.56307  23413862.920    95875871.35143
  24511047.520   128806428.24106  24511047.960   100368656.66443
  20647414.240   108502918.19409  20647413.480    84547732.85948
  22020410.940   115718054.83708  22020410.200    90169914.64146
  22004623.580   115635090.52008  22004621.440    90105274.21647
  23850212.900   125333715.90207  23850212.160    97662633.23744
  21026927.240   110497290.47109  21026924.540    86101789.51048
  20667265.120   108607242.97609  20667266.900    84629039.36848
 15 02 24 02 05 30.0000000  0  8G04G07G16G18G19G21G22G27
  23396838.780   122951231.06507  23396840.400    95806166.57043
  24509890.740   128800350.47405  24509890.800   100363920.72843
  20654065.000   108537868.03209  20654064.220    84574966.48648
  22026967.740   115752511.26908  22026967.080    90196763.80146
  21992683.260   115572343.55008  21992681.060    90056380.49147
  23864213.280   125407287.01406  23864212.380    97719961.32144
  21020526.820   110463656.12109  21020524.140    86075580.93847
  20661560.320   108577264.44209  20661562.180    84605679.46948
 15 02 24 02 06  0.0000000  0  8G04G07G16G18G19G21G22G27
  23379854.600   122861979.31206  23379856.300    95736619.80244
  24508832.840   128794791.52705  24508833.520   100359589.12542
  20660819.420   108573362.85409  20660818.620    84602624.77748
  22033612.720   115787430.88008  22033612.020    90223973.88146
  21980771.000   115509744.31408  21980768.820    90007601.87247
  23878217.900   125480880.82406  23878217.080    97777307.09845
  21014222.920   110430529.15008  21014220.280    86049767.72447
  20655901.800   108547528.64709  20655903.660    84582508.72048
 15 02 24 02 06 30.0000000  0  7G04G16G18G19G21G22G27
  23362908.960   122772930.57306  23362910.860    95667231.21044
  20667677.420   108609401.94209  20667676.580    84630707.17148
  22040345.580   115822812.15608  22040344.780    90251543.71146
  21968886.960   115447293.57008  21968884.820    89958938.96547
  23892226.460   125554495.92306  23892225.500    97834669.49443
  21008015.760   110397910.23009  21008013.160    86024350.39247
  20650289.620   108518036.33709  20650291.420    84559527.70148
 15 02 24 02 07  0.0000000  0  7G04G16G18G19G21G22G27
  23346002.420   122684086.93607  23346004.520    95598002.44144
  20674638.860   108645984.88509  20674638.120    84659213.35048
  22047166.260   115858654.98508  22047165.400    90279473.19246
  21957031.400   115384992.58608  21957029.380    89910392.75647
  23906239.100   125628131.98107  23906237.860    97892048.26843
  21001905.600   110365801.07309  21001903.020    85999330.28648
  20644724.140   108488789.38809  20644725.860    84536737.86648
 15 02 24 02 07 30.0000000  0  8G04G07G16G18G19G21G22G27
  23329135.020   122595448.80807  23329137.240    95528933.81444
  24506250.540   128781215.22704  24506252.600   100349012.34044
  20681703.620   108683110.76709  20681703.020    84688142.60148
  22054074.580   115894958.43508  22054073.720    90307761.60146
  21945204.480   115322842.19908  21945202.620    89861963.89947
  23920255.620   125701788.55507  23920254.140    97949443.01543
  20995892.700   110334203.11709  20995890.180    85974708.51548
  20639205.580   108459789.03009  20639207.280    84514140.18948
 15 02 24 02 08  0.0000000  0  8G04G07G16G18G19G21G22G27
  23312306.500   122507014.99507  23312308.760    95460024.40144
  24505586.980   128777725.87804  24505588.260   100346293.30844
  20688871.280   108720777.15309  20688870.720    84717493.01948
  22061069.940   115931719.36108  22061069.120    90336406.47646
  21933406.120   115260841.77108  21933404.440    89813651.89247
  23934275.480   125775463.22506  23934273.900    98006851.82044
  20989976.900   110303115.69909  20989974.460    85950484.56547
  20633733.880   108431034.63809  20633735.500    84491734.17148
 15 02 24 02 08 30.0000000  0  8G04G07G16G18G19G21G22G27
  23295517.380   122418788.01307  23295519.600    95391276.13043
  24505021.700   128774752.91305  24505022.260   100343976.66041
  20696141.900   108758984.40909  20696141.320    84747264.89448
  22068152.320   115968937.77408  22068151.600    90365407.83345
  21921636.740   115198993.52208  21921635.080    89765458.46147
  23948298.700   125849156.14306  23948297.240    98064274.80745
  20984158.680   110272541.04909  20984156.280    85926660.17047
  20628309.480   108402528.76609  20628310.980    84469521.79748
 15 02 24 02 09  0.0000000  0  8G04G07G16G18G19G21G22G27
  23278767.580   122330767.15907  23278769.580    95322688.46844
  24504553.960   128772294.32605  24504553.980   100342060.82941
  20703515.000   108797730.08209  20703514.380    84777456.31848
  22075321.280   116006611.05508  22075320.680    90394763.63846
  21909896.200   115137296.77808  21909894.520    89717383.09347
  23962325.020   125922865.31506  23962323.780    98121710.47244
  20978438.000   110242478.88809  20978435.600    85903235.12248
  20622932.240   108374271.07909  20622933.680    84447502.81448
 15 02 24 02 09 30.0000000  0  8G04G07G16G18G19G21G22G27
  23262057.640   122242955.17507  23262059.440    95254263.62544
  24504184.220   128770351.56605  24504184.360   100340546.98642
  20710990.920   108837016.38309  20710990.360    84808069.01048
  22082577.000   116044740.20708  22082576.460    90424474.66646
  21898185.100   115075754.74308  21898183.380    89669428.26847
  23976354.640   125996591.96406  23976353.660    98179159.80043
  20972815.440   110212932.19409  20972813.040    85880211.73247
  20617602.780   108346264.86709  20617604.260    84425679.79448
 15 02 24 02 10  0.0000000  0  7G04G16G18G19G21G22G27
  23245386.740   122155347.90107  23245388.160    95185998.22344
  20718568.540   108876836.86409  20718567.960    84839097.94548
  22089918.360   116083319.11808  22089917.760    90454536.16346
  21886502.720   115014363.32708  21886500.860    89621590.81347
  23990386.520   126070330.20707  23990385.660    98236618.16643
  20967290.220   110183897.02709  20967287.840    85857586.93348
  20612320.420   108318506.34009  20612321.980    84404049.77748
 15 02 24 02 10 30.0000000  0  7G04G16G18G19G21G22G27
  23228756.500   122067954.96407  23228757.680    95117899.85344
  20726249.280   108917198.86009  20726248.580    84870548.84148
  22097346.800   116122355.62808  22097346.220    90484954.21546
  21874850.980   114953132.62008  21874849.000    89573878.57947
  24004422.300   126144088.50806  24004421.440    98294092.18343
  20961864.340   110155383.59609  20961861.900    85835368.68947
  20607087.200   108291005.60409  20607088.760    84382620.62848
 15 02 24 02 11  0.0000000  0  7G04G16G18G19G21G22G27
  23212166.180   121980772.41407  23212167.280    95049965.45444
  20734032.180   108958097.87409  20734031.400    84902418.18848
  22104861.100   116161843.32608  22104860.540    90515723.85746
  21863228.960   114892058.24308  21863226.980    89526288.18047
  24018460.840   126217861.19706  24018460.020    98351577.37544
  20956536.940   110127387.92009  20956534.460    85813553.89148
  20601902.400   108263758.93909  20601903.900    84361389.45348
 15 02 24 02 11 30.0000000  0  7G04G16G18G19G21G22G27
  23195615.800   121893800.20807  23195616.940    94982194.93944
  20741916.820   108999531.85509  20741916.020    84934704.39948
  22112460.840   116201780.23208  22112460.300    90546843.51646
  21851636.780   114831140.55308  21851634.740    89478819.86647
  24032501.760   126291646.71906  24032500.920    98409072.54444
  20951308.020   110099909.91809  20951305.560    85792142.47148
  20596766.020   108236766.80209  20596767.520    84340356.62248
 15 02 24 02 12  0.0000000  0  7G04G16G18G19G21G22G27
  23179105.320   121807037.69707  23179106.640    94914587.82243
  20749902.700   109041498.11609  20749901.940    84967405.37248
  22120145.480   116242163.27408  22120144.960    90578310.82046
  21840074.200   114770379.01408  21840072.120    89431473.21846
  24046544.800   126365443.17206  24046543.900    98466576.22944
  20946177.620   110072949.35009  20946175.160    85771134.23447
  20591677.960   108210029.10009  20591679.500    84319522.04948
 15 02 24 02 12 30.0000000  0  7G04G16G18G19G21G22G27
  23162635.120   121720485.82507  23162636.340    94847144.82744
  20757989.800   109083996.09809  20757989.080    85000520.66848
  22127914.860   116282991.68908  22127914.360    90610125.17545
  21828541.560   114709774.65508  21828539.360    89384249.05146
  24060589.940   126439250.30506  24060588.940    98524088.27944
  20941145.780   110046507.06708  20941143.320    85750529.87147
  20586638.520   108183546.86109  20586640.120    84298886.53648
 15 02 24 02 13  0.0000000  0  7G04G16G18G19G21G22G27
  23146205.720   121634148.27507  23146206.800    94779868.86844
  20766178.400   109127027.49209  20766177.700    85034051.61448
  22135769.380   116324267.34408  22135768.800    90642288.01346
  21817039.720   114649331.96208  21817037.500    89337150.85947
  24074637.300   126513069.73806  24074636.540    98581609.90944
  20936213.360   110020587.23809  20936210.860    85730332.61147
  20581648.660   108157324.53309  20581650.200    84278453.55248
 15 02 24 02 13 30.0000000  0  7G04G16G18G19G21G22G27
  23129817.100   121548025.19907  23129818.140    94712760.03044
  20774468.120   109170590.39609  20774467.460    85067996.72848
  22143708.680   116365988.18008  22143708.020    90674797.76745
  21805568.660   114589050.90908  21805566.460    89290178.62047
  24088686.740   126586900.26706  24088686.220    98639140.17643
  20931380.300   109995189.52809  20931377.840    85710542.20047
  20576708.320   108131362.72409  20576709.820    84258223.57348
 15 02 24 02 14  0.0000000  0  7G04G16G18G19G21G22G27
  23113469.220   121462115.97607  23113470.220    94645817.82644
  20782858.640   109214682.81009  20782857.940    85102354.43948
  22151732.120   116408151.58908  22151731.460    90707652.36246
  21794128.300   114528931.20708  21794126.180    89243332.11547
  24102737.700   126660739.88705  24102737.260    98696677.51243
  20926646.560   109970314.10909  20926644.180    85691158.77148
  20571817.460   108105661.20209  20571819.000    84238196.41348
 15 02 24 02 14 30.0000000  0  7G04G16G18G19G21G22G27
  23097162.480   121376423.48207  23097163.460    94579044.50344
  20791350.220   109259306.13309  20791349.460    85137125.84748
  22159839.900   116450758.35508  22159839.320    90740852.43146
  21782719.160   114468975.76108  21782717.040    89196613.58847
  24116790.700   126734590.12805  24116790.400    98754223.12543
  20922012.820   109945963.96909  20922010.560    85672184.63648
  20566976.760   108080223.34909  20566978.360    84218374.71148
 15 02 24 02 15  0.0000000  0  7G04G16G18G19G21G22G27
  23080896.220   121290943.97107  23080897.220    94512437.12144
  20799941.700   109304454.69209  20799940.940    85172306.53048
  22168030.960   116493802.50308  22168030.420    90774393.32546
  21771340.700   114409181.23208  21771338.520    89150020.45747
  24130845.000   126808446.36406  24130844.840    98811773.41344
  20917478.340   109922135.07409  20917476.100    85653616.67648
  20562185.620   108055045.84109  20562187.280    84198755.87248
 15 02 24 02 15 30.0000000  0  7G04G16G18G19G21G22G27
  23064670.940   121205680.56907  23064672.040    94445998.14344
  20808633.360   109350129.63409  20808632.620    85207897.38448
  22176305.440   116537284.87608  22176304.900    90808275.69446
  21759993.540   114349551.27508  21759991.360    89103555.56747
  24144900.960   126882310.22006  24144900.780    98869329.64044
  20913043.680   109898830.77809  20913041.420    85635457.49148
  20557444.740   108030132.28809  20557446.340    84179342.70748
 15 02 24 02 16  0.0000000  0  7G04G16G18G19G21G22G27
  23048487.380   121120636.49607  23048488.640    94379730.06044
  20817425.420   109396332.22409  20817424.660    85243899.38748
  22184663.580   116581206.76508  22184662.960    90842500.54046
  21748678.220   114290088.90108  21748676.060    89057221.26747
  24158958.400   126956182.03606  24158958.100    98926892.08744
  20908709.480   109876054.28009  20908707.200    85617709.58648
  20552754.820   108005486.28509  20552756.360    84160138.02748
 15 02 24 02 16 30.0000000  0  8G04G11G16G18G19G21G22G27
  23032348.140   121035825.19007  23032349.480    94313643.37744
  24687577.260   129734088.30706  24687574.680   101091491.07243
  20826320.120   109443074.15909  20826319.380    85280321.66048
  22193107.520   116625579.54108  22193106.780    90877076.72546
  21737397.420   114230808.40708  21737395.340    89011028.69647
  24173020.000   127030075.55106  24173019.480    98984471.41344
  20904478.340   109853819.35209  20904476.060    85600383.67748
  20548118.440   107981122.10409  20548120.060    84141152.95548
 15 02 24 02 17  0.0000000  0  8G04G11G16G18G19G21G22G27
  23016241.280   120951183.72307  23016242.680    94247689.01444
  24670040.940   129641935.40806  24670039.180   101019683.67244
  20835305.100   109490290.81009  20835304.500    85317113.83948
  22201624.760   116670337.90208  22201623.960    90911953.36046
  21726139.180   114171646.72408  21726137.140    88964928.68947
  24187073.280   127103925.54205  24187072.680    99042016.84844
  20900338.220   109832062.42009  20900335.840    85583430.23448
  20543523.680   107956976.97109  20543525.380    84122338.56648
 15 02 24 02 17 30.0000000  0  8G04G11G16G18G19G21G22G27
  23000182.500   120866794.33607  23000183.820    94181931.09144
  24652525.680   129549892.18806  24652524.220   100947961.75344
  20844395.660   109538062.25109  20844395.160    85354338.33348
  22210230.700   116715562.50108  22210229.860    90947193.31046
  21714919.340   114112686.80508  21714917.320    88918985.90647
  24201133.660   127177813.52205  24201132.960    99099591.84844
  20896304.800   109810866.33509  20896302.320    85566913.81048
  20538986.480   107933133.92409  20538988.200    84103759.56448
 15 02 24 02 18  0.0000000  0  8G04G11G16G18G19G21G22G27
  22984165.180   120782622.57007  22984166.380    94116342.74544
  24635024.540   129457923.48306  24635023.480   100876297.89943
  20853584.960   109586352.27009  20853584.500    85391966.90948
  22218918.380   116761216.51708  22218917.560    90982767.86046
  21703731.440   114053894.30908  21703729.400    88873173.58747
  24215194.480   127251703.81606  24215193.580    99157168.66443
  20892371.480   109790196.44109  20892368.940    85550807.41148
  20534500.260   107909558.84409  20534502.020    84085389.37048
 15 02 24 02 18 30.0000000  0  8G04G11G16G18G19G21G22G27
  22968189.820   120698671.28407  22968191.040    94050926.19445
  24617538.260   129366032.33306  24617537.420   100804694.40843
  20862873.260   109635162.37709  20862872.740    85430000.74448
  22227687.960   116807300.89808  22227687.160    91018677.75646
  21692576.080   113995272.29208  21692574.020    88827494.11447
  24229256.140   127325597.47606  24229255.200    99214748.12342
  20888538.760   109770055.44309  20888536.280    85535113.13548
  20530065.740   107886255.31109  20530067.560    84067230.77548
 15 02 24 02 19  0.0000000  0  8G04G11G16G18G19G21G22G27
  22952256.240   120614939.48307  22952257.580    93985680.65244
  24600066.460   129274217.52506  24600065.680   100733150.46343
  20872259.780   109684488.67209  20872259.160    85468436.80248
  22236538.800   116853812.13408  22236538.060    91054920.27445
  21681453.120   113936820.42408  21681451.040    88781947.21447
  24243318.100   127399492.37106  24243317.180    99272328.56744
  20884806.380   109750442.05808  20884803.960    85519829.98848
  20525682.780   107863222.66309  20525684.580    84049283.25548
 15 02 24 02 19 30.0000000  0  8G04G11G16G18G19G21G22G27
  22936365.180   120531430.92007  22936366.620    93920609.09744
  24582609.960   129182483.03506  24582609.060   100661669.09843
  20881744.960   109734333.66109  20881744.300    85507277.04548
  22245471.180   116900752.25008  22245470.520    91091496.98345
  21670363.280   113878542.67508  21670361.180    88736535.97347
  24257380.680   127473391.00006  24257379.880    99329911.90644
  20881175.240   109731360.64609  20881172.840    85504961.36048
  20521352.240   107840465.45609  20521353.980    84031550.36748
 15 02 24 02 20  0.0000000  0  8G04G11G16G18G19G21G22G27
  22920516.580   120448145.53407  22920518.040    93855711.42445
  24565168.580   129090828.41406  24565167.760   100590249.93743
  20891328.380   109784694.99209  20891327.760    85546519.62648
  22254484.780   116948118.88208  22254484.060    91128406.04446
  21659306.540   113820439.21608  21659304.480    88691260.56547
  24271443.480   127547292.08605  24271443.100    99387497.15544
  20877645.220   109712810.55509  20877642.820    85490506.75548
  20517074.240   107817983.90809  20517075.860    84014032.27148
 15 02 24 02 20 30.0000000  0  8G04G11G16G18G19G21G22G27
  22904710.300   120365083.09907  22904711.820    93790987.48745
  24547742.200   128999253.30406  24547741.660   100518892.73344
  20901009.720   109835570.66109  20901009.100    85586162.99048
  22263578.900   116995908.91108  22263578.200    91165645.02146
  21648282.920   113762510.32508  21648280.940    88646121.18847
  24285506.400   127621194.02005  24285506.320    99445083.00844
  20874216.340   109694791.85509  20874213.960    85476466.22148
  20512848.700   107795778.42909  20512850.340    83996729.30549
 15 02 24 02 21  0.0000000  0  8G04G11G16G18G19G21G22G27
  22888946.360   120282243.52307  22888947.980    93726437.18545
  24530330.840   128907757.47206  24530330.800   100447597.33043
  20910788.520   109886958.36009  20910787.860    85626205.34348
  22272753.360   117044120.70508  22272752.480    91203212.65546
  21637292.640   113704756.63408  21637290.760    88601118.33247
  24299569.240   127695095.44205  24299569.340    99502668.49144
  20870888.560   109677304.44509  20870886.200    85462839.67348
  20508675.780   107773849.67609  20508677.460    83979641.96348
 15 02 24 02 21 30.0000000  0  8G04G11G16G18G19G21G22G27
  22873225.320   120199629.42607  22873227.000    93662062.58644
  24512935.000   128816343.19006  24512935.320   100376365.46944
  20920664.920   109938858.94009  20920664.200    85666647.33148
  22282008.160   117092754.81908  22282007.100    91241109.36246
  21626336.400   113647181.61908  21626334.580    88556254.69647
  24313632.200   127768997.82605  24313632.300    99560254.69443
  20867662.300   109660350.29209  20867659.940    85449628.66048
  20504556.060   107752200.59909  20504557.720    83962772.54948
 15 02 24 02 22  0.0000000  0  8G04G11G16G18G19G21G22G27
  22857546.820   120117239.03007  22857548.540    93597862.30745
  24495554.420   128725009.11006  24495555.160   100305196.08543
  20930638.180   109991268.57009  20930637.440    85707485.99348
  22291342.440   117141806.89908  22291341.320    91279331.76345
  21615413.700   113589782.67508  21615411.880    88511528.25447
  24327694.820   127842898.22006  24327694.560    99617839.37644
  20864537.300   109643927.88409  20864534.840    85436831.98848
  20500489.340   107730830.02509  20500490.960    83946120.15048
 15 02 24 02 22 30.0000000  0  8G04G11G16G18G19G21G22G27
  22841911.020   120035072.75407  22841912.680    93533836.65745
  24478189.040   128633754.83306  24478190.020   100234088.90543
  20940707.820   110044184.86209  20940707.120    85748719.45748
  22300755.960   117191275.32208  22300754.780    91317878.58045
  21604524.820   113532560.82508  21604522.920    88466939.81047
  24341756.900   127916795.35406  24341756.580    99675421.61442
  20861513.500   109628037.23209  20861510.960    85424449.67048
  20496475.800   107709738.84809  20496477.480    83929685.47148
 15 02 24 02 23  0.0000000  0  8G04G11G16G18G19G21G22G27
  22826317.880   119953130.43207  22826319.420    93469985.53844
  24460839.020   128542580.47706  24460840.040   100163043.96344
  20950873.620   110097606.67809  20950873.000    85790346.83648
  22310248.220   117241157.92108  22310247.060    91356748.12845
  21593669.920   113475517.04108  21593667.900    88422490.10747
  24355818.380   127990688.82206  24355817.980    99733000.91943
  20858590.800   109612678.12409  20858588.260    85412481.54248
  20492515.600   107688927.87509  20492517.340    83913469.12648
 15 02 24 02 23 30.0000000  0  8G04G11G16G18G19G21G22G27
  22810768.080   119871415.43207  22810769.420    93406311.53244
  24443504.820   128451488.78906  24443505.900   100092063.46343
  20961135.940   110151535.51709  20961135.320    85832369.29048
  22319819.500   117291455.49208  22319818.340    91395941.04245
  21582849.500   113418654.54608  21582847.360    88378181.68147
  24369879.420   128064580.33605  24369879.200    99790578.72043
  20855769.780   109597853.53009  20855767.220    85400929.92048
  20488609.420   107668400.70009  20488611.180    83897473.92748
 15 02 24 02 24  0.0000000  0  8G04G11G16G18G19G21G22G27
  22795261.480   119789927.43107  22795262.760    93342814.39944
  24426186.360   128360480.03006  24426187.540   100021147.58243
  20971494.180   110205968.57009  20971493.560    85874784.64748
  22329469.360   117342165.96208  22329468.220    91435455.68545
  21572063.600   113361973.89908  21572061.380    88334014.95647
  24383939.820   128138468.20005  24383939.620    99848153.64843
  20853050.380   109583563.03609  20853047.740    85389794.47748
  20484757.360   107648157.94609  20484759.140    83881700.35048
 15 02 24 02 24 30.0000000  0  8G04G11G16G18G19G21G22G27
  22779798.420   119708668.80407  22779799.740    93279496.04245
  24408884.060   128269555.92106  24408885.460    99950297.66542
  20981948.420   110260906.23509  20981947.840    85917593.20548
  22339197.720   117393289.20408  22339196.640    91475291.98045
  21561312.680   113305477.55708  21561310.380    88289991.84647
  24397999.660   128212353.56205  24397999.700    99905726.59043
  20850433.060   109569808.86609  20850430.380    85379076.95248
  20480959.960   107628202.35909  20480961.720    83866150.54048
 15 02 24 02 25  0.0000000  0  8G04G11G16G18G19G21G22G27
  22764378.220   119627635.57607  22764379.580    93216353.29245
  24391597.040   128178712.78005  24391598.760    99879510.83244
  20992497.480   110316341.99009  20992496.900    85960789.88548
  22349003.520   117444819.31508  22349002.540    91515445.30745
  21550596.220   113249162.45008  21550593.940    88246109.94947
  24412058.140   128286231.44405  24412058.300    99963293.71644
  20847917.040   109556587.08909  20847914.380    85368774.28148
  20477216.580   107608530.64009  20477218.320    83850821.93548
 15 02 24 02 25 30.0000000  0  8G04G11G16G18G19G21G22G27
  22749001.440   119546830.17007  22749002.900    93153388.05445
  24374325.860   128087952.90506  24374327.660    99808788.84543
  21003141.480   110372276.53809  21003140.940    86004375.23148
  22358886.760   117496756.49608  22358885.880    91555915.83645
  21539914.880   113193031.76908  21539912.640    88202371.75847
  24426115.580   128360103.18805  24426115.800   100020856.07943
  20845502.600   109543899.39209  20845500.000    85358887.77048
  20473527.800   107589145.92309  20473529.520    83835716.95649
 15 02 24 02 26  0.0000000  0  8G04G11G16G18G19G21G22G27
  22733668.540   119466255.23407  22733670.080    93090602.41945
  24357071.020   127997278.38206  24357072.800    99738133.39941
  21013880.460   110428710.21909  21013879.960    86048349.51347
  22368847.560   117549100.97408  22368846.720    91596703.73945
  21529269.220   113137088.35309  21529266.980    88158779.49447
  24440172.140   128433970.72106  24440172.460   100078415.17343
  20843190.300   109531748.46809  20843187.760    85349419.52648
  20469894.200   107570051.36109  20469895.980    83820838.08048
 15 02 24 02 26 30.0000000  0  8G04G11G16G18G19G21G22G27
  22718379.240   119385909.79907  22718380.860    93027995.61745
  24339832.400   127906688.77006  24339834.180    99667544.14843
  21024713.820   110485640.01809  21024713.340    86092710.38547
  22378885.160   117601849.16808  22378884.440    91637806.21745
  21518659.120   113081331.68409  21518656.800    88115332.73847
  24454227.320   128507831.07706  24454227.500   100135968.70743
  20840979.940   109520133.02409  20840977.400    85340368.54348
  20466315.780   107551246.67109  20466317.560    83806185.07348
 15 02 24 02 27  0.0000000  0  9G04G11G16G18G19G21G22G27G32
  22703133.800   119305794.45508  22703135.400    92965568.10544
  24322609.960   127816184.40506  24322611.760    99597021.28144
  21035641.360   110543064.61809  21035640.820    86137456.81448
  22388999.300   117654999.81008  22388998.720    91679222.29045
  21508084.660   113025762.57908  21508082.340    88072032.13947
  24468281.120   128581684.48105  24468280.860   100193516.73042
  20838871.460   109509052.82909  20838868.860    85331734.63548
  20462792.720   107532732.89209  20462794.460    83791758.75448
  24486305.160   128676393.27106  24486305.800   100267340.36743
 15 02 24 02 27 30.0000000  0  9G04G11G16G18G19G21G22G27G32
  22687930.200   119225898.80907  22687931.800    92903311.79644
  24305401.800   127725754.91105  24305403.360    99526556.81643
  21046660.700   110600971.19109  21046660.100    86182578.80347
  22399187.680   117708540.22908  22399187.100    91720942.08545
  21497544.100   112970371.82808  21497541.900    88028870.52347
  24482331.580   128655519.95005  24482330.760   100251050.85443
  20836863.000   109498498.27709  20836860.380    85323510.31448
  20459323.240   107514500.67209  20459324.900    83777551.83248
  24463631.440   128557243.24306  24463632.680   100174496.42043
 15 02 24 02 28  0.0000000  0  9G04G11G16G18G19G21G22G27G32
  22672772.740   119146245.82908  22672774.360    92841244.55545
  24288212.160   127635422.88805  24288213.720    99456168.24943
  21057775.820   110659380.86609  21057775.140    86228092.81748
  22409454.220   117762491.20608  22409453.520    91762981.80945
  21487041.900   112915182.57608  21487039.760    87985865.91947
  24496382.540   128729357.96705  24496381.300   100308586.94443
  20834958.700   109488491.17109  20834956.080    85315712.57748
  20455911.800   107496573.34509  20455913.360    83763582.47948
  24440964.540   128438129.50605  24440966.720   100081680.79644
 15 02 24 02 28 30.0000000  0  9G04G11G16G18G19G21G22G27G32
  22657659.340   119066824.49507  22657660.940    92779357.83245
  24271039.100   127545177.63605  24271040.760    99385847.30842
  21068984.060   110718280.10409  21068983.400    86273988.31347
  22419796.380   117816839.79208  22419795.640    91805331.34245
  21476576.120   112860184.60108  21476573.940    87943010.35947
  24510431.820   128803187.71305  24510430.860   100366116.56943
  20833156.440   109479020.20709  20833153.780    85308332.61848
  20452556.420   107478940.61209  20452557.960    83749842.68148
  24418302.860   128319043.30005  24418305.720    99988886.62044
 15 02 24 02 29  0.0000000  0  9G04G11G16G18G19G21G22G27G32
  22642589.820   118987633.56407  22642591.420    92717650.63845
  24253882.240   127455017.29205  24253883.680    99315592.49544
  21080284.700   110777665.39709  21080284.100    86320262.54948
  22430213.480   117871581.93508  22430212.600    91847987.55745
  21466146.560   112805376.98608  21466144.340    87900303.14047
  24524479.080   128877006.33405  24524478.280   100423637.59544
  20831455.960   109470084.06909  20831453.240    85301369.40648
  20449256.980   107461601.80409  20449258.460    83736331.92248
  24395646.720   128199985.41906  24395649.800    99896114.45643
 15 02 24 02 29 30.0000000  0  9G04G11G16G18G19G21G22G27G32
  22627564.400   118908674.52807  22627566.000    92656124.14345
  24236742.120   127364943.85305  24236743.380    99245405.48542
  21091677.820   110837536.75009  21091677.200    86366915.54347
  22440705.340   117926717.15808  22440704.440    91890950.05445
  21455753.700   112750761.99808  21455751.440    87857746.01247
  24538524.340   128950813.87206  24538523.700   100481149.89944
  20829857.460   109461683.79709  20829854.720    85294823.74848
  20446013.900   107444559.31909  20446015.400    83723052.06448
  24372996.840   128080959.81105  24372999.760    99803367.41743
 15 02 24 02 30  0.0000000  0  9G04G11G16G18G19G21G22G27G32
  22612583.500   118829949.42508  22612584.980    92594779.93745
  24219618.780   127274956.23905  24219618.660    99175293.64344
  21103163.240   110897893.45209  21103162.620    86413946.72747
  22451271.960   117982245.19708  22451271.160    91934218.65045
  21445397.980   112696342.28108  21445395.760    87815341.04747
  24552567.840   129024611.88806  24552567.340   100538654.81643
  20828361.200   109453820.94809  20828358.480    85288696.85848
  20442827.720   107427815.73309  20442829.240    83710005.10748
  24350353.840   127961970.47705  24350356.820    99710648.69543
 15 02 24 02 30 30.0000000  0  9G04G11G16G18G19G21G22G27G32
  22597647.080   118751457.47208  22597648.400    92533617.39945
  24202512.120   127185059.35605  24202512.040    99105244.15744
  21114740.420   110958732.14009  21114739.780    86461353.48147
  22461912.720   118038162.77608  22461911.920    91977790.78545
  21435079.360   112642117.60308  21435077.140    87773088.05247
  24566609.040   129098398.08205  24566608.660   100596150.51143
  20826966.920   109446494.14409  20826964.220    85282987.67348
  20439698.320   107411370.79009  20439699.900    83697190.87248
  24327717.960   127843018.79205  24327720.720    99617959.24643
 15 02 24 02 31  0.0000000  0  9G04G11G16G18G19G21G22G27G32
  22582755.140   118673199.59408  22582756.400    92472637.25944
  24185422.480   127095251.47006  24185422.780    99035264.04944
  21126409.180   111020051.90409  21126408.600    86509135.10247
  22472627.420   118094468.80208  22472626.580    92021665.61545
  21424798.140   112588089.80108  21424796.000    87730988.47947
  24580648.360   129172173.63805  24580647.720   100653637.91642
  20825674.800   109439704.01809  20825672.120    85277696.67648
  20436626.060   107395226.32809  20436627.760    83684610.76848
  24305089.880   127724107.95905  24305092.620    99525301.66243
 15 02 24 02 31 30.0000000  0  9G04G11G16G18G19G21G22G27G32
  22567908.120   118595177.47608  22567909.160    92411840.82845
  24168349.900   127005533.76006  24168350.480    98965354.23344
  21138169.420   111081852.09609  21138168.860    86557291.07347
  22483415.960   118151162.86508  22483415.080    92065842.80345
  21414554.760   112534260.82008  21414552.640    87689043.81747
  24594685.540   129245937.88005  24594684.920   100711116.50944
  20824485.100   109433452.00509  20824482.360    85272824.97948
  20433611.440   107379384.53809  20433613.160    83672266.51448
  24282470.320   127605241.92606  24282473.140    99432678.93944
 15 02 24 02 32  0.0000000  0  9G04G11G16G18G19G21G22G27G32
  22553105.780   118517390.39908  22553106.700    92351227.53645
  24151294.300   126915906.05406  24151295.260    98895514.48244
  21150020.600   111144130.22509  21150020.040    86605819.47647
  22494277.800   118208241.74708  22494276.800    92110319.84345
  21404349.320   112480630.90708  21404347.160    87647254.27747
  24608720.280   129319689.60205  24608719.280   100768585.32643
  20823397.540   109427736.64409  20823394.700    85268371.46448
  20430654.480   107363845.57409  20430656.160    83660158.22848
  24259859.580   127486422.26906  24259862.620    99340092.40443
 15 02 24 02 32 30.0000000  0  9G04G11G16G18G19G21G22G27G32
  22538348.460   118439839.85908  22538349.280    92290798.58744
  24134256.060   126826369.37706  24134257.280    98825745.68944
  21161962.360   111206884.83609  21161961.800    86654719.15947
  22505212.720   118265704.41908  22505211.480    92155095.95445
  21394182.160   112427201.95008  21394180.000    87605621.33347
  24622752.700   129393429.86005  24622751.660   100826045.23341
  20822412.300   109422558.96009  20822409.400    85264336.91348
  20427755.500   107348611.38109  20427757.220    83648287.43048
  24237258.400   127367652.50806  24237261.220    99247544.67943
 15 02 24 02 33  0.0000000  0  9G04G11G16G18G19G21G22G27G32
  22523636.140   118362526.02208  22523636.840    92230554.06744
  24117235.100   126736924.14606  24117236.460    98756048.16044
  21173994.440   111270114.00409  21173993.840    86703988.62647
  22516220.160   118323548.66508  22516218.860    92200169.37844
  21384053.360   112373974.71008  21384051.200    87564145.57047
  24636782.520   129467157.25305  24636781.620   100883495.16243
  20821529.340   109417918.97109  20821526.460    85260721.35248
  20424914.760   107333683.00509  20424916.400    83636654.91948
  24214667.120   127248935.25806  24214669.780    99155037.90342
 15 02 24 02 33 30.0000000  0  9G04G11G16G18G19G21G22G27G32
  22508968.880   118285449.24308  22508969.660    92170494.25545
  24100231.660   126647570.49506  24100232.860    98686422.00741
  21186116.460   111333815.50709  21186115.860    86753626.14447
  22527299.840   118381773.03708  22527298.640    92245539.01045
  21373963.160   112320950.34308  21373960.940    87522827.88447
  24650809.660   129540871.06305  24650809.140   100940934.43844
  20820748.540   109413815.99209  20820745.740    85257524.22747
  20422132.420   107319061.45009  20422133.980    83625261.50048
  24192086.160   127130272.85305  24192088.800    99062573.84342
 15 02 24 02 34  0.0000000  0  9G04G11G16G18G19G21G22G27G32
  22494346.700   118208609.78307  22494347.600    92110619.38645
  24083245.680   126558308.57606  24083246.640    98616867.31044
  21198328.160   111397988.03009  21198327.480    86803630.68947
  22538451.400   118440375.45808  22538450.240    92291203.22845
  21363911.700   112268129.83208  21363909.460    87481669.05447
  24664834.180   129614571.05405  24664833.980   100998363.03442
  20820069.880   109410250.08009  20820067.220    85254745.60448
  20419408.700   107304747.73909  20419410.140    83614107.95348
  24169516.200   127011668.09006  24169518.600    98970154.68243
 15 02 24 02 34 30.0000000  0  9G04G11G16G18G19G21G22G27G32
  22479769.380   118132006.02008  22479770.400    92050928.17145
  24066276.960   126469137.41606  24066277.740    98547383.34543
  21210628.720   111462627.33109  21210628.020    86853998.96347
  22549674.160   118499351.94108  22549673.140    92337158.92345
  21353898.820   112215512.40208  21353896.680    87440668.46847
  24678855.680   129688254.61505  24678855.780   101055778.75544
  20819493.040   109407219.27509  20819490.420    85252383.94248
  20416743.300   107290740.92609  20416744.740    83603193.54948
  24146957.440   126893121.58906  24146959.740    98877780.92044
 15 02 24 02 35  0.0000000  0  9G04G11G16G18G19G21G22G27G32
  22465237.380   118055640.48807  22465238.540    91991422.59245
  24049325.880   126380059.24106  24049326.580    98477971.80243
  21223018.060   111527733.73909  21223017.420    86904731.21047
  22560968.300   118558702.76808  22560967.300    92383406.32345
  21343925.240   112163101.35308  21343923.260    87399828.70647
  24692874.520   129761923.58305  24692874.580   101113183.12543
  20819018.460   109404725.46109  20819015.760    85250440.72348
  20414136.900   107277044.30609  20414138.440    83592520.85448
  24124410.660   126774638.12206  24124413.000    98785456.30543
 15 02 24 02 35 30.0000000  0  9G04G11G16G18G19G21G22G27G32
  22450750.580   117979512.36607  22450751.880    91932102.00845
  24032392.300   126291072.94806  24032392.840    98408631.88544
  21235495.600   111593303.86109  21235495.000    86955824.80647
  22572333.100   118618424.50208  22572332.100    92429942.72045
  21333990.940   112110896.34408  21333989.020    87359149.49047
  24706890.280   129835575.91605  24706889.980   101170574.48644
  20818645.680   109402766.52109  20818642.880    85248914.28248
  20411589.440   107263657.66609  20411591.100    83582089.70648
  24101876.000   126656219.08006  24101878.280    98693181.83941
 15 02 24 02 36  0.0000000  0  9G04G11G16G18G19G21G22G27G32
  22436309.700   117903625.70207  22436311.220    91872969.56345
  24015477.020   126202183.15906  24015477.480    98339367.16344
  21248061.700   111659339.28109  21248061.100    87007280.96147
  22583768.880   118678519.21408  22583767.700    92476769.76245
  21324096.780   112058902.10308  21324094.840    87318634.50147
  24720903.460   129909214.86505  24720902.780   101227955.50141
  20818375.600   109401347.17809  20818372.780    85247808.30048
  20409101.940   107250586.04109  20409103.680    83571904.02048
  24079354.900   126537871.10706  24079357.200    98600962.78742
 15 02 24 02 36 30.0000000  0  9G04G11G16G18G19G21G22G27G32
  22421914.040   117827976.03708  22421915.520    91814021.79145
  23998579.360   126113385.02306  23998579.340    98270173.84943
  21260715.140   111725833.40709  21260714.440    87059094.54847
  22595274.340   118738980.07908  22595272.960    92523882.13345
  21314242.060   112007114.85308  21314240.000    87278280.80047
  24734913.020   129982834.69305  24734912.000   101285321.52144
  20818207.060   109400461.34409  20818204.240    85247118.05548
  20406673.640   107237825.25109  20406675.420    83561960.54648
  24056846.800   126419591.72506  24056849.280    98508797.15943
 15 02 24 02 37  0.0000000  0  9G04G11G16G18G19G21G22G27G32
  22407564.000   117752565.64207  22407565.340    91755260.46545
  23981699.540   126024680.75206  23981699.500    98201053.67943
  21273455.720   111792785.67809  21273455.040    87111265.13447
  22606849.360   118799806.66808  22606847.900    92571279.46045
  21304427.420   111955537.99408  21304425.220    87238091.04847
  24748919.420   130056437.26605  24748917.700   101342674.13743
  20818140.400   109400110.93609  20818137.600    85246845.01548
  20404305.100   107225378.45009  20404306.920    83552261.73748
  24034352.740   126301385.42706  24034355.040    98416688.46343
 15 02 24 02 37 30.0000000  0  9G04G11G16G18G19G21G22G27G32
  22393259.980   117677397.21008  22393261.220    91696687.69444
  23964838.140   125936073.35506  23964838.060    98132009.01643
  21286283.540   111860196.72108  21286282.960    87163793.20947
  22618494.020   118860999.80308  22618492.620    92618962.41744
  21294653.400   111904174.79409  21294651.160    87198067.77747
  24762922.820   130130024.47105  24762920.840   101400014.78343
  20818176.060   109400298.18309  20818173.240    85246990.92947
  20401997.060   107213249.27909  20401998.860    83542810.43548
  24011873.520   126183257.49006  24011875.800    98324640.81641
 15 02 24 02 38  0.0000000  0  9G04G11G16G18G19G21G22G27G32
  22379001.820   117602469.89508  22379003.080    91638302.78945
  23947994.980   125847562.24306  23947994.800    98063039.37643
  21299198.120   111928063.74109  21299197.660    87216676.58947
  22630207.780   118922556.58208  22630206.520    92666928.72645
  21284920.020   111853025.39808  21284917.800    87158211.11547
  24776922.840   130203594.65805  24776920.800   101457342.16341
  20818313.640   109401021.28409  20818310.840    85247554.39248
  20399749.400   107201437.55709  20399751.120    83533606.49448
  23989409.520   126065209.43806  23989411.900    98232655.41243
 15 02 24 02 38 30.0000000  0  9G04G11G16G18G19G21G22G27G32
  22364789.480   117527783.56308  22364790.640    91580105.65745
  23931170.060   125759147.01806  23931169.940    97994144.43843
  21312199.020   111996383.73509  21312198.560    87269912.93147
  22641990.160   118984474.03208  22641989.080    92715176.08145
  21275227.400   111802090.29108  21275225.200    87118521.42547
  24790919.300   130277146.69405  24790917.640   101514655.44542
  20818553.100   109402279.72809  20818550.320    85248535.00248
  20397562.180   107189943.85109  20397563.880    83524650.35548
  23966961.140   125947243.33205  23966963.760    98140733.90343
 15 02 24 02 39  0.0000000  0  9G04G11G16G18G19G21G22G27G32
  22350623.100   117453338.73108  22350624.160    91522096.73845
  23914363.460   125670828.41406  23914363.320    97925324.77343
  21325285.860   112065155.05409  21325285.300    87323500.95447
  22653840.940   119046750.55608  22653840.000    92763703.25345
  21265575.720   111751370.49908  21265573.540    87078999.51447
  24804912.100   130350680.41005  24804910.860   101571954.40841
  20818894.460   109404073.49309  20818891.660    85249932.74948
  20395435.720   107178769.44709  20395437.440    83515943.03348
  23944529.040   125829362.16606  23944531.400    98048878.52442
 15 02 24 02 39 30.0000000  0  9G04G11G16G18G19G21G22G27G32
  22336502.740   117379135.83808  22336503.720    91464276.31544
  23897575.360   125582606.80206  23897575.200    97856580.68941
  21338458.100   112134375.42508  21338457.460    87377438.88547
  22665759.680   119109384.18108  22665758.960    92812508.64645
  21255965.260   111700867.31409  21255963.020    87039646.38347
  24818901.260   130424195.21905  24818900.560   101629238.64842
  20819337.560   109406402.08509  20819334.800    85251747.24348
  20393370.240   107167915.36809  20393371.940    83507485.31248
  23922113.660   125711568.49206  23922116.080    97957091.32143
 15 02 24 02 40  0.0000000  0  9G04G11G16G18G19G21G22G27G32
  22322428.760   117305176.55808  22322429.600    91406645.73145
  23880805.940   125494484.02706  23880806.040    97787913.63044
  21351715.560   112204044.16808  21351714.920    87431726.20747
  22677746.400   119172374.62008  22677745.800    92861592.10545
  21246396.540   111650583.52708  21246394.200    87000464.21747
  24832887.100   130497692.37905  24832886.860   101686509.18344
  20819882.560   109409266.25309  20819879.840    85253979.07248
  20391366.240   107157384.27909  20391367.900    83499279.26548
  23899715.680   125593866.51706  23899718.220    97865375.62443
 15 02 24 02 40 30.0000000  0  9G04G11G16G18G19G21G22G27G32
  22308400.360   117231457.42508  22308401.280    91349202.27445
  23864054.640   125406456.60806  23864054.840    97719320.87343
  21365057.240   112274155.47109  21365056.640    87486358.38547
  22689799.920   119235715.99008  22689799.360    92910949.01545
  21236869.000   111600516.49008  21236866.740    86961450.95147
  24846868.760   130571167.75405  24846869.080   101743762.63444
  20820528.700   109412662.13309  20820526.040    85256625.21948
  20389423.160   107147173.37209  20389424.760    83491322.71048
  23877334.940   125476255.26606  23877337.140    97773730.52844
 15 02 24 02 41  0.0000000  0  9G04G11G16G18G19G21G22G27G32
  22294418.280   117157981.30108  22294419.240    91291948.18245
  23847322.180   125318527.40706  23847322.420    97650804.67244
  21378483.340   112344709.81209  21378482.760    87541335.77347
  22701920.160   119299408.08708  22701919.660    92960579.21045
  21227383.460   111550669.79309  21227381.300    86922609.38248
  24860846.740   130644622.91605  24860847.140   101801000.42944
  20821276.340   109416591.38909  20821273.740    85259686.98048
  20387541.660   107137286.11509  20387543.280    83483618.35148
  23854972.400   125358739.70305  23854974.240    97682160.06244
 15 02 24 02 41 30.0000000  0  9G04G11G16G18G19G21G22G27G32
  22280482.620   117084749.63108  22280483.720    91234884.53945
  23830608.740   125230698.16306  23830609.140    97582366.31444
  21391993.580   112415705.86409  21391992.940    87596657.35347
  22714107.060   119363450.55008  22714106.520    93010482.42845
  21217940.380   111501045.69209  21217938.240    86883941.25748
  24874821.200   130718058.85205  24874821.380   101858223.14843
  20822125.720   109421055.10609  20822123.180    85263165.21148
  20385722.220   107127724.73809  20385723.840    83476167.93248
  23832628.800   125241323.75005  23832630.600    97590667.23644
 15 02 24 02 42  0.0000000  0  9G04G11G16G18G19G21G22G27G32
  22266593.220   117011760.87508  22266594.460    91178010.22245
  23813914.100   125142967.62406  23813914.520    97514004.87743
  21405587.140   112487139.91509  21405586.440    87652320.23247
  22726359.980   119427839.72408  22726359.280    93060655.81145
  21208539.520   111451643.49509  21208537.340    86845446.04347
  24888791.500   130791473.27705  24888791.560   101915429.17144
  20823076.420   109426051.11009  20823073.900    85267058.20047
  20383964.740   107118488.75309  20383966.320    83468971.05848
  23810304.380   125124008.36206  23810305.940    97499252.70645
 15 02 24 02 42 30.0000000  0  9G04G11G16G18G19G21G22G27G32
  22252750.260   116939016.14708  22252751.660    91121326.04545
  23797238.500   125055336.73606  23797238.920    97445721.13643
  21419263.600   112559010.24509  21419263.000    87708323.07447
  22738678.580   119492574.23908  22738677.800    93111098.28345
  21199181.140   111402464.98108  21199178.960    86807125.13148
  24902757.820   130864866.67605  24902758.040   101972618.83443
  20824128.440   109431579.32309  20824125.880    85271365.90648
  20382269.480   107109579.72409  20382271.040    83462028.95549
  23787999.720   125006796.91906  23788001.220    97407919.21243
 15 02 24 02 43  0.0000000  0  9G04G11G16G18G19G21G22G27G32
  22238954.040   116866516.51908  22238955.420    91064832.85146
  23780582.140   124967806.55006  23780582.540    97377515.82144
  21433022.860   112631316.20608  21433022.440    87764665.36947
  22751062.600   119557652.78408  22751061.880    93161808.82445
  21189865.680   111353512.28908  21189863.520    86768980.18748
  24916720.000   130938239.41704  24916720.680   102029792.33644
  20825281.840   109437640.30009  20825279.220    85276088.75148
  20380636.780   107100999.67709  20380638.340    83455343.20149
  23765715.620   124889693.07006  23765717.080    97316669.51344
 15 02 24 02 43 30.0000000  0  9G04G11G16G18G19G21G22G27G32
  22225204.620   116794262.32208  22225205.820    91008530.90845
  23763945.060   124880378.02606  23763945.460    97309389.71543
  21446864.540   112704054.91209  21446864.160    87821344.86247
  22763511.740   119623073.58508  22763510.980    93212786.07045
  21180593.440   111304786.77809  21180591.280    86731012.26248
  24930677.920   131011591.22304  24930679.360   102086949.63041
  20826536.440   109444233.23009  20826533.780    85281226.11048
  20379066.860   107092749.75009  20379068.500    83448914.68849
  23743452.600   124772699.56106  23743453.720    97225505.84243
 15 02 24 02 44  0.0000000  0  9G04G11G16G18G19G21G22G27G32
  22211501.880   116722253.44108  22211502.940    90952420.12245
  23747327.200   124793050.70806  23747327.580    97241342.49344
  21460788.200   112777223.78209  21460787.700    87878359.55847
  22776025.440   119688833.84308  22776024.720    93264027.83945
  21171364.640   111256289.22009  21171362.380    86693221.96347
  24944631.820   131084920.81004  24944633.480   102144089.48641
  20827892.160   109451357.58709  20827889.440    85286777.56348
  20377559.880   107084830.41209  20377561.500    83442743.76948
  23721211.000   124655818.52906  23721211.680    97134429.75043
 15 02 24 02 44 30.0000000  0  9G04G11G16G18G19G21G22G27G32
  22197845.560   116650488.64808  22197846.440    90896499.54345
  23730728.500   124705823.64606  23730728.720    97173373.37144
  21474793.040   112850819.16909  21474792.360    87935706.58647
  22788603.160   119754930.31308  22788602.640    93315531.56845
  21162179.140   111208019.13308  21162176.780    86655608.90948
  24958581.120   131158226.35304  24958583.560   102201210.69743
  20829348.440   109459010.33509  20829345.740    85292740.74748
  20376115.640   107077241.07109  20376117.300    83436829.99749
  23698991.000   124539051.04106  23698991.420    97043442.17743
 15 02 24 02 45  0.0000000  0  9G04G11G16G18G19G21G22G27G32
  22184236.060   116578969.80908  22184236.860    90840770.59845
  23714149.140   124618698.78906  23714149.380    97105483.90944
  21488878.920   112924840.79209  21488878.120    87993385.76246
  22801244.660   119821362.12507  22801244.340    93367296.60045
  21153037.500   111159979.49908  21153035.180    86618175.43747
  24972526.400   131231509.33905  24972529.000   102258314.31244
  20830905.660   109467193.43109  20830902.940    85299117.19748
  20374734.740   107069984.72909  20374736.460    83431175.70248
  23676793.440   124422401.75606  23676793.900    96952546.71244
 15 02 24 02 45 30.0000000  0  9G04G11G16G18G19G21G22G27G32
  22170672.920   116507694.82808  22170673.640    90785231.67845
  23697588.780   124531674.38306  23697588.960    97037672.71943
  21503044.860   112999283.33009  21503043.980    88051392.92547
  22813949.220   119888125.24408  22813948.920    93419319.79045
  21143939.480   111112168.87909  21143937.240    86580920.41947
  24986467.380   131304777.83905  24986470.320   102315397.11143
  20832563.240   109475903.82909  20832560.440    85305904.52147
  20373416.940   107063059.88709  20373418.740    83425779.72648
  23654618.300   124305870.75806  23654618.640    96861743.38844
 15 02 24 02 46  0.0000000  0  9G04G11G16G18G19G21G22G27G32
  22157157.440   116436670.63708  22157158.020    90729888.18445
  23681048.880   124444757.41806  23681049.000    96969945.24143
  21517291.780   113074151.54509  21517290.900    88109731.77146
  22826717.860   119955224.20108  22826717.280    93471604.70245
  21134886.580   111064595.20509  21134884.360    86543850.03248
  25000404.300   131378016.33304  25000406.060   102372466.01244
  20834322.240   109485147.22309  20834319.420    85313107.17748
  20372163.680   107056474.25909  20372165.520    83420648.06348
  23632467.520   124189467.60806  23632467.900    96771039.69644
 15 02 24 02 46 30.0000000  0  9G04G11G16G18G19G21G22G27G32
  22143689.540   116365896.55508  22143690.140    90674739.57245
  23664529.420   124357947.34006  23664529.600    96902301.05144
  21531619.220   113149442.70009  21531618.400    88168400.18547
  22839549.820   120022655.83608  22839549.000    93524148.83645
  21125878.740   111017258.62409  21125876.520    86506964.39547
  25014336.000   131451225.58304  25014338.300   102429533.16642
  20836182.400   109494922.23809  20836179.520    85320724.07348
  20370975.040   107050227.92109  20370976.820    83415780.77948
  23610341.340   124073193.93406  23610341.880    96680436.92544
 15 02 24 02 47  0.0000000  0  9G04G11G16G18G19G21G22G27G32
  22130267.620   116295363.92408  22130268.200    90619779.10845
  23648028.760   124271235.28706  23648028.720    96834733.27544
  21546024.860   113225144.85208  21546024.200    88227388.86247
  22852442.840   120090408.94507  22852441.880    93576943.46044
  21116914.560   110970151.52108  21116912.320    86470257.55847
  25028263.360   131524413.90704  25028265.900   102486562.99643
  20838141.840   109505218.98109  20838138.920    85328747.51148
  20369849.420   107044312.90009  20369851.160    83411171.67048
  23588238.600   123957043.44606  23588239.140    96589930.07444
 15 02 24 02 47 30.0000000  0  8G04G11G16G18G19G22G27G32
  22116891.500   116225072.34108  22116892.180    90565006.46745
  23631546.640   124184621.54306  23631546.600    96767242.04644
  21560508.040   113301254.97808  21560507.640    88286695.44247
  22865396.460   120158481.19507  22865395.560    93629986.76645
  21107994.140   110923274.48708  21107991.900    86433730.00948
  20840200.300   109516036.48509  20840197.420    85337176.74348
  20368787.020   107038729.73809  20368788.640    83406821.14148
  23566159.740   123841018.42106  23566160.360    96499521.02843
 15 02 24 02 48  0.0000000  0  8G04G11G16G18G19G22G27G32
  22103564.280   116155037.59008  22103564.940    90510433.96445
  23615086.280   124098121.92806  23615086.320    96699839.76444
  21575071.520   113377786.87908  21575071.260    88346330.67547
  22878413.360   120226885.87407  22878412.600    93683289.09845
  21099120.580   110876644.26408  21099118.480    86397394.78648
  20842360.540   109527389.00409  20842357.760    85346022.86848
  20367790.920   107033494.86609  20367792.440    83402742.01249
  23544108.260   123725136.95206  23544108.980    96409223.82544
 15 02 24 02 48 30.0000000  0  9G01G04G11G16G18G19G22G27G32
  24595966.800   129252682.35805  24595969.300   100716382.68844
  22090286.460   116085262.51108  22090287.200    90456063.79545
  23598648.240   124011739.34706  23598648.260    96632528.71242
  21589715.400   113454740.62009  21589715.100    88406294.61747
  22891493.560   120295623.37207  22891493.040    93736850.79145
  21090294.760   110830264.64809  21090292.640    86361254.82948
  20844622.960   109539278.63709  20844620.360    85355287.52348
  20366861.820   107028611.94009  20366863.260    83398937.12849
  23522085.120   123609404.48006  23522085.920    96319042.74343
 15 02 24 02 49  0.0000000  0  9G01G04G11G16G18G19G22G27G32
  24579896.440   129168230.39105  24579900.000   100650576.02843
  22077052.540   116015718.24908  22077053.400    90401873.50645
  23582226.920   123925445.15106  23582226.840    96565286.52443
  21604433.620   113532084.53209  21604433.100    88466562.57547
  22904631.220   120364662.73007  22904630.920    93790647.67945
  21081511.400   110784107.67709  21081509.200    86325288.35948
  20846981.960   109551675.59709  20846979.460    85364947.49648
  20365994.280   107024052.85509  20365995.760    83395384.58949
  23500085.240   123493794.43106  23500086.080    96228957.04744
 15 02 24 02 49 30.0000000  0  9G01G04G11G16G18G19G22G27G32
  24563851.560   129083914.15105  24563855.500   100584875.14144
  22063866.800   115946427.00208  22063867.680    90347880.35145
  23565826.800   123839261.67107  23565826.480    96498130.58642
  21619229.720   113609837.62708  21619229.000    88527149.38646
  22917830.120   120434023.63607  22917829.960    93844695.13844
  21072774.880   110738196.52909  21072772.600    86289513.45048
  20849441.600   109564601.28909  20849439.180    85375019.47548
  20365192.680   107019840.62309  20365194.280    83392102.32648
  23478113.460   123378331.66407  23478114.340    96138986.09444
 15 02 24 02 50  0.0000000  0  9G01G04G11G16G18G19G22G27G32
  24547832.020   128999730.07505  24547835.960   100519277.19743
  22050728.520   115877385.15508  22050729.380    90294081.53245
  23549447.100   123753185.72207  23549446.700    96431058.43844
  21634102.620   113687995.12508  21634101.840    88588051.31547
  22931089.160   120503700.52407  22931089.020    93898988.82244
  21064084.640   110692528.71809  21064082.260    86253928.14548
  20852000.940   109578051.03009  20851998.600    85385499.79848
  20364456.500   107015972.46809  20364458.240    83389088.17948
  23456169.380   123263015.00807  23456170.300    96049129.01544
 15 02 24 02 50 30.0000000  0  9G01G04G11G16G18G19G22G27G32
  24531837.940   128915679.42505  24531841.900   100453783.29444
  22037637.940   115808594.01608  22037638.840    90240478.07445
  23533088.100   123667218.74407  23533087.740    96364071.25644
  21649051.880   113766554.84208  21649051.220    88649266.67247
  22944407.980   120573691.79207  22944407.740    93953527.46244
  21055441.120   110647106.64009  21055438.660    86218534.32248
  20854660.040   109592024.72309  20854657.720    85396388.39248
  20363786.220   107012450.41209  20363788.020    83386343.71649
  23434253.900   123147848.32807  23434254.860    95959388.79444
 15 02 24 02 51  0.0000000  0  9G01G04G11G16G18G19G22G27G32
  24515868.840   128831760.77805  24515872.780   100388392.21442
  22024594.760   115740051.87408  22024595.680    90187068.64145
  23516749.420   123581359.17606  23516749.020    96297167.70143
  21664076.920   113845512.96108  21664076.520    88710792.46946
  22957786.040   120643993.99607  22957785.620    94008308.40044
  21046844.120   110601929.35209  21046841.720    86183331.25548
  20857418.360   109606519.92109  20857416.040    85407683.36048
  20363181.700   107009273.62509  20363183.580    83383868.29748
  23412367.080   123032832.41007  23412368.120    95869766.05443
 15 02 24 02 51 30.0000000  0  9G01G04G11G16G18G19G22G27G32
  24499924.980   128747975.36705  24499928.900   100323104.90644
  22011599.220   115671760.14208  22011600.160    90133854.32545
  23500431.560   123495608.89207  23500431.220    96230349.30444
  21679177.600   113924867.83808  21679177.340    88772627.42247
  22971223.120   120714605.99707  22971222.580    94063330.73445
  21038294.260   110556999.41909  21038291.860    86148320.92448
  20860276.040   109621536.93909  20860273.580    85419384.93948
  20362643.280   107006444.26409  20362645.220    83381663.60049
  23390509.620   122917971.09507  23390510.720    95780263.78244
 15 02 24 02 52  0.0000000  0  9G01G04G11G16G18G19G22G27G32
  24484006.580   128664324.35705  24484010.760   100257922.35642
  21998651.520   115603719.88208  21998652.460    90080835.96545
  23484134.780   123409968.89507  23484134.560    96163616.88443
  21694353.660   114004617.85708  21694353.320    88834770.27146
  22984718.860   120785526.39507  22984718.260    94118593.37644
  21029791.880   110512318.93209  21029789.460    86113504.95848
  20863233.020   109637075.55909  20863230.440    85431492.95848
  20362171.320   107003964.05009  20362173.260    83379730.96448
  23368682.260   122803268.01107  23368683.380    95690884.78044
 15 02 24 02 52 30.0000000  0  9G01G04G11G16G18G19G22G27G32
  24468113.820   128580808.41705  24468117.980   100192845.05344
  21985751.880   115535931.81408  21985752.780    90028014.13145
  23467859.160   123324439.99807  23467858.860    96096971.02943
  21709604.540   114084760.70609  21709603.960    88897219.23246
  22998272.920   120856753.73107  22998272.300    94174095.20344
  21021337.220   110467889.43009  21021334.820    86078884.58248
  20866289.200   109653135.41809  20866286.500    85444007.14248
  20361766.120   107001834.47809  20361768.000    83378071.55148
  23346885.560   122688726.22307  23346886.880    95601631.50544
 15 02 24 02 53  0.0000000  0  9G01G04G11G16G18G19G22G27G32
  24452246.160   128497425.04504  24452250.600   100127871.09843
  21972899.720   115468393.31708  21972900.600    89975386.73945
  23451604.340   123239019.86407  23451603.940    96030409.90843
  21724929.160   114165291.86708  21724928.540    88959970.76446
  23011884.380   120928282.75707  23011883.780    94229832.09144
  21012930.020   110423709.34109  21012927.680    86044458.53848
  20869443.880   109669712.89709  20869441.060    85456924.67147
  20361427.300   107000053.80409  20361429.120    83376684.01148
  23325119.620   122574345.85207  23325120.940    95512503.98143
 15 02 24 02 53 30.0000000  0  9G01G04G11G16G18G19G22G27G32
  24436403.800   128414173.48104  24436408.320   100062999.81844
  21960094.900   115401103.41908  21960095.760    89922953.08246
  23435370.220   123153708.04707  23435369.680    95963933.18644
  21740326.820   114246207.52108  21740326.300    89023021.91146
  23025552.700   121000110.40807  23025552.100    94285801.70445
  21004570.300   110379779.07609  21004568.120    86010227.18148
  20872696.680   109686806.13009  20872693.780    85470244.07748
  20361154.860   106998621.91209  20361156.620    83375568.25148
  23303384.700   122460128.46007  23303386.160    95423503.47244
 15 02 24 02 54  0.0000000  0  9G01G04G11G16G18G19G22G27G32
  24420587.400   128331057.40105  24420591.680    99998234.07544
  21947338.020   115334065.91108  21947338.920    89870716.08445
  23419157.460   123068508.80307  23419156.860    95897544.18444
  21755797.740   114327508.32208  21755797.400    89086373.17246
  23039278.160   121072238.00607  23039277.540    94342005.00844
  20996259.020   110336103.10709  20996256.920    85976193.96748
  20876048.040   109704417.64809  20876045.080    85483967.34448
  20360949.640   106997543.23709  20360951.320    83374727.71948
  23281682.000   122346080.19307  23281683.340    95334634.72544
 15 02 24 02 54 30.0000000  0  9G01G04G11G16G18G19G22G27G32
  24404796.380   128248074.18205  24404800.360    99933571.91944
  21934628.640   115267278.08408  21934629.560    89818673.65045
  23402965.480   122983418.69907  23402964.700    95831240.24343
  21771341.080   114409189.71608  21771340.820    89150020.99346
  23053059.880   121144660.78907  23053059.240    94398438.34844
  20987995.900   110292680.09709  20987993.800    85942357.86348
  20879497.180   109722543.19609  20879494.220    85498091.15648
  20360811.240   106996815.87509  20360812.880    83374160.94148
  23260011.440   122232200.97607  23260012.720    95245897.71244
 15 02 24 02 55  0.0000000  0  9G01G04G11G16G18G19G22G27G32
  24389031.460   128165228.03105  24389035.220    99869016.54742
  21921967.640   115200744.19008  21921968.500    89766829.08045
  23386795.160   122898443.16507  23386794.340    95765025.57644
  21786957.140   114491253.04608  21786956.880    89213966.42546
  23066898.020   121217380.25907  23066897.400    94455102.86644
  20979781.940   110249515.46209  20979779.800    85908723.08748
  20883044.740   109741186.05409  20883041.840    85512618.06648
  20360740.620   106996444.82209  20360742.220    83373871.80548
  23238374.400   122118497.55007  23238375.620    95157297.69343
 15 02 24 02 55 30.0000000  0  9G01G04G11G16G18G19G22G27G32
  24373292.320   128082519.29005  24373296.280    99804568.19043
  21909354.980   115134464.31708  21909355.800    89715182.45246
  23370646.660   122813582.46307  23370645.880    95698900.37744
  21802645.480   114573695.57708  21802645.080    89278207.34846
  23080792.200   121290394.63907  23080791.520    94511997.19244
  20971617.380   110206610.17309  20971615.140    85875290.39848
  20886690.460   109760344.78909  20886687.620    85527546.95948
  20360737.960   106996431.07709  20360739.580    83373861.08948
  23216771.300   122004972.62507  23216772.440    95068836.74743
 15 02 24 02 56  0.0000000  0  9G01G04G11G16G18G19G22G27G32
  24357579.140   127999947.19405  24357583.480    99740226.32642
  21896790.480   115068437.73908  21896791.320    89663733.21846
  23354519.840   122728835.74107  23354519.020    95632864.02344
  21818405.360   114656513.90608  21818404.860    89342741.09246
  23094741.840   121363700.76807  23094741.060    94569118.84544
  20963502.220   110163964.62809  20963499.940    85842060.10748
  20890434.160   109780018.37509  20890431.400    85542877.02848
  20360803.360   106996774.62009  20360804.940    83374128.77848
  23195202.420   121891628.06607  23195203.600    94980516.37044
 15 02 24 02 56 30.0000000  0  9G01G04G11G16G18G19G22G27G32
  24341891.720   127917510.34105  24341896.300    99675989.87643
  21884274.020   115002663.14808  21884274.880    89612480.32845
  23338414.440   122644201.99707  23338413.620    95566915.68844
  21834235.860   114739703.51708  21834235.380    89407564.15146
  23108746.260   121437294.87307  23108745.480    94626464.89544
  20955436.420   110121578.40009  20955434.100    85809031.88548
  20894275.200   109800203.51809  20894272.520    85558605.71948
  20360936.580   106997474.75109  20360938.200    83374674.34148
  23173668.100   121778464.85507  23173669.260    94892337.28644
 15 02 24 02 57  0.0000000  0  9G01G04G11G16G18G19G22G27G32
  24326230.260   127835209.33305  24326234.960    99611859.27244
  21871805.540   114937140.92708  21871806.420    89561424.06546
  23322330.720   122559682.38006  23322330.060    95501056.27643
  21850136.720   114823262.80808  21850136.280    89472675.27346
  23122805.120   121511174.91407  23122804.220    94684033.76244
  20947420.220   110079453.17608  20947417.900    85776207.05248
  20898213.520   109820899.59309  20898210.840    85574732.53948
  20361137.900   106998532.79709  20361139.580    83375498.79948
  23152168.840   121665486.04607  23152169.960    94804301.88744
 15 02 24 02 57 30.0000000  0  9G01G04G11G16G18G19G22G27G32
  24310594.600   127753042.78606  24310598.740    99547833.43244
  21859384.860   114871869.69508  21859385.760    89510563.40845
  23306268.480   122475275.57706  23306267.920    95435284.80943
  21866107.200   114907187.67408  21866106.740    89538071.25246
  23136917.720   121585337.41407  23136916.760    94741822.71744
  20939453.540   110037588.64709  20939451.300    85743585.34548
  20902248.600   109842104.17609  20902245.980    85591255.59748
  20361407.220   106999948.14609  20361408.940    83376601.66848
  23130704.940   121552693.03207  23130705.920    94716411.24944
 15 02 24 02 58  0.0000000  0  9G01G04G11G16G18G19G22G27G32
  24294985.200   127671013.18606  24294988.760    99483914.33144
  21847012.400   114806852.00008  21847013.280    89459900.28945
  23290227.980   122390984.03006  23290227.800    95369603.14444
  21882147.160   114991477.37408  21882146.680    89603751.52146
  23151084.200   121659782.74807  23151083.220    94799832.06644
  20931537.180   109995988.30909  20931535.060    85711169.51248
  20906380.660   109863818.43409  20906378.100    85608175.80248
  20361745.160   107001723.96709  20361746.880    83377985.41949
  23109277.380   121440090.49107  23109278.300    94628669.06144
 15 02 24 02 58 30.0000000  0  9G01G04G11G16G18G19G22G27G32
  24279402.040   127589121.85806  24279405.380    99420102.95245
  21834688.360   114742089.05308  21834689.260    89409435.66746
  23274209.860   122306809.61006  23274210.040    95304012.74444
  21898256.200   115076130.66908  21898255.680    89669715.11346
  23165304.320   121734509.54707  23165303.280    94858060.73044
  20923671.640   109954654.62809  20923669.500    85678961.44948
  20910609.700   109886042.17609  20910607.120    85625493.01048
  20362152.120   107003862.37809  20362153.880    83379651.71549
  23087886.840   121327682.50007  23087887.740    94541078.44344
 15 02 24 02 59  0.0000000  0  9G01G04G11G16G18G19G22G27G32
  24263845.400   127507370.20406  24263848.760    99356400.43444
  21822413.060   114677582.26108  21822413.960    89359170.67546
  23258214.520   122222753.93607  23258214.640    95238514.88244
  21914434.100   115161146.42308  21914433.600    89735961.14946
  23179577.780   121809516.65707  23179576.740    94916507.83344
  20915857.320   109913589.93909  20915855.140    85646962.99048
  20914935.720   109908775.39409  20914933.120    85643207.21448
  20362628.440   107006365.38809  20362630.240    83381602.11448
  23066534.020   121215472.86807  23066534.860    94453642.44244
 15 02 24 02 59 30.0000000  0 10G01G04G11G14G16G18G19G22G27G32
  24248313.560   127425748.90406  24248317.000    99292799.49844
  21810184.720   114613322.06008  21810185.520    89309097.81646
  23242240.200   122138808.04707  23242240.100    95173102.53444
  24674814.620   129667023.85704                                
  21930678.680   115246512.66108  21930678.160    89802480.28346
  23193902.380   121884792.64907  23193901.360    94975164.45744
  20908092.700   109872786.25709  20908090.480    85615167.92448
  20919356.700   109932007.48509  20919354.040    85661310.14848
  20363172.500   107009224.40909  20363174.360    83383829.92248
  23045217.600   121103454.80507  23045218.460    94366355.66743
 15 02 24 03 00  0.0000000  0 10G01G04G11G14G16G18G19G22G27G32
  24232808.600   127344269.43406  24232812.160    99229309.06443
  21798005.540   114549320.16108  21798006.200    89259226.23145
  23226288.980   122054983.65207  23226288.760    95107784.89944
  24660723.680   129592975.34904                                
  21946991.600   115332237.90208  21946991.020    89869279.15046
  23208279.900   121960346.82207  23208279.000    95034037.82044
  20900380.080   109832256.12609  20900377.860    85583586.01148
  20923874.520   109955748.64009  20923871.820    85679809.75747
  20363786.700   107012451.74109  20363788.440    83386344.72348
  23023940.360   120991642.33307  23023941.220    94279229.10644
 15 02 24 03 00 30.0000000  0 10G01G04G11G14G16G18G19G22G27G32
  24217331.100   127262934.53906  24217334.820    99165931.27044
  21785875.980   114485579.12708  21785876.580    89209557.92345
  23210361.480   121971283.94607  23210361.100    95042564.37944
  24646645.460   129518994.04504  24646643.620   100923907.70441
  21963372.880   115418321.97308  21963372.180    89936357.63246
  23222710.480   122036179.35407  23222709.800    95093128.10444
  20892720.220   109792003.22709  20892718.020    85552220.12248
  20928489.440   109980000.22109  20928486.680    85698707.10248
  20364471.600   107016050.69709  20364473.220    83389149.10248
  23002703.300   120880040.69307  23002704.180    94192266.83644
 15 02 24 03 01  0.0000000  0 10G01G04G11G14G16G18G19G22G27G32
  24201878.920   127181733.72006  24201882.660    99102657.98744
  21773794.100   114422088.38508  21773794.720    89160084.63845
  23194455.680   121887698.24207  23194455.100    94977432.70944
  24632578.320   129445071.80304  24632578.100   100866305.96743
  21979819.880   115504751.14208  21979819.120    90003705.01246
  23237191.480   122112277.53307  23237191.060    95152425.38244
  20885111.320   109752018.19609  20885109.060    85521062.96148
  20933199.200   110004750.33209  20933196.420    85717992.90848
  20365225.300   107020011.54109  20365226.940    83392235.47648
  22981504.780   120768641.80807  22981505.720    94105462.53144
 15 02 24 03 01 30.0000000  0  9G01G04G11G16G18G19G22G27G32
  24186452.900   127100669.84506  24186456.600    99039491.36444
  21761760.380   114358850.77008  21761761.100    89110808.60645
  23178572.160   121804229.85207  23178571.500    94912392.45944
  21996332.780   115591526.35008  21996332.000    90071322.05546
  23251723.040   122188641.97407  23251722.840    95211930.13044
  20877554.100   109712304.78709  20877551.760    85490117.44748
  20938004.120   110030000.56209  20938001.320    85737668.42147
  20366048.520   107024337.87209  20366050.200    83395606.63948
  22960345.880   120657451.30107  22960346.880    94018820.61043
 15 02 24 03 02  0.0000000  0 10G01G04G11G14G16G18G19G22G27G32
  24171053.960   127019748.36606  24171057.580    98976435.69343
  21749775.920   114295871.66108  21749776.580    89061733.99546
  23162712.120   121720884.60607  23162711.360    94847448.17344
  24604482.540   129297425.41704  24604482.060   100751241.81344
  22012911.920   115678650.09008  22012911.260    90139210.66146
  23266305.720   122265275.36807  23266305.480    95271644.46944
  20870049.800   109672869.76009  20870047.500    85459388.85948
  20942905.000   110055754.95809  20942902.160    85757736.78547
  20366942.440   107029035.79509  20366944.220    83399267.35848
  22939228.120   120546477.01207  22939229.180    93932347.17944
 15 02 24 03 02 30.0000000  0  9G01G04G11G16G18G19G22G27G32
  24155679.540   126938956.02906  24155683.200    98913480.64842
  21737838.100   114233137.80908  21737838.780    89012850.50845
  23146873.100   121637649.59007  23146872.180    94782589.74744
  22029554.120   115766105.77508  22029553.760    90207357.93246
  23280936.860   122342162.42007  23280936.440    95331556.43344
  20862596.220   109633701.23509  20862593.980    85428867.93348
  20947898.960   110081998.56809  20947896.140    85778186.36347
  20367904.680   107034092.74709  20367906.460    83403207.84748
  22918149.520   120435708.19207  22918150.680    93846033.84044
 15 02 24 03 03  0.0000000  0  9G01G04G11G16G18G19G22G27G32
  24140333.000   126858309.88006  24140336.640    98850639.58043
  21725950.120   114170666.28908  21725950.840    88964171.42045
  23131058.240   121554541.94007  23131057.340    94717830.57644
  22046262.180   115853908.06108  22046262.140    90275775.29146
  23295619.220   122419317.69407  23295618.580    95391677.44244
  20855196.860   109594817.31509  20855194.660    85398568.78248
  20952988.980   110108747.14309  20952986.240    85799029.41948
  20368938.680   107039526.56409  20368940.440    83407441.97748
  22897113.760   120325164.48507  22897115.040    93759895.92344
 15 02 24 03 03 30.0000000  0 10G01G04G11G14G16G18G19G22G27G32
  24125012.800   126777801.73006  24125016.320    98787906.01643
  21714110.460   114108448.69508  21714111.200    88915690.21646
  23115266.100   121471553.78407  23115265.060    94653164.51944
  24562442.840   129076502.87205                                
  22063034.180   115942045.99908  22063034.240    90344454.19246
  23310350.600   122496730.57007  23310349.780    95451999.15544
  20847850.260   109556210.60009  20847848.120    85368485.63448
  20958173.320   110135991.32209  20958170.700    85820258.64848
  20370042.960   107045329.68109  20370044.680    83411963.88349
  22876119.760   120214840.23707  22876121.020    93673929.00044
 15 02 24 03 04  0.0000000  0 10G01G04G11G14G16G18G19G22G27G32
  24109720.640   126697440.97606  24109724.060    98725287.30244
  21702320.960   114046494.54108  21702321.680    88867414.27746
  23099498.660   121388695.36407  23099497.500    94588599.56843
  24548460.920   129003029.12904  24548460.520   100521847.49941
  22079871.320   116030526.01708  22079871.400    90413399.64846
  23325132.340   122574408.15607  23325131.340    95512527.16044
  20840558.460   109517891.88309  20840556.340    85338626.89148
  20963453.480   110163738.75009  20963450.920    85841880.02448
  20371219.460   107051512.18909  20371221.160    83416781.41148
  22855169.760   120104747.33607  22855171.140    93588142.36944
 15 02 24 03 04 30.0000000  0 10G01G04G11G14G16G18G19G22G27G32
  24094453.660   126617211.59806  24094456.900    98662770.97643
  21690578.460   113984787.60808  21690579.240    88819330.97745
  23083752.840   121305950.70807  23083751.660    94524123.24944
  24534494.240   128929634.79105  24534489.880   100464640.04543
  22096769.980   116119329.13208  22096770.020    90482596.86246
  23339960.840   122652332.25707  23339959.780    95573247.20944
  20833318.600   109479846.08009  20833316.440    85308980.81848
  20968826.020   110191971.81709  20968823.520    85863879.82348
  20372465.240   107058058.67809  20372466.900    83421882.57348
  22834261.240   119994872.24307  22834262.660    93502525.44044
 15 02 24 03 05  0.0000000  0 10G01G04G11G14G16G18G19G22G27G32
  24079213.900   126537125.95606  24079217.040    98600366.63644
  21678885.340   113923340.21508  21678886.140    88771449.91645
  23068031.180   121223332.76107  23068030.160    94459745.66844
  24520543.760   128856327.30705  24520542.020   100407517.24043
  22113731.980   116208464.87108  22113731.940    90552053.25746
  23354838.200   122730513.06707  23354837.080    95634167.32044
  20826133.320   109442086.84509  20826131.040    85279558.03948
  20974293.100   110220701.65809  20974290.620    85886266.72247
  20373782.800   107064982.38209  20373784.440    83427277.66548
  22813397.060   119885230.11607  22813398.520    93417090.04744
 15 02 24 03 05 30.0000000  0 10G01G04G11G14G16G18G19G22G27G32
  24064001.040   126457181.55306  24064003.840    98538072.34643
  21667241.180   113862150.08808  21667241.940    88723769.32245
  23052333.140   121140839.18607  23052332.300    94395465.00644
  24506610.900   128783110.54005  24506609.640   100350465.35043
  22130756.340   116297928.29408  22130756.180    90621765.02046
  23369763.280   122808945.62807  23369762.340    95695283.61244
  20819002.280   109404612.89609  20818999.980    85250357.55948
  20979853.920   110249923.98809  20979851.360    85909037.37547
  20375171.780   107072281.35509  20375173.440    83432965.17348
  22792577.140   119775820.76107  22792578.620    93331836.03944
 15 02 24 03 06  0.0000000  0 10G01G04G11G14G16G18G19G22G27G32
  24048815.160   126377379.32806  24048817.640    98475888.82943
  21655646.020   113801217.76808  21655646.880    88676289.63145
  23036658.820   121058471.11307  23036658.300    94331282.13844
  24492696.040   128709988.15305  24492691.620   100293464.91543
  22147842.640   116387717.42808  22147842.460    90691730.55846
  23384735.840   122887628.44407  23384735.340    95756594.88244
  20811925.900   109367426.33309  20811923.660    85221381.02148
  20985508.420   110279638.44709  20985505.780    85932191.50147
  20376632.460   107079957.18109  20376634.140    83438946.33148
  22771802.180   119666647.71407  22771803.560    93246766.17044
 15 02 24 03 06 30.0000000  0 10G01G04G11G14G16G18G19G22G27G32
  24033655.780   126297716.90606  24033658.240    98413814.24843
  21644099.540   113740541.20008  21644100.520    88629009.20545
  23021008.100   120976226.37107  23021007.740    94267195.33044
  24478799.140   128636960.73804  24478804.000   100236601.43542
  22164989.980   116477827.12908  22164989.720    90761945.90046
  23399755.140   122966556.95807  23399755.160    95818097.60144
  20804903.960   109330525.80809  20804901.720    85192627.36348
  20991255.900   110309841.34309  20991253.120    85955726.24147
  20378164.580   107088008.27609  20378166.260    83445219.90448
  22751072.180   119557711.18107  22751073.600    93161880.60345
 15 02 24 03 07  0.0000000  0 10G01G04G11G14G16G18G19G22G27G32
  24018523.460   126218196.71806  24018526.000    98351850.50944
  21632602.180   113680122.36508  21632603.260    88581929.62246
  23005381.480   120894107.90507  23005381.140    94203206.96444
  24464921.280   128564033.06404  24464924.300   100179774.68241
  22182198.240   116568256.79608  22182197.840    90832410.55746
  23414821.260   123045731.09607  23414821.620    95879791.73044
  20797937.140   109293914.98009  20797934.900    85164099.45148
  20997096.400   110340533.26709  20997093.520    85979642.02747
  20379768.620   107096437.61809  20379770.300    83451788.22348
  22730388.180   119449016.04807  22730389.540    93077183.13844
 15 02 24 03 07 30.0000000  0 10G01G04G11G14G16G18G19G22G27G32
  24003417.960   126138817.61006  24003420.780    98289996.73844
  21621153.720   113619960.33308  21621154.820    88535050.13146
  22989778.640   120812115.21106  22989778.420    94139316.60644
  24451062.760   128491206.94004  24451064.520   100123027.07841
  22199466.500   116659001.76108  22199466.040    90903120.90046
  23429933.460   123125147.44407  23429934.140    95941674.59444
  20791025.400   109257593.72009  20791023.160    85135797.17648
  21003029.440   110371711.52409  21003026.540    86003936.78948
  20381444.520   107105244.76109  20381446.260    83458650.92548
  22709750.440   119340563.76407  22709751.660    92992674.87944
 15 02 24 03 08  0.0000000  0  9G01G04G11G16G18G19G22G27G32
  23988338.880   126059576.81506  23988341.780    98228250.71544
  21609753.600   113560052.18808  21609754.660    88488368.49446
  22974199.280   120730245.85206  22974199.340    94075522.32744
  22216793.980   116750057.76008  22216793.440    90974073.61245
  23445090.920   123204801.02507  23445091.740    96003742.30144
  20784168.520   109221560.66409  20784166.260    85107719.47748
  21009054.120   110403371.65509  21009051.260    86028607.02447
  20383191.940   107114427.61709  20383193.740    83465806.39848
  22689158.740   119232354.10507  22689159.920    92908355.70445
 15 02 24 03 08 30.0000000  0 10G01G04G11G14G16G18G19G22G27G32
  23973287.340   125980480.76906  23973290.400    98166617.47243
  21598403.060   113500404.35608  21598404.020    88441889.67646
  22958644.660   120648506.35307  22958644.760    94011829.26844
  24423406.200   128345863.69804  24423407.720   100009781.57141
  22234181.160   116841427.69208  22234180.600    91045270.94246
  23460294.480   123284696.09407  23460295.380    96065998.17244
  20777367.920   109185823.27209  20777365.620    85079872.16548
  21015171.520   110435518.81909  21015168.660    86053656.76747
  20385012.220   107123993.26109  20385014.040    83473260.14648
  22668614.900   119124396.13307  22668616.000    92824232.63844
 15 02 24 03 09  0.0000000  0 10G01G04G11G14G16G18G19G22G27G32
  23958262.460   125901524.47906  23958265.640    98105093.14944
  21587101.160   113441011.94208  21587102.000    88395609.89646
  22943114.000   120566892.24907  22943114.000    93948233.88945
  24409608.920   128273358.25504  24409609.920    99953283.84641
  22251626.440   116933103.57208  22251626.020    91116706.67446
  23475542.580   123364825.04807  23475543.260    96128436.29044
  20770622.900   109150377.81409  20770620.560    85052252.32748
  21021380.360   110468146.32309  21021377.460    86079080.80248
  20386904.540   107133937.38609  20386906.380    83481008.80649
  22648118.500   119016687.30207  22648119.580    92740303.71644
 15 02 24 03 09 30.0000000  0 10G01G04G11G14G16G18G19G22G27G32
  23943264.720   125822711.04906  23943267.840    98043680.15944
  21575848.420   113381877.95308  21575849.120    88349531.48546
  22927607.840   120485406.91307  22927607.760    93884738.83044
  24395833.340   128200967.50605  24395834.240    99896875.46442
  22269130.020   117025086.20808  22269129.820    91188381.44946
  23490835.520   123445189.06807  23490835.800    96191057.60644
  20763934.260   109115228.65209  20763931.960    85024863.37848
  21027680.840   110501255.45609  21027677.940    86104880.12447
  20388869.580   107144263.70109  20388871.460    83489055.28648
  22627670.620   118909233.24607  22627671.680    92656573.32845
 15 02 24 03 10  0.0000000  0 10G01G04G11G14G16G18G19G22G27G32
  23928293.700   125744037.69807  23928296.500    97982376.28944
  21564644.260   113322999.42708  21564644.920    88303652.13146
  22912125.800   120404048.08607  22912125.740    93821342.39144
  24382079.700   128128691.08805                                
  22286690.800   117117369.33108  22286690.820    91260290.37446
  23506172.220   123525782.81907  23506171.860    96253857.95243
  20757301.740   109080374.24309  20757299.440    84997704.10548
  21034072.260   110534842.48909  21034069.300    86131051.84548
  20390906.920   107154970.12109  20390908.820    83497397.94548
  22607271.200   118802033.73607  22607272.200    92573041.26644
 15 02 24 03 10 30.0000000  0 10G01G04G11G14G16G18G19G22G27G32
  23913350.120   125665508.55206  23913352.560    97921184.78044
  21553489.500   113264380.53608  21553490.120    88257975.08946
  22896668.760   120322820.26107  22896668.700    93758047.99745
  24368349.020   128056535.80705  24368349.040    99784325.38442
  22304309.180   117209954.58508  22304309.300    91332434.71046
  23521552.900   123606608.07907  23521552.100    96316838.66243
  20750726.160   109045819.70809  20750723.900    84970778.50548
  21040555.040   110568909.40009  21040552.020    86157597.49348
  20393017.480   107166061.37609  20393019.400    83506040.47948
  22586921.500   118695095.48208  22586922.520    92489712.78645
 15 02 24 03 11  0.0000000  0 10G01G04G11G14G16G18G19G22G27G32
  23898433.740   125587123.02206  23898436.140    97860105.18344
  21542384.020   113206020.63008  21542384.600    88212499.85846
  22881236.560   120241723.54207  22881236.520    93694855.79944
  24354641.960   127984503.97705  24354642.180    99728196.65343
  22321984.400   117302838.09108  22321984.380    91404811.44946
  23536977.040   123687662.14807  23536976.060    96379997.63644
  20744207.760   109011565.74709  20744205.520    84944087.11148
  21047128.700   110603454.15309  21047125.680    86184515.48547
  20395201.320   107177537.53009  20395203.200    83514982.92848
  22566621.860   118588420.51707  22566622.940    92406589.47945
 15 02 24 03 11 30.0000000  0 10G01G04G11G14G16G18G19G22G27G32
  23883544.520   125508880.71506  23883547.280    97799137.19944
  21531327.740   113147919.32308  21531328.360    88167226.11746
  22865829.300   120160757.67907  22865829.100    93631765.53044
  24340958.680   127912598.00505  24340958.480    99672166.04443
  22339715.860   117396017.19808  22339715.640    91477418.53146
  23552444.160   123768942.33607  23552443.160    96443332.83344
  20737746.740   108977613.06509  20737744.500    84917630.48248
  21053792.940   110638474.69209  21053789.960    86211804.22548
  20397458.480   107189398.79109  20397460.300    83524225.46548
  22546372.780   118482010.89608  22546373.780    92323672.92245
 15 02 24 03 12  0.0000000  0 10G01G04G11G14G16G18G19G22G27G32
  23868682.560   125430781.13406  23868685.320    97738280.43844
  21520320.460   113090076.00208  21520321.140    88122153.41746
  22850446.900   120079922.60807  22850446.680    93568777.19644
  24327299.660   127840820.07205  24327299.520    99616235.21342
  22357502.880   117489488.27708  22357502.500    91550253.12046
  23567953.740   123850445.71307  23567952.600    96506841.94844
  20731343.120   108943962.10409  20731340.960    84891408.96048
  21060547.200   110673968.71509  21060544.300    86239461.90347
  20399788.960   107201645.26509  20399790.680    83533768.17048
  22526174.540   118375868.53408  22526175.580    92240964.61745
 15 02 24 03 12 30.0000000  0 10G01G04G11G14G16G18G19G22G27G32
  23853847.660   125352823.94206  23853850.700    97677534.61244
  21509362.240   113032490.44108  21509362.900    88077281.57246
  22835089.420   119999218.48307  22835089.180    93505890.88144
  24313665.500   127769172.72905  24313665.840    99560406.22642
  22375344.840   117583248.39208  22375344.380    91623312.93545
  23583505.420   123932169.92007  23583504.220    96570523.15844
  20724997.320   108910614.62609  20724995.220    84865423.91648
  21067391.200   110709934.36709  21067388.380    86267487.09547
  20402192.780   107214277.30909  20402194.460    83543611.31348
  22506027.620   118269995.89108  22506028.580    92158466.48644
 15 02 24 03 13  0.0000000  0 10G01G04G11G14G16G18G19G22G27G32
  23839040.240   125275011.20706  23839043.460    97616901.40344
  21498453.460   112975164.44108  21498454.100    88032611.98446
  22819757.380   119918647.84807  22819757.020    93443108.59544
  24300057.160   127697660.59305  24300058.100    99504682.41641
  22393241.460   117677295.86708  22393240.980    91696596.66445
  23599098.960   124014114.66307  23599097.900    96634376.19443
  20718709.780   108877573.23909  20718707.680    84839677.39148
  21074324.980   110746371.93209  21074322.160    86295880.00447
  20404670.440   107227297.50509  20404672.140    83553756.91448
  22485932.880   118164397.31708  22485933.780    92076181.92445
 15 02 24 03 13 30.0000000  0 10G01G04G11G14G16G18G19G22G27G32
  23824260.000   125197340.93206  23824263.260    97556379.13744
  21487593.640   112918096.08808  21487594.300    87988143.15846
  22804450.360   119838208.79907  22804449.940    93380428.83344
  24286474.800   127626284.61005  24286475.580    99449064.78343
  22411192.020   117771626.61008  22411191.540    91770101.12046
  23614733.540   124096275.56006  23614732.600    96698397.64644
  20712480.360   108844837.31109  20712478.260    84814168.88048
  21081347.880   110783277.83809  21081345.080    86324637.86247
  20407221.720   107240704.48309  20407223.400    83564203.90448
  22465890.480   118059073.54208  22465891.320    91994111.46045
 15 02 24 03 14  0.0000000  0 10G01G04G11G14G16G18G19G22G27G32
  23809507.080   125119814.79706  23809510.420    97495969.18043
  21476783.200   112861286.92408  21476783.860    87943876.28546
  22789168.940   119757903.82808  22789168.300    93317853.56544
  24272919.340   127555049.55605  24272919.800    99393556.95142
  22429196.300   117866239.41408  22429195.800    91843825.36545
  23630409.240   124178652.36107  23630408.460    96762587.36144
  20706309.560   108812409.65909  20706307.480    84788900.59048
  21088459.960   110820652.17909  21088457.140    86353760.72447
  20409847.040   107254500.59309  20409848.740    83574954.11848
  22445901.200   117954028.75708  22445901.860    91912258.42045
 15 02 24 03 14 30.0000000  0 10G01G04G11G14G16G18G19G22G27G32
  23794781.360   125042431.77406  23794784.960    97435670.77244
  21466021.920   112804736.11308  21466022.540    87899810.73146
  22773912.900   119677732.20308  22773912.060    93255382.18844
  24259390.860   127483956.81705  24259391.340    99338160.04041
  22447253.500   117961130.35408  22447253.020    91917766.34245
  23646125.360   124261241.35306  23646124.720    96826942.39144
  20700197.480   108780290.41709  20700195.420    84763872.61348
  21095660.700   110858492.08409  21095657.800    86383246.36947
  20412546.300   107268685.37109  20412548.020    83586007.18148
  22425965.240   117849264.35408  22425965.760    91830623.84345
 15 02 24 03 15  0.0000000  0 10G01G04G11G14G16G18G19G22G27G32
  23780083.400   124965194.70306  23780087.440    97375486.08644
  21455310.340   112748446.43508  21455310.860    87855948.66346
  22758682.780   119597697.24808  22758681.840    93193017.29844
  24245890.340   127413012.02505  24245890.940    99282878.41243
  22465363.560   118056299.15108  22465363.220    91991923.82645
  23661882.080   124344043.31007  23661881.480    96891463.36143
  20694144.880   108748483.59009  20694142.780    84739088.07648
  21102950.300   110896798.58909  21102947.260    86413095.59947
  20415320.160   107283262.14809  20415321.860    83597365.70148
  22406083.600   117744785.68808  22406084.180    91749211.93245
 15 02 24 03 15 30.0000000  0 10G01G04G11G14G16G18G19G22G27G32
  23765412.760   124888100.91506  23765417.040    97315413.04844
  21444647.900   112692414.93208  21444648.420    87812287.76346
  22743478.220   119517797.03708  22743477.300    93130757.41644
  24232418.120   127342215.70605  24232418.760    99227712.44843
  22483525.360   118151740.22308  22483525.220    92066293.49246
  23677678.400   124427053.20607  23677677.600    96956146.37344
  20688151.580   108716988.29909  20688149.320    84714546.29148
  21110327.860   110935567.45009  21110324.760    86443305.10247
  20418168.280   107298229.00709  20418169.980    83609028.18248
  22386256.320   117640592.71508  22386256.900    91668022.62744
 15 02 24 03 16  0.0000000  0 10G01G04G11G14G16G18G19G22G27G32
  23750769.400   124811150.07505  23750773.820    97255451.39643
  21434034.520   112636641.51208  21434035.100    87768827.96846
  22728299.260   119438031.55007  22728298.440    93068602.51244
  24218974.620   127271569.95705  24218975.500    99172663.85542
  22501738.360   118247450.55208  22501738.520    92140872.96945
  23693513.880   124510268.51607  23693512.860    97020989.46943
  20682217.600   108685805.07109  20682215.280    84690247.67248
  21117792.920   110974796.62309  21117789.800    86473873.29347
  20421090.680   107313586.09909  20421092.340    83620994.74148
  22366483.820   117536687.69508  22366484.460    91587057.70945
 15 02 24 03 16 30.0000000  0 10G01G04G11G14G16G18G19G22G27G32
  23736153.440   124734342.72106  23736157.680    97195601.55645
  21423470.260   112581126.42708  21423470.940    87725569.47046
  22713146.180   119358402.05007  22713145.500    93006553.56745
  24205560.500   127201078.24905  24205561.300    99117735.31343
  22520002.140   118343427.65508  22520002.380    92215660.31046
  23709388.200   124593687.74507  23709387.140    97085991.44044
  20676343.320   108654935.68409  20676340.980    84666193.60948
  21125345.340   111014484.92109  21125342.220    86504799.23747
  20424087.560   107329334.57109  20424089.160    83633266.27148
  22346766.620   117433073.68808  22346767.340    91506319.54445
 15 02 24 03 17  0.0000000  0 10G01G04G11G14G16G18G19G22G27G32
  23721565.100   124657680.67906  23721569.400    97135864.92944
  21412955.500   112525871.55708  21412956.300    87682513.74046
  22698019.300   119278910.35807  22698018.800    92944612.02444
  24192176.480   127130745.24605  24192177.580    99062930.33141
  22538316.620   118439670.82908  22538316.800    92290654.97345
  23725301.260   124677310.39407  23725300.160    97151151.94342
  20670529.320   108624382.98409  20670527.000    84642386.31248
  21132985.100   111054632.41809  21132982.060    86536083.00347
  20427159.320   107345476.74409  20427160.900    83645844.58448
  22327105.580   117329754.86108  22327106.360    91425811.38845
 15 02 24 03 17 30.0000000  0 10G01G04G11G14G16G18G19G22G27G32
  23707004.380   124581163.46406  23707008.580    97076241.17245
  21402490.220   112470876.43408  21402491.080    87639660.41346
  22682918.700   119199556.66107  22682918.280    92882778.01345
  24178823.180   127060573.42305  24178824.640    99008251.02341
  22556681.160   118536176.36008  22556681.140    92365854.06445
  23741252.440   124761133.79607  23741251.160    97216468.85543
  20664775.760   108594147.83509  20664773.460    84618826.45848
  21140711.820   111095236.63409  21140708.860    86567722.65447
  20430306.000   107362012.68309  20430307.600    83658729.72548
  22307501.120   117226733.30408  22307501.980    91345534.87245
 15 02 24 03 18  0.0000000  0 10G01G04G11G14G16G18G19G22G27G32
  23692471.340   124504791.81806  23692475.420    97016730.80243
  21392074.480   112416141.66408  21392075.360    87597009.95946
  22667844.500   119120342.06707  22667844.300    92821052.37444
  24165501.240   126990566.04005  24165501.920    98953699.83841
  22575095.260   118632942.00808  22575094.960    92441255.84245
  23757241.460   124845156.43207  23757239.980    97281941.00844
  20659083.000   108564232.12409  20659080.720    84595515.51648
  21148525.260   111136296.57309  21148522.440    86599717.41348
  20433527.840   107378943.71909  20433529.480    83671922.72648
  22287953.900   117124012.36108  22287954.840    91265492.61245
 15 02 24 03 18 30.0000000  0 10G01G04G11G14G16G18G19G22G27G32
  23677965.680   124428564.67706  23677969.800    96957333.10644
  21381708.120   112361666.34208  21381708.980    87554561.67146
  22652796.700   119041266.30107  22652796.740    92759434.90644
  24152210.800   126920725.11305  24152211.400    98899278.36342
  22593558.220   118729963.96408  22593557.500    92516857.34745
  23773267.680   124929374.90707  23773266.020    97347565.78644
  20653451.160   108534636.43209  20653448.820    84572453.93448
  21156424.900   111177809.60009  21156422.180    86632065.22547
  20436824.780   107396269.43409  20436826.460    83685423.27548
  22268464.220   117021593.53008  22268465.140    91185685.75545
 15 02 24 03 19  0.0000000  0 10G01G04G11G14G16G18G19G22G27G32
  23663487.660   124352482.72606  23663491.940    96898048.50844
  21371391.280   112307451.10008  21371392.160    87512316.04946
  22637775.520   118962330.42107  22637775.720    92697926.46745
  24138952.800   126851053.97605  24138954.200    98844989.14744
  22612069.540   118827240.37308  22612068.620    92592657.11345
  23789330.880   125013787.60307  23789329.020    97413341.91744
  20647880.560   108505362.53709  20647878.160    84549643.10448
  21164410.580   111219774.51609  21164407.840    86664765.16648
  20440196.980   107413990.87209  20440198.780    83699232.18149
  22249032.620   116919479.79808  22249033.640    91106116.63845
 15 02 24 03 19 30.0000000  0 10G01G04G11G14G16G18G19G22G27G32
  23649037.420   124276546.16006  23649041.520    96838877.19944
  21361123.940   112253495.95408  21361124.800    87470273.09446
  22622781.200   118883535.20507  22622781.420    92636527.63444
  24125727.540   126781555.62805  24125729.080    98790834.63343
  22630628.480   118924768.25808  22630627.540    92668652.86345
  23805430.580   125098392.63107  23805428.780    97479267.90343
  20642371.400   108476411.63209  20642369.100    84527083.96248
  21172481.900   111262189.66509  21172479.240    86697815.93148
  20443644.680   107432108.86609  20443646.580    83713350.09049
  22229659.640   116817674.08308  22229660.760    91026787.53446
 15 02 24 03 20  0.0000000  0 10G01G04G11G14G16G18G19G22G27G32
  23634614.780   124200754.68106  23634618.840    96779818.92145
  21350906.080   112199800.49808  21350906.860    87428432.50346
  22607813.680   118804880.70607  22607813.780    92575238.45145
  24112535.780   126712232.71105  24112536.200    98736816.77744
  22649234.380   119022544.36008  22649233.740    92744842.01545
  23821566.420   125183187.68406  23821564.820    97545341.90844
  20636923.900   108447784.95009  20636921.620    84504777.45648
  21180638.520   111305053.04309  21180635.920    86731215.96548
  20447168.000   107450623.67509  20447169.860    83727777.20848
  22210345.640   116716178.50908  22210346.880    90947700.09845
 15 02 24 03 20 30.0000000  0 10G01G04G11G14G16G18G19G22G27G32
  23620219.360   124125106.46706  23620223.380    96720872.31244
  21340737.360   112146363.05408  21340738.020    87386792.95146
  22592872.860   118726365.85507  22592872.880    92514058.06844
  24099377.860   126643086.16306  24099377.880    98682936.35944
  22667886.480   119120563.42308  22667886.180    92821220.50445
  23837737.680   125268168.75706  23837736.260    97611560.91643
  20631538.040   108419481.88609  20631535.700    84482723.11048
  21188879.780   111348361.08009  21188877.140    86764962.48847
  20450766.580   107469533.94309  20450768.380    83742512.47648
  22191090.800   116614993.71608  22191092.120    90868854.83345
 15 02 24 03 21  0.0000000  0 10G01G04G11G14G16G18G19G22G27G32
  23605851.800   124049605.32006  23605855.820    96662040.26244
  21330618.420   112093187.06408  21330619.020    87345357.12947
  22577959.520   118647994.95707  22577959.380    92452989.86645
  24086254.780   126574122.40706  24086254.700    98629198.38143
  22686585.240   119218827.37308  22686585.280    92897789.79745
  23853944.520   125353336.90406  23853943.440    97677925.68144
  20626214.720   108391507.27209  20626212.320    84460924.70248
  21197206.000   111392115.50909  21197203.300    86799056.84648
  20454441.200   107488843.88609  20454442.960    83757559.17749
  22171896.360   116514125.92408  22171897.520    90790256.57545
 15 02 24 03 21 30.0000000  0 10G01G04G11G14G16G18G19G22G27G32
  23591512.160   123974250.71206  23591516.260    96603322.43644
  21320549.200   112040272.46908  21320549.740    87304124.98347
  22563073.460   118569767.94407  22563073.240    92392033.78845
  24073166.780   126505344.08206  24073166.980    98575604.94143
  22705330.160   119317332.52408  22705330.300    92974547.03945
  23870186.560   125438689.99406  23870185.700    97744434.58344
  20620953.980   108363861.89709  20620951.560    84439382.85148
  21205616.700   111436313.88909  21205613.960    86833497.13648
  20458191.900   107508553.63809  20458193.620    83772917.41949
  22152762.600   116413577.15508  22152763.620    90711906.91145
 15 02 24 03 22  0.0000000  0 10G01G04G11G14G16G18G19G22G27G32
  23577200.060   123899040.35806  23577204.140    96544716.98344
  21310529.160   111987616.56509  21310529.640    87263094.42046
  22548214.500   118491683.14907  22548214.200    92331188.50145
  24060113.980   126436751.51505  24060114.060    98522156.16044
  22724120.080   119416073.35608  22724120.120    93051487.93345
  23886463.020   125524223.52106  23886462.460    97811084.05644
  20615755.640   108336544.77009  20615753.260    84418096.77848
  21214111.140   111480952.48009  21214108.360    86868280.45247
  20462018.320   107528661.31609  20462020.000    83788585.72949
  22133689.620   116313347.65908  22133690.540    90633806.04245
 15 02 24 03 22 30.0000000  0 10G01G04G11G14G16G18G19G22G27G32
  23562915.440   123823974.44706  23562919.420    96486224.11245
  21300558.420   111935219.72509  21300558.820    87222265.72746
  22533382.680   118413741.20108  22533382.260    92270454.53845
  24047097.080   126368347.98705  24047097.400    98468854.74942
  22742954.460   119515047.59008  22742954.200    93128610.68845
  23902773.600   125609935.11006  23902773.020    97877872.29843
  20610620.080   108309557.33309  20610617.740    84397067.60848
  21222689.020   111526029.66509  21222686.220    86903405.53148
  20465920.520   107549167.58209  20465922.220    83804564.64149
  22114677.960   116213440.09908  22114678.700    90555956.02045
 15 02 24 03 23  0.0000000  0 10G01G04G11G14G16G18G19G22G27G32
  23548658.560   123749053.94806  23548662.560    96427844.53145
  21290637.120   111883082.83409  21290637.480    87181639.59646
  22518578.380   118335943.77808  22518577.860    92209833.18745
  24034117.120   126300135.22305  24034115.200    98415693.54543
  22761832.780   119614252.47508  22761832.200    93205913.16945
  23919117.880   125695823.67007  23919117.300    97944798.42843
  20605547.720   108282901.94309  20605545.400    84376297.17148
  21231350.160   111571544.30209  21231347.340    86938871.47647
  20469898.800   107570073.97609  20469900.580    83820855.33049
  22095728.160   116113857.91308  22095728.780    90478359.52945
 15 02 24 03 23 30.0000000  0 10G01G04G11G14G16G18G19G22G27G32
  23534429.760   123674280.40506  23534433.820    96369579.46845
  21280765.520   111831207.46209  21280765.840    87141217.22946
  22503801.940   118258293.07708  22503801.500    92149326.17945
  24021174.560   126232121.37505  24021173.960    98362695.75844
  22780754.820   119713687.67508  22780754.060    93283395.11945
  23935495.720   125781888.71206  23935495.060    98011862.09844
  20600539.040   108256581.11509  20600536.680    84355787.42648
  21240094.420   111617496.01609  21240091.620    86974678.00447
  20473953.600   107591382.42709  20473955.460    83837459.31249
  22076840.980   116014605.19608  22076841.600    90401019.78145
 15 02 24 03 24  0.0000000  0 10G01G04G11G14G16G18G19G22G27G32
  23520228.980   123599654.40806  23520233.120    96311429.36545
  21270943.800   111779594.02509  21270944.100    87100998.98246
  22489053.660   118180790.17408  22489053.220    92088934.33745
  24008269.740   126164307.90606  24008270.040    98309854.12943
  22799719.920   119813350.24608  22799719.180    93361054.25845
  23951906.840   125868128.92306  23951906.040    98079062.24244
  20595594.380   108230596.79909  20595592.020    84335539.90948
  21248921.580   111663883.58309  21248918.840    87010824.15947
  20478085.160   107613094.03209  20478087.060    83854377.44148
  22058017.000   115915684.91508  22058017.640    90323939.07245
 15 02 24 03 24 30.0000000  0 10G01G04G11G14G16G18G19G22G27G32
  23506056.020   123525174.41006  23506060.060    96253393.05244
  21261171.640   111728241.23809  21261171.940    87060983.84247
  22474333.300   118103433.89508  22474332.720    92028656.72945
  23995403.400   126096696.37305  23995404.080    98257169.82944
  22818727.420   119913236.58608  22818726.940    93438887.75045
  23968350.500   125954540.31407  23968349.680    98146395.77343
  20590713.720   108204948.72109  20590711.340    84315554.39448
  21257831.060   111710703.43209  21257828.360    87047307.15447
  20482293.260   107635207.68609  20482295.180    83871608.86249
  22039256.400   115817097.97208  22039257.140    90247118.08745
 15 02 24 03 25  0.0000000  0  9G01G04G11G16G18G19G22G27G32
  23491909.880   123450835.14406  23491913.740    96195466.36544
  21251447.920   111677143.19909  21251448.280    87021167.19847
  22459640.020   118026219.65208  22459639.300    91968489.81745
  22837775.700   120013337.44408  22837775.580    93516888.42145
  23984825.340   126041115.31307  23984824.420    98213856.79843
  20585896.200   108179632.69809  20585893.940    84295827.61648
  21266821.440   111757948.57409  21266818.760    87084121.54347
  20486576.920   107657718.47709  20486578.800    83889149.73249
  22020558.680   115718841.52608  22020559.520    90170554.65346
 15 02 24 03 25 30.0000000  0 10G01G04G11G14G16G18G19G22G27G32
  23477792.900   123376649.65306  23477796.620    96137659.53444
  21241775.300   111626313.42209  21241775.740    86981559.60047
  22444976.320   117949161.20108  22444975.580    91908444.29844
  23969788.620   125962085.30705  23969788.660    98152277.66644
  22856866.880   120113663.50708  22856867.120    93595064.55545
  24001333.420   126127865.09407  24001332.480    98281454.03343
  20581144.660   108154663.37309  20581142.460    84276371.00648
  21275894.980   111805630.36909  21275892.240    87121276.18347
  20490938.760   107680640.00109  20490940.560    83907010.64948
  22001926.820   115620931.17708  22001927.680    90094260.89146
 15 02 24 03 26  0.0000000  0 10G01G04G11G14G16G18G19G22G27G32
  23463703.100   123302607.02807  23463706.840    96079964.00544
  21232151.640   111575740.81309  21232152.160    86942152.38347
  22430340.200   117872247.98208  22430339.520    91848511.94444
  23957040.960   125895095.19506  23957040.900    98100077.63843
  22875998.280   120214200.72207  22875998.860    93673405.22845
  24017872.220   126214776.48906  24017871.220    98349177.18744
  20576457.260   108130030.87009  20576455.000    84257176.83748
  21285049.180   111853735.60009  21285046.360    87158760.78247
  20495376.780   107703961.72209  20495378.460    83925183.40548
  21983359.240   115523358.35308  21983360.060    90018230.13645
 15 02 24 03 26 30.0000000  0 10G01G04G11G14G16G18G19G22G27G32
  23449641.480   123228712.20707  23449645.180    96022383.67244
  21222577.880   111525430.38809  21222578.420    86902949.46147
  22415732.760   117795485.69508  22415732.100    91788697.18344
  23944334.060   125828320.00606  23944334.200    98048045.01343
  22895170.520   120314951.67108  22895171.160    93751912.45145
  24034442.280   126301852.42706  24034441.320    98417028.56144
  20571835.180   108105741.43409  20571832.880    84238250.01048
  21294284.500   111902267.30309  21294281.640    87196577.69247
  20499891.960   107727689.01409  20499893.660    83943672.19848
  21964857.340   115426130.42208  21964858.100    89942468.12645
 15 02 24 03 27  0.0000000  0 10G01G04G11G14G16G18G19G22G27G32
  23435607.740   123154964.44707  23435611.420    95964917.90845
  21213053.860   111475381.33109  21213054.400    86863950.21747
  22401154.080   117718874.28608  22401153.340    91728999.99944
  23931668.160   125761763.63406  23931669.860    97996171.38244
  22914382.840   120415912.37908  22914383.320    93830583.10845
  24051043.020   126389089.78906  24051041.900    98485005.70043
  20567278.460   108081795.54609  20567276.080    84219590.87248
  21303600.520   111951223.00609  21303597.660    87234724.99147
  20504484.240   107751821.53209  20504486.000    83962476.75148
  21946421.360   115329249.10908  21946422.180    89866976.21846
 15 02 24 03 27 30.0000000  0 10G01G04G11G14G16G18G19G22G27G32
  23421601.860   123081362.90407  23421605.500    95907566.07245
  21203579.340   111425592.56009  21203579.900    86825153.78147
  22386604.040   117642413.58508  22386603.220    91669420.25344
  23919044.000   125695424.12106  23919045.140    97944478.29843
  22933634.360   120517078.65708  22933634.580    93909413.95545
  24067673.900   126476485.54006  24067672.880    98553106.30543
  20562787.100   108058193.47609  20562784.780    84201199.65448
  21312996.600   112000599.86309  21312993.820    87273200.45647
  20509153.540   107776358.84809  20509155.360    83981596.73348
  21928051.720   115232716.11508  21928052.540    89791755.73246
 15 02 24 03 28  0.0000000  0 10G01G04G11G14G16G18G19G22G27G32
  23407623.820   123007908.08607  23407627.480    95850328.57745
  21194154.500   111376064.97009  21194155.120    86786560.87247
  22372082.740   117566104.49808  22372081.940    91609958.65945
  23906462.320   125629307.04106  23906463.200    97892958.51444
  22952924.740   120618449.08208  22952924.620    93988403.86645
  24084334.700   126564038.39006  24084333.540    98621329.29644
  20558361.620   108034937.24309  20558359.320    84183077.91448
  21322472.540   112050396.49009  21322469.880    87312003.01447
  20513900.000   107801301.85509  20513901.840    84001032.82948
  21909748.920   115136534.14408  21909749.760    89716808.76846
 15 02 24 03 28 30.0000000  0 10G01G04G11G14G16G18G19G22G27G32
  23393673.940   122934600.67307  23393677.540    95793205.94544
  21184779.440   111326798.80009  21184780.080    86748171.66547
  22357590.480   117489948.30807  22357589.880    91550616.17845
  23893923.380   125563415.83806  23893924.380    97841614.75044
  22972253.260   120720020.21008  22972252.840    94067550.17744
  24101025.180   126651747.05006  24101023.880    98689673.70844
  20554002.320   108012028.58609  20554000.000    84165227.01448
  21332028.060   112100611.48509  21332025.540    87351131.58247
  20518723.880   107826651.58909  20518725.720    84020785.86648
  21891513.520   115040706.40708  21891514.400    89642137.82546
 15 02 24 03 29  0.0000000  0 10G01G04G11G14G16G18G19G22G27G32
  23379751.900   122861439.83007  23379755.420    95736197.51145
  21175454.020   111277793.36609  21175454.680    86709985.62747
  22343127.260   117413944.95907  22343127.040    91491392.81645
  23881427.840   125497752.21006  23881429.080    97790448.31744
  22991619.520   120821789.40308  22991618.840    94146850.83045
  24117744.660   126739608.15806  24117743.300    98758136.89744
  20549709.180   107989467.91709  20549706.860    84147647.26448
  21341662.760   112151242.13909  21341660.240    87390584.03147
  20523625.040   107852407.63209  20523626.940    84040855.50049
  21873345.900   114945234.50208  21873346.720    89567744.14546
 15 02 24 03 29 30.0000000  0 10G01G04G11G14G16G18G19G22G27G32
  23365857.480   122788424.13607  23365861.020    95679302.20845
  21166177.920   111229047.29709  21166178.620    86672001.69147
  22328693.140   117338093.74608  22328693.000    91432288.01145
  23868976.000   125432317.63006  23868977.180    97739460.35844
  23011022.500   120923752.20408  23011021.760    94226302.33345
  24134492.480   126827618.40706  24134491.080    98826716.30743
  20545482.200   107967255.19509  20545479.920    84130338.65748
  21351375.840   112202284.91309  21351373.340    87430357.62847
  20528603.360   107878568.90409  20528605.220    84061240.89848
  21855246.140   114850119.31108  21855246.960    89493628.44246
 15 02 24 03 30  0.0000000  0 10G01G04G11G14G16G18G19G22G27G32
  23351991.380   122715557.70907  23351994.900    95622523.21344
  21156951.960   111180564.57609  21156952.660    86634222.95846
  22314288.900   117262399.15808  22314288.740    91373305.24245
  23856569.180   125367119.46906  23856570.320    97688656.61344
  23030462.440   121025909.50508  23030461.640    94305905.41745
  24151268.980   126915779.59906  24151267.580    98895413.35443
  20541322.420   107945395.68709  20541320.160    84113305.27948
  21361167.740   112253742.35208  21361165.320    87470454.33147
  20533659.660   107905139.91409  20533661.460    84081945.57548
  21837215.460   114755367.45308  21837216.280    89419795.84846
 15 02 24 03 30 30.0000000  0 10G01G04G11G14G16G18G19G22G27G32
  23338152.960   122642837.15206  23338156.520    95565857.87244
  21147775.420   111132341.58009  21147776.040    86596646.62046
  22299914.040   117186858.69408  22299913.720    91314442.58145
  23844207.380   125302156.71106  23844208.340    97638036.33044
  23049938.080   121128255.01007  23049937.580    94385655.13645
  24168073.160   127004086.35006  24168071.860    98964223.81643
  20537229.460   107923887.21609  20537227.200    84096545.43548
  21371037.480   112305608.88208  21371035.180    87510869.80547
  20538793.400   107932117.56809  20538795.140    84102967.11448
  21819253.720   114660977.89108  21819254.460    89346245.56046
 15 02 24 03 31  0.0000000  0 10G01G04G11G14G16G18G19G22G27G32
  23324342.820   122570264.96207  23324346.480    95509308.15945
  21138648.800   111084381.09209  21138649.340    86559274.82146
  22285569.220   117111475.47508  22285568.680    91255702.43844
  23831891.320   125237434.69006  23831892.120    97587603.61144
  23069449.380   121230788.48207  23069449.300    94465551.33245
  24184905.160   127092539.08106  24184903.840    99033148.02243
  20533204.060   107902733.46009  20533201.800    84080061.98948
  21380985.220   112357885.16309  21380983.060    87551604.56747
  20544005.060   107959504.74809  20544006.800    84124307.75948
  21801361.840   114566955.41608  21801362.560    89272981.31146
 15 02 24 03 31 30.0000000  0 10G01G04G11G14G16G18G19G22G27G32
  23310560.480   122497839.18806  23310564.260    95452872.51344
  21129571.760   111036681.09009  21129572.200    86522106.00147
  22271254.140   117036248.18908  22271253.320    91197083.79245
  23819621.200   125172954.48806  23819622.040    97537359.30444
  23088995.520   121333505.03707  23088995.820    94545590.18744
  24201764.100   127181133.97406  24201762.920    99102183.05243
  20529246.000   107881933.75309  20529243.780    84063854.43148
  21391010.160   112410566.88609  21391008.140    87592655.26047
  20549294.300   107987299.76809  20549296.060    84145966.20648
  21783539.880   114473300.54708  21783540.640    89200003.51846
 15 02 24 03 32  0.0000000  0 10G01G04G11G14G16G18G19G22G27G32
  23296806.500   122425562.07907  23296810.420    95396552.72545
  21120544.720   110989243.67209  21120545.100    86485141.79446
  22256969.220   116961179.48008  22256968.220    91138588.71644
  23807398.000   125108720.87506  23807398.760    97487307.13444
  23108576.400   121436404.09707  23108577.120    94625771.25045
  24218649.600   127269864.03906  24218648.600    99171318.80543
  20525356.060   107861491.59409  20525353.720    84047925.46648
  21401112.400   112463654.64908  21401110.520    87634022.34447
  20554661.620   108015505.18309  20554663.360    84167944.43748
  21765788.760   114380017.72708  21765789.480    89127315.60846
 15 02 24 03 32 30.0000000  0 10G01G04G11G14G16G18G19G22G27G32
  23283080.420   122353431.18406  23283084.360    95340346.87845
  21111567.140   110942066.33608  21111567.500    86448380.25047
  22242714.120   116886267.92408  22242713.060    91080216.09845
  23795221.840   125044734.28907  23795222.480    97437447.48443
  23128191.060   121539480.31407  23128191.980    94706090.37344
  24235561.640   127358738.87806  24235561.000    99240571.93444
  20521533.860   107841405.84009  20521531.500    84032274.23548
  21411291.100   112517143.90808  21411289.300    87675702.28847
  20560106.600   108044118.95109  20560108.360    84190240.87248
  21748108.400   114287107.01808  21748109.200    89054917.68646
 15 02 24 03 33  0.0000000  0 10G01G04G11G14G16G18G19G22G27G32
  23269382.540   122281448.65207  23269386.560    95284256.62744
  21102639.500   110895151.48709  21102639.920    86411823.24346
  22228489.320   116811516.16908  22228488.300    91021967.99145
  23783093.580   124980999.72906  23783094.120    97387784.23743
  23147839.240   121642732.32107  23147840.160    94786546.46745
  24252499.800   127447751.27806  24252499.820    99309932.26943
  20517780.100   107821679.79809  20517777.800    84016903.30148
  21421546.200   112571034.50408  21421544.360    87717694.95547
  20565629.760   108073143.43209  20565631.520    84212857.34648
  21730499.680   114194572.81408  21730500.580    88982813.13046
 15 02 24 03 33 30.0000000  0 10G01G04G11G14G16G18G19G22G27G32
  23255712.740   122209613.52007  23255716.740    95228281.23945
  21093761.580   110848497.77309  21093762.000    86375469.72246
  22214294.760   116736923.96208  22214293.900    90963844.22745
  23771013.560   124917518.89306  23771014.200    97338318.63644
  23167520.420   121746157.22507  23167521.180    94867137.29245
  24269463.580   127536898.24606  24269464.180    99379397.41244
  20514094.800   107802313.67609  20514092.540    84001812.82548
  21431877.220   112625323.75009  21431875.220    87759998.25947
  20571230.940   108102577.94709  20571232.740    84235793.31548
  21712962.880   114102416.51608  21712963.840    88911003.03346
 15 02 24 03 34  0.0000000  0 10G01G04G11G14G16G18G19G22G27G32
  23242070.620   122137923.70307  23242074.660    95172419.08345
  21084932.980   110802103.22309  21084933.400    86339318.13247
  22200130.360   116662489.96108  22200129.540    90905843.72945
  23758982.020   124854292.68706  23758982.520    97289051.48742
  23187233.620   121849749.84707  23187233.980    94947858.78745
  24286452.200   127626169.82706  24286452.940    99448967.39844
  20510477.920   107783306.64609  20510475.620    83987002.15448
  21442283.300   112680007.67508  21442281.200    87802609.11847
  20576909.820   108132420.68409  20576911.620    84259047.38848
  21695498.060   114010638.34908  21695499.020    88839487.58646
 15 02 24 03 34 30.0000000  0 10G01G04G11G14G16G18G19G22G27G32
  23228456.800   122066382.24707  23228460.840    95116672.53745
  21076154.360   110755971.02709  21076154.760    86303370.97747
  22185996.800   116588217.98308  22185996.060    90847969.48544
  23747000.000   124791326.79406  23747000.500    97239987.18444
  23206978.800   121953510.34908  23206978.580    95028711.10544
  24303466.400   127715579.45206  24303467.160    99518637.22544
  20506930.160   107764662.91009  20506927.820    83972474.57248
  21452764.540   112735086.99508  21452762.420    87845528.06447
  20582667.020   108162675.00009  20582668.860    84282622.16348
  21678106.240   113919243.72308  21678107.260    88768271.03046
 15 02 24 03 35  0.0000000  0 10G01G04G11G14G16G18G19G22G27G32
  23214870.920   121994987.49307  23214875.000    95061040.30245
  21067425.340   110710099.35709  21067425.740    86267626.83747
  22171893.940   116514106.89608  22171893.200    90790220.62445
  23735067.800   124728622.53906  23735068.320    97191126.74843
  23226754.860   122057433.79707  23226754.320    95109690.39744
  24320504.920   127805116.72206  24320505.460    99588406.54344
  20503451.440   107746382.00009  20503449.000    83958229.70348
  21463320.400   112790558.07509  21463318.160    87888752.28947
  20588502.260   108193339.45109  20588504.140    84306516.53948
  21660787.520   113828233.24808  21660788.580    88697353.79146
 15 02 24 03 35 30.0000000  0 10G01G04G11G14G16G18G19G22G27G32
  23201313.240   121923741.26707  23201317.340    95005523.79145
  21058746.220   110664490.03409  21058746.580    86232087.12247
  22157822.220   116440159.22708  22157821.500    90732599.07644
  23723186.180   124666184.47206  23723186.660    97142473.72744
  23246561.640   122161519.22307  23246560.920    95190795.89344
  24337567.680   127894781.80005  24337568.160    99658275.44944
  20500042.400   107728467.41109  20500039.900    83944270.28948
  21473950.780   112846421.05909  21473948.480    87932281.89147
  20594415.940   108224416.17309  20594417.920    84330732.16048
  21643542.700   113737611.11308  21643543.740    88626739.16346
 15 02 24 03 36  0.0000000  0 10G01G04G11G14G16G18G19G22G27G32
  23187783.680   121852643.27507  23187787.760    94950122.79745
  21050116.960   110619142.63309  21050117.260    86196751.49547
  22143781.680   116366375.42808  22143781.020    90675105.23646
  23711355.720   124604014.79406  23711356.140    97094029.83444
  23266398.740   122265763.81807  23266397.860    95272025.45244
  24354654.180   127984572.15805  24354654.500    99728241.95642
  20496703.160   107710919.52309  20496700.680    83930596.61048
  21484655.140   112902673.11608  21484652.960    87976114.66047
  20600408.100   108255905.02909  20600410.100    84355268.91248
  21626372.200   113647379.15608  21626373.140    88556428.56546
 15 02 24 03 36 30.0000000  0 10G01G04G11G14G16G18G19G22G27G32
  23174282.220   121781692.98107  23174286.320    94894836.88345
  21041537.420   110574056.82309  21041537.720    86161619.71047
  22129772.340   116292755.75308  22129771.760    90617739.28045
  23699576.860   124542115.96206  23699577.200    97045797.01944
  23286265.280   122370163.70007  23286264.560    95353375.99544
  24371763.960   128074485.22905  24371764.340    99798304.12442
  20493433.780   107693739.13609  20493431.360    83917209.29749
  21495433.100   112959311.86708  21495430.960    88020248.74847
  20606478.640   108287805.76909  20606480.600    84380126.62148
  21609276.320   113557539.28808  21609277.100    88486423.47946
 15 02 24 03 37  0.0000000  0 10G01G04G11G14G16G18G19G22G27G32
  23160808.840   121710890.30107  23160812.960    94839665.98845
  21033007.600   110529232.46609  21033007.960    86126691.65247
  22115794.220   116219300.59108  22115793.700    90560501.49745
  23687849.920   124480490.86506  23687850.260    96997777.49044
  23306160.860   122474716.46207  23306160.520    95434845.65545
  24388896.760   128164508.96806  24388897.200    99868457.29743
  20490234.580   107676927.45209  20490232.180    83904109.28449
  21506284.320   113016335.38209  21506282.200    88064682.66847
  20612627.620   108320118.48509  20612629.440    84405305.34548
  21592255.360   113468093.57108  21592256.040    88416725.52446
 15 02 24 03 37 30.0000000  0 10G01G04G11G14G16G18G19G22G27G32
  23147364.120   121640238.07307  23147368.220    94784612.34045
  21024528.060   110484672.05909  21024528.400    86091969.27247
  22101848.160   116146013.77208  22101847.620    90503394.92845
  23676176.000   124419144.95506  23676176.600    96949975.52544
  23326085.420   122579421.64107  23326085.420    95516434.09345
  24406052.520   128254664.17605  24406052.540    99938708.09243
  20487106.320   107660488.53209  20487103.940    83891299.74448
  21517208.880   113073744.24308  21517206.780    88109416.84947
  20618855.520   108352846.20209  20618857.260    84430807.45848
  21575310.380   113379047.12908  21575311.000    88347338.70446
 15 02 24 03 38  0.0000000  0 10G01G04G11G14G16G18G19G22G27G32
  23133946.960   121569730.80007  23133951.140    94729671.65345
  21016097.720   110440370.48909  21016098.100    86057448.58247
  22087933.260   116072890.34208  22087932.580    90446415.64245
  23664554.680   124358075.30306  23664555.360    96902388.82442
  23346037.440   122684270.96807  23346037.740    95598134.82944
  24423230.200   128344933.39605  24423229.960   100009047.76741
  20484048.120   107644417.59009  20484045.760    83878776.93348
  21528205.260   113131530.71708  21528203.180    88154445.26547
  20625161.340   108385983.63909  20625163.100    84456628.83548
  21558440.780   113290396.74008  21558441.320    88278260.50446
 15 02 24 03 38 30.0000000  0 10G01G04G11G14G16G18G19G22G27G32
  23120558.240   121499372.78307  23120562.420    94674847.25145
  21007717.340   110396331.64909  21007717.740    86023132.61647
  22074050.400   115999935.68008  22074049.680    90389567.87345
  23652987.380   124297289.25906  23652988.120    96855023.08644
  23366017.340   122789266.13507  23366017.680    95679949.25544
  24440429.960   128435319.32005  24440429.740   100079478.44342
  20481061.180   107628720.97509  20481058.860    83866545.80848
  21539273.980   113189697.18108  21539271.880    88199769.78447
  20631545.960   108419535.24809  20631547.800    84482772.93448
  21541647.800   113202148.92708  21541648.280    88209496.00146
 15 02 24 03 39  0.0000000  0 10G01G04G11G14G16G18G19G22G27G32
  23107197.440   121429161.46807  23107201.640    94620137.17245
  20999386.500   110352553.30209  20999386.920    85989019.63447
  22060199.200   115927147.63008  22060198.500    90332849.93345
  23641474.120   124236786.68006  23641474.700    96807878.26443
  23386023.920   122894401.52207  23386024.280    95761872.90744
  24457651.040   128525817.04805  24457650.940   100149996.11843
  20478145.080   107613396.78509  20478142.760    83854604.88148
  21550414.120   113248239.05108  21550412.020    88245386.83447
  20638009.000   108453498.67109  20638010.840    84509237.92348
  21524931.280   113114303.36108  21524931.880    88141044.92946
 15 02 24 03 39 30.0000000  0 10G01G04G11G14G16G18G19G22G27G32
  23093864.640   121359097.51207  23093868.900    94565541.92745
  20991105.360   110309035.80409  20991105.780    85955109.90246
  22046379.860   115854527.69608  22046379.260    90276263.01145
  23630015.520   124176571.12306  23630015.940    96760957.05543
  23406056.900   122999674.79907  23406057.120    95843904.04044
  24474893.260   128616425.19705  24474893.260   100220599.86741
  20475300.260   107598446.95509  20475297.880    83842955.66548
  21561625.420   113307154.98508  21561623.360    88291295.35847
  20644550.580   108487874.69909  20644552.420    84536024.43648
  21508291.840   113026862.91308  21508292.580    88072909.52946
 15 02 24 03 40  0.0000000  0 10G01G04G11G14G16G18G19G22G27G32
  23080560.080   121289181.57707  23080564.300    94511062.01245
  20982874.060   110265780.17209  20982874.520    85921404.23147
  22032592.800   115782077.26208  22032592.280    90219808.14845
  23618612.080   124116646.26706  23618612.500    96714262.40744
  23426115.660   123105083.77707  23426115.780    95926040.86244
  24492156.360   128707142.65405  24492156.100   100291288.81244
  20472527.080   107583873.42309  20472524.600    83831599.65948
  21572907.580   113366443.48608  21572905.520    88337494.18847
  20651170.840   108522664.20309  20651172.660    84563133.13448
  21491730.020   112939830.47108  21491730.920    88005092.05646
 15 02 24 03 40 30.0000000  0 10G01G04G11G14G16G18G19G22G27G32
  23067283.880   121219414.66707  23067287.980    94456698.20945
  20974692.780   110222787.18009  20974693.220    85887903.21647
  22018838.460   115709797.95708  22018837.820    90163486.63444
  23607264.640   124057015.44506  23607265.140    96667796.84844
  23446199.880   123210626.61107  23446199.780    96008282.04844
  24509439.940   128797968.26205  24509439.460   100362062.05844
  20469825.840   107569678.21909  20469823.360    83820538.47048
  21584260.460   113426103.34608  21584258.340    88383982.39547
  20657870.000   108557868.18709  20657871.720    84590564.80448
  21475246.460   112853209.20108  21475247.480    87937594.98246
 15 02 24 03 41  0.0000000  0 10G01G04G11G14G16G18G19G22G27G32
  23054035.860   121149795.67907  23054039.860    94402449.69045
  20966561.180   110180055.42309  20966561.620    85854605.75547
  22005116.720   115637689.71408  22005116.020    90107298.42144
  23595973.440   123997680.33306  23595974.080    96621561.70743
  23466308.820   123316299.30407  23466308.380    96090624.38244
  24526743.440   128888899.18105  24526743.380   100432917.34643
  20467196.640   107555861.57409  20467194.120    83809772.25348
  21595683.520   113486131.52508  21595681.300    88430757.60947
  20664647.820   108593485.74809  20664649.500    84618318.73548
  21458841.380   112767000.15308  21458842.400    87870419.10046
 15 02 24 03 41 30.0000000  0 10G01G04G11G14G16G18G19G22G27G32
  23040815.780   121080323.65007  23040819.580    94348315.68045
  20958479.140   110137584.34409  20958479.600    85821511.42547
  21991427.480   115565752.08808  21991426.720    90051243.13644
  23584738.860   123938642.79206  23584739.460    96575558.47443
  23486441.800   123422098.29007  23486441.100    96173065.13244
  24544066.420   128979931.84505  24544066.140   100503851.95744
  20464639.480   107542423.42909  20464636.860    83799300.97148
  21607176.020   113546524.72508  21607173.780    88477817.24047
  20671504.140   108629516.09209  20671505.820    84646394.31448
  21442514.940   112681204.52808  21442516.040    87803565.38546
 15 02 24 03 42  0.0000000  0 10G01G04G11G14G16G18G19G22G27G32
  23027624.040   121010999.91107  23027627.700    94294297.23345
  20950447.020   110095375.11609  20950447.320    85788621.13047
  21977771.120   115493987.48708  21977770.480    89995322.68945
  23573561.600   123879906.63806  23573562.440    96529790.02443
  23506598.420   123528021.92407  23506597.520    96255603.01544
  24561408.800   129071066.27305  24561408.440   100574865.83044
  20462154.800   107529366.30809  20462152.040    83789126.58948
  21618737.880   113607282.51508  21618735.620    88525160.96847
  20678439.240   108665960.56509  20678441.020    84674792.59648
  21426267.920   112595825.90908  21426268.980    87737036.61346
 15 02 24 03 42 30.0000000  0 10G01G04G11G14G16G18G19G22G27G32
  23014460.520   120941824.80207  23014464.220    94240394.59244
  20942464.800   110053428.11709  20942464.920    85755935.17546
  21964147.900   115422397.03508  21964147.280    89939537.94144
  23562442.420   123821475.19406  23562443.320    96484259.06144
  23526778.280   123634067.69707  23526777.360    96338236.06544
  24578770.240   129162300.88005  24578769.720   100645957.70544
  20459742.920   107516692.01709  20459740.140    83779250.51648
  21630368.800   113668403.13908  21630366.380    88572787.43347
  20685453.260   108702819.63009  20685455.120    84703513.94448
  21410100.760   112510866.71508  21410101.640    87670834.66046
 15 02 24 03 43  0.0000000  0 10G01G04G11G14G16G18G19G22G27G32
  23001325.020   120872797.29907  23001328.740    94186606.96645
  20934532.280   110011742.15209  20934532.300    85723452.61347
  21950557.680   115350980.07008  21950557.120    89883888.37145
  23551381.640   123763350.07406  23551382.420    96438966.79943
  23546980.640   123740231.72607  23546979.840    96420961.25644
  24596150.180   129253632.56305  24596149.660   100717125.26743
  20457403.860   107504400.46509  20457401.140    83769672.68348
  21642068.120   113729883.25808  21642065.580    88620694.02447
  20692546.040   108740092.29909  20692547.940    84732557.57548
  21394013.660   112426328.04508  21394014.400    87604960.39246
 15 02 24 03 43 30.0000000  0 10G01G04G11G14G16G18G19G22G27G32
  22988218.140   120803920.39007  22988221.920    94132936.68945
  20926649.960   109970320.11009  20926649.980    85691175.71747
  21937001.280   115279740.54208  21937000.720    89828377.06745
  23540380.260   123705536.99906  23540381.060    96393917.65644
  23567205.380   123846513.90907  23567204.900    96503778.50944
  24613548.700   129345062.19005  24613548.360   100788369.19644
  20455138.440   107492495.66609  20455135.780    83760396.21448
  21653836.040   113791723.76308  21653833.520    88668881.43447
  20699718.100   108777781.57409  20699720.040    84761925.82548
  21378007.560   112342214.96008  21378008.180    87539417.73746
 15 02 24 03 44  0.0000000  0 10G01G04G11G14G16G18G19G22G27G32
  22975138.800   120735188.13707  22975142.620    94079379.12745
  20918816.740   109929156.24009  20918816.800    85659099.98547
  21923477.720   115208673.62308  21923477.100    89773000.26745
  23529437.720   123648032.65706  23529438.340    96349109.09143
  23587451.060   123952905.62007  23587450.560    96586681.13344
  24630964.480   129436582.27205  24630964.000   100859683.53743
  20452945.720   107480973.11509  20452943.160    83751417.60148
  21665670.920   113853916.61208  21665668.520    88717343.38947
  20706968.300   108815881.70309  20706970.260    84791614.23348
  21362081.680   112258523.74308  21362082.220    87474203.82446
 15 02 24 03 44 30.0000000  0 10G01G04G11G14G16G18G19G22G27G32
  22962088.280   120666607.09107  22962092.020    94025939.38845
  20911033.880   109888257.01309  20911033.940    85627230.46647
  21909988.300   115137786.20608  21909987.740    89717763.34345
  23518555.680   123590846.20706  23518555.940    96304548.25343
  23607718.400   124059410.85307  23607717.980    96669672.20844
  24648398.280   129528197.02105  24648397.740   100931071.68844
  20450827.220   107469840.34909  20450824.740    83742742.71848
  21677573.660   113916466.06908  21677571.360    88766083.22847
  20714297.940   108854399.16809  20714299.900    84821627.83048
  21346237.740   112175262.94808  21346238.200    87409325.30146
 15 02 24 03 45  0.0000000  0 10G01G04G11G14G16G18G19G22G27G32
  22949065.520   120598171.88407  22949069.280    93972613.29245
  20903300.340   109847617.01009  20903300.420    85595562.94347
  21896532.260   115067073.95508  21896531.700    89662662.90846
  23507733.480   123533974.81806  23507733.640    96260232.90943
  23628005.760   124166021.24807  23628005.440    96752745.23244
  24665848.740   129619899.27905  24665848.100   101002528.02943
  20448781.980   107459092.77609  20448779.600    83734367.98749
  21689542.900   113979365.06808  21689540.740    88815095.43947
  20721706.000   108893328.69709  20721707.940    84851962.53048
  21330475.100   112092429.31108  21330475.420    87344779.62646
 15 02 24 03 45 30.0000000  0 10G01G04G11G14G16G18G19G22G27G32
  22936071.360   120529886.96007  22936075.120    93919404.30145
  20895616.900   109807240.64909  20895617.080    85564100.84647
  21883110.520   114996542.15608  21883109.940    89607703.08645
  23496972.580   123477425.82006  23496972.780    96216168.79443
  23648313.520   124272738.19307  23648313.020    96835901.29544
  24683316.200   129711691.16405  24683315.160   101074054.21943
  20446811.220   107448736.30009  20446808.920    83726298.00749
  21701578.960   114042615.49708  21701577.020    88864381.48847
  20729193.300   108932674.67209  20729195.220    84882621.72548
  21314794.940   112010029.38508  21314795.200    87280571.90446
 15 02 24 03 46  0.0000000  0 10G01G04G11G14G16G18G19G22G27G32
  22923105.360   120461750.26707  22923108.980    93866310.80545
  20887983.260   109767125.99209  20887983.480    85532842.68347
  21869722.840   114926189.53608  21869722.140    89552882.87245
  23486273.140   123421199.89706  23486273.180    96172356.44143
  23668640.620   124379557.09407  23668640.060    96919136.79044
  24700799.980   129803569.56605  24700798.780   101145647.79543
  20444914.740   107438769.94609  20444912.460    83718532.02348
  21713681.280   114106213.56808  21713679.380    88913938.42447
  20736759.480   108972435.12109  20736761.380    84913603.87748
  21299197.200   111928063.08708  21299197.540    87216702.09246
 15 02 24 03 46 30.0000000  0 10G01G04G11G14G16G18G19G22G27G32
  22910167.660   120393762.32107  22910171.200    93813333.22145
  20880399.540   109727273.31409  20880399.800    85501788.66147
  21856369.540   114856017.08708  21856368.620    89498203.05845
  23475635.700   123365300.13506  23475635.640    96128798.17744
  23688986.580   124486475.15807  23688985.920    97002449.53444
  24718299.860   129895532.73905  24718298.480   101217307.42944
  20443092.780   107429195.39009  20443090.500    83711071.33249
  21725849.400   114170157.46208  21725847.480    88963764.83547
  20744404.600   109012610.45909  20744406.440    84944909.32148
  21283682.500   111846533.11908  21283682.980    87153172.26146
 15 02 24 03 47  0.0000000  0 10G01G04G11G14G16G18G19G22G27G32
  22897258.060   120325922.21207  22897261.540    93760470.82545
  20872865.540   109687681.89509  20872865.840    85470938.22147
  21843050.520   114786024.98108  21843049.480    89443663.77145
  23465060.620   123309727.98506  23465060.600    96085495.24044
  23709350.820   124593488.75807  23709350.000    97085836.75943
  24735815.380   129987577.82505  24735814.220   101289030.94043
  20441345.380   107420012.69609  20441343.060    83703915.98648
  21738082.780   114234444.04808  21738080.820    89013858.28147
  20752128.540   109053199.78809  20752130.320    84976537.35348
  21268250.920   111765440.38108  21268251.560    87089983.12546
 15 02 24 03 47 30.0000000  0 10G01G04G11G14G16G18G19G22G27G32
  22884376.780   120258230.99907  22884380.280    93707724.47545
  20865381.340   109648352.59209  20865381.760    85440292.01747
  21829766.240   114716215.34008  21829765.180    89389266.66446
  23454548.680   123254487.28806  23454548.760    96042450.56043
  23729732.980   124700596.61207  23729731.840    97169297.38644
  24753346.320   130079704.07805  24753345.460   101360817.70241
  20439672.980   107411224.08809  20439670.560    83697067.71248
  21750381.160   114299072.12408  21750379.060    89064217.82747
  20759931.380   109094204.12009  20759933.220    85008488.77448
  21252903.160   111684788.10108  21252903.980    87027137.21746
 15 02 24 03 48  0.0000000  0 10G01G04G11G14G16G18G19G22G27G32
  22871523.720   120190687.88307  22871527.200    93655093.52545
  20857946.880   109609284.76409  20857947.380    85409849.57247
  21816516.600   114646587.98808  21816515.680    89335011.60445
  23444100.100   123199579.86107  23444100.240    95999665.59244
  23750132.240   124807794.82707  23750131.040    97252828.47743
  24770892.180   130171908.61804  24770891.720   101432665.51941
  20438075.600   107402829.75809  20438073.120    83690526.67548
  21762744.000   114364039.06608  21762741.840    89114841.41446
  20767813.040   109135622.65709  20767814.920    85040762.95948
  21237639.480   111604577.44408  21237640.500    86964635.41946
 15 02 24 03 48 30.0000000  0 10G01G04G11G14G16G18G19G22G27G32
  22858699.380   120123295.79507  22858702.880    93602580.25445
  20850562.700   109570481.19309  20850563.300    85379613.02947
  21803302.340   114577146.42508  21803301.540    89280901.32246
  23433716.000   123145011.13107  23433716.180    95957144.54744
  23770548.520   124915083.38407  23770547.260    97336429.91943
  24788452.880   130264192.65004  24788452.740   101504575.11743
  20436554.040   107394833.68509  20436551.480    83684295.96548
  21775171.360   114429345.46008  21775169.220    89165729.51147
  20775774.040   109177458.17009  20775775.940    85073362.05048
  21222460.860   111524813.25308  21222461.920    86902481.51746
 15 02 24 03 49  0.0000000  0 10G01G04G11G14G16G18G19G22G27G32
  22845903.140   120056051.45507  22845906.600    93550182.10645
  20843228.220   109531938.64209  20843228.920    85349579.88347
  21790122.940   114507888.51008  21790122.280    89226934.13246
  23423396.320   123090780.91806  23423396.680    95914887.24044
  23790980.720   125022456.37807  23790979.520    97420097.18744
  24806027.920   130356551.26004  24806027.640   101576542.90442
  20435107.860   107387233.84509  20435105.260    83678374.01248
  21787662.300   114494985.90608  21787660.160    89216877.91047
  20783813.800   109219707.36009  20783815.760    85106283.48448
  21207367.040   111445494.36708  21207368.000    86840674.62546
 15 02 24 03 49 30.0000000  0 10G01G04G11G14G16G18G19G22G27G32
  22833135.100   119988955.02508  22833138.460    93497899.20545
  20835943.500   109493657.20209  20835944.200    85319750.20147
  21776978.600   114438815.25508  21776978.040    89173110.84045
  23413141.380   123036891.28607  23413142.140    95872895.34044
  23811428.440   125129910.99907  23811427.600    97503828.04544
  24823616.860   130448982.45104  24823616.400   101648567.25444
  20433737.280   107380031.42709  20433734.660    83672761.73248
  21800216.420   114560958.28808  21800214.300    89268284.96246
  20791932.320   109262370.28909  20791934.320    85139527.31548
  21192358.420   111366622.72508  21192359.140    86779216.21846
 15 02 24 03 50  0.0000000  0 10G01G04G11G14G16G18G19G22G27G32
  22820395.180   119922006.03408  22820398.380    93445731.20045
  20828708.420   109455636.49209  20828709.060    85290123.68047
  21763869.480   114369927.05208  21763868.960    89119431.74845
  23402951.740   122983344.72106  23402952.560    95831170.77844
  23831891.020   125237443.89406  23831890.420    97587619.89443
  24841219.220   130541483.82204  24841218.860   101720646.33044
  20432442.340   107373226.75809  20432439.760    83667459.40148
  21812833.320   114627260.22508  21812831.080    89319948.81446
  20800129.460   109305446.39609  20800131.440    85173093.11248
  21177435.200   111288199.90208  21177435.640    86718107.53746
 15 02 24 03 50 30.0000000  0 10G01G04G11G14G16G18G19G22G27G32
  22807683.640   119855206.02508  22807686.720    93393679.26645
  20821523.220   109417877.94809  20821523.840    85260701.44246
  21750795.980   114301226.11408  21750795.520    89065898.57645
  23392828.240   122930145.17507  23392828.960    95789716.58343
  23852368.280   125345054.10906  23852368.000    97671472.02043
  24858834.940   130634055.14705  24858834.700   101792779.83742
  20431223.620   107366822.71709  20431221.080    83662469.23348
  21825512.720   114693891.04208  21825510.340    89371868.92246
  20808405.480   109348937.11909  20808407.380    85206981.97848
  21162597.920   111210229.38308  21162598.180    86657351.31546
 15 02 24 03 51  0.0000000  0 10G01G04G11G14G16G18G19G22G27G32
  22795000.440   119788555.32007  22795003.460    93341743.69445
  20814388.040   109380381.91909  20814388.600    85231483.77047
  21737758.440   114232713.54108  21737757.940    89012512.16845
  23382771.420   122877295.75407  23382771.960    95748535.23444
  23872859.760   125452738.72506  23872859.780    97755382.11844
  24876463.640   130726694.93004  24876463.600   101864966.73843
  20430081.420   107360820.60509  20430078.900    83657792.26248
  21838254.320   114760848.67108  21838251.800    89424043.70546
  20816760.380   109392842.62509  20816762.260    85241194.04648
  21147847.000   111132713.33208  21147847.240    86596949.21446
 15 02 24 03 51 30.0000000  0 10G01G04G11G14G16G18G19G22G27G32
  22782345.220   119722052.04207  22782348.260    93289922.97345
  20807302.440   109343146.42709  20807302.940    85202469.10747
  21724756.640   114164388.37708  21724756.020    88959271.79245
  23372781.240   122824796.74107  23372781.740    95707626.95544
  23893364.720   125560493.17406  23893364.800    97839346.59243
  24894104.820   130819399.96204  24894104.980   101937204.46041
  20429015.560   107355219.39609  20429013.040    83653427.68648
  21851057.500   114828129.38408  21851054.800    89476470.22746
  20825193.820   109437160.87209  20825195.700    85275727.73948
  21133182.460   111055651.77608  21133182.960    86536901.26746
 15 02 24 03 52  0.0000000  0 10G01G04G11G14G16G18G19G22G27G32
  22769718.300   119655697.93107  22769721.360    93238218.52445
  20800266.700   109306173.24609  20800267.180    85173658.85047
  21711791.080   114096253.61808  21711790.460    88906179.77945
  23362858.480   122772652.79507  23362859.040    95666995.34144
  23913882.960   125668316.62007  23913883.060    97923364.85143
  24911758.280   130912169.67304  24911758.700   102009492.62641
  20428026.560   107350022.10609  20428024.040    83649377.85448
  21863922.000   114895732.80308  21863919.300    89529148.20846
  20833706.140   109481893.46809  20833708.020    85310584.29348
  21118605.120   110979048.44108  21118605.940    86477210.36946
 15 02 24 03 52 30.0000000  0 10G01G03G04G11G14G16G19G22G27G32
  22757119.440   119589491.12607  22757122.540    93186628.83546
  24630305.000   129433122.77705  24630309.200   100856985.35543
  20793280.560   109269460.58509  20793280.960    85145051.58747
  21698861.400   114028307.78608  21698860.800    88853234.99745
  23353003.420   122720864.25707  23353003.860    95626640.68043
  23934413.500   125776204.22707  23934413.640    98007433.12644
  20427114.240   107345227.64809  20427111.700    83645641.90648
  21876847.100   114963654.55708  21876844.360    89582074.25246
  20842296.980   109527038.38809  20842298.840    85345762.15248
  21104115.080   110902903.21108  21104116.100    86417876.43546
 15 02 24 03 53  0.0000000  0 10G01G03G04G11G14G16G19G22G27G32
  22744550.680   119523442.16707  22744553.760    93135162.15445
  24609783.800   129325283.67105  24609788.400   100772954.96944
  20786345.960   109233018.76709  20786346.220    85116655.37247
  21685969.860   113960562.42208  21685969.320    88800446.42045
  23343218.360   122669444.37607  23343218.640    95586573.22043
  23954957.800   125884163.58107  23954957.860    98091557.27044
  20426280.820   107340847.81009  20426278.240    83642229.04548
  21889834.460   115031903.32708  21889831.620    89635255.10546
  20850968.260   109572605.96109  20850970.100    85381269.33648
  21089714.640   110827228.39108  21089715.800    86358909.05546
 15 02 24 03 53 30.0000000  0 10G01G03G04G11G14G16G19G22G27G32
  22732008.540   119457533.60407  22732011.760    93083804.86945
  24589281.740   129217544.39505  24589286.360   100689002.34843
  20779459.640   109196830.58009  20779459.800    85088456.79347
  21673113.420   113893001.13808  21673112.840    88747801.27245
  23333500.640   122618378.27207  23333500.840    95546781.49143
  23975511.920   125992174.63907  23975511.920    98175721.73143
  20425523.100   107336865.94609  20425520.560    83639126.29048
  21902880.320   115100459.23408  21902877.380    89688675.29546
  20859716.620   109618578.60109  20859718.440    85417092.16448
  21075400.800   110752008.53508  21075402.020    86300296.19547
 15 02 24 03 54  0.0000000  0 10G01G03G04G11G14G16G19G22G27G32
  22719494.800   119391774.12207  22719498.140    93032563.75346
  24568800.700   129109915.46506  24568805.080   100605135.74345
  20772623.140   109160904.44309  20772623.260    85060462.40947
  21660293.820   113825633.33008  21660293.160    88695306.88245
  23323852.440   122567677.07506  23323852.440    95507274.07344
  23996076.860   126100243.54007  23996076.920    98259931.22941
  20424842.920   107333291.57109  20424840.420    83636341.06348
  21915985.840   115169328.77108  21915982.740    89742339.87146
  20868543.600   109664964.70809  20868545.460    85453237.17248
  21061175.580   110677254.16109  21061176.720    86242046.03846
 15 02 24 03 54 30.0000000  0 10G01G03G04G11G14G16G19G22G27G32
  22707009.360   119326162.67607  22707012.760    92981437.96145
  24548341.020   129002397.69406  24548345.180   100521355.74843
  20765836.340   109125239.49209  20765836.420    85032671.54547
  21647510.960   113758458.85308  21647510.180    88642963.15045
  23314273.940   122517341.87307  23314274.180    95468051.88344
  24016652.040   126208366.14706  24016651.780    98344182.62744
  20424240.320   107330124.80509  20424237.860    83633873.45548
  21929150.380   115238508.86408  21929147.200    89796246.42846
  20877449.000   109711762.99209  20877450.940    85489703.35948
  21047039.080   110602965.86609  21047040.080    86184159.07546
 15 02 24 03 55  0.0000000  0 10G01G03G04G11G14G16G19G22G27G32
  22694552.500   119260701.24007  22694555.940    92930429.07945
  24527903.140   128894994.93206  24527907.180   100437665.36243
  20759099.600   109089837.76909  20759099.720    85005085.79447
  21634765.420   113691480.51208  21634764.540    88590772.23345
  23304766.060   122467377.42906  23304766.320    95429118.54443
  24037237.060   126316541.65406  24037236.780    98428475.23043
  20423715.900   107327368.81509  20423713.420    83631725.92848
  21942374.000   115307999.23808  21942370.740    89850394.77646
  20886433.200   109758975.29809  20886435.220    85526492.16548
  21032992.020   110529147.46309  21032992.820    86126638.25846
 15 02 24 03 55 30.0000000  0 10G01G03G04G11G14G16G19G22G27G32
  22682123.480   119195386.39107  22682126.860    92879534.42245
  24507486.780   128787705.56406  24507490.520   100354063.32743
  20752412.220   109054695.36309  20752412.360    84977702.10147
  21622056.740   113624695.79308  21622055.740    88538732.21145
  23295328.640   122417782.85107  23295328.940    95390473.47144
  24057830.760   126424763.81205  24057830.520    98512804.16644
  20423269.080   107325020.64909  20423266.580    83629896.18148
  21955655.560   115377794.28308  21955652.320    89904780.52346
  20895495.440   109806597.80109  20895497.480    85563600.59448
  21019033.960   110455797.34708  21019034.600    86069482.35446
 15 02 24 03 56  0.0000000  0 10G01G03G04G11G14G16G19G22G27G32
  22669723.240   119130222.83507  22669726.580    92828757.66245
  24487093.140   128680536.12806  24487096.880   100270554.78844
  20745775.180   109019817.34309  20745775.280    84950524.43247
  21609386.020   113558110.37908  21609384.820    88486847.47045
  23285962.840   122368565.06907  23285963.180    95352121.96744
  24078433.660   126533034.55606  24078433.600    98597170.99443
  20422900.960   107323086.15809  20422898.460    83628388.78748
  21968995.560   115447896.60908  21968992.380    89959405.70646
  20904636.600   109854635.07109  20904638.620    85601032.22548
  21005166.180   110382921.88108  21005166.680    86012696.30846
 15 02 24 03 56 30.0000000  0 10G01G03G04G11G14G16G19G22G27G32
  22657351.220   119065207.47307  22657354.580    92778096.37645
  24466722.040   128573485.42006  24466725.640   100187138.74643
  20739187.860   108985200.49809  20739187.880    84923550.26947
  21596752.740   113491721.98608  21596751.520    88435116.26045
  23276668.580   122319723.54507  23276668.940    95314063.64044
  24099044.640   126641347.96305  24099044.720    98681571.05943
  20422611.240   107321563.54509  20422608.720    83627202.32848
  21982393.080   115518301.05108  21982389.920    90014266.30346
  20913856.060   109903083.71509  20913858.020    85638784.40348
  20991388.420   110310519.77608  20991388.880    85956279.08947
 15 02 24 03 57  0.0000000  0 10G01G03G04G11G14G16G19G22G27G32
  22645007.720   119000342.33407  22645011.180    92727552.14046
  24446374.200   128466557.32206  24446377.780   100103818.22444
  20732650.620   108950846.96309  20732650.640    84896781.29247
  21584157.540   113425533.68008  21584156.320    88383540.96445
  23267446.700   122271262.70307  23267447.240    95276301.99144
  24119663.540   126749703.21806  24119663.860    98766003.68344
  20422400.320   107320455.33209  20422397.880    83626338.78549
  21995847.960   115589006.99108  21995844.820    90069361.83846
  20923154.100   109951945.42409  20923156.060    85676858.45448
  20977701.380   110238594.79408  20977702.000    85900233.66947
 15 02 24 03 57 30.0000000  0 10G01G03G04G11G14G16G19G22G27G32
  22632692.420   118935625.40307  22632696.000    92677123.40445
  24426049.420   128359751.53206  24426052.840   100020593.00744
  20726163.080   108916754.73309  20726163.100    84870215.92347
  21571600.080   113359544.15008  21571598.920    88332120.55146
  23258297.400   122223182.71007  23258297.960    95238837.08644
  24140289.640   126858095.30106  24140289.960    98850465.06943
  20422268.000   107319760.38009  20422265.620    83625797.25948
  22009359.520   115660010.62908  22009356.340    90124689.34046
  20932530.340   110001217.81309  20932532.300    85715252.51348
  20964105.120   110167146.43108  20964105.860    85844559.63646
 15 02 24 03 58  0.0000000  0 10G01G03G04G11G14G16G19G22G27G32
  22620405.420   118871056.56407  22620408.960    92626810.04745
  24405748.340   128253069.86606  24405751.720    99937464.51644
  20719725.160   108882923.34609  20719725.180    84843853.80347
  21559080.540   113293754.08308  21559079.520    88280855.58045
  23249221.120   122175486.17407  23249221.420    95201670.97244
  24160922.480   126966522.34006  24160922.860    98934953.68143
  20422214.560   107319479.79809  20422212.240    83625578.62248
  22022927.240   115731309.56008  22022924.080    90180246.94046
  20941984.700   110050900.48209  20941986.720    85753966.27948
  20950599.940   110096176.31508  20950600.660    85789258.25546
 15 02 24 03 58 30.0000000  0 10G01G03G04G11G14G16G19G22G27G32
  22608147.320   118806639.29408  22608150.780    92576614.79045
  24385471.820   128146517.59006  24385475.400    99854436.86444
  20713337.580   108849356.52009  20713337.540    84817697.84347
  21546599.820   113228168.07108  21546599.000    88229749.60546
  23240218.740   122128178.62907  23240218.980    95164807.96943
  24181562.180   127074984.29906  24181562.400    99019469.47643
  20422240.800   107319617.77909  20422238.480    83625686.14248
  22036551.300   115802904.85708  22036548.240    90236035.48846
  20951517.740   110100996.61409  20951519.800    85793002.21248
  20937186.840   110025689.76709  20937187.580    85734333.69746
 15 02 24 03 59  0.0000000  0 10G01G03G04G11G14G16G19G22G27G32
  22595917.220   118742369.25908  22595920.540    92526534.26645
  24365219.580   128040092.20405  24365223.280    99771508.02943
  20706999.460   108816049.74609  20706999.400    84791744.52147
  21534157.340   113162782.59208  21534156.520    88178799.87545
  23231290.000   122081258.31207  23231290.140    95128246.69143
  24202207.400   127183474.25606  24202207.480    99104007.08943
  20422346.060   107320170.90009  20422343.660    83626117.14448
  22050230.600   115874790.22708  22050227.560    90292050.05746
  20961128.540   110151501.49609  20961130.540    85832356.66148
  20923865.280   109955683.92209  20923865.940    85679783.69846
 15 02 24 03 59 30.0000000  0 10G01G03G04G11G14G16G19G22G27G32
  22583715.280   118678247.43908  22583718.460    92476569.21845
  24344992.100   127933796.41606  24344995.600    99688680.23444
  20700711.060   108783004.13309  20700711.000    84765994.69947
  21521753.420   113097599.83108  21521752.620    88128008.14245
  23222435.540   122034728.53006  23222435.700    95091989.74344
  24222857.560   127291990.25306  24222857.300    99188564.99644
  20422530.660   107321140.99309  20422528.240    83626873.06248
  22063964.900   115946964.40008  22063961.860    90348289.66946
  20970817.200   110202415.72209  20970819.140    85872030.07248
  20910635.680   109886161.42109  20910636.240    85625610.34147
 15 02 24 04 00  0.0000000  0 10G01G03G04G11G14G16G19G22G27G32
  22571541.620   118614274.36608  22571544.820    92426720.09146
  24324789.920   127827632.73606  24324792.820    99605955.36344
  20694472.400   108750219.98709  20694472.400    84740448.61547
  21509388.380   113032621.08908  21509387.540    88077375.36046
  23213655.960   121988592.08307  23213656.180    95056039.27644
  24243512.320   127400530.14606  24243511.780    99273141.56543
  20422794.900   107322529.48909  20422792.400    83627955.00148
  22077753.820   116019425.78508  22077750.880    90404753.07946
  20980583.820   110253739.45409  20980585.640    85912022.58448
  20897498.420   109817124.37509  20897498.800    85571815.26547
 15 02 24 04 00 30.0000000  0 10G01G03G04G11G14G16G19G22G27G32
  22559396.080   118550448.90008  22559399.300    92376985.98546
  24304612.940   127721601.68606  24304615.420    99523333.83143
  20688283.380   108717696.44109  20688283.400    84715105.59447
  21497062.120   112967846.04808  21497061.280    88026901.31445
  23204951.560   121942850.20807  23204951.960    95020396.28344
  24264170.900   127509089.96406  24264170.200    99357733.61943
  20423138.720   107324336.08409  20423136.140    83629362.73748
  22091596.740   116092170.85208  22091593.860    90461437.54146
  20990428.040   110305471.23709  20990429.820    85952333.05848
  20884453.580   109748573.19709  20884453.880    85518398.78147
 15 02 24 04 01  0.0000000  0 10G01G03G04G11G14G16G19G22G27G32
  22547279.020   118486773.35908  22547282.220    92327368.69746
  24284461.940   127615707.34806  24284464.200    99440818.85043
  20682144.300   108685435.49209  20682144.360    84689967.20547
  21484775.240   112903277.81808  21484774.380    87976588.41445
  23196323.160   121897507.28607  23196323.480    94985064.17843
  24284833.100   127617669.33606  24284832.200    99442340.89344
  20423562.640   107326563.83009  20423560.100    83631098.63948
  22105493.700   116165199.90908  22105490.820    90518343.29746
  21000350.280   110357612.80809  21000352.040    85992962.84148
  20871501.860   109680511.76109  20871502.200    85465363.91547
 15 02 24 04 01 30.0000000  0 10G01G03G04G11G14G16G19G22G27G32
  22535190.500   118423247.88408  22535193.560    92277868.34345
  24264337.320   127509951.87706  24264339.600    99358412.05144
  20676055.260   108653437.50209  20676055.400    84665033.71047
  21472527.960   112838917.79108  21472527.100    87926437.75846
  23187771.140   121852565.81607  23187771.400    94950044.86444
  24305498.400   127726265.79806  24305497.600    99526961.52143
  20424066.940   107329213.76809  20424064.360    83633163.52648
  22119444.240   116238510.83308  22119441.340    90575468.68546
  21010350.440   110410164.01709  21010352.200    86033911.82748
  20858643.640   109612941.85309  20858644.120    85412712.05247
 15 02 24 04 02  0.0000000  0 10G01G03G04G11G14G16G19G22G27G32
  22523130.560   118359872.90008  22523133.540    92228485.25345
  24244239.460   127404337.36706  24244242.080    99276115.09442
  20670016.320   108621702.77409  20670016.520    84640305.36547
  21460320.460   112774767.08508  21460319.620    87876450.20946
  23179296.060   121808028.77807  23179296.300    94915340.69544
  24326166.380   127834876.84506  24326165.840    99611593.49543
  20424651.840   107332287.20709  20424649.260    83635558.40949
  22133448.100   116312101.88508  22133445.260    90632812.35946
  21020428.520   110463124.84209  21020430.320    86075179.99448
  20845879.340   109545865.55308  20845879.960    85360444.81847
 15 02 24 04 02 30.0000000  0 10G01G03G04G11G14G16G19G22G27G32
  22511098.740   118296646.01307  22511101.740    92179217.58246
  24224168.340   127298863.12206  24224171.240    99193927.43645
  20664027.020   108590228.99809  20664027.300    84615780.35547
  21448152.520   112710824.22308  21448151.680    87826624.61746
  23170897.920   121763895.93907  23170898.080    94880951.48544
  24346836.160   127943497.55306  24346835.800    99696233.04144
  20425316.940   107335782.22409  20425314.360    83638281.79549
  22147504.440   116385968.33208  22147501.620    90690370.62546
  21030584.020   110516492.40709  21030585.880    86116765.09848
  20833208.780   109479281.70509  20833209.540    85308561.31447
 15 02 24 04 03  0.0000000  0 10G01G03G04G11G14G16G19G22G27G32
  22499095.480   118233568.96508  22499098.600    92130066.65646
  24204124.480   127193532.78806  24204128.200    99111851.90743
  20658087.760   108559017.82909  20658087.980    84591459.97547
  21436024.700   112647092.03608  21436023.900    87776963.18646
  23162577.480   121720171.00407  23162577.380    94846880.11944
  24367507.540   128052126.72406  24367507.260    99780879.10543
  20426062.900   107339702.05709  20426060.300    83641336.20449
  22161613.120   116460109.71408  22161610.340    90748143.12746
  21040817.180   110570267.93909  21040819.040    86158668.10248
  20820632.640   109413193.69609  20820633.480    85257064.18547
 15 02 24 04 03 30.0000000  0 10G01G03G04G11G14G16G19G22G27G32
  22487120.800   118170642.01008  22487124.040    92081032.69445
  24184108.300   127088348.31906  24184112.340    99029890.06444
  20652198.480   108528069.57209  20652198.680    84567344.46347
  21423937.200   112583571.66808  21423936.380    87727466.80246
  23154335.180   121676856.81807  23154335.060    94813128.82844
  24388179.980   128160761.66006  24388179.900    99865529.74441
  20426889.760   107344047.33809  20426887.200    83644722.14149
  22175773.720   116534524.32708  22175771.100    90806128.53246
  21051127.900   110624451.21509  21051129.820    86200888.82048
  20808151.200   109347603.10709  20808152.040    85205954.65447
 15 02 24 04 04  0.0000000  0 10G01G03G04G11G14G16G19G22G27G32
  22475174.540   118107864.61307  22475177.880    92032115.25246
  24164120.260   126983310.97206  24164124.460    98948042.79945
  20646359.060   108497383.41209  20646359.280    84543433.17447
  21411890.080   112520263.67508  21411889.240    87678135.91346
  23146171.100   121633954.83707  23146171.100    94779698.74244
  24408853.020   128269399.48706  24408852.920    99950182.60243
  20427797.640   107348818.26409  20427795.040    83648439.75049
  22189985.760   116609209.36708  22189983.300    90864324.66746
  21061516.020   110679041.23309  21061518.020    86243426.49248
  20795764.660   109282510.96909  20795765.340    85155233.52447
 15 02 24 04 04 30.0000000  0 10G01G03G04G11G14G16G19G22G27G32
  22463256.820   118045236.95507  22463260.180    91983314.51045
  24144160.640   126878422.76906  24144164.900    98866311.78743
  20640569.640   108466959.80709  20640569.900    84519726.47747
  21399883.520   112457169.16008  21399882.780    87628971.35846
  23138085.860   121591467.35507  23138086.040    94746591.64145
  24429526.200   128378037.84706  24429526.160   100034835.86742
  20428786.680   107354015.76709  20428784.080    83652489.75149
  22204248.840   116684162.48408  22204246.520    90922729.68146
  21071981.500   110734037.71509  21071983.520    86286280.88548
  20783473.260   109217918.91109  20783473.800    85104902.07047
 15 02 24 04 05  0.0000000  0 10G01G03G04G11G14G16G19G22G27G32
  22451367.160   117982756.58307  22451370.420    91934628.51845
  24124229.280   126773682.92506  24124233.600    98784696.39645
  20634829.700   108436796.13209  20634829.980    84496222.32947
  21387917.260   112394286.25208  21387916.580    87579971.70446
  23130079.540   121549394.24907  23130079.840    94713807.42344
  24450198.360   128486670.96506  24450198.280   100119485.06443
  20429856.540   107359638.01109  20429853.960    83656870.70849
  22218562.160   116759379.23608  22218559.840    90981340.14946
  21082523.780   110789437.59909  21082525.740    86329449.61848
  20771276.760   109153825.85809  20771277.200    85054959.44847
 15 02 24 04 05 30.0000000  0 10G01G03G04G11G14G16G19G22G27G32
  22439506.220   117920426.92808  22439509.440    91886059.95646
  24104327.020   126669096.54706  24104331.240    98703200.53444
  20629139.820   108406895.78209  20629140.120    84472923.36148
  21375992.140   112331619.22708  21375991.440    87531140.27246
  23122153.160   121507741.08807  23122153.420    94681350.41845
  24470869.680   128595299.56306  24470869.620   100204130.70144
  20431008.080   107365689.50809  20431005.580    83661586.16249
  22232925.720   116834860.42408  22232923.500    91040156.65546
  21093143.380   110845243.76909  21093145.240    86372934.93548
  20759176.120   109090236.51809  20759176.520    85005409.32947
 15 02 24 04 06  0.0000000  0 10G01G03G04G11G14G16G19G22G27G32
  22427674.140   117858248.42008  22427677.300    91837609.19746
  24084454.440   126564666.11206  24084458.540    98621826.20443
  20623500.100   108377259.27409  20623500.440    84449829.98447
  21364108.480   112269170.17208  21364107.700    87482478.68346
  23114307.280   121466510.72607  23114307.540    94649222.89844
  24491539.740   128703921.95806  24491539.820   100288771.55343
  20432241.460   107372171.07409  20432239.060    83666636.73549
  22247339.360   116910605.15508  22247337.340    91099178.51346
  21103840.280   110901456.16109  21103842.100    86416736.78048
  20747171.680   109027152.92609  20747172.160    84956253.30447
 15 02 24 04 06 30.0000000  0 10G01G03G04G11G14G16G19G22G27G32
  22415869.660   117796215.12608  22415872.740    91789271.58446
  24064610.660   126460387.10406  24064614.680    98540569.92444
  20617909.440   108347880.48309  20617909.780    84426937.43447
  21352265.300   112206933.75708  21352264.420    87433982.78746
  23106541.080   121425699.06407  23106541.280    94617421.61844
  24512206.880   128812528.86106  24512206.960   100373400.28043
  20433555.700   107379077.58609  20433553.300    83672018.43449
  22261801.600   116986604.83408  22261799.640    91158399.04646
  21114613.240   110958068.18509  21114615.040    86460850.03148
  20735262.560   108964570.20909  20735263.120    84907487.56547
 15 02 24 04 07  0.0000000  0 10G01G03G04G11G14G16G19G22G27G32
  22404093.720   117734331.67308  22404096.740    91741050.72645
  24044797.100   126356266.05706  24044800.900    98459436.68945
  20612368.720   108318764.00809  20612369.020    84404249.28647
  21340463.660   112144915.64608  21340462.700    87385656.99146
  23098855.840   121385312.80807  23098856.020    94585951.83944
  24532871.420   128921122.18805  24532871.200   100458018.47344
  20434951.900   107386414.64009  20434949.460    83677735.61349
  22276312.900   117062861.87508  22276310.980    91217820.11146
  21125463.040   111015083.92209  21125464.820    86505277.87848
  20723449.900   108902494.57509  20723450.540    84859116.95547
 15 02 24 04 07 30.0000000  0 10G01G03G04G11G14G16G19G22G27G32
  22392346.460   117672598.80608  22392349.320    91692947.22246
  24025014.160   126252305.47406  24025017.680    98378428.48644
  20606878.120   108289910.94909  20606878.460    84381766.39147
  21328703.900   112083117.39608  21328702.900    87337502.51846
  23091252.120   121345354.94207  23091252.320    94554815.87244
  24553533.120   129029700.72005  24553533.220   100542625.16043
  20436430.280   107394183.51609  20436427.800    83683789.28149
  22290872.900   117139374.93908  22290871.000    91277440.68146
  21136389.680   111072503.51909  21136391.460    86550020.40948
  20711734.060   108840928.02709  20711734.760    84811143.03847
 15 02 24 04 08  0.0000000  0 10G01G03G04G11G14G16G19G22G27G32
  22380627.620   117611015.72808  22380630.440    91644960.42245
  24005261.900   126148506.12206  24005265.220    98297545.93744
  20601437.420   108261320.13509  20601437.840    84359487.84547
  21316986.060   112021539.15608  21316985.100    87289519.49546
  23083730.100   121305826.53907  23083730.240    94524014.52544
  24574191.240   129138260.64505  24574191.700   100627217.30143
  20437990.780   107402384.15209  20437988.340    83690179.39149
  22305481.000   117216140.76308  22305479.120    91337258.19946
  21147392.860   111130325.52809  21147394.660    86595076.51048
  20700115.160   108779870.87309  20700115.880    84763566.06447
 15 02 24 04 08 30.0000000  0 10G01G03G04G11G14G16G19G22G27G32
  22368937.320   117549583.10308  22368940.300    91597090.85846
  23985540.820   126044870.49006  23985543.900    98216790.95144
  20596046.820   108232992.34109  20596047.260    84337414.24947
  21305310.400   111960182.66808  21305309.460    87241709.25446
  23076290.380   121266730.37307  23076290.440    94493550.00344
  24594845.460   129246799.62705  24594846.280   100711793.15042
  20439633.600   107411017.54409  20439631.260    83696906.71248
  22320136.920   117293157.93708  22320135.040    91397271.58046
  21158472.620   111188550.05709  21158474.420    86640446.26748
  20688593.660   108719325.24209  20688594.320    84716387.65647
 15 02 24 04 09  0.0000000  0 10G01G03G04G11G14G16G19G22G27G32
  22357275.620   117488300.86308  22357278.720    91549338.48046
  23965851.240   125941400.26106  23965854.320    98136164.83544
  20590706.260   108204927.17509  20590706.640    84315545.28947
  21293677.040   111899048.53808  21293676.060    87194072.27447
  23068933.220   121228068.72007  23068933.320    94463424.06444
  24615495.160   129355314.85405  24615496.100   100796350.46144
  20441358.940   107420084.50409  20441356.660    83703971.86249
  22334840.240   117370424.33208  22334838.340    91457479.16446
  21169628.820   111247176.33409  21169630.640    86686129.06948
  20677169.800   108659292.30609  20677170.400    84669608.75247
 15 02 24 04 09 30.0000000  0 10G01G03G04G11G14G16G19G22G27G32
  22345642.200   117427167.12808  22345645.200    91501701.82546
  23946193.040   125838095.15506  23946196.200    98055667.41544
  20585415.360   108177123.04809  20585415.740    84293879.75247
  21282085.860   111838136.40508  21282084.760    87146608.29546
  23061658.720   121189841.27507  23061658.800    94433636.45745
  24636139.520   129463802.00505  24636140.720   100880885.89142
  20443166.580   107429583.46409  20443164.280    83711373.64749
  22349590.160   117447935.67108  22349588.180    91517877.60546
  21180860.940   111306201.76709  21180862.860    86732122.90148
  20665843.340   108599771.15209  20665843.900    84623228.65147
 15 02 24 04 10  0.0000000  0 10G01G03G04G11G14G16G19G22G27G32
  22334037.920   117366186.84208  22334040.880    91454184.73446
  23926567.500   125734961.86806  23926570.760    97975303.85044
  20580175.000   108149584.90709  20580175.480    84272421.46247
  21270537.940   111777451.99908  21270536.740    87099321.75346
  23054468.260   121152055.47307  23054468.480    94404193.01844
  24656779.000   129572263.02305  24656780.380   100965401.02442
  20445057.620   107439520.61009  20445055.260    83719116.88649
  22364387.140   117525694.61008  22364385.120    91578468.99646
  21192169.760   111365630.67209  21192171.840    86778431.12048
  20654615.520   108540768.21209  20654616.020    84577252.34947
 15 02 24 04 10 30.0000000  0 10G01G03G04G11G14G16G19G22G27G32
  22322461.440   117305351.77408  22322464.340    91406780.81846
  23906973.300   125631993.79406  23906976.660    97895069.00944
  20574983.660   108122304.33909  20574984.160    84251163.88247
  21259031.960   111716987.89008  21259030.720    87052206.86746
  23047360.660   121114704.68807  23047360.780    94375088.51244
  24677411.640   129680687.51405  24677412.960   101049887.67243
  20447030.500   107449887.89909  20447028.100    83727195.29349
  22379229.280   117603690.88908  22379227.220    91639245.31146
  21203553.680   111425454.03009  21203555.880    86825046.71148
  20643484.920   108482276.34909  20643485.380    84531674.28647
 15 02 24 04 11  0.0000000  0 10G01G03G04G11G14G16G19G22G27G32
  22310913.700   117244667.72308  22310916.580    91359494.58146
  23887411.860   125529198.55506  23887415.400    97814968.86044
  20569842.480   108095287.15509  20569842.860    84230111.54647
  21247569.180   111656750.88708  21247567.960    87005268.95146
  23040337.300   121077796.81907  23040337.400    94346329.15044
  24698037.840   129789078.17706  24698039.100   101134347.92842
  20449086.380   107460691.64509  20449083.920    83735613.79248
  22394117.360   117681928.14908  22394115.120    91700209.41846
  21215013.680   111485677.10409  21215015.940    86871973.77448
  20632452.860   108424302.44809  20632453.240    84486499.84047
 15 02 24 04 11 30.0000000  0 10G01G03G04G11G14G16G19G22G27G32
  22299395.060   117184136.60408  22299397.900    91312327.49446
  23867883.920   125426579.64406  23867887.600    97735006.10745
  20564751.760   108068535.21809  20564752.060    84209265.88747
  21236150.120   111596743.74208  21236149.040    86958510.15146
  23033398.940   121041335.72507  23033398.980    94317917.90844
  24718657.400   129897434.11306  24718658.580   101218781.12743
  20451225.820   107471934.51209  20451223.340    83744374.46448
  22409051.180   117760405.96308  22409048.780    91761360.96545
  21226550.040   111546301.00909  21226552.280    86919213.18048
  20621519.960   108366849.65509  20621520.260    84441731.44447
 15 02 24 04 12  0.0000000  0 10G01G03G04G11G14G16G19G22G27G32
  22287904.680   117123753.78708  22287907.480    91265275.97046
  23848388.940   125324134.13606  23848392.780    97655178.49445
  20559710.660   108042043.95609  20559710.920    84188623.35547
  21224774.180   111536963.02909  21224773.220    86911927.79946
  23026545.080   121005318.56307  23026545.020    94289852.63045
  24739269.100   130005748.58206  24739270.120   101303182.01543
  20453448.020   107483612.16009  20453445.500    83753473.92448
  22424029.420   117839117.52708  22424026.940    91822694.63946
  21238161.620   111607320.26309  21238163.820    86966760.63748
  20610685.540   108309914.31009  20610685.820    84397366.26147
 15 02 24 04 12 30.0000000  0 10G01G03G04G11G14G16G19G22G27G32
  22276442.360   117063518.52108  22276445.120    91218339.42046
  23828927.160   125221862.99306  23828931.080    97575486.73744
  20554719.040   108015812.53509  20554719.240    84168183.30147
  21213441.400   111477408.96008  21213440.480    86865522.05046
  23019776.060   120969746.80507  23019775.900    94262134.40345
  24759872.280   130114018.04106  24759873.040   101387547.83842
  20455753.040   107495724.94309  20455750.480    83762912.45248
  22439051.700   117918059.91808  22439049.080    91884208.20545
  21249848.220   111668733.54809  21249850.400    87014615.13847
  20599949.680   108253496.92709  20599950.000    84353404.67647
 15 02 24 04 13  0.0000000  0 10G01G03G04G11G14G16G19G22G27G32
  22265009.280   117003437.85808  22265012.160    91171523.33146
  23809500.200   125119774.85806  23809504.240    97495937.56644
  20549778.120   107989847.90909  20549778.360    84147951.13947
  21202153.260   111418089.39708  21202152.280    86819299.02046
  23013093.340   120934629.27107  23013093.300    94234770.09944
  24780467.660   130222246.55206  24780468.360   101471881.75544
  20458142.200   107508280.03709  20458139.640    83772695.64749
  22454118.860   117997237.96008  22454116.100    91945905.37646
  21261610.980   111730546.99809  21261613.120    87062781.45348
  20589313.880   108197605.51509  20589314.300    84309852.95347
 15 02 24 04 13 30.0000000  0 10G01G03G04G11G14G16G19G22G27G32
  22253604.480   116943505.45008  22253607.280    91124822.76445
  23790107.260   125017864.95406  23790111.160    97416527.29843
  20544886.800   107964143.89609  20544887.000    84127922.04747
  21190908.760   111358999.29208  21190907.700    86773254.80146
  23006496.160   120899961.32707  23006496.320    94207756.14944
  24801053.480   130330425.03606  24801054.020   101556176.69643
  20460614.480   107521271.82209  20460611.900    83782819.10548
  22469229.240   118076643.30708  22469226.380    92007779.67645
  21273448.520   111792753.51209  21273450.640    87111254.05148
  20578777.140   108142234.82009  20578777.680    84266706.97147
