     2.11           OBSERVATION DATA    G                   RINEX VERSION / TYPE
SPIDER V4,0,0,3554                      2015 03 17 00:01    PGM / RUN BY / DATE 
ABZH                                                        MARKER NAME         
ABZH                                                        MARKER NUMBER       
                                                            OBSERVER / AGENCY   
462405              LEICA GRX1200PRO    8.20/2.127          REC # / TYPE / VERS 
103261              LEIAT504                                ANT # / TYPE        
  5106694.6829   270584.9059  3799508.1083                  APPROX POSITION XYZ 
        0.0770        0.0000        0.0000                  ANTENNA: DELTA H/E/N
     1     1                                                WAVELENGTH FACT L1/2
     4    C1    L1    P2    L2                              # / TYPES OF OBSERV 
    30.000                                                  INTERVAL            
  2015    03    01    00    00    0.0000000     GPS         TIME OF FIRST OBS   
  2015    03    01    23    59   30.0000000     GPS         TIME OF LAST OBS    
    16                                                      LEAP SECONDS        
    30                                                      # OF SATELLITES     
   G 1   818   818   818   818                              PRN / # OF OBS      
   G 2   918   918   910   910                              PRN / # OF OBS      
   G 3   836   836   836   836                              PRN / # OF OBS      
   G 4   834   834   833   833                              PRN / # OF OBS      
   G 5   662   662   662   662                              PRN / # OF OBS      
   G 6   790   790   786   786                              PRN / # OF OBS      
   G 7   652   652   652   652                              PRN / # OF OBS      
   G 9   786   786   786   786                              PRN / # OF OBS      
   G10   770   770   770   770                              PRN / # OF OBS      
   G11   784   784   784   784                              PRN / # OF OBS      
   G12   811   811   811   811                              PRN / # OF OBS      
   G13   807   807   806   806                              PRN / # OF OBS      
   G14   919   919   913   913                              PRN / # OF OBS      
   G15   720   720   720   720                              PRN / # OF OBS      
   G16   681   681   679   679                              PRN / # OF OBS      
   G17   923   923   923   923                              PRN / # OF OBS      
   G18   914   914   914   914                              PRN / # OF OBS      
   G19   767   767   767   767                              PRN / # OF OBS      
   G20   785   785   785   785                              PRN / # OF OBS      
   G21   705   705   703   703                              PRN / # OF OBS      
   G22   769   769   768   768                              PRN / # OF OBS      
   G23   733   733   733   733                              PRN / # OF OBS      
   G24   828   828   828   828                              PRN / # OF OBS      
   G25   831   831   831   831                              PRN / # OF OBS      
   G27   816   816   816   816                              PRN / # OF OBS      
   G28   882   882   879   879                              PRN / # OF OBS      
   G29   745   745   745   745                              PRN / # OF OBS      
   G30   697   697   697   697                              PRN / # OF OBS      
   G31   822   822   822   822                              PRN / # OF OBS      
   G32   745   745   745   745                              PRN / # OF OBS      
BIT 2 OF LLI FLAGS DATA COLLECTED UNDER A/S CONDITION       COMMENT             
SNR is mapped to RINEX snr flag value [2-9]                 COMMENT             
Lx:     = 25dBHz -> 1; 26-27dBHz -> 2; 28-31dBHz -> 3       COMMENT             
       32-35dBHz -> 4; 36-38dBHz -> 5; 39-41dBHz -> 6       COMMENT             
       42-44dBHz -> 7; 45-48dBHz -> 8; >=49dBHz -> 9        COMMENT             
                                                            END OF HEADER       
 15 03 01 00 00  0.0000000  0  7G16G18G21G22G27G29G31
  21442522.960   112681261.44809  21442522.140    87803559.48647
  22642868.120   118989119.28908  22642868.020    92718816.53944
  21380440.900   112354987.87308  21380440.040    87549344.30147
  23918648.460   125693378.07306  23918649.120    97942889.50743
  22622147.780   118880227.72808  22622150.720    92633974.61746
  24198723.940   127165131.94406  24198724.680    99089711.65343
  23163594.840   121725487.37107  23163595.260    94851021.21745
 15 03 01 00 00 30.0000000  0  7G16G18G21G22G27G29G31
  21430156.560   112616276.14009  21430155.960    87752921.61047
  22631523.760   118929505.17808  22631523.920    92672364.02345
  21388151.640   112395507.80408  21388150.760    87580918.26947
  23900826.420   125599721.54106  23900826.860    97869909.98644
  22610003.460   118816408.73808  22610006.320    92584245.56645
  24213366.080   127242076.74906  24213366.860    99149668.58744
  23181581.160   121820006.11008  23181581.660    94924672.06444
 15 03 01 00 01  0.0000000  0  7G16G18G21G22G27G29G31
  21417848.100   112551595.27709  21417847.680    87702520.94446
  22620237.920   118870198.27208  22620238.240    92626150.87844
  21395925.020   112436356.81608  21395924.100    87612748.66247
  23883008.540   125506085.86607  23883008.740    97796946.87944
  22597882.560   118752713.33608  22597885.480    92534612.79646
  24228012.120   127319042.22906  24228012.840    99209641.65043
  23199596.200   121914676.21507  23199596.880    94998440.85245
 15 03 01 00 01 30.0000000  0  7G16G18G21G22G27G29G31
  21405597.100   112487216.08109  21405596.760    87652355.34346
  22609010.100   118811196.42108  22609010.420    92580175.42744
  21403759.780   112477528.60208  21403758.880    87644830.57447
  23865194.280   125412469.24807  23865194.380    97723999.01844
  22585784.280   118689136.69008  22585787.220    92485072.59345
  24242661.080   127396023.18907  24242661.620    99269626.77843
  23217638.740   122009490.99108  23217639.640    95072322.74045
 15 03 01 00 02  0.0000000  0  7G16G18G21G22G27G29G31
  21393404.200   112423142.20909  21393403.920    87602427.66146
  22597841.080   118752503.15008  22597841.300    92534440.43044
  21411656.000   112519023.38408  21411655.120    87677164.16647
  23847384.120   125318875.28007  23847384.020    97651068.97144
  22573709.000   118625680.34508  22573711.800    92435626.12946
  24257313.340   127473021.37406  24257313.860    99329625.30043
  23235708.360   122104447.81606  23235709.280    95146315.19444
 15 03 01 00 02 30.0000000  0  7G16G18G21G22G27G29G31
  21381270.160   112359377.01209  21381269.820    87552740.49046
  22586731.480   118694121.95608  22586731.580    92488948.61644
  21419613.580   112560840.86508  21419612.720    87709749.21447
  23829578.600   125225306.35207  23829578.340    97578157.60043
  22561656.780   118562345.76408  22561659.600    92386274.54045
  24271968.940   127550037.91806  24271969.500    99389638.16142
  23253804.800   122199545.50507  23253805.740    95220417.49244
 15 03 01 00 03  0.0000000  0  7G16G18G21G22G27G29G31
  21369194.960   112295921.07209  21369194.540    87503294.31746
  22575681.460   118636053.83508  22575681.560    92443700.74844
  21427631.840   112602977.37608  21427630.960    87742582.85747
  23811778.360   125131764.97307  23811778.080    97505267.91744
  22549627.320   118499131.27408  22549630.120    92337016.51045
  24286627.760   127627070.90806  24286628.460    99449663.80643
  23271926.920   122294778.73508  23271927.920    95294625.14645
 15 03 01 00 03 30.0000000  0  7G16G18G21G22G27G29G31
  21357178.840   112232775.79309  21357178.340    87454090.21047
  22564691.280   118578300.25408  22564691.380    92398697.97944
  21435710.300   112645430.42008  21435709.440    87775663.14047
  23793983.720   125038253.50406  23793983.560    97432401.82443
  22537620.580   118436036.06008  22537623.200    92287851.43145
  24301289.620   127704119.47006  24301290.280    99509701.60842
  23290074.320   122390143.81007  23290075.200    95368935.24044
 15 03 01 00 04  0.0000000  0  7G16G18G21G22G27G29G31
  21345222.700   112169945.45109  21345222.160    87405131.50647
  22553761.740   118520865.27508  22553761.780    92353943.48744
  21443849.120   112688200.20508  21443848.240    87808990.25047
  23776195.620   124944776.61207  23776195.540    97359563.10043
  22525636.980   118373062.34508  22525639.600    92238781.05145
  24315954.820   127781185.73506  24315955.560    99569753.18343
  23308247.000   122485640.58208  23308247.700    95443348.11045
 15 03 01 00 04 30.0000000  0  7G16G18G21G22G27G29G31
  21333326.240   112107428.71409  21333325.660    87356417.16646
  22542892.640   118463748.30808  22542892.660    92309436.77145
  21452047.240   112731281.77608  21452046.420    87842560.29947
  23758413.800   124851332.88506  23758413.720    97286750.17944
  22513675.880   118310206.69008  22513678.640    92189802.64345
  24330622.760   127858265.71506  24330623.380    99629815.49743
  23326443.440   122581262.56608  23326444.000    95517858.67544
 15 03 01 00 05  0.0000000  0  7G16G18G21G22G27G29G31
  21321491.080   112045234.30309  21321490.500    87307953.99447
  22532085.840   118406957.97808  22532085.800    92265184.58444
  21460305.600   112774680.12408  21460304.920    87876377.18847
  23740640.000   124757931.79507  23740639.960    97213970.64144
  22501738.500   118247476.02008  22501741.520    92140921.64146
  24345294.520   127935366.60706  24345295.220    99689894.02044
  23344664.320   122677013.10107  23344664.800    95592469.31844
 15 03 01 00 05 30.0000000  0  7G16G18G21G22G27G29G31
  21309716.840   111983360.05909  21309716.240    87259740.29846
  22521340.820   118350492.40608  22521340.820    92221185.45644
  21468623.080   112818389.04508  21468622.500    87910436.08147
  23722873.780   124664571.42607  23722874.020    97141222.75844
  22489824.060   118184866.04008  22489827.260    92092134.67645
  24359969.300   128012484.06106  24359970.300    99749985.52844
  23362908.160   122772885.21207  23362908.780    95667174.73245
 15 03 01 00 06  0.0000000  0  7G16G18G21G22G27G29G31
  21298003.960   111921808.61709  21298003.340    87211778.13947
  22510658.000   118294354.29708  22510658.080    92177441.49744
  21476999.400   112862407.03208  21476998.860    87944735.80747
  23705115.940   124571254.85507  23705116.240    97068508.89344
  22477932.640   118122377.32607  22477936.080    92043442.21046
  24374647.280   128089618.23605  24374648.620    99810089.98844
  23381174.640   122868876.47208  23381175.480    95741973.03545
 15 03 01 00 06 30.0000000  0  7G16G18G21G22G27G29G31
  21286352.360   111860579.24309  21286351.740    87164066.94347
  22500037.380   118238542.97508  22500037.500    92133952.18444
  21485433.780   112906730.10108  21485433.340    87979273.25947
  23687366.340   124477981.74106  23687366.640    96995828.84543
  22466063.920   118060006.93908  22466067.460    91994841.96846
  24389327.920   128166766.03006  24389329.400    99870205.11344
  23399462.720   122964981.09207  23399463.700    95816859.86844
 15 03 01 00 07  0.0000000  0  7G16G18G21G22G27G29G31
  21274763.160   111799677.93309  21274762.580    87116611.39147
  22489480.220   118183064.47508  22489480.260    92090722.20345
  21493926.580   112951359.95008  21493926.140    88014049.75347
  23669626.200   124384758.80406  23669626.600    96923187.89244
  22454218.600   117997758.82108  22454221.920    91946336.97045
  24404011.900   128243931.17805  24404013.680    99930333.75743
  23417772.620   123061199.44808  23417773.580    95891835.09644
 15 03 01 00 07 30.0000000  0  7G16G18G21G22G27G29G31
  21263236.440   111739104.93109  21263235.900    87069411.66147
  22478986.440   118127918.61408  22478986.260    92047751.41844
  21502477.040   112996292.73708  21502476.540    88049062.31647
  23651895.840   124291586.77107  23651896.260    96850586.57444
  22442396.120   117935631.07508  22442399.320    91897925.77846
  24418698.960   128321111.73206  24418700.920    99990474.40843
  23436103.360   123157526.88908  23436103.980    95966895.33544
 15 03 01 00 08  0.0000000  0  7G16G18G21G22G27G29G31
  21251772.800   111678863.31909  21251772.280    87022470.15047
  22468556.680   118073109.39508  22468556.300    92005042.96044
  21511084.960   113041527.56508  21511084.420    88084310.21547
  23634176.060   124198469.32107  23634176.420    96778027.79944
  22430596.880   117873624.98808  22430599.940    91849609.37346
  24433389.100   128398308.55006  24433391.020   100050627.73343
  23454454.480   123253961.24407  23454454.800    96042038.79144
 15 03 01 00 08 30.0000000  0  7G16G18G21G22G27G29G31
  21240373.020   111618957.03209  21240372.460    86975789.93446
  22458191.660   118018640.78708  22458191.420    91962599.90845
  21519750.560   113087065.23708  21519749.900    88119794.11047
  23616467.600   124105410.64107  23616467.580    96705514.75243
  22418821.100   117811742.36008  22418824.000    91801389.17346
  24448082.540   128475523.66005  24448084.400   100110795.35843
  23472825.760   123350501.71308  23472825.800    96117264.85344
 15 03 01 00 09  0.0000000  0  7G16G18G21G22G27G29G31
  21229036.980   111559385.94209  21229036.380    86929370.91547
  22447891.380   117964512.51808  22447891.260    91920422.04444
  21528473.040   113132901.56708  21528472.220    88155510.72447
  23598770.520   124012411.31707  23598770.100    96633047.95744
  22407068.380   117749981.02908  22407071.160    91753263.49546
  24462779.100   128552754.71706  24462781.060   100170975.32944
  23491216.240   123447143.24207  23491216.120    96192569.80944
 15 03 01 00 09 30.0000000  0  7G16G18G21G22G27G29G31
  21217764.840   111500150.79809  21217764.280    86883213.67147
  22437655.880   117910725.06008  22437655.900    91878509.77244
  21537251.620   113179032.88808  21537250.700    88191457.19446
  23581084.820   123919472.39107  23581084.360    96560628.25344
  22395338.460   117688339.44708  22395341.080    91705231.12046
  24477478.580   128629999.82906  24477479.960   100231166.32743
  23509624.800   123543881.18007  23509624.920    96267949.89644
 15 03 01 00 10  0.0000000  0  7G16G18G21G22G27G29G31
  21206557.880   111441257.77909  21206557.300    86837323.01847
  22427486.480   117857284.84108  22427486.540    91836868.06544
  21546086.720   113225461.51008  21546085.760    88227635.32847
  23563411.900   123826600.99007  23563411.320    96488261.12044
  22383632.040   117626821.97408  22383634.620    91657295.45546
  24492181.380   128707263.22805  24492182.740   100291371.54244
  23528051.860   123640716.52507  23528052.240    96343405.81244
 15 03 01 00 10 30.0000000  0  7G16G18G21G22G27G29G31
  21195416.460   111382709.02709  21195415.840    86791700.62747
  22417383.500   117804193.57808  22417383.480    91795498.27444
  21554978.080   113272185.56208  21554977.000    88264043.67547
  23545752.220   123733799.60707  23545751.560    96415948.53244
  22371949.300   117565428.70308  22371951.860    91609456.57845
  24506887.460   128784544.72605  24506889.280   100351590.85441
  23546496.960   123737646.60607  23546497.780    96418935.47344
 15 03 01 00 11  0.0000000  0  7G16G18G21G22G27G29G31
  21184339.800   111324500.71809  21184339.220    86746343.51047
  22407346.400   117751448.35908  22407346.280    91754398.10844
  21563924.240   113319197.66108  21563923.060    88300676.46947
  23528105.200   123641065.11807  23528104.420    96343688.06744
  22360289.140   117504153.89408  22360291.640    91561709.99546
  24521596.180   128861838.56506  24521598.040   100411819.78943
  23564958.520   123834662.51907  23564959.640    96494532.17044
 15 03 01 00 11 30.0000000  0  7G16G18G21G22G27G29G31
  21173329.440   111266640.88009  21173328.920    86701257.93747
  22397376.560   117699056.69308  22397376.480    91713573.46644
  21572926.000   113366501.79308  21572924.700    88337536.82147
  23510472.500   123548405.78407  23510471.720    96271486.15543
  22348652.580   117443003.13008  22348655.040    91514060.08646
  24536308.120   128939150.00806  24536309.920   100472062.44543
  23583437.100   123931766.73007  23583438.280    96570197.58644
 15 03 01 00 12  0.0000000  0  7G16G18G21G22G27G29G31
  21162385.460   111209129.95609  21162384.960    86656444.24447
  22387474.360   117647019.66108  22387474.200    91673025.14144
  21581982.820   113414095.27808  21581981.420    88374622.65147
  23492854.360   123455822.89507  23492853.880    96199343.80144
  22337039.420   117381975.52208  22337041.800    91466506.13746
  24551023.240   129016478.32006  24551024.840   100532318.25043
  23601931.920   124028955.47407  23601933.040    96645928.78844
 15 03 01 00 12 30.0000000  0  6G16G18G21G22G27G31
  21151500.360   111151928.34809  21151499.820    86611871.56747
  22377632.040   117595297.44208  22377631.820    91632722.12445
  21591086.240   113461933.77108  21591084.860    88411899.39347
  23475243.400   123363277.45607  23475243.160    96127230.62244
  22325441.680   117321029.13508  22325443.960    91419015.47046
  23620434.220   124126183.66707  23620435.320    96721690.68944
 15 03 01 00 13  0.0000000  0  6G16G18G21G22G27G31
  21140693.560   111095138.64309  21140693.000    86567619.86346
  22367868.980   117543992.21308  22367868.880    91592744.05444
  21600255.000   113510116.38908  21600253.760    88449444.27446
  23457659.180   123270872.82507  23457659.160    96055227.17944
  22313878.520   117260264.72608  22313880.900    91371666.61146
  23638962.460   124223548.78807  23638963.540    96797559.28743
 15 03 01 00 13 30.0000000  0  7G16G18G19G21G22G27G31
  21129951.740   111038689.86209  21129951.100    86523633.79247
  22358171.720   117493033.06408  22358171.700    91553035.62844
  24540866.300   128963120.90206  24540867.340   100490757.33744
  21609475.020   113558568.25508  21609473.860    88487198.96747
  23440088.280   123178538.18707  23440088.320    95983278.26044
  22302336.140   117199609.09408  22302338.560    91324402.51146
  23657502.220   124320974.90507  23657503.200    96873475.26444
 15 03 01 00 14  0.0000000  0  7G16G18G19G21G22G27G31
  21119281.240   110982615.91909  21119280.580    86479939.82747
  22348546.700   117442453.71308  22348546.820    91513623.16845
  24525417.160   128881935.87805  24525418.660   100427496.36343
  21618751.820   113607318.27108  21618750.760    88525185.98447
  23422537.240   123086308.13107  23422537.300    95911410.81344
  22290820.560   117139094.18408  22290823.040    91277248.08246
  23676058.960   124418490.67707  23676060.080    96949461.14544
 15 03 01 00 14 30.0000000  0  7G16G18G19G21G22G27G31
  21108673.300   110926870.75509  21108672.680    86436502.04547
  22338985.200   117392208.50608  22338985.420    91474471.07745
  24509977.280   128800797.13106  24509978.820   100364271.44844
  21628076.040   113656317.55608  21628075.060    88563367.23747
  23404997.500   122994137.24007  23404997.680    95839589.47644
  22279322.600   117078671.93308  22279325.100    91230165.84446
  23694623.060   124516045.16407  23694624.600    97025477.21645
 15 03 01 00 15  0.0000000  0  7G16G18G19G21G22G27G31
  21098136.060   110871497.00609  21098135.460    86393353.67547
  22329495.360   117342339.77208  22329495.740    91435612.35045
  24494553.800   128719745.84505  24494555.200   100301114.69144
  21637455.080   113705604.89408  21637454.160    88601772.94647
  23387477.400   122902068.68707  23387477.520    95767847.86644
  22267850.080   117018383.28408  22267852.480    91183187.70246
  23713201.860   124613676.40807  23713203.900    97101553.15844
 15 03 01 00 15 30.0000000  0  7G16G18G19G21G22G27G31
  21087668.080   110816487.46909  21087667.400    86350489.09847
  22320075.940   117292840.57308  22320076.300    91397041.56945
  24479145.100   128638772.24406  24479146.400   100238018.45443
  21646886.760   113755168.92508  21646885.920    88640394.25947
  23369975.580   122810096.00507  23369975.640    95696180.96844
  22256401.120   116958218.83208  22256403.500    91136306.34046
  23731792.920   124711371.87107  23731795.120    97177679.12044
 15 03 01 00 16  0.0000000  0  7G16G18G19G21G22G27G31
  21077269.140   110761840.83009  21077268.460    86307907.31947
  22310726.600   117243709.21708  22310726.860    91358757.41944
  24463750.600   128557873.32206  24463751.640   100174980.38443
  21656370.220   113805005.10908  21656369.400    88679227.65347
  23352491.880   122718218.38107  23352491.760    95624588.12944
  22244975.160   116898175.39608  22244977.560    91089519.28046
  23750395.060   124809125.40207  23750397.420    97253850.34544
 15 03 01 00 16 30.0000000  0  7G16G18G19G21G22G27G31
  21066940.760   110707564.72209  21066940.020    86265614.24547
  22301448.680   117194953.10608  22301448.800    91320765.65645
  24448371.320   128477054.43606  24448372.180   100112004.75943
  21665905.840   113855115.34008  21665904.980    88718274.57947
  23335027.760   122626443.90307  23335027.480    95553075.68544
  22233573.240   116838258.49308  22233575.720    91042830.81046
  23769008.640   124906939.26407  23769011.180    97330068.58044
 15 03 01 00 17  0.0000000  0  7G16G18G19G21G22G27G31
  21056683.140   110653660.16009  21056682.340    86223610.68547
  22292242.380   117146573.54208  22292242.420    91283067.31945
  24433007.020   128396314.33206  24433008.080   100049090.48243
  21675493.340   113905498.29508  21675492.500    88757534.01847
  23317583.600   122534774.20807  23317583.100    95481644.83845
  22222195.280   116778467.30908  22222197.780    90996240.30646
  23787633.020   125004809.61707  23787635.480    97406330.88244
 15 03 01 00 17 30.0000000  0  7G16G18G19G21G22G27G31
  21046495.980   110600126.17909  21046495.260    86181895.89847
  22283107.500   117098569.39208  22283107.440    91245661.49245
  24417657.320   128315650.44906  24417658.140    99986235.60043
  21685131.900   113956149.35908  21685131.080    88797002.37546
  23300159.240   122443209.10907  23300158.640    95410295.51244
  22210840.840   116718799.05608  22210843.280    90949745.59645
  23806267.120   125102730.66607  23806269.360    97482632.68843
 15 03 01 00 18  0.0000000  0  7G16G18G19G21G22G27G31
  21036380.900   110546971.09009  21036380.200    86140476.35047
  22274045.580   117050948.67608  22274045.400    91208554.47945
  24402323.100   128235069.03406  24402323.940    99923444.97143
  21694822.200   114007072.38408  21694821.360    88836682.64446
  23282756.460   122351757.79207  23282755.960    95339034.84844
  22199510.900   116659260.12408  22199513.320    90903351.65246
  23824911.460   125200705.57607  23824913.560    97558976.48544
 15 03 01 00 18 30.0000000  0  7G16G18G19G21G22G27G31
  21026336.760   110494188.72609  21026336.100    86099347.23747
  22265055.580   117003705.56808  22265055.280    91171741.67845
  24387003.120   128154562.18206  24387003.840    99860712.47044
  21704562.420   114058257.69408  21704561.660    88876567.29546
  23265374.300   122260414.71807  23265373.860    95267858.51544
  22188204.000   116599842.45008  22188206.400    90857052.19046
  23843564.060   125298723.42207  23843565.960    97635353.68444
 15 03 01 00 19  0.0000000  0  7G16G18G19G21G22G27G31
  21016365.800   110441791.00609  21016365.240    86058517.85347
  22256139.540   116956851.48508  22256139.280    91135232.01545
  24371698.940   128074139.45006  24371699.880    99798045.48844
  21714354.000   114109713.00708  21714353.300    88916662.33446
  23248014.980   122169191.83707  23248014.540    95196775.84945
  22176922.020   116540555.83608  22176924.500    90810854.86646
  23862226.280   125396790.85007  23862227.940    97711769.55044
 15 03 01 00 19 30.0000000  0  7G16G18G19G21G22G27G31
  21006466.160   110389768.37009  21006465.660    86017980.73047
  22247295.600   116910376.60008  22247295.380    91099017.83045
  24356408.800   127993789.43306  24356409.780    99735435.20943
  21724194.380   114161424.68708  21724193.680    88956957.14146
  23230676.900   122078080.48707  23230676.420    95125780.05344
  22165662.800   116481388.87908  22165665.340    90764750.76846
  23880895.180   125494893.70507  23880896.640    97788213.05744
 15 03 01 00 20  0.0000000  0  7G16G18G19G21G22G27G31
  20996639.540   110338129.43809  20996639.120    85977742.60447
  22238525.480   116864289.59508  22238525.340    91063105.90245
  24341133.760   127913518.43706  24341134.580    99672886.47444
  21734084.480   114213397.88108  21734083.920    88997455.71546
  23213361.720   121987089.90007  23213361.360    95054878.38744
  22154427.660   116422348.29808  22154430.180    90718745.14546
  23899571.320   125593035.37607  23899572.680    97864686.84443
 15 03 01 00 20 30.0000000  0  7G16G18G19G21G22G27G31
  20986886.520   110286877.46109  20986886.200    85937806.00647
  22229829.720   116818593.41708  22229829.660    91027498.52845
  24325873.920   127833328.18006  24325874.860    99610400.65244
  21744024.180   114265631.62208  21744023.700    89038157.32246
  23196070.400   121896224.22207  23196070.220    94984074.06444
  22143216.880   116363435.53808  22143219.440    90672839.12746
  23918254.400   125691214.35207  23918255.860    97941189.81244
 15 03 01 00 21  0.0000000  0  7G16G18G19G21G22G27G31
  20977206.680   110236009.76309  20977206.400    85898168.83947
  22221207.900   116773285.72108  22221207.880    90992193.85644
  24310628.600   127753214.22406  24310629.640    99547974.29144
  21754012.460   114318120.10408  21754011.940    89079057.42946
  23178802.620   121805481.59107  23178802.460    94913365.57344
  22132029.560   116304646.17708  22132032.180    90627029.26846
  23936942.780   125789423.13507  23936944.740    98017715.93843
 15 03 01 00 21 30.0000000  0  7G16G18G19G21G22G27G31
  20967600.920   110185531.46409  20967600.660    85858835.10147
  22212660.900   116728371.31108  22212660.900    90957195.62345
  24295398.420   127673179.28005  24295399.440    99485609.51843
  21764049.260   114370863.63408  21764048.780    89120156.26546
  23161559.300   121714867.53007  23161559.160    94842757.31444
  22120866.460   116245983.38608  22120869.080    90581318.02446
  23955636.740   125887661.97906  23955639.200    98094265.61944
 15 03 01 00 22  0.0000000  0  7G16G18G19G21G22G27G31
  20958070.620   110135449.47809  20958070.260    85819810.17547
  22204189.940   116683856.44908  22204190.040    90922508.74445
  24280184.080   127593228.52605  24280185.200    99423310.30945
  21774135.400   114423866.39708  21774134.900    89161457.11046
  23144341.860   121624389.64807  23144341.660    94772255.14444
  22109728.480   116187452.20908  22109730.920    90535709.34246
  23974336.960   125985932.60907  23974339.660    98170840.12744
 15 03 01 00 22 30.0000000  0  7G16G18G19G21G22G27G31
  20948614.400   110085756.80909  20948614.040    85781088.61947
  22195793.760   116639734.34908  22195793.840    90888127.90945
  24264984.060   127513352.58405  24264985.140    99361069.46443
  21784268.760   114477116.90608  21784268.120    89202951.00546
  23127149.240   121534041.50007  23127148.800    94701854.06544
  22098613.760   116129043.75908  22098616.040    90490196.28546
  23993041.120   126084222.98607  23993043.800    98247429.91344
 15 03 01 00 23  0.0000000  0  6G16G18G21G22G27G31
  20939234.180   110036463.13709  20939233.760    85742677.95747
  22187474.160   116596014.67408  22187474.260    90854060.65345
  21794450.380   114530621.31508  21794449.640    89244642.73846
  23109983.340   121443833.49507  23109982.720    94631562.19444
  22087523.900   116070765.88408  22087526.100    90444784.97146
  24011749.980   126182538.06507  24011752.700    98324038.88643
 15 03 01 00 23 30.0000000  0  7G16G18G19G21G22G27G31
  20929926.880   109987552.79509  20929926.460    85704566.00747
  22179228.120   116552681.66708  22179228.320    90820294.68845
  24234629.040   127353827.62706  24234629.020    99236752.63544
  21804676.560   114584359.72308  21804675.700    89286516.81646
  23092841.240   121353751.03107  23092840.660    94561368.14944
  22076455.600   116012601.22808  22076457.740    90399461.88946
  24030459.720   126280857.47207  24030462.420    98400651.27144
 15 03 01 00 24  0.0000000  0  7G16G18G19G21G22G27G31
  20920699.300   109939061.45909  20920698.900    85666780.55647
  22171062.360   116509770.35908  22171062.600    90786857.32545
  24219475.640   127274199.00705  24219475.600    99174704.42944
  21814953.320   114638364.10708  21814952.460    89328598.13346
  23075729.880   121263830.26107  23075729.360    94491300.08944
  22065415.280   115954583.62108  22065417.460    90354253.38746
  24049176.080   126379211.64907  24049178.780    98477290.64144
 15 03 01 00 24 30.0000000  0  7G16G18G19G21G22G27G31
  20911546.320   109890962.02709  20911545.840    85629300.47347
  22162971.700   116467253.73808  22162971.960    90753727.49945
  24204335.920   127194640.47906  24204336.020    99112710.88844
  21825274.980   114692604.25808  21825274.000    89370863.18246
  23058644.180   121174044.54307  23058643.680    94421337.25644
  22054397.300   115896684.12308  22054399.600    90309136.92446
  24067892.960   126477568.62407  24067895.780    98553932.18844
 15 03 01 00 25  0.0000000  0  7G16G18G19G21G22G27G31
  20902470.560   109843268.30509  20902469.940    85592136.53647
  22154958.680   116425145.10208  22154958.920    90720915.61145
  24189211.820   127115163.66706  24189212.060    99050781.00943
  21835643.120   114747089.14108  21835642.060    89413318.91446
  23041586.940   121084408.52307  23041586.500    94351491.08844
  22043404.080   115838914.78308  22043406.400    90264121.87846
  24086612.100   126575937.49907  24086614.940    98630582.92844
 15 03 01 00 25 30.0000000  0  7G16G18G19G21G22G27G31
  20893472.060   109795980.39309  20893471.300    85555288.80047
  22147023.360   116383444.51408  22147023.440    90688421.66145
  24174102.980   127035766.60806  24174103.120    98988913.28744
  21846057.220   114801815.49308  21846056.140    89455962.82346
  23024558.300   120994922.81508  23024557.920    94281762.01844
  22032435.240   115781273.80408  22032437.640    90219206.85746
  24105332.480   126674313.55206  24105335.620    98707239.32344
 15 03 01 00 26  0.0000000  0  7G16G18G19G21G22G27G31
  20884551.340   109749101.57209  20884550.600    85518759.85347
  22139166.260   116342155.01708  22139166.340    90656248.05845
  24159009.700   126956451.59506  24159009.940    98927109.43943
  21856517.240   114856783.22408  21856516.160    89498794.80546
  23007559.160   120905592.15007  23007558.800    94212153.77745
  22021491.240   115723762.95408  22021493.700    90174393.24447
  24124054.080   126772695.64607  24124057.320    98783900.45943
 15 03 01 00 26 30.0000000  0  7G16G18G19G21G22G27G31
  20875708.260   109702630.77109  20875707.520    85482548.84547
  22131387.040   116301275.11908  22131387.120    90624393.60845
  24143931.380   126877214.94606  24143931.700    98865366.72444
  21867022.240   114911987.25108  21867021.260    89541810.92546
  22990589.280   120816415.62708  22990589.040    94142665.66544
  22010571.440   115666379.07808  22010573.900    90129678.56647
  24142775.660   126871077.11707  24142778.680    98860561.06744
 15 03 01 00 27  0.0000000  0  7G16G18G19G21G22G27G31
  20866943.920   109656573.82409  20866943.200    85446660.31347
  22123686.900   116260810.27408  22123686.800    90592862.56845
  24128868.740   126798060.68807  24128869.040    98803688.19444
  21877572.360   114967428.67608  21877571.520    89585012.02046
  22973650.040   120727399.90308  22973649.960    94073302.83144
  21999676.620   115609126.49908  21999679.160    90085066.19646
  24161497.580   126969459.78407  24161500.380    98937222.57244
 15 03 01 00 27 30.0000000  0  7G16G18G19G21G22G27G31
  20858257.480   109610926.51809  20858256.780    85411090.97847
  22116065.040   116220756.84308  22116064.860    90561652.12145
  24113820.820   126718983.00107  24113821.060    98742069.30943
  21888166.380   115023100.92708  21888165.640    89628392.98246
  22956740.740   120638541.57608  22956740.680    94004062.63845
  21988805.560   115551999.35808  21988808.260    90040551.56346
  24180217.880   127067834.26107  24180220.440    99013877.72043
 15 03 01 00 28  0.0000000  0  7G16G18G19G21G22G27G31
  20849651.200   109565700.58209  20849650.540    85375849.99147
  22108523.520   116181125.93508  22108523.440    90530770.91645
  24098789.020   126639991.35706  24098789.420    98680517.47744
  21898805.780   115079011.51108  21898805.060    89671959.66546
  22939863.720   120549852.92307  22939863.740    93934954.66844
  21977960.260   115495007.40808  21977962.980    89996142.27846
  24198937.820   127166207.35006  24198940.220    99090531.79744
 15 03 01 00 28 30.0000000  0  7G16G18G19G21G22G27G31
  20841123.820   109520889.27909  20841123.260    85340932.10447
  22101061.020   116141910.07808  22101060.960    90500213.11645
  24083772.160   126561077.25907  24083772.320    98619026.06944
  21909488.480   115135149.76308  21909487.740    89715703.75346
  22923017.920   120461328.17708  22923017.980    93865974.39245
  21967139.180   115438142.34608  21967141.880    89951831.87746
  24217655.340   127264567.73806  24217657.820    99167175.90944
 15 03 01 00 29  0.0000000  0  7G16G18G19G21G22G27G31
  20832676.520   109476498.46209  20832676.020    85306341.85347
  22093678.500   116103114.92808  22093678.500    90469983.15045
  24068770.900   126482244.86707  24068771.020    98557598.31544
  21920215.080   115191518.51808  21920214.340    89759627.45046
  22906204.580   120372973.80507  22906204.620    93797126.89945
  21956342.980   115381408.34408  21956345.640    89907623.57246
  24236370.800   127362916.55707  24236373.400    99243810.99444
 15 03 01 00 29 30.0000000  0  7G16G18G19G21G22G27G31
  20824309.600   109432529.99309  20824309.080    85272080.70947
  22086376.360   116064742.38108  22086376.480    90440082.48445
  24053785.220   126403494.41907  24053785.340    98496234.38244
  21930985.060   115248115.11108  21930984.360    89803728.67946
  22889424.280   120284792.73607  22889424.220    93728414.42845
  21945571.720   115324805.58708  21945574.400    89863517.57346
  24255083.540   127461250.97007  24255086.020    99320434.87443
 15 03 01 00 30  0.0000000  0  7G16G18G19G21G22G27G31
  20816023.360   109388985.39509  20816022.780    85238149.85147
  22079154.900   116026793.40208  22079155.040    90410511.87445
  24038814.980   126324825.18507  24038815.000    98434933.73844
  21941798.040   115304937.43308  21941797.380    89848005.81246
  22872677.300   120196786.86408  22872677.200    93659838.48444
  21934825.440   115268333.83908  21934828.120    89819513.63946
  24273792.900   127559567.64606  24273795.660    99397044.89144
 15 03 01 00 30 30.0000000  0  7G16G18G19G21G22G27G31
  20807818.700   109345869.56309  20807818.120    85204553.10747
  22072014.880   115989272.83008  22072015.020    90381275.07445
  24023860.680   126246240.76407  24023860.800    98373699.20844
  21952654.200   115361986.95508  21952653.600    89892459.96646
  22855964.840   120108962.04508  22855964.520    93591403.61745
  21924104.800   115211996.57408  21924107.460    89775614.50746
  24292498.980   127657867.03906  24292502.320    99473641.48044
 15 03 01 00 31  0.0000000  0  7G16G18G19G21G22G27G31
  20799694.800   109303177.89709  20799694.140    85171286.86547
  22064955.500   115952175.82108  22064955.580    90352368.33745
  24008921.420   126167734.25207  24008921.260    98312525.37044
  21963551.940   115419255.06808  21963551.400    89937084.46146
  22839286.100   120021314.70308  22839285.560    93523107.03845
  21913408.560   115155787.35108  21913411.220    89731815.12646
  24311199.900   127756139.76006  24311203.620    99550217.33044
 15 03 01 00 31 30.0000000  0  7G16G18G19G21G22G27G31
  20791652.620   109260916.07609  20791652.060    85138355.58348
  22057977.840   115915507.74708  22057977.840    90323795.83045
  23993997.660   126089309.65607  23993997.480    98251415.33844
  21974491.820   115476744.59908  21974491.360    89981881.49046
  22822642.380   119933851.30108  22822641.700    93454953.80244
  21902737.460   115099710.32408  21902740.160    89688118.77047
  24329895.880   127854386.80206  24329899.880    99626773.23544
 15 03 01 00 32  0.0000000  0  7G16G18G19G21G22G27G31
  20783693.220   109219089.09709  20783692.680    85105763.12947
  22051082.440   115879272.84808  22051082.560    90295560.87545
  23979090.020   126010970.02306  23979090.080    98190371.54843
  21985473.940   115534456.15008  21985473.540    90026851.53646
  22806034.680   119846577.22308  22806033.880    93386948.09645
  21892092.140   115043768.70008  21892094.800    89644527.91546
  24348586.900   127952608.15006  24348591.260    99703309.06544
 15 03 01 00 32 30.0000000  0  7G16G18G19G21G22G27G31
  20775816.480   109177696.70709  20775815.960    85073509.32348
  22044269.460   115843470.88308  22044269.660    90267663.25645
  23964198.020   125932713.55806  23964198.040    98129392.58744
  21996497.500   115592385.70608  21996497.140    90071991.44646
  22789463.140   119759493.25808  22789462.240    93319090.50245
  21881472.200   114987960.77808  21881474.840    89601041.24746
  24367272.240   128050799.27306  24367276.520    99779821.43344
 15 03 01 00 33  0.0000000  0  7G16G18G19G21G22G27G31
  20768022.760   109136740.63409  20768022.280    85041595.49447
  22037539.100   115808102.84708  22037539.380    90240103.76145
  23949321.820   125854540.23105  23949321.900    98068478.36241
  22007562.100   115650531.32008  22007561.860    90117299.69846
  22772928.280   119672602.03208  22772927.260    93251383.09845
  21870877.720   114932286.68308  21870880.360    89557658.86246
  24385951.280   128148957.23206  24385955.280    99856307.93744
 15 03 01 00 33 30.0000000  0  7G16G18G19G21G22G27G31
  20760312.040   109096220.39809  20760311.560    85010021.27848
  22030891.260   115773168.30108  22030891.520    90212882.05445
  23934460.940   125776447.60905  23934461.220    98007627.07244
  22018667.260   115708889.26708  22018666.940    90162773.42146
  22756430.160   119585903.98108  22756429.100    93183826.22045
  21860308.400   114876744.34208  21860310.980    89514379.13046
  24404623.040   128247076.74006  24404626.920    99932764.48945
 15 03 01 00 34  0.0000000  0  7G16G18G19G21G22G27G31
  20752684.680   109056138.46709  20752684.240    84978788.60648
  22024326.400   115738669.09808  22024326.420    90185999.56645
  23919615.720   125698437.03806  23919616.460    97946839.66643
  22029812.700   115767458.68708  22029812.220    90208411.93046
  22739969.400   119499402.35808  22739968.300    93116422.42444
  21849764.380   114821334.83308  21849766.920    89471202.90847
  24423287.040   128345155.92306  24423290.860   100009189.56543
 15 03 01 00 34 30.0000000  0  7G16G18G19G21G22G27G31
  20745140.560   109016493.84809  20745140.240    84947896.69648
  22017844.160   115704604.27408  22017844.020    90159455.56645
  23904785.780   125620505.12506  23904786.700    97886113.58543
  22040997.460   115826234.67408  22040996.920    90254211.39446
  22723545.940   119413096.92708  22723544.780    93049171.50245
  21839245.080   114766055.44108  21839247.620    89428128.06546
  24441942.180   128443188.88306  24441945.740   100085578.63043
 15 03 01 00 35  0.0000000  0  7G16G18G19G21G22G27G31
  20737681.900   108977298.53809  20737681.560    84917354.89148
  22011446.700   115670985.36308  22011446.520    90133259.03545
  23889972.620   125542662.60005  23889973.940    97825457.16244
  22052223.040   115885225.36408  22052222.440    90300178.15946
  22707162.300   119327000.48308  22707161.060    92982083.40945
  21828752.580   114710916.68508  21828755.140    89385162.81547
  24460589.940   128541183.09206  24460593.240   100161937.51143
 15 03 01 00 35 30.0000000  0  7G16G18G19G21G22G27G31
  20730307.700   108938546.89809  20730307.340    84887158.81248
  22005132.940   115637806.12008  22005132.600    90107405.09845
  23875174.980   125464901.90606  23875176.540    97764864.46144
  22063487.800   115944421.64908  22063487.180    90346305.13046
  22690817.460   119241108.05108  22690816.320    92915154.30845
  21818285.500   114655911.37708  21818288.000    89342301.55347
  24479228.460   128639128.35106  24479231.980   100238258.20743
 15 03 01 00 36  0.0000000  0  7G16G18G19G21G22G27G31
  20723018.160   108900240.29809  20723017.720    84857309.51048
  21998903.020   115605067.65108  21998902.580    90081894.61045
  23860393.060   125387222.30806  23860394.440    97704334.94344
  22074791.160   116003821.22508  22074790.540    90392590.49846
  22674511.940   119155422.28508  22674510.840    92848386.23945
  21807843.720   114601039.37408  21807846.140    89299544.16247
  24497857.020   128737021.62906  24497860.800   100314538.40344
 15 03 01 00 36 30.0000000  0  7G16G18G19G21G22G27G31
  20715814.100   108862382.66609  20715813.660    84827810.05648
  21992757.660   115572773.36708  21992757.200    90056730.24945
  23845627.120   125309626.27007  23845628.100    97643870.57644
  22086133.340   116063424.54608  22086132.560    90439034.64946
  22658246.620   119069947.87008  22658245.540    92781782.84745
  21797427.720   114546303.04508  21797430.060    89256892.49647
  24516475.660   128834862.14006  24516479.460   100390777.55543
 15 03 01 00 37  0.0000000  0  7G16G18G19G21G22G27G31
  20708695.540   108824974.43309  20708695.140    84798660.78548
  21986696.880   115540923.47208  21986696.500    90031912.16845
  23830876.980   125232113.04207  23830877.880    97583470.71544
  22097513.800   116123228.65008  22097512.760    90485635.24946
  22642021.800   118984686.28308  22642020.840    92715345.30645
  21787037.460   114491701.62408  21787039.640    89214345.95246
  24535083.520   128932646.06606  24535087.520   100466972.57244
 15 03 01 00 37 30.0000000  0  7G16G18G19G21G22G27G31
  20701663.440   108788020.26709  20701663.020    84769865.32948
  21980721.500   115509522.44108  21980721.180    90007443.85245
  23816143.040   125154685.31507  23816144.060    97523137.49144
  22108932.720   116183234.86208  22108931.560    90532393.32846
  22625838.580   118899642.81408  22625837.660    92649077.73445
  21776673.440   114437238.19008  21776675.540    89171906.92947
  24553680.620   129030373.70606  24553684.780   100543123.71044
 15 03 01 00 38  0.0000000  0  7G16G18G19G21G22G27G31
  20694717.860   108751520.90009  20694717.420    84741424.27048
  21974831.460   115478570.54008  21974831.220    89983325.51445
  23801425.180   125077342.42007  23801426.140    97462870.37244
  22120389.520   116243440.32908  22120388.240    90579306.67346
  22609697.220   118814819.36808  22609696.080    92582981.57945
  21766335.560   114382912.30008  21766337.640    89129575.06547
  24572266.300   129128041.12006  24572270.700   100619227.98243
 15 03 01 00 38 30.0000000  0  7G16G18G19G21G22G27G31
  20687858.880   108715476.75409  20687858.420    84713337.92348
  21969026.820   115448067.34508  21969026.620    89959556.80345
  23786723.180   125000082.66007  23786724.100    97402668.03544
  22131883.620   116303841.89408  22131882.200    90626372.82146
  22593597.900   118730216.90008  22593596.620    92517057.62945
  21756023.560   114328722.49508  21756025.660    89087349.25347
  24590839.800   129225644.06006  24590844.120   100695282.03043
 15 03 01 00 39  0.0000000  0  7G16G18G19G21G22G27G31
  20681087.220   108679891.33009  20681086.660    84685609.02148
  21963308.200   115418016.33508  21963308.120    89936140.44645
  23772037.460   124922908.21307  23772038.300    97342532.18044
  22143414.960   116364439.33108  22143413.460    90673591.59146
  22577541.540   118645840.10608  22577540.160    92451309.55245
  21745737.980   114274671.11308  21745739.840    89045231.30946
  24609400.880   129323181.79606  24609405.320   100771285.22644
 15 03 01 00 39 30.0000000  0  7G16G18G19G21G22G27G31
  20674403.180   108644766.20309  20674402.600    84658238.79048
  21957675.760   115388418.34108  21957675.660    89913077.08945
  23757368.020   124845819.34107  23757368.580    97282463.00944
  22154983.260   116425230.94008  22154981.740    90720961.66846
  22561528.640   118561691.39108  22561527.140    92385739.16145
  21735478.760   114220758.42508  21735480.540    89003221.43047
  24627948.920   129420651.44506  24627953.680   100847235.40544
 15 03 01 00 40  0.0000000  0  7G16G18G19G21G22G27G31
  20667806.800   108610102.01809  20667806.320    84631227.73948
  21952129.680   115359273.67808  21952129.500    89890366.98845
  23742714.520   124768814.70007  23742714.980    97222459.46345
  22166587.980   116486213.94508  22166586.540    90768480.88046
  22545559.480   118477772.62608  22545557.860    92320347.97145
  21725245.740   114166983.70708  21725247.580    88961319.07047
  24646483.200   129518049.47606  24646488.440   100923129.79843
 15 03 01 00 40 30.0000000  0  7G16G18G19G21G22G27G31
  20661299.000   108575903.18809  20661298.560    84604579.30248
  21946670.560   115330586.17608  21946670.480    89868013.11645
  23728077.580   124691897.09607  23728077.960    97162523.70645
  22178229.160   116547388.89808  22178227.820    90816149.66746
  22529635.020   118394088.63808  22529633.240    92255139.71645
  21715039.480   114113349.65108  21715041.500    88919526.31347
  24665003.600   129615375.47606  24665009.520   100998968.15044
 15 03 01 00 41  0.0000000  0  7G16G18G19G21G22G27G31
  20654879.480   108542168.47209  20654879.020    84578292.51648
  21941298.200   115302354.66508  21941298.340    89846014.55445
  23713456.620   124615063.45807  23713456.920    97102653.39444
  22189905.920   116608751.23508  22189904.660    90863964.45446
  22513755.100   118310639.31308  22513753.400    92190114.34245
  21704859.540   114059854.06608  21704861.680    88877841.45546
  24683509.500   129712623.91406  24683516.000   101074746.03943
 15 03 01 00 41 30.0000000  0  7G16G18G19G21G22G27G31
  20648549.000   108508901.04709  20648548.380    84552369.83748
  21936013.180   115274581.46408  21936013.360    89824373.10845
  23698852.000   124538315.92007  23698852.320    97042850.18944
  22201618.360   116670301.06208  22201617.180    90911925.35646
  22497920.580   118227428.71708  22497918.960    92125274.96345
  21694706.180   114006498.65808  21694708.500    88836265.83547
  24702000.600   129809793.49806  24702006.900   101150462.45244
 15 03 01 00 42  0.0000000  0  6G16G18G19G21G22G27
  20642306.800   108476097.93309  20642306.140    84526808.97848
  21930814.760   115247263.26408  21930814.940    89803086.22845
  23684262.720   124461649.85306  23684263.300    96983110.48044
  22213365.340   116732032.14508  22213364.280    90960027.49445
  22482131.200   118144455.24108  22482129.560    92060620.34545
  21684578.780   113953279.28708  21684581.240    88794796.21247
 15 03 01 00 42 30.0000000  0  6G16G18G19G21G22G27
  20636154.920   108443769.52809  20636154.220    84501618.00848
  21925704.840   115220410.02508  21925705.000    89782161.65545
  23669690.860   124385074.49506  23669691.460    96923441.42444
  22225148.060   116793951.24008  22225147.180    91008276.12345
  22466389.100   118061730.26508  22466387.520    91996159.37245
  21674479.020   113900205.02408  21674481.540    88753439.66047
 15 03 01 00 43  0.0000000  0  6G16G18G19G21G22G27
  20630093.100   108411914.60909  20630092.400    84476796.00048
  21920683.000   115194020.05108  21920683.100    89761598.06045
  23655135.540   124308586.75806  23655136.140    96863840.62044
  22236965.720   116856053.96408  22236964.960    91056667.85546
  22450694.040   117979252.76408  22450692.600    91931891.24745
  21664406.480   113847273.51608  21664408.980    88712194.35047
 15 03 01 00 43 30.0000000  0  6G16G18G19G21G22G27
  20624121.280   108380532.79309  20624120.620    84452342.64548
  21915749.000   115168091.97408  21915749.060    89741394.37645
  23640596.520   124232184.49306  23640597.220    96804306.43544
  22248817.520   116918336.18708  22248816.940    91105199.43746
  22435046.420   117897024.26608  22435045.140    91867817.12945
  21654360.760   113794482.75408  21654363.180    88671058.70947
 15 03 01 00 44  0.0000000  0  6G16G18G19G21G22G27
  20618238.960   108349621.07909  20618238.300    84428255.59548
  21910902.420   115142623.07508  21910902.460    89721548.50245
  23626073.240   124155863.95806  23626073.800    96744835.91944
  22260702.440   116980791.95508  22260701.860    91153866.26946
  22419445.700   117815042.59908  22419444.560    91803935.36445
  21644341.080   113741828.78308  21644343.520    88630029.68047
 15 03 01 00 44 30.0000000  0  6G16G18G19G21G22G27
  20612448.160   108319190.38009  20612447.520    84404543.36248
  21906145.260   115117623.61208  21906145.220    89702068.42645
  23611567.240   124079634.58206  23611567.820    96685436.45645
  22272621.740   117043428.54608  22272621.180    91202673.98646
  22403894.280   117733319.61108  22403893.180    91740255.17545
  21634349.300   113689321.54108  21634351.780    88589114.96847
 15 03 01 00 45  0.0000000  0  6G16G18G19G21G22G27
  20606748.160   108289236.62009  20606747.520    84381202.77048
  21901476.520   115093088.69208  21901476.260    89682950.33145
  23597077.480   124003489.94006  23597077.720    96626103.02044
  22284574.040   117106238.79308  22284573.540    91251617.03146
  22388391.460   117651851.61808  22388390.260    91676773.65845
  21624384.300   113636955.27808  21624386.840    88548310.11147
 15 03 01 00 45 30.0000000  0  6G16G18G19G21G22G27
  20601139.960   108259765.22509  20601139.280    84358238.04548
  21896897.060   115069023.11808  21896896.640    89664197.95445
  23582604.520   123927434.26606  23582604.600    96566838.91444
  22296559.840   117169224.95208  22296559.360    91300697.14546
  22372938.440   117570645.61308  22372937.280    91613496.28845
  21614446.880   113584734.28308  21614449.440    88507618.43647
 15 03 01 00 46  0.0000000  0  6G16G18G19G21G22G27
  20595623.140   108230774.06709  20595622.420    84335647.53448
  21892406.360   115045424.51708  21892405.860    89645809.45245
  23568148.000   123851464.36506  23568147.820    96507641.63844
  22308578.080   117232381.15808  22308577.600    91349909.76146
  22357534.960   117489700.42808  22357533.840    91550422.17745
  21604536.580   113532655.52608  21604539.080    88467037.60947
 15 03 01 00 46 30.0000000  0  6G16G18G19G21G22G27
  20590199.020   108202270.22109  20590198.300    84313436.74348
  21888005.740   115022299.60208  21888005.260    89627790.06345
  23553708.680   123775585.78606  23553708.620    96448515.51744
  22320629.540   117295711.79808  22320629.060    91399258.29746
  22342182.700   117409024.24408  22342181.520    91487557.65546
  21594654.560   113480724.92108  21594656.880    88426572.22547
 15 03 01 00 47  0.0000000  0  6G16G18G19G21G22G27
  20584866.360   108174247.10309  20584865.700    84291600.54948
  21883693.960   114999641.66008  21883693.580    89610134.54245
  23539285.400   123699791.33707  23539285.340    96389454.94345
  22332712.440   117359207.39808  22332711.900    91448735.38446
  22326880.700   117328612.16708  22326879.560    91424898.93045
  21584799.360   113428935.34808  21584801.620    88386216.73047
 15 03 01 00 47 30.0000000  0  6G16G18G19G21G22G27
  20579626.780   108146712.99809  20579626.180    84270145.40248
  21879472.360   114977457.74108  21879472.240    89592848.38146
  23524879.340   123624086.77407  23524879.040    96330464.43544
  22344827.440   117422871.67208  22344826.920    91498343.89745
  22311630.500   117248472.36108  22311629.380    91362452.38145
  21574972.160   113377292.95608  21574974.360    88345975.92447
 15 03 01 00 48  0.0000000  0  6G16G18G19G21G22G27
  20574480.320   108119668.18909  20574479.780    84249071.52148
  21875340.960   114955747.78908  21875341.020    89575931.54645
  23510490.160   123548471.40107  23510489.740    96271543.42544
  22356974.080   117486702.41808  22356973.620    91548082.13046
  22296432.600   117168606.65708  22296431.340    91300219.40045
  21565172.900   113325797.38709  21565175.080    88305849.52947
 15 03 01 00 48 30.0000000  0  6G16G18G19G21G22G27
  20569426.880   108093112.26409  20569426.380    84228378.59348
  21871299.620   114934510.61408  21871299.640    89559383.11245
  23496117.740   123472943.74307  23496117.320    96212690.75144
  22369151.720   117550696.32108  22369151.380    91597947.49545
  22281286.980   117089015.52408  22281285.620    91238200.37945
  21555401.300   113274447.11108  21555403.380    88265836.34947
 15 03 01 00 49  0.0000000  0  6G16G18G19G21G22G27
  20564466.820   108067046.98409  20564466.380    84208067.98448
  21867348.660   114913748.10308  21867348.620    89543204.54845
  23481762.160   123397504.18207  23481761.660    96153906.72944
  22381360.100   117614851.86508  22381359.840    91647938.81746
  22266194.160   117009702.32008  22266192.760    91176397.92546
  21545657.500   113223243.11009  21545659.560    88225937.14447
 15 03 01 00 49 30.0000000  0  6G16G18G19G21G22G27
  20559600.800   108041475.78709  20559600.340    84188142.37848
  21863488.520   114893462.75908  21863488.440    89527397.79845
  23467423.700   123322154.73507  23467422.960    96095192.88944
  22393599.340   117679169.22708  22393599.100    91698056.23646
  22251155.040   116930671.34008  22251153.500    91114815.38445
  21535941.920   113172187.53909  21535944.080    88186153.61547
 15 03 01 00 50  0.0000000  0  6G16G18G19G21G22G27
  20554828.380   108016396.68709  20554827.940    84168600.22348
  21859718.640   114873651.72508  21859718.540    89511960.64446
  23453101.840   123246892.19407  23453100.940    96036546.81644
  22405868.500   117743643.55908  22405868.300    91748295.96145
  22236169.480   116851921.60908  22236167.840    91053452.00845
  21526254.040   113121277.56009  21526256.240    88146483.51447
 15 03 01 00 50 30.0000000  0  6G16G18G19G21G22G27
  20550151.100   107991817.50709  20550150.680    84149447.61048
  21856040.520   114854322.93708  21856040.400    89496899.25746
  23438797.660   123171723.26507  23438796.800    95977973.69044
  22418168.340   117808279.22108  22418168.140    91798661.41045
  22221239.100   116773462.12408  22221237.420    90992314.79145
  21516595.140   113070520.05809  21516597.380    88106932.22847
 15 03 01 00 51  0.0000000  0  6G16G18G19G21G22G27
  20545568.200   107967734.24409  20545567.760    84130681.43448
  21852453.240   114835471.44108  21852453.100    89482209.80045
  23424510.400   123096642.55807  23424509.540    95919469.30544
  22430497.560   117873069.47308  22430497.280    91849147.30446
  22206363.320   116695289.72708  22206361.640    90931401.27445
  21506964.380   113019909.96209  21506966.540    88067495.80047
 15 03 01 00 51 30.0000000  0  6G16G18G19G21G22G27
  20541080.400   107944150.57209  20541079.960    84112304.53948
  21848957.420   114817100.69608  21848957.200    89467894.94045
  23410240.380   123021652.69507  23410239.460    95861035.70044
  22442856.280   117938014.74308  22442855.800    91899753.99845
  22191543.180   116617409.51808  22191541.540    90870715.43146
  21497362.180   112969450.06309  21497364.300    88028176.41847
 15 03 01 00 52  0.0000000  0  6G16G18G19G21G22G27
  20536688.320   107921070.01009  20536687.920    84094319.68148
  21845553.520   114799213.13308  21845553.300    89453956.59245
  23395987.880   122946755.93807  23395987.180    95802674.65445
  22455244.380   118003114.66908  22455243.820    91950481.21345
  22176779.500   116539826.17708  22176777.840    90810260.91846
  21487789.100   112919142.99409  21487791.220    87988976.11747
 15 03 01 00 52 30.0000000  0  6G16G18G19G21G22G27
  20532391.980   107898492.70109  20532391.660    84076726.97948
  21842241.540   114781808.75008  21842241.340    89440394.73746
  23381752.700   122871950.96506  23381752.380    95744385.13545
  22467661.660   118068368.02608  22467661.000    92001327.96845
  22162072.660   116462541.30308  22162070.960    90750038.97845
  21478244.980   112868988.04209  21478247.080    87949894.35347
 15 03 01 00 53  0.0000000  0  6G16G18G19G21G22G27
  20528190.980   107876416.16609  20528190.640    84059524.48648
  21839020.860   114764884.01508  21839020.720    89427206.64846
  23367534.500   122797234.79706  23367534.340    95686164.80044
  22480106.980   118133768.61408  22480106.300    92052289.45345
  22147422.260   116385553.02908  22147420.500    90690048.14345
  21468729.120   112818981.71009  21468731.240    87910928.40247
 15 03 01 00 53 30.0000000  0  6G16G18G19G21G22G27
  20524086.120   107854844.75709  20524085.680    84042715.59648
  21835892.300   114748443.30308  21835892.140    89414395.71845
  23353333.760   122722610.11906  23353333.540    95628015.76645
  22492580.600   118199317.81108  22492579.780    92103366.74545
  22132829.320   116308867.04508  22132827.660    90630292.88046
  21459242.080   112769127.61708  21459244.300    87872081.07847
 15 03 01 00 54  0.0000000  0  6G16G18G19G21G22G27
  20520077.660   107833779.89309  20520077.160    84026301.41648
  21832855.920   114732486.94508  21832855.600    89401962.19845
  23339150.500   122648076.86606  23339150.280    95569937.94545
  22505082.220   118265013.91008  22505081.320    92154558.50145
  22118294.460   116232485.85308  22118292.800    90570775.10946
  21449784.040   112719426.20408  21449786.380    87833352.72447
 15 03 01 00 54 30.0000000  0  6G16G18G19G21G22G27
  20516165.160   107813219.61909  20516164.660    84010280.41948
  21829911.300   114717012.97308  21829910.900    89389904.56846
  23324984.220   122573632.71507  23324983.780    95511929.58145
  22517611.000   118330852.26608  22517609.900    92205861.11345
  22103817.500   116156408.96008  22103815.860    90511494.45445
  21440354.660   112669875.06109  21440357.020    87794741.46247
 15 03 01 00 55  0.0000000  0  6G16G18G19G21G22G27
  20512349.900   107793170.56609  20512349.440    83994657.79048
  21827059.620   114702027.34008  21827059.220    89378227.46446
  23310835.960   122499283.39607  23310835.320    95453995.10844
  22530167.460   118396836.49308  22530166.200    92257277.38845
  22089399.920   116080644.18608  22089398.320    90452457.00946
  21430955.100   112620479.99709  21430957.320    87756251.82147
 15 03 01 00 55 30.0000000  0  6G16G18G19G21G22G27
  20508631.660   107773631.34809  20508631.240    83979432.42448
  21824300.420   114687527.68808  21824300.020    89366929.04046
  23296705.280   122425026.05307  23296704.500    95396132.29645
  22542750.840   118462962.19708  22542749.560    92308803.89845
  22075041.620   116005190.92608  22075040.080    90393662.29646
  21421584.880   112571238.68109  21421586.940    87717881.98047
 15 03 01 00 56  0.0000000  0  6G16G18G19G21G22G27
  20505010.920   107754604.55909  20505010.560    83964606.36548
  21821634.120   114673516.13208  21821633.740    89356010.95745
  23282592.260   122350861.87406  23282591.460    95338342.07044
  22555361.040   118529228.96108  22555359.740    92360440.34045
  22060743.320   115930053.16208  22060741.820    90335113.43446
  21412244.200   112522152.84709  21412246.160    87679633.29347
 15 03 01 00 56 30.0000000  0  6G16G18G19G21G22G27
  20501488.040   107736091.79409  20501487.700    83950180.83648
  21819060.980   114659993.74409  21819060.500    89345474.04345
  23268497.140   122276792.00406  23268496.560    95280625.34044
  22567997.920   118595636.14008  22567996.680    92412186.18645
  22046505.660   115855234.00908  22046504.140    90276812.82246
  21402933.260   112473223.56909  21402935.180    87641506.60147
 15 03 01 00 57  0.0000000  0  6G16G18G19G21G22G27
  20498062.720   107718091.62909  20498062.360    83936154.73648
  21816580.500   114646958.40708  21816579.940    89335316.65846
  23254419.520   122202813.79107  23254419.020    95222980.05045
  22580660.680   118662179.10208  22580659.440    92464037.83845
  22032328.560   115780733.04508  22032327.080    90218760.16246
  21393651.700   112424448.79709  21393653.580    87603500.30447
 15 03 01 00 57 30.0000000  0  6G16G18G19G21G22G27
  20494735.680   107700607.76409  20494735.260    83922530.94648
  21814193.240   114634413.30808  21814192.740    89325541.25846
  23240359.980   122128929.98607  23240359.300    95165408.30844
  22593349.440   118728858.66008  22593348.080    92515995.92945
  22018212.940   115706555.11708  22018211.460    90160959.22745
  21384400.140   112375831.46409  21384402.080    87565616.67847
 15 03 01 00 58  0.0000000  0  6G16G18G19G21G22G27
  20491507.320   107683642.45509  20491506.840    83909311.22348
  21811899.520   114622360.13008  21811899.060    89316149.18446
  23226318.600   122055141.92607  23226317.760    95107911.18245
  22606064.000   118795674.52008  22606062.660    92568060.23445
  22004159.440   115632703.77808  22004158.080    90103412.76746
  21375178.840   112327373.23709  21375180.880    87527857.04547
 15 03 01 00 58 30.0000000  0  6G16G18G19G21G22G27
  20488377.680   107667196.11409  20488377.200    83896495.89948
  21809699.340   114610798.67408  21809699.040    89307140.27346
  23212295.180   121981449.11307  23212294.160    95050488.24944
  22618803.980   118862624.18708  22618802.720    92620228.80945
  21990168.480   115559180.87908  21990167.140    90046122.23946
  21365987.760   112279073.84309  21365989.980    87490221.17647
 15 03 01 00 59  0.0000000  0  6G16G18G19G21G22G27
  20485346.480   107651267.13809  20485346.000    83884083.70948
  21807592.340   114599726.66408  21807592.100    89298512.73945
  23198289.480   121907848.94907  23198288.260    94993137.51144
  22631568.520   118929703.16708  22631567.440    92672498.13645
  21976239.960   115485985.74208  21976238.440    89989087.09846
  21356826.460   112230930.99209  21356828.800    87452707.29347
 15 03 01 00 59 30.0000000  0  6G16G18G19G21G22G27
  20482414.460   107635858.96609  20482413.880    83872077.33848
  21805579.060   114589146.95009  21805578.880    89290268.81346
  23184302.020   121834344.00708  23184300.660    94935860.98445
  22644357.940   118996912.48008  22644357.000    92724869.02145
  21962374.640   115413123.39808  21962373.120    89932311.28646
  21347695.580   112182947.70409  21347697.880    87415317.74347
 15 03 01 01 00  0.0000000  0  6G16G18G19G21G22G27
  20479581.420   107620971.00709  20479580.800    83860476.32848
  21803659.440   114579059.12408  21803659.240    89282408.18346
  23170332.460   121760933.31307  23170331.100    94878657.92244
  22657171.720   119064249.12208  22657170.840    92777339.13945
  21948572.860   115340594.91708  21948571.420    89875795.62246
  21338594.940   112135123.37109  21338597.160    87378052.05347
 15 03 01 01 00 30.0000000  0  6G16G18G19G21G22G27
  20476848.700   107606610.20309  20476848.060    83849286.09048
  21801834.420   114569468.34308  21801834.240    89274934.86446
  23156381.660   121687622.17107  23156380.440    94821532.39144
  22670010.440   119131717.14108  22670009.660    92829911.61045
  21934836.060   115268407.73508  21934834.640    89819545.91746
  21329525.520   112087463.52609  21329527.700    87340914.52847
 15 03 01 01 01  0.0000000  0  6G16G18G19G21G22G27
  20474214.960   107592769.61209  20474214.300    83838501.21148
  21800102.600   114560367.27008  21800102.420    89267843.13546
  23142448.540   121614403.18107  23142447.500    94764478.68845
  22682872.360   119199306.83708  22682871.540    92882578.89345
  21921163.100   115196556.53608  21921161.720    89763558.00846
  21320486.060   112039961.07209  21320488.240    87303899.63647
 15 03 01 01 01 30.0000000  0  6G16G18G19G21G22G27
  20471681.240   107579454.99409  20471680.580    83828126.18948
  21798464.980   114551761.39608  21798464.760    89261137.27746
  23128533.920   121541281.21007  23128532.960    94707500.58445
  22695757.920   119267020.96408  22695756.960    92935343.14745
  21907555.300   115125047.94708  21907554.000    89707837.07346
  21311477.560   111992621.22909  21311479.760    87267011.47247
 15 03 01 01 02  0.0000000  0  6G16G18G19G21G22G27
  20469247.940   107566668.05609  20469247.280    83818162.33448
  21796921.780   114543651.56009  21796921.560    89254817.93546
  23114637.880   121468257.06608  23114637.040    94650598.71745
  22708667.060   119334859.10008  22708666.080    92988204.02745
  21894013.520   115053885.58708  21894012.220    89652385.91246
  21302500.200   111945445.19709  21302502.460    87230250.94647
 15 03 01 01 02 30.0000000  0  6G16G18G19G21G22G27
  20466914.600   107554406.39509  20466913.960    83808607.79348
  21795472.340   114536034.73209  21795472.100    89248882.75546
  23100760.040   121395327.93608  23100759.040    94593770.87345
  22721598.920   119402816.41208  22721597.940    93041157.77745
  21880537.360   114983068.21908  21880536.080    89597203.59846
  21293553.480   111898430.27009  21293555.780    87193615.95747
 15 03 01 01 03  0.0000000  0  6G16G18G19G21G22G27
  20464682.100   107542674.52509  20464681.500    83799466.07348
  21794117.440   114528915.05008  21794117.180    89243334.96346
  23086900.960   121322497.89007  23086899.800    94537020.26145
  22734553.860   119470894.89208  22734552.960    93094205.93345
  21867128.120   114912601.96608  21867126.740    89542294.85546
  21284638.340   111851580.81209  21284640.560    87157109.90847
 15 03 01 01 03 30.0000000  0  6G16G18G19G21G22G27
  20462550.760   107531473.99509  20462550.120    83790738.38548
  21792857.300   114522293.23508  21792857.020    89238175.11946
  23073060.700   121249766.91707  23073059.480    94480346.83745
  22747531.580   119539093.05508  22747530.820    93147347.34345
  21853786.180   114842489.35108  21853784.620    89487661.68946
  21275754.860   111804897.58309  21275756.980    87120733.38047
 15 03 01 01 04  0.0000000  0  6G16G18G19G21G22G27
  20460520.440   107520804.39509  20460519.760    83782424.41048
  21791691.740   114516168.28608  21791691.540    89233402.44446
  23059239.000   121177134.11307  23059238.040    94423749.90645
  22760531.560   119607408.26708  22760530.980    93200579.96545
  21840511.600   114772731.27308  21840510.040    89433304.79046
  21266902.840   111758379.81009  21266904.920    87084485.77947
 15 03 01 01 04 30.0000000  0  6G16G18G19G21G22G27
  20458591.380   107510667.05609  20458590.640    83774525.18148
  21790620.820   114510540.40308  21790620.600    89229017.09346
  23045436.160   121104600.38207  23045435.440    94367230.17845
  22773553.600   119675839.43108  22773553.160    93253902.94345
  21827305.000   114703330.45008  21827303.540    89379226.26146
  21258082.440   111712028.56609  21258084.520    87048367.94747
 15 03 01 01 05  0.0000000  0  6G16G18G19G21G22G27
  20456763.760   107501062.66909  20456762.960    83767041.24148
  21789644.500   114505410.15708  21789644.280    89225019.52145
  23031652.140   121032165.71707  23031651.520    94310787.65145
  22786597.300   119744384.53908  22786597.040    93307314.71245
  21814166.920   114634289.13208  21814165.460    89325427.86846
  21249293.820   111665844.24209  21249295.940    87012380.17747
 15 03 01 01 05 30.0000000  0  6G16G18G19G21G22G27
  20455037.860   107491992.76909  20455037.020    83759973.78748
  21788763.040   114500778.68608  21788762.840    89221410.59546
  23017887.160   120959830.97907  23017886.560    94254422.99045
  22799662.540   119813042.99708  22799662.360    93360814.80745
  21801097.700   114565609.84108  21801096.100    89271911.57546
  21240537.220   111619828.06409  21240539.420    86976523.43347
 15 03 01 01 06  0.0000000  0  6G16G18G19G21G22G27
  20453413.900   107483458.72109  20453413.080    83753323.87548
  21787976.640   114496646.50008  21787976.460    89218190.72046
  23004141.260   120887597.23707  23004140.820    94198137.01445
  22812749.120   119881813.62008  22812748.900    93414402.28745
  21788097.980   114497295.86708  21788096.320    89218679.92746
  21231812.800   111573981.15409  21231815.080    86940798.58647
 15 03 01 01 06 30.0000000  0  6G16G18G19G21G22G27
  20451891.340   107475457.55609  20451890.520    83747089.19948
  21787284.620   114493009.84908  21787284.400    89215356.97046
  22990413.960   120815460.74807  22990413.580    94141926.84145
  22825856.060   119950691.42808  22825855.740    93468073.30445
  21775167.380   114429345.31808  21775165.860    89165731.48946
  21223120.020   111528300.54409  21223122.300    86905203.33247
 15 03 01 01 07  0.0000000  0  6G16G18G19G21G22G27
  20450470.920   107467993.29809  20450470.080    83741272.89748
  21786687.580   114489872.40708  21786687.380    89212912.22446
  22976705.880   120743424.95007  22976705.400    94085795.11245
  22838983.600   120019677.75508  22838983.260    93521828.89045
  21762307.080   114361763.89408  21762305.580    89113070.66746
  21214459.660   111482789.88209  21214461.860    86869740.49947
 15 03 01 01 07 30.0000000  0  6G16G18G19G21G22G27
  20449152.400   107461064.60809  20449151.640    83735873.91548
  21786185.140   114487231.87208  21786184.880    89210854.68546
  22963016.800   120671488.07308  22963016.140    94029740.43345
  22852131.100   120088768.91908  22852130.820    93575666.14045
  21749517.100   114294551.39608  21749515.420    89060697.31946
  21205831.340   111437447.48109  21205833.360    86834408.76547
 15 03 01 01 08  0.0000000  0  6G16G18G19G21G22G27
  20447936.360   107454674.62609  20447935.720    83730894.71748
  21785777.740   114485090.63208  21785777.440    89209186.20346
  22949347.000   120599652.48208  22949346.220    93973764.69344
  22865298.820   120157965.75508  22865298.580    93629585.74045
  21736798.080   114227712.42408  21736796.360    89008615.03646
  21197235.560   111392276.45009  21197237.480    86799210.57047
 15 03 01 01 08 30.0000000  0  6G16G18G19G21G22G27
  20446823.180   107448824.86809  20446822.580    83726336.46348
  21785465.500   114483449.95708  21785465.320    89207907.76946
  22935696.680   120527919.18808  22935695.780    93917868.65545
  22878486.640   120227267.72608  22878486.420    93683587.26144
  21724150.760   114161249.88008  21724148.920    88956826.07446
  21188672.600   111347278.18809  21188674.520    86764147.00847
 15 03 01 01 09  0.0000000  0  6G16G18G19G21G22G27
  20445813.200   107443517.20309  20445812.580    83722200.62348
  21785248.740   114482310.94908  21785248.620    89207020.24146
  22922066.140   120456290.11208  22922065.140    93862053.82544
  22891694.420   120296674.45008  22891694.240    93737670.41745
  21711575.580   114095166.71609  21711573.620    88905332.74446
  21180142.880   111302454.47509  21180144.800    86729219.45247
 15 03 01 01 09 30.0000000  0  6G16G18G19G21G22G27
  20444905.820   107438748.91609  20444905.200    83718485.07248
  21785126.840   114481670.27108  21785126.660    89206521.01945
  22908454.780   120384761.83708  22908453.640    93806317.55245
  22904921.160   120366181.08308  22904921.020    93791831.41645
  21699072.520   114029462.69508  21699070.420    88854134.83046
  21171645.860   111257802.62509  21171647.840    86694425.82147
 15 03 01 01 10  0.0000000  0  6G16G18G19G21G22G27
  20444101.480   107434522.37509  20444100.900    83715191.66348
  21785100.160   114481530.14008  21785099.880    89206411.83946
  22894863.040   120313336.79808  22894861.800    93750661.71545
  22918166.980   120435788.10007  22918166.880    93846070.63244
  21686642.300   113964141.71108  21686640.120    88803235.39346
  21163182.100   111213325.35509  21163184.120    86659768.23348
 15 03 01 01 10 30.0000000  0  6G16G18G19G21G22G27
  20443400.680   107430839.86609  20443400.120    83712322.17948
  21785168.840   114481891.33708  21785168.520    89206693.30946
  22881291.160   120242015.89108  22881289.780    93695087.02445
  22931431.660   120505494.77708  22931431.560    93900387.50844
  21674285.440   113899206.16508  21674283.240    88752636.28846
  21154751.820   111169023.83509  21154753.900    86625247.57447
 15 03 01 01 11  0.0000000  0  6G16G18G19G21G22G27
  20442803.700   107427702.63909  20442803.100    83709877.58648
  21785333.040   114482754.65808  21785332.800    89207366.03346
  22867739.400   120170800.83808  22867738.000    93639594.80845
  22944715.280   120575300.48708  22944715.020    93954781.55245
  21662002.400   113834659.26608  21662000.320    88702340.03446
  21146355.300   111124899.75609  21146357.340    86590865.18747
 15 03 01 01 11 30.0000000  0  6G16G18G19G21G22G27
  20442309.900   107425107.72109  20442309.280    83707855.57448
  21785592.140   114484116.45108  21785591.960    89208427.18746
  22854207.060   120099688.04208  22854205.720    93584182.28344
  22958016.880   120645200.23708  22958016.360    94009248.88745
  21649793.200   113770500.06508  21649791.220    88652345.87846
  21137992.040   111080950.41809  21137994.040    86556618.96447
 15 03 01 01 12  0.0000000  0  6G16G18G19G21G22G27
  20441920.440   107423061.20309  20441919.880    83706260.88648
  21785947.160   114485982.21408  21785947.000    89209881.03446
  22840695.100   120028682.96208  22840693.820    93528853.69645
  22971337.100   120715198.06608  22971336.340    94063792.64645
  21637659.140   113706735.64308  21637657.320    88602659.34446
  21129663.160   111037181.70109  21129665.080    86522513.49047
 15 03 01 01 12 30.0000000  0  7G04G16G18G19G21G22G27
  24588553.560   129213722.05106  24588558.240   100686027.65742
  20441636.240   107421567.95009  20441635.740    83705097.30948
  21786399.020   114488356.52608  21786398.840    89211731.15845
  22827204.660   119957790.47408  22827203.260    93473612.83145
  22984676.520   120785296.71508  22984675.700    94118414.94344
  21625601.320   113643372.09908  21625599.640    88553285.19346
  21121369.580   110993598.59609  21121371.440    86488552.63848
 15 03 01 01 13  0.0000000  0  7G04G16G18G19G21G22G27
  24569406.780   129113108.96606  24569412.300   100607628.15843
  20441453.760   107420608.96909  20441453.200    83704350.04748
  21786943.900   114491219.75108  21786943.640    89213962.25846
  22813732.120   119886991.53008  22813730.580    93418444.86645
  22998031.320   120855475.48108  22998030.320    94173099.67345
  21613616.680   113580392.69608  21613615.100    88504210.35646
  21113107.680   110950182.44209  21113109.620    86454721.88747
 15 03 01 01 13 30.0000000  0  7G04G16G18G19G21G22G27
  24550287.500   129012638.93606  24550293.520   100529340.13044
  20441375.840   107420199.40209  20441375.240    83704030.91048
  21787584.520   114494586.08408  21787584.160    89216585.37946
  22800280.140   119816301.00308  22800278.640    93363361.37745
  23011403.780   120925747.17608  23011402.720    94227856.81844
  21601708.300   113517814.02608  21601706.800    88455447.80146
  21104880.460   110906948.36909  21104882.420    86421033.00747
 15 03 01 01 14  0.0000000  0  7G04G16G18G19G21G22G27
  24531195.480   128912311.61706  24531201.420   100451163.26442
  20441402.340   107420338.59809  20441401.700    83704139.36448
  21788320.540   114498454.11108  21788320.160    89219599.44546
  22786848.500   119745717.92308  22786847.200    93308361.61045
  23024793.420   120996109.58408  23024792.340    94282684.64744
  21589876.360   113455636.51708  21589874.720    88406997.82546
  21096687.820   110863895.82609  21096689.760    86387485.58347
 15 03 01 01 14 30.0000000  0  7G04G16G18G19G21G22G27
  24512130.780   128812126.74906  24512136.840   100373097.42244
  20441533.120   107421025.96709  20441532.540    83704674.98048
  21789151.880   114502823.10808  21789151.540    89223003.86046
  22773437.300   119675241.92507  22773436.100    93253445.29145
  23038199.580   121066559.87407  23038198.600    94337580.98044
  21578120.960   113393861.35708  21578119.120    88358861.38246
  21088529.600   110821024.46409  21088531.480    86354079.33547
 15 03 01 01 15  0.0000000  0  7G04G16G18G19G21G22G27
  24493093.620   128712086.72306  24493099.900   100295144.54841
  20441768.560   107422263.23909  20441768.020    83705639.08648
  21790078.700   114507693.83208  21790078.420    89226799.24446
  22760046.620   119604873.94707  22760045.440    93198613.12945
  23051622.320   121137097.54307  23051621.520    94392545.39044
  21566442.720   113332491.84208  21566440.740    88311041.01346
  21080406.180   110778336.07409  21080408.060    86320815.66747
 15 03 01 01 15 30.0000000  0  7G04G16G18G19G21G22G27
  24474084.020   128612191.00806  24474089.940   100217304.05743
  20442108.460   107424049.57809  20442107.940    83707031.03848
  21791100.740   114513064.77808  21791100.500    89230984.39646
  22746676.340   119534613.17707  22746675.060    93143864.53845
  23065061.200   121207720.10907  23065060.520    94447575.94545
  21554841.760   113271528.63508  21554839.720    88263537.26346
  21072317.520   110735830.13409  21072319.500    86287694.16948
 15 03 01 01 16  0.0000000  0  7G04G16G18G19G21G22G27
  24455102.360   128512442.33406  24455108.080   100139578.12243
  20442553.240   107426387.13809  20442552.720    83708852.50848
  21792218.180   114518936.98108  21792217.980    89235560.16146
  22733326.860   119464461.78507  22733325.620    93089201.16945
  23078516.300   121278427.53108  23078515.620    94502672.62745
  21543318.740   113210975.10308  21543316.700    88216352.72546
  21064264.100   110693508.99709  21064266.100    86254716.66647
 15 03 01 01 16 30.0000000  0  7G04G16G18G19G21G22G27
  24436148.620   128412840.68006  24436154.260   100061966.71443
  20443102.700   107429274.58809  20443102.180    83711102.46748
  21793430.860   114525309.70208  21793430.680    89240525.92645
  22719998.120   119394418.89408  22719996.920    93034622.34845
  23091987.180   121349217.90608  23091986.620    94557833.93844
  21531873.740   113150831.87108  21531871.780    88169487.90646
  21056245.800   110651372.23909  21056247.840    86221882.83948
 15 03 01 01 17  0.0000000  0  7G04G16G18G19G21G22G27
  24417223.060   128313388.58505  24417228.860    99984471.85443
  20443757.480   107432715.11509  20443756.940    83713783.38948
  21794739.140   114532184.59908  21794738.940    89245882.99146
  22706690.560   119324486.60608  22706689.260    92980129.70145
  23105474.020   121420091.60707  23105473.600    94613060.18744
  21520507.760   113091103.49608  21520505.880    88122946.34746
  21048263.060   110609422.42309  21048265.140    86189194.69448
 15 03 01 01 17 30.0000000  0  7G04G16G18G19G21G22G27
  24398325.940   128214085.88205  24398332.120    99907093.41344
  20444517.260   107436707.51809  20444516.640    83716894.34648
  21796142.760   114539560.15408  21796142.420    89251630.18546
  22693403.920   119254664.38208  22693402.560    92925722.80045
  23118976.020   121491045.43007  23118975.580    94668348.86144
  21509220.900   113031790.62008  21509218.980    88076728.54846
  21040315.820   110567659.05309  21040317.840    86156651.81648
 15 03 01 01 18  0.0000000  0  7G04G16G18G19G21G22G27
  24379457.340   128114932.46706  24379463.460    99829831.28443
  20445381.920   107441251.10609  20445381.220    83720434.79648
  21797641.360   114547434.98308  21797640.900    89257766.43546
  22680137.960   119184951.45708  22680136.660    92871401.09545
  23132492.840   121562077.14807  23132492.400    94723698.23645
  21498013.240   112972893.94809  21498011.260    88030835.06846
  21032404.000   110526081.80409  21032405.960    86124253.96448
 15 03 01 01 18 30.0000000  0  7G04G16G18G19G21G22G27
  24360617.840   128015932.48106  24360624.220    99752688.65943
  20446352.020   107446349.11809  20446351.360    83724407.26948
  21799235.340   114555811.44408  21799234.920    89264293.55246
  22666893.320   119115351.05308  22666892.100    92817167.05745
  23146024.840   121633188.51407  23146024.320    94779109.69244
  21486885.660   112914417.76009  21486883.520    87985269.23746
  21024528.240   110484694.32209  21024530.180    86092003.98848
 15 03 01 01 19  0.0000000  0  7G04G16G18G19G21G22G27
  24341807.420   127917084.02906  24341813.640    99675664.13444
  20447427.200   107451999.19809  20447426.560    83728809.92948
  21800924.220   114564686.96208  21800923.920    89271209.55746
  22653669.800   119045861.18108  22653668.560    92763019.14445
  23159571.160   121704375.77007  23159570.600    94834580.27344
  21475838.160   112856362.46408  21475836.020    87940031.37447
  21016688.260   110443494.84109  21016690.180    86059900.50448
 15 03 01 01 19 30.0000000  0  7G04G16G18G19G21G22G27
  24323026.300   127818389.00806  24323032.020    99598759.20444
  20448607.740   107458202.91009  20448607.100    83733643.98348
  21802708.120   114574061.95808  21802707.960    89278514.75946
  22640467.500   118976483.08808  22640466.240    92708958.32945
  23173131.840   121775638.52307  23173131.280    94890109.69144
  21464871.100   112798730.43509  21464869.060    87895123.32447
  21008884.320   110402485.14609  21008886.280    86027944.91448
 15 03 01 01 20  0.0000000  0  7G04G16G18G19G21G22G27
  24304274.260   127719846.24706  24304279.540    99521972.88444
  20449893.160   107464958.00009  20449892.580    83738907.68648
  21804586.640   114583934.19408  21804586.580    89286207.42246
  22627286.180   118907214.94208  22627284.820    92654983.17145
  23186706.220   121846972.75007  23186705.700    94945694.81344
  21453984.660   112741521.36809  21453982.540    87850544.85346
  21001116.140   110361663.68109  21001118.160    85996135.99548
 15 03 01 01 20 30.0000000  0  7G04G16G18G19G21G22G27
  24285552.220   127621461.79605  24285557.280    99445309.95243
  20451284.640   107472270.35609  20451284.040    83744605.61748
  21806560.680   114594308.14108  21806560.620    89294291.02446
  22614126.840   118838062.27208  22614125.500    92601097.99645
  23200295.080   121918382.64407  23200294.520    95001338.87044
  21443179.960   112684742.30508  21443177.840    87806301.44746
  20993385.060   110321036.50009  20993386.980    85964478.45348
 15 03 01 01 21  0.0000000  0  7G04G16G18G19G21G22G27
  24266860.060   127523235.08506  24266865.220    99368769.91043
  20452781.800   107480137.90309  20452781.220    83750736.16848
  21808629.900   114605181.96308  21808629.780    89302764.14246
  22600989.320   118769024.01808  22600987.880    92547301.97245
  23213897.780   121989865.09407  23213897.300    95057039.45044
  21432457.080   112628393.33209  21432455.000    87762393.18446
  20985690.780   110280602.56809  20985692.660    85932971.49348
 15 03 01 01 21 30.0000000  0  7G04G16G18G19G21G22G27
  24248197.740   127425165.29506  24248202.540    99292352.16241
  20454384.500   107488559.95209  20454383.900    83757298.80148
  21810793.780   114616553.53708  21810793.660    89311625.11746
  22587873.320   118700098.77808  22587871.940    92493594.03245
  23227513.780   122061417.12707  23227513.280    95112794.26844
  21421816.220   112572475.16909  21421814.140    87718820.61647
  20978033.020   110240361.02709  20978034.920    85901614.46748
 15 03 01 01 22  0.0000000  0  7G04G16G18G19G21G22G27
  24229565.600   127327252.76206  24229570.160    99216056.93644
  20456092.600   107497535.86709  20456091.960    83764293.01548
  21813052.260   114628422.04508  21813052.140    89320873.31946
  22574778.860   118631286.52208  22574777.420    92439974.12145
  23241142.740   122133037.00707  23241142.040    95168601.96444
  21411257.400   112516988.67909  21411255.300    87675584.41946
  20970411.940   110200312.15509  20970413.800    85870407.56648
 15 03 01 01 22 30.0000000  0  7G04G16G18G19G21G22G27
  24210964.280   127229502.26606  24210968.920    99139887.95843
  20457906.800   107507069.52409  20457906.140    83771721.83448
  21815405.960   114640790.92708  21815405.860    89330511.41946
  22561706.620   118562591.37108  22561705.100    92386445.46545
  23254785.040   122204727.20907  23254784.160    95224464.46444
  21400781.900   112461939.72109  21400779.820    87632689.14547
  20962828.400   110160460.59609  20962830.360    85839354.41548
 15 03 01 01 23  0.0000000  0  7G04G16G18G19G21G22G27
  24192393.440   127131912.80206  24192398.300    99063844.43043
  20459826.780   107517159.17909  20459826.180    83779583.89548
  21817854.340   114653657.30608  21817854.280    89340537.17945
  22548656.280   118494011.78408  22548654.760    92333006.85445
  23268440.060   122276484.11207  23268439.240    95280378.93744
  21390389.620   112407327.83109  21390387.540    87590134.44846
  20955282.140   110120804.99509  20955284.280    85808453.96148
 15 03 01 01 23 30.0000000  0  7G04G16G18G19G21G22G27
  24173853.580   127034486.78306  24173858.720    98987928.26542
  20461852.920   107527806.73709  20461852.380    83787880.68948
  21820397.740   114667022.94708  21820397.640    89350951.97745
  22535628.280   118425549.93308  22535626.760    92279659.97445
  23282107.880   122348308.20207  23282107.120    95336345.76544
  21380081.100   112353156.41109  21380079.000    87547922.98746
  20947773.780   110081348.02109  20947775.920    85777708.27348
 15 03 01 01 24  0.0000000  0  7G04G16G18G19G21G22G27
  24155344.780   126937223.81506  24155349.860    98912139.19144
  20463984.900   107539010.35509  20463984.380    83796610.77948
  21823035.800   114680885.66508  21823035.620    89361754.10946
  22522622.640   118357205.04708  22522621.040    92226404.24745
  23295788.000   122420197.44207  23295787.440    95392363.33245
  21369856.680   112299426.33309  21369854.440    87506055.40747
  20940303.080   110042089.06709  20940305.100    85747116.89148
 15 03 01 01 24 30.0000000  0  7G04G16G18G19G21G22G27
  24136867.400   126840125.66206  24136872.460    98836478.52241
  20466223.080   107550771.87609  20466222.520    83805775.59648
  21825768.420   114695245.60408  21825768.240    89372943.68646
  22509639.520   118288978.58208  22509637.900    92173240.80745
  23309480.200   122492150.87807  23309479.820    95448430.92244
  21359716.760   112246140.19209  21359714.440    87464533.74947
  20932870.380   110003029.82809  20932872.240    85716681.12548
 15 03 01 01 25  0.0000000  0  7G04G16G18G19G21G22G27
  24118421.300   126743191.52206  24118426.040    98760945.62342
  20468567.040   107563089.14009  20468566.400    83815373.45448
  21828595.320   114710101.11608  21828595.160    89384519.41046
  22496678.500   118220868.88708  22496677.080    92120168.36945
  23323184.100   122564165.22707  23323183.720    95504546.02244
  21349661.020   112193297.58109  21349658.860    87423357.72847
  20925475.460   109964169.25909  20925477.260    85686400.16648
 15 03 01 01 25 30.0000000  0  7G04G16G18G19G21G22G27
  24100006.860   126646423.58906  24100011.320    98685542.26342
  20471016.980   107575963.66409  20471016.360    83825405.54548
  21831516.460   114725451.99208  21831516.320    89396481.14046
  22483740.120   118152877.94108  22483738.820    92067188.44945
  23336899.660   122636240.92307  23336899.320    95560708.88044
  21339690.420   112140901.75809  21339688.360    87382529.82947
  20918118.720   109925509.56309  20918120.520    85656275.73548
 15 03 01 01 26  0.0000000  0  7G04G16G18G19G21G22G27
  24081624.300   126549823.18606  24081628.340    98610269.39843
  20473573.140   107589396.06609  20473572.520    83835872.34948
  21834532.000   114741299.04508  21834531.920    89408829.50146
  22470824.580   118085007.05808  22470823.420    92014302.09045
  23350626.760   122708377.15007  23350626.380    95616918.91044
  21329805.340   112088955.41509  21329803.340    87342052.17747
  20910800.580   109887052.30709  20910802.360    85626309.04448
 15 03 01 01 26 30.0000000  0  7G04G16G18G19G21G22G27
  24063273.620   126453389.85306  24063277.280    98535126.78744
  20476235.120   107603384.64709  20476234.500    83846772.52848
  21837641.600   114757640.28208  21837641.460    89421562.94545
  22457931.880   118017255.00208  22457930.600    91961508.30745
  23364364.880   122780571.43907  23364364.520    95673174.21545
  21320005.680   112037458.18209  21320003.780    87301924.49447
  20903520.760   109848796.57609  20903522.560    85596499.39848
 15 03 01 01 27  0.0000000  0  7G04G16G18G19G21G22G27
  24044955.100   126357126.24806  24044958.560    98460116.34543
  20479003.200   107617931.00309  20479002.620    83858107.34948
  21840845.460   114774476.75408  21840845.260    89434682.27746
  22445062.160   117949623.79408  22445060.760    91908808.69545
  23378114.040   122852824.03407  23378113.740    95729474.96844
  21310292.280   111986413.73709  21310290.340    87262149.62047
  20896279.720   109810745.12709  20896281.600    85566848.92748
 15 03 01 01 27 30.0000000  0  7G04G16G18G19G21G22G27
  24026669.180   126261034.85606  24026672.900    98385240.16943
  20481877.820   107633037.32009  20481877.220    83869878.49048
  21844143.720   114791809.14308  21844143.500    89448188.04946
  22432215.760   117882115.56708  22432214.420    91856204.91245
  23391874.360   122925135.41307  23391874.200    95785821.47745
  21300665.540   111935825.31009  21300663.520    87222730.08546
  20889077.960   109772900.37709  20889079.960    85537359.52648
 15 03 01 01 28  0.0000000  0  7G04G16G18G19G21G22G27
  24008415.940   126165115.66806  24008420.280    98310498.11143
  20484858.780   107648702.49609  20484858.200    83882085.11548
  21847536.040   114809635.85508  21847535.840    89462078.99846
  22419392.700   117814730.07108  22419391.340    91803696.77145
  23405645.400   122997503.52307  23405645.400    95842212.17844
  21291125.720   111885693.65709  21291123.780    87183666.48747
  20881915.600   109735262.32909  20881917.680    85508031.18448
 15 03 01 01 28 30.0000000  0  7G04G16G18G19G21G22G27
  23990195.200   126069366.05006  23990199.840    98235888.17043
  20487945.480   107664922.97809  20487944.840    83894724.44348
  21851021.760   114827953.10908  21851021.500    89476352.19545
  22406592.520   117747464.56108  22406591.160    91751282.12845
  23419426.340   123069923.35607  23419426.400    95898643.21644
  21281672.700   111836017.53809  21281670.700    87144957.83847
  20874792.220   109697828.58009  20874794.300    85478862.04248
 15 03 01 01 29  0.0000000  0  7G04G16G18G19G21G22G27
  23972007.460   125973789.56206  23972012.080    98161413.16743
  20491138.200   107681700.85809  20491137.540    83907798.10848
  21854601.140   114846762.61808  21854600.740    89491008.96145
  22393815.760   117680322.08408  22393814.320    91698963.35645
  23433217.640   123142396.95407  23433217.500    95955116.15544
  21272306.920   111786800.56809  21272304.940    87106606.97747
  20867708.420   109660602.34809  20867710.420    85449854.58848
 15 03 01 01 29 30.0000000  0  7G04G16G18G19G21G22G27
  23953852.820   125878386.11106  23953857.140    98087072.96743
  20494436.900   107699035.83009  20494436.220    83921305.87748
  21858274.000   114866063.32508  21858273.520    89506048.49246
  22381062.360   117613302.45208  22381060.960    91646740.29946
  23447018.680   123214922.12407  23447018.320    96011629.27344
  21263028.740   111738043.88409  21263026.780    87068614.78247
  20860664.060   109623583.78409  20860666.020    85421008.96648
 15 03 01 01 30  0.0000000  0  7G04G16G18G19G21G22G27
  23935731.500   125783157.82107  23935735.620    98012869.31443
  20497841.800   107716928.53509  20497841.100    83935248.23248
  21862040.380   114885855.67508  21862039.900    89521471.10045
  22368332.720   117546407.38208  22368331.340    91594614.30346
  23460829.580   123287498.74307  23460829.180    96068182.47544
  21253838.840   111689750.26009  21253836.720    87030983.40347
  20853659.580   109586774.98509  20853661.480    85392326.79948
 15 03 01 01 30 30.0000000  0  7G04G16G18G19G21G22G27
  23917643.780   125688106.26107  23917647.760    97938803.30243
  20501353.000   107735379.81109  20501352.320    83949625.83948
  21865900.200   114906139.18708  21865899.760    89537276.45346
  22355627.000   117479638.05808  22355625.580    91542586.29746
  23474650.100   123360126.14807  23474649.840    96124775.25544
  21244737.440   111641921.97009  21244735.240    86993714.62647
  20846695.300   109550177.54109  20846697.160    85363809.32148
 15 03 01 01 31  0.0000000  0  7G04G16G18G19G21G22G27
  23899589.960   125593232.51807  23899593.760    97864875.88643
  20504970.460   107754389.47109  20504969.840    83964438.55948
  21869853.360   114926913.40908  21869852.960    89553464.16646
  22342945.300   117412995.06908  22342943.880    91490656.73746
  23488480.160   123432803.66907  23488480.080    96181407.09044
  21235724.740   111594559.97309  21235722.500    86956809.19247
  20839771.460   109513792.60809  20839773.340    85335457.43148
 15 03 01 01 31 30.0000000  0  7G04G16G18G19G21G22G27
  23881569.880   125498537.20706  23881573.620    97791087.48043
  20508694.080   107773957.40409  20508693.500    83979686.29148
  21873899.760   114948177.50608  21873899.420    89570033.59846
  22330287.700   117346479.06908  22330286.220    91438826.12846
  23502319.520   123505529.98407  23502319.500    96238076.95044
  21226801.320   111547667.17609  21226799.160    86920269.36947
  20832888.240   109477620.87009  20832890.120    85307271.67748
 15 03 01 01 32  0.0000000  0  7G04G16G18G19G21G22G27
  23863583.520   125404019.51106  23863587.040    97717437.51243
  20512523.540   107794081.39709  20512522.920    83995367.31648
  21878038.940   114969929.12208  21878038.680    89586982.91445
  22317654.100   117280089.18708  22317652.620    91387093.78746
  23516167.680   123578302.19607  23516167.600    96294782.57643
  21217966.920   111501242.74209  21217964.980    86884094.52047
  20826045.440   109441661.58709  20826047.340    85279251.47348
 15 03 01 01 32 30.0000000  0  7G04G16G18G19G21G22G27
  23845631.500   125309681.49306  23845634.840    97643927.52343
  20516459.040   107814762.69209  20516458.400    84011482.60548
  21882271.000   114992168.68208  21882270.720    89604312.44746
  22305044.800   117213826.64508  22305043.220    91335460.65646
  23530024.580   123651120.22407  23530024.420    96351523.87644
  21209222.220   111455289.29609  21209220.360    86848286.65547
  20819243.440   109405916.78609  20819245.340    85251398.39248
 15 03 01 01 33  0.0000000  0  7G04G16G18G19G21G22G27
  23827713.740   125215524.11107  23827717.160    97570558.29844
  20520500.540   107836001.08109  20520499.940    84028031.99848
  21886595.760   115014895.38108  21886595.400    89622021.57346
  22292459.820   117147692.34408  22292458.220    91283927.46546
  23543890.120   123723983.25807  23543889.620    96408300.26944
  21200567.520   111409808.58309  21200565.640    86812847.14847
  20812482.460   109370387.53809  20812484.340    85223713.28048
 15 03 01 01 33 30.0000000  0  7G04G16G18G19G21G22G27
  23809830.720   125121548.95806  23809834.360    97497331.06843
  20524648.160   107857796.83109  20524647.540    84045015.68448
  21891013.200   115038109.20008  21891012.780    89640110.26646
  22279899.440   117081687.68008  22279897.900    91232495.29646
  23557764.080   123796891.03507  23557763.260    96465111.48244
  21192003.160   111364802.78509  21192001.220    86777777.72247
  20805762.760   109335075.56309  20805764.720    85196197.46548
 15 03 01 01 34  0.0000000  0  7G04G16G18G19G21G22G27
  23791982.380   125027756.54106  23791985.920    97424246.24843
  20528901.740   107880149.41409  20528901.080    84062433.27748
  21895523.160   115061809.05808  21895522.640    89658577.70045
  22267363.680   117015812.93308  22267362.340    91181164.35746
  23571646.260   123869841.92307  23571645.020    96521956.33643
  21183529.520   111320273.11509  21183527.400    86743079.29247
  20799084.620   109299981.56609  20799086.600    85168851.50848
 15 03 01 01 34 30.0000000  0  7G04G16G18G19G21G22G27
  23774169.140   124934148.97006  23774172.900    97351305.41143
  20533261.500   107903060.14909  20533260.820    84080285.79248
  21900125.740   115085995.53008  21900125.100    89677424.30146
  22254853.020   116950070.04808  22254851.720    91129936.16246
  23585536.620   123942835.84007  23585535.040    96578834.72543
  21175147.000   111276222.53109  21175144.840    86708754.17647
  20792448.360   109265107.70809  20792450.340    85141677.08848
 15 03 01 01 35  0.0000000  0  7G04G16G18G19G21G22G27
  23756390.800   124840724.75006  23756394.640    97278507.49943
  20537726.900   107926526.09009  20537726.280    84098570.93648
  21904820.260   115110665.49308  21904819.640    89696647.65845
  22242367.300   116884457.54408  22242365.960    91078809.57246
  23599434.580   124015870.24707  23599432.940    96635744.65044
  21166855.420   111232649.91809  21166853.240    86674801.51547
  20785853.680   109230452.60209  20785855.660    85114673.12948
 15 03 01 01 35 30.0000000  0  7G04G16G18G19G21G22G27
  23738647.700   124747485.92706  23738651.860    97205853.99243
  20542298.140   107950548.22309  20542297.600    84117289.47548
  21909606.820   115135818.96008  21909606.240    89716247.77245
  22229906.740   116818976.96908  22229905.360    91027785.77846
  23613340.160   124088944.75207  23613338.620    96692685.80744
  21158655.360   111189557.99909  21158653.100    86641223.40747
  20779301.080   109196018.53809  20779303.020    85087841.40248
 15 03 01 01 36  0.0000000  0  7G04G16G18G19G21G22G27
  23720940.060   124654432.83606  23720944.360    97133345.28644
  20546975.040   107975125.43309  20546974.500    84136440.53848
  21914485.160   115161454.71808  21914484.580    89736223.69345
  22217471.260   116753628.36408  22217470.000    90976864.81446
  23627253.060   124162057.71607  23627251.640    96749656.92544
  21150546.880   111146947.64409  21150544.660    86608020.55947
  20772790.620   109161805.87609  20772792.500    85061182.19548
 15 03 01 01 36 30.0000000  0  7G04G16G18G19G21G22G27
  23703267.820   124561565.25306  23703272.120    97060981.05043
  20551757.280   108000256.21609  20551756.680    84156022.95448
  21919454.900   115187570.65908  21919454.200    89756573.79445
  22205060.880   116688411.51908  22205059.640    90926046.52446
  23641172.920   124235206.90907  23641171.540    96806656.31343
  21142530.040   111104819.02809  21142527.900    86575193.08147
  20766322.240   109127814.43909  20766324.080    85034695.37148
 15 03 01 01 37  0.0000000  0  7G04G16G18G19G21G22G27
  23685631.280   124468884.40507  23685635.340    96988762.34543
  20556644.940   108025940.76109  20556644.200    84176036.87948
  21924515.940   115214166.46708  21924515.200    89777297.80445
  22192675.840   116623327.42908  22192674.480    90875331.69445
  23655099.680   124308392.01707  23655098.400    96863683.69643
  21134605.200   111063174.11009  21134603.160    86542742.51147
  20759896.240   109094045.76509  20759898.080    85008382.13148
 15 03 01 01 37 30.0000000  0  7G04G16G18G19G21G22G27
  23668030.960   124376393.44506  23668034.800    96916691.60043
  20561638.460   108052181.66509  20561637.680    84196484.32548
  21929668.520   115241243.47108  21929667.760    89798396.77745
  22180316.740   116558379.37108  22180315.120    90824722.84646
  23669033.440   124381614.37806  23669032.180    96920740.07144
  21126773.220   111022017.31109  21126771.280    86510672.29447
  20753513.320   109060503.33309  20753515.140    84982245.17548
 15 03 01 01 38  0.0000000  0  7G04G16G18G19G21G22G27
  23650467.080   124284043.49007  23650470.260    96844723.50042
  20566737.800   108078978.96509  20566737.060    84217365.33348
  21934912.660   115268801.81308  21934911.940    89819870.80945
  22167983.680   116493569.04008  22167982.020    90774221.32245
  23682974.100   124454873.85206  23682973.080    96977825.33344
  21119034.580   110981350.52509  21119032.640    86478983.90247
  20747173.800   109027189.09409  20747175.600    84956286.04248
 15 03 01 01 38 30.0000000  0  7G04G16G18G19G21G22G27
  23632939.260   124191934.36406  23632942.520    96772950.28843
  20571942.340   108106329.32009  20571941.680    84238677.28848
  21940247.700   115296837.73708  21940246.980    89841716.99845
  22155676.320   116428894.52008  22155674.820    90723825.62946
  23696921.180   124528166.94607  23696920.400    97034936.82443
  21111388.940   110941172.26309  21111387.000    86447676.18647
  20740877.360   108994101.38009  20740879.200    84930503.42448
 15 03 01 01 39  0.0000000  0  7G04G16G18G19G21G22G27
  23615447.720   124100016.61006  23615450.840    96701326.21343
  20577252.120   108134232.77009  20577251.580    84260420.23248
  21945673.620   115325351.15008  21945672.840    89863935.25045
  22143395.060   116364356.95608  22143393.700    90673536.64946
  23710874.660   124601493.18807  23710874.020    97092074.18143
  21103836.700   110901484.85109  21103834.740    86416750.94647
  20734624.360   108961241.88509  20734626.260    84904898.63548
 15 03 01 01 39 30.0000000  0  7G04G16G18G19G21G22G27
  23597992.560   124008289.36707  23597995.440    96629850.54043
  20582666.860   108162687.59709  20582666.420    84282592.81248
  21951189.880   115354339.37308  21951189.160    89886523.47445
  22131139.820   116299955.36908  22131138.460    90623353.61746
  23724833.880   124674850.03406  23724833.360    97149235.37943
  21096377.660   110862287.51209  21096375.720    86386207.58447
  20728414.680   108928609.83909  20728416.660    84879471.07548
 15 03 01 01 40  0.0000000  0  7G04G16G18G19G21G22G27
  23580574.660   123916758.15707  23580577.440    96558527.67544
  20588187.340   108191697.89409  20588186.920    84305198.23448
  21956797.200   115383806.24908  21956796.540    89909484.68245
  22118911.680   116235695.35008  22118910.020    90573280.89546
  23738799.560   124748241.31806  23738799.220    97206423.38343
  21089013.060   110823586.76109  21089011.140    86356051.18147
  20722249.460   108896211.21309  20722251.500    84854225.40448
 15 03 01 01 40 30.0000000  0  7G04G16G18G19G21G22G27
  23563193.000   123825417.35907  23563195.800    96487353.14443
  20593812.240   108221256.70609  20593811.800    84328231.06348
  21962494.080   115413743.96808  21962493.500    89932812.77845
  22106709.420   116171571.19508  22106707.380    90523314.05046
  23752770.460   124821659.37407  23752770.260    97263632.27044
  21081741.980   110785377.10409  21081739.980    86326277.43947
  20716127.560   108864040.39509  20716129.540    84829157.24348
 15 03 01 01 41  0.0000000  0  7G04G16G18G19G21G22G27
  23545848.660   123734272.74407  23545851.360    96416331.50143
  20599542.380   108251368.42209  20599541.860    84351694.72548
  21968281.400   115444156.85208  21968280.880    89956511.14445
  22094534.080   116107588.48508  22094531.780    90473457.41146
  23766747.380   124895108.22407  23766747.300    97320865.14244
  21074565.620   110747664.86509  21074563.440    86296891.28547
  20710050.160   108832103.46609  20710052.100    84804271.33548
 15 03 01 01 41 30.0000000  0  7G04G16G18G19G21G22G27
  23528541.240   123643321.67707  23528543.880    96345460.65743
  20605376.920   108282029.01609  20605376.380    84375586.08648
  21974158.300   115475039.97008  21974157.820    89980575.92046
  22082385.060   116043744.59908  22082382.780    90423708.96346
  23780729.340   124968583.59707  23780729.480    97378118.66143
  21067483.460   110710447.64809  21067481.180    86267890.87647
  20704016.800   108800398.07709  20704018.760    84779565.85748
 15 03 01 01 42  0.0000000  0  7G04G16G18G19G21G22G27
  23511271.740   123552569.99207  23511274.400    96274745.18944
  20611316.740   108313243.03109  20611316.160    84399908.68348
  21980125.440   115506397.63908  21980125.020    90005010.47845
  22070263.480   115980045.22908  22070261.380    90374073.11346
  23794716.980   125042089.33006  23794717.160    97435395.84544
  21060496.800   110673732.19409  21060494.440    86239281.44847
  20698028.680   108768930.26209  20698030.620    84755045.49048
 15 03 01 01 42 30.0000000  0  7G04G16G18G19G21G22G27
  23494039.540   123462013.88907  23494042.160    96204182.11943
  20617360.820   108345004.84309  20617360.260    84424658.14348
  21986181.820   115538224.10708  21986181.360    90029810.32545
  22058168.700   115916486.93408  22058166.800    90324547.20146
  23808709.380   125115620.46906  23808709.280    97492692.83943
  21053604.920   110637515.22509  21053602.560    86211060.45647
  20692085.200   108737696.67809  20692087.080    84730707.64048
 15 03 01 01 43  0.0000000  0  7G04G16G18G19G21G22G27
  23476844.960   123371655.39907  23476847.580    96133773.01244
  20623509.280   108377315.06409  20623508.680    84449834.92247
  21992327.420   115570519.58508  21992326.940    90054975.64445
  22046101.060   115853071.39408  22046099.260    90275132.53046
  23822706.780   125189177.10007  23822706.300    97550009.68843
  21046808.220   110601798.62509  21046805.820    86183229.35547
  20686186.620   108706699.36809  20686188.460    84706553.90548
 15 03 01 01 43 30.0000000  0  7G04G16G18G19G21G22G27
  23459688.120   123281495.88507  23459690.880    96063518.99943
  20629762.140   108410174.10409  20629761.520    84475439.36347
  21998562.180   115603283.68308  21998561.680    90080506.11245
  22034060.780   115789799.75308  22034058.980    90225829.97946
  23836709.000   125262758.72207  23836708.360    97607346.06043
  21040107.220   110566584.60909  21040104.780    86155789.87647
  20680333.260   108675940.08509  20680335.100    84682585.64648
 15 03 01 01 44  0.0000000  0  7G04G16G18G19G21G22G27
  23442569.100   123191535.71007  23442572.080    95993420.27443
  20636119.140   108443580.51209  20636118.480    84501470.31447
  22004885.800   115636514.38008  22004885.180    90106400.17045
  22022048.020   115726672.77208  22022046.260    90176640.16946
  23850715.780   125336364.03807  23850714.920    97664700.86443
  21033501.900   110531873.64409  21033499.460    86128742.38847
  20674525.320   108645419.55309  20674527.220    84658803.43448
 15 03 01 01 44 30.0000000  0  7G04G16G18G19G21G22G27
  23425488.260   123101776.31007  23425491.320    95923477.99743
  20642580.380   108477534.52309  20642579.800    84527927.98147
  22011298.160   115670211.51208  22011297.460    90132657.69445
  22010063.120   115663691.85508  22010061.340    90127564.15846
  23864727.140   125409993.06506  23864726.120    97722074.11144
  21026992.660   110497667.51209  21026990.200    86102088.27747
  20668763.120   108615139.46609  20668765.040    84635208.56148
 15 03 01 01 45  0.0000000  0  7G04G16G18G19G21G22G27
  23408445.940   123012219.71207  23408448.960    95853693.77043
  20649145.980   108512036.64009  20649145.380    84554812.73548
  22017799.360   115704375.52208  22017798.620    90159279.00545
  21998106.440   115600859.12508  21998104.700    90078603.62246
  23878742.960   125483645.80606  23878741.840    97779465.81844
  21020580.020   110463968.99009  21020577.560    86075829.71347
  20663047.180   108585102.20109  20663049.100    84611802.91548
 15 03 01 01 45 30.0000000  0  7G04G16G18G19G21G22G27
  23391442.100   122922865.76107  23391445.040    95784067.40443
  20655815.460   108547084.69909  20655814.820    84582122.90347
  22024388.780   115739003.42108  22024388.140    90186261.78345
  21986177.900   115538174.22408  21986176.200    90029758.27546
  23892762.940   125557320.68607  23892761.800    97836874.80943
  21014263.960   110430777.98109  21014261.480    86049966.59847
  20657377.520   108555307.81809  20657379.420    84588586.52348
 15 03 01 01 46  0.0000000  0  7G04G16G18G19G21G22G27
  23374476.700   122833713.36907  23374479.700    95714598.12743
  20662588.360   108582676.60009  20662587.720    84609856.84747
  22031066.140   115774093.30508  22031065.540    90213604.55045
  21974277.300   115475636.45108  21974275.700    89981027.58046
  23906786.560   125631015.04107  23906785.320    97894298.98843
  21008044.380   110398093.79109  21008041.940    86024498.41847
  20651753.940   108525755.72709  20651755.840    84565558.93148
 15 03 01 01 46 30.0000000  0  7G04G16G18G19G21G22G27
  23357550.000   122744763.96407  23357553.160    95645286.99342
  20669464.760   108618812.27609  20669464.100    84638014.50947
  22037831.300   115809644.23808  22037830.680    90241306.59245
  21962404.960   115413247.21708  21962403.420    89932412.62546
  23920813.840   125704728.71907  23920812.560    97951738.29243
  21001921.560   110365918.18409  21001919.180    85999426.53347
  20646176.840   108496447.70809  20646178.700    84542721.52748
 15 03 01 01 47  0.0000000  0  7G04G16G18G19G21G22G27
  23340662.220   122656018.44107  23340665.560    95576134.74843
  20676444.380   108655490.73409  20676443.800    84666595.11747
  22044683.980   115845655.03108  22044683.320    90269366.95245
  21950560.980   115351007.28908  21950559.560    89883914.01746
  23934844.580   125778461.00706  23934843.360    98009192.01344
  20995895.680   110334252.07309  20995893.380    85974751.65847
  20640646.360   108467384.81109  20640648.220    84520075.12548
 15 03 01 01 47 30.0000000  0  7G04G16G18G19G21G22G27
  23323813.780   122567479.53807  23323817.280    95507143.49944
  20683527.560   108692713.25709  20683527.120    84695599.67447
  22051624.280   115882126.56608  22051623.620    90297786.34745
  21938745.980   115288919.59708  21938744.720    89835534.03846
  23948879.000   125852212.97106  23948878.000    98066661.02044
  20989967.420   110303098.99109  20989965.160    85950476.54547
  20635163.140   108438570.28009  20635164.960    84497622.26048
 15 03 01 01 48  0.0000000  0  7G04G16G18G19G21G22G27
  23307004.460   122479146.23907  23307007.800    95438312.47744
  20690713.900   108730477.64109  20690713.520    84725026.46147
  22058651.640   115919055.82108  22058650.980    90326562.39145
  21926959.820   115226983.21808  21926958.600    89787271.95146
  23962916.680   125925982.17306  23962915.860    98124143.48144
  20984136.580   110272458.06109  20984134.360    85926600.52147
  20629727.140   108410003.61009  20629728.920    84475362.52448
 15 03 01 01 48 30.0000000  0  7G04G16G18G19G21G22G27
  23290234.860   122391021.84807  23290238.060    95369644.21543
  20698003.560   108768784.83509  20698003.180    84754876.21047
  22065766.280   115956443.99008  22065765.720    90355696.04045
  21915203.100   115165201.60008  21915201.860    89739130.45746
  23976957.980   125999770.07107  23976957.420    98181640.52543
  20978403.880   110242332.73009  20978401.640    85903126.24747
  20624338.920   108381688.17509  20624340.600    84453298.55548
 15 03 01 01 49  0.0000000  0  7G04G16G18G19G21G22G27
  23273503.840   122303100.12507  23273507.020    95301133.89544
  20705395.060   108807627.54009  20705394.680    84785143.23647
  22072966.820   115994283.19908  22072966.300    90385181.14045
  21903474.800   115103569.07808  21903473.440    89691105.15046
  23991001.480   126073569.13207  23991001.040    98239146.31243
  20972768.220   110212717.18409  20972765.980    85880049.21447
  20618997.400   108353618.38809  20618999.020    84431426.00148
 15 03 01 01 49 30.0000000  0  7G04G16G18G19G21G22G27
  23256812.440   122215386.32907  23256815.420    95232785.57443
  20712889.080   108847009.08809  20712888.720    84815830.15547
  22080253.740   116032576.11108  22080253.240    90415019.77545
  21891775.820   115042090.56808  21891774.320    89643199.84046
  24005047.760   126147382.84806  24005047.320    98296663.52442
  20967230.540   110183616.50809  20967228.300    85857373.37947
  20613703.560   108325799.57309  20613705.260    84409749.01748
 15 03 01 01 50  0.0000000  0  7G04G16G18G19G21G22G27
  23240161.000   122127882.38207  23240163.720    95164600.78444
  20720485.640   108886929.33809  20720485.320    84846936.83747
  22087627.080   116071323.13508  22087626.580    90445212.27745
  21880106.520   114980767.78208  21880104.880    89595415.88246
  24019096.920   126221211.68706  24019096.320    98354192.49543
  20961791.260   110155032.95109  20961789.000    85835100.49447
  20608457.980   108298234.23209  20608459.740    84388269.54048
 15 03 01 01 50 30.0000000  0  7G04G16G18G19G21G22G27
  23223549.600   122040589.51907  23223552.360    95096580.47043
  20728184.960   108927388.93909  20728184.520    84878463.78947
  22095086.720   116110523.71608  22095086.300    90475758.19545
  21868467.300   114919602.81708  21868465.580    89547754.90746
  24033148.960   126295055.76606  24033148.460    98411733.28743
  20956450.700   110126968.29209  20956448.460    85813231.94147
  20603261.160   108270924.30909  20603262.820    84366989.08548
 15 03 01 01 51  0.0000000  0  7G04G16G18G19G21G22G27
  23206977.880   121953505.23107  23206980.620    95028722.66144
  20735985.980   108968383.16009  20735985.420    84910407.32847
  22102631.740   116150172.75708  22102631.320    90506653.56345
  21856857.600   114858593.04008  21856855.740    89500214.85446
  24047203.160   126368910.73306  24047202.580    98469282.59243
  20951208.340   110099419.90409  20951206.140    85791765.68747
  20598112.500   108243867.34209  20598114.060    84345905.74348
 15 03 01 01 51 30.0000000  0  7G04G16G18G19G21G22G27
  23190445.960   121866629.40707  23190448.580    94961027.32344
  20743888.280   109009910.10309  20743887.700    84942765.97747
  22110261.660   116190268.15708  22110261.220    90537896.73845
  21845277.380   114797738.44708  21845275.480    89452795.71146
  24061259.280   126442775.05207  24061258.580    98526839.21043
  20946064.420   110072388.26709  20946062.220    85770702.07647
  20593011.920   108217063.78409  20593013.540    84325019.86448
 15 03 01 01 52  0.0000000  0  7G04G16G18G19G21G22G27
  23173954.620   121779966.42907  23173956.920    94893497.83143
  20751892.420   109051972.39009  20751891.900    84975541.77647
  22117977.000   116230812.38708  22117976.520    90569489.65145
  21833727.540   114737043.72508  21833725.640    89405501.14946
  24075317.600   126516651.52307  24075316.960    98584405.28344
  20941019.560   110045877.42809  20941017.320    85750044.29547
  20587960.440   108190518.29909  20587962.100    84304335.07848
 15 03 01 01 52 30.0000000  0  7G04G16G18G19G21G22G27
  23157503.760   121693515.87707  23157505.880    94826133.85944
  20759998.060   109094567.86809  20759997.600    85008733.05047
  22125777.320   116271803.35108  22125776.820    90601430.67445
  21822208.160   114676508.92708  21822206.220    89358331.18946
  24089377.840   126590538.63006  24089377.300    98641979.64643
  20936073.780   110019887.29909  20936071.500    85729792.27447
  20582958.160   108164231.23709  20582959.860    84283851.66248
 15 03 01 01 53  0.0000000  0  7G04G16G18G19G21G22G27
  23141093.800   121607280.61407  23141095.880    94758937.62044
  20768205.500   109137698.01509  20768205.060    85042340.94647
  22133662.740   116313241.47808  22133662.220    90633720.13045
  21810719.700   114616136.77008  21810717.720    89311287.97346
  24103440.200   126664437.41206  24103439.780    98699563.09642
  20931227.680   109994421.04209  20931225.380    85709948.45047
  20578005.720   108138205.65009  20578007.380    84263571.98848
 15 03 01 01 53 30.0000000  0  7G04G16G18G19G21G22G27
  23124724.540   121521259.14407  23124726.500    94691908.00543
  20776513.920   109181359.08609  20776513.500    85076362.55147
  22141632.620   116355123.44408  22141632.140    90666355.43845
  21799261.980   114555926.10308  21799260.020    89264370.58646
  24117504.000   126738344.97405  24117503.720    98757153.44544
  20926480.920   109969477.08409  20926478.680    85690511.62147
  20573102.760   108112440.63209  20573104.440    84243495.35848
 15 03 01 01 54  0.0000000  0  7G04G16G18G19G21G22G27
  23108395.940   121435451.84507  23108397.680    94625045.27543
  20784923.180   109225549.88209  20784922.720    85110796.92447
  22149686.520   116397447.15008  22149686.060    90699334.95845
  21787835.120   114495877.65608  21787833.160    89217579.61146
  24131569.460   126812260.94206  24131569.380    98814750.28342
  20921833.660   109945056.09609  20921831.560    85671482.29847
  20568249.520   108086936.97809  20568251.260    84223622.39348
 15 03 01 01 54 30.0000000  0  7G04G16G18G19G21G22G27
  23092107.800   121349857.85907  23092109.540    94558348.77944
  20793432.820   109270268.12109  20793432.300    85145642.30547
  22157823.960   116440210.06908  22157823.620    90732656.71745
  21776439.060   114435990.85208  21776437.040    89170914.58546
  24145636.240   126886182.35706  24145635.980    98872351.34243
  20917285.760   109921156.75709  20917283.720    85652859.44747
  20563445.980   108061694.31009  20563447.780    84203952.78248
 15 03 01 01 55  0.0000000  0  7G04G16G18G19G21G22G27
  23075860.660   121264479.70507  23075862.540    94491820.43644
  20802042.860   109315514.11609  20802042.340    85180898.91247
  22166045.100   116483412.30208  22166044.740    90766320.80145
  21765074.200   114376268.27008  21765072.220    89124377.53846
  24159704.460   126960110.24506  24159703.900    98929957.49143
  20912837.720   109897782.12309  20912835.640    85634645.46947
  20558692.620   108036715.46809  20558694.420    84184488.76448
 15 03 01 01 55 30.0000000  0  7G04G16G18G19G21G22G27
  23059654.920   121179319.54307  23059657.020    94425461.94644
  20810753.320   109361288.08209  20810752.800    85216566.92947
  22174350.000   116527054.20208  22174349.580    90800327.49345
  21753741.160   114316712.57208  21753739.180    89077970.51546
  24173774.140   127034046.01206  24173773.520    98987569.76244
  20908490.020   109874934.54209  20908487.880    85616842.17647
  20553990.100   108012003.46209  20553991.820    84165232.65348
 15 03 01 01 56  0.0000000  0  7G04G16G18G19G21G22G27
  23043490.400   121094376.15607  23043492.640    94359272.36243
  20819563.720   109407587.26709  20819563.200    85252644.20447
  22182737.900   116571132.30208  22182737.320    90834674.07245
  21742439.660   114257322.93808  21742437.700    89031692.91046
  24187844.580   127107986.64906  24187844.000    99045185.83744
  20904242.360   109852612.62009  20904240.100    85599448.49147
  20549338.180   107987557.37809  20549339.940    84146183.76248
 15 03 01 01 56 30.0000000  0  8G04G11G16G18G19G21G22G27
  23027367.860   121009652.39307  23027370.120    94293253.93343
  24682008.940   129704829.84606  24682009.760   101068686.23341
  20828474.260   109454412.61209  20828473.800    85289131.47647
  22191208.920   116615647.29008  22191208.080    90869361.08245
  21731170.260   114198102.31708  21731168.300    88985546.99246
  24201916.080   127181933.64805  24201915.460    99102806.87742
  20900095.200   109830818.62209  20900092.780    85582466.17147
  20544737.380   107963380.46509  20544739.240    84127344.62448
 15 03 01 01 57  0.0000000  0  8G04G11G16G18G19G21G22G27
  23011282.160   120925121.34307  23011284.220    94227385.68944
  24664481.440   129612723.47506  24664481.820   100996915.20543
  20837479.460   109501735.36009  20837479.060    85326006.33047
  22199757.400   116660570.24108  22199756.580    90904365.98545
  21719927.880   114139023.97908  21719925.980    88939511.94146
  24215983.500   127255858.81806  24215982.960    99160410.83443
  20896043.560   109809526.83709  20896041.080    85565875.18247
  20540182.880   107939446.43009  20540184.700    84108694.72648
 15 03 01 01 57 30.0000000  0  8G04G11G16G18G19G21G22G27
  22995242.780   120840833.40207  22995244.680    94161706.83344
  24646973.080   129520717.71807  24646973.700   100925222.51642
  20846588.460   109549603.76509  20846588.180    85363306.37347
  22208392.740   116705949.38808  22208391.940    90939726.36845
  21708722.360   114080138.96508  21708720.440    88893627.53546
  24230056.280   127329811.34206  24230055.600    99218036.21041
  20892096.980   109788787.29809  20892094.460    85549714.52347
  20535684.280   107915806.29009  20535686.100    84090273.85148
 15 03 01 01 58  0.0000000  0  8G04G11G16G18G19G21G22G27
  22979244.680   120756762.65307  22979246.560    94096197.23444
  24629479.040   129428786.04306  24629479.760   100853587.60241
  20855796.020   109597989.77409  20855795.820    85401009.75147
  22217109.480   116751756.67308  22217108.840    90975420.35845
  21697548.720   114021421.36108  21697546.860    88847873.58546
  24244129.200   127403763.74006  24244128.340    99275661.47843
  20888250.340   109768573.47809  20888247.880    85533963.50747
  20531236.740   107892434.52809  20531238.640    84072062.09248
 15 03 01 01 58 30.0000000  0  8G04G11G16G18G19G21G22G27
  22963288.560   120672912.70807  22963290.560    94030859.71143
  24611999.700   129336932.27506  24612000.500   100782013.38941
  20865102.640   109646896.17509  20865102.360    85439118.62247
  22225908.140   116797993.89108  22225907.600    91011449.36345
  21686407.780   113962875.16608  21686405.960    88802253.19046
  24258202.540   127477718.50106  24258201.780    99333288.57543
  20884504.440   109748889.03009  20884502.040    85518624.98847
  20526841.160   107869335.36509  20526843.000    84054062.74648
 15 03 01 01 59  0.0000000  0  8G04G11G16G18G19G21G22G27
  22947374.880   120589285.55007  22947376.940    93965695.77444
  24594535.500   129245157.90706  24594536.360   100710501.02744
  20874508.220   109696322.32409  20874507.760    85477632.49047
  22234788.560   116844660.41908  22234788.020    91047812.90645
  21675299.960   113904503.06508  21675298.140    88756768.44246
  24272276.220   127551676.04706  24272275.860    99390917.82343
  20880859.700   109729736.09709  20880857.320    85503700.64047
  20522497.900   107846511.22009  20522499.640    84036277.71048
 15 03 01 01 59 30.0000000  0  8G04G11G16G18G19G21G22G27
  22931503.680   120505882.02107  22931505.800    93900706.09444
  24577086.640   129153463.99107  24577087.540   100639051.30942
  20884012.380   109746266.80109  20884011.840    85516550.25547
  22243750.280   116891754.86708  22243749.720    91084509.88445
  21664225.380   113846306.00608  21664223.580    88711420.10746
  24286350.180   127625636.40605  24286350.240    99448549.23143
  20877316.300   109711115.59609  20877313.880    85489191.18047
  20518207.280   107823963.52809  20518208.960    84018708.07248
 15 03 01 02 00  0.0000000  0  8G04G11G16G18G19G21G22G27
  22915674.360   120422698.78207  22915676.580    93835888.06644
  24559652.260   129061846.95906  24559653.120   100567661.55143
  20893614.200   109796724.69509  20893613.660    85555868.08647
  22252792.500   116939272.08508  22252791.840    91121536.29645
  21653183.560   113788281.10808  21653181.800    88666205.92546
  24300423.860   127699595.32105  24300424.140    99506179.48943
  20873873.600   109693024.21609  20873871.140    85475094.02047
  20513968.700   107801689.53509  20513970.380    84001351.72448
 15 03 01 02 00 30.0000000  0  8G04G11G16G18G19G21G22G27
  22899887.480   120339739.15007  22899889.920    93771244.27144
  24542233.020   128970310.09806  24542233.960   100496334.22944
  20903314.000   109847697.46209  20903313.460    85595587.10947
  22261915.260   116987213.06508  22261914.620    91158892.90345
  21642175.220   113730432.57408  21642173.580    88621129.17246
  24314497.580   127773554.34606  24314498.120    99563809.86143
  20870532.120   109675464.87309  20870529.660    85461411.42047
  20509782.900   107779693.11009  20509784.600    83984211.66148
 15 03 01 02 01  0.0000000  0  8G04G11G16G18G19G21G22G27
  22884142.960   120257002.14807  22884145.520    93706773.94344
  24524828.740   128878852.00506  24524830.100   100425068.29942
  20913111.200   109899182.00409  20913110.640    85635704.91747
  22271118.180   117035574.67008  22271117.360    91196577.27344
  21631200.240   113672759.36908  21631198.700    88576189.02746
  24328570.960   127847510.75406  24328571.480    99621438.23941
  20867291.700   109658436.46109  20867289.280    85448142.54647
  20505649.880   107757973.91409  20505651.500    83967287.60448
 15 03 01 02 01 30.0000000  0  8G04G11G16G18G19G21G22G27
  22868440.840   120174487.71307  22868443.420    93642477.07144
  24507439.560   128787472.88106  24507441.100   100353863.93343
  20923005.380   109951176.25509  20923004.800    85676219.91247
  22280400.740   117084354.54508  22280399.700    91234587.57744
  21620258.660   113615261.50908  21620257.220    88531385.53246
  24342643.760   127921463.63606  24342643.800    99679063.91043
  20864152.340   109641938.79009  20864149.880    85435287.23647
  20501569.640   107736532.29809  20501571.200    83950579.86148
 15 03 01 02 02  0.0000000  0  8G04G11G16G18G19G21G22G27
  22852781.600   120092198.19807  22852784.060    93578355.44643
  24490065.840   128696174.77506  24490067.640   100282722.64143
  20932996.620   110003680.58609  20932996.040    85717132.35547
  22289762.960   117133553.25908  22289761.820    91272924.23444
  21609351.360   113557942.97408  21609349.880    88486721.75146
  24356716.300   127995415.30606  24356716.280    99736688.59542
  20861114.460   109625974.52009  20861111.960    85422847.55647
  20497542.800   107715371.35509  20497544.400    83934090.81748
 15 03 01 02 02 30.0000000  0  8G04G11G16G18G19G21G22G27
  22837165.120   120010133.34107  22837167.500    93514408.87644
  24472707.520   128604956.84406  24472709.700   100211643.86542
  20943084.460   110056692.58509  20943083.920    85758440.39647
  22299204.380   117183168.20308  22299203.240    91311585.24245
  21598478.080   113500802.61109  21598476.460    88442196.80546
  24370788.100   128069362.74906  24370787.800    99794309.95842
  20858177.860   109610542.49609  20858175.360    85410822.61947
  20493569.420   107694491.32309  20493571.140    83917820.67448
 15 03 01 02 03  0.0000000  0  8G04G11G16G18G19G21G22G27
  22821591.760   119928294.57407  22821593.920    93450638.47943
  24455364.820   128513820.76906  24455367.400   100140628.83441
  20953268.760   110110211.60809  20953268.300    85800143.51647
  22308724.800   117233198.62608  22308723.720    91350569.98345
  21587639.100   113443842.48909  21587637.300    88397812.31446
  24384859.220   128143306.60805  24384858.700    99851928.54842
  20855342.800   109595644.27909  20855340.320    85399213.63147
  20489649.900   107673894.28809  20489651.680    83901771.03448
 15 03 01 02 03 30.0000000  0  8G04G11G16G18G19G21G22G27
  22806061.400   119846681.67407  22806063.340    93387044.07244
  24438037.520   128422765.95006  24438040.360   100069677.10943
  20963549.220   110164235.85609  20963548.820    85842240.32047
  22318323.840   117283641.78808  22318322.600    91389876.35345
  21576834.560   113387063.49108  21576832.600    88353568.94846
  24398929.440   128217245.89005  24398928.920    99909543.51541
  20852609.280   109581279.43409  20852606.720    85388020.25847
  20485784.340   107653580.57809  20485786.160    83885942.17648
 15 03 01 02 04  0.0000000  0  8G04G11G16G18G19G21G22G27
  22790574.300   119765296.71107  22790576.260    93323627.30243
  24420726.220   128331794.87206  24420729.120    99998790.65342
  20973925.820   110218765.18609  20973925.380    85884730.69747
  22328001.340   117334497.51508  22328000.140    91429504.19444
  21566064.820   113330468.03808  21566062.740    88309468.62046
  24412998.820   128291181.18805  24412998.380    99967155.37743
  20849977.600   109567449.88909  20849974.980    85377244.00147
  20481973.240   107633552.99409  20481975.040    83870336.27048
 15 03 01 02 04 30.0000000  0  8G04G11G16G18G19G21G22G27
  22775130.480   119684139.56707  22775132.580    93260388.02944
  24403430.600   128240907.15006  24403433.700    99927969.17442
  20984398.000   110273797.16509  20984397.540    85927612.74347
  22337756.980   117385764.03508  22337755.900    91469452.13845
  21555329.920   113274056.25008  21555327.860    88265511.39246
  24427067.220   128365111.31606  24427066.920   100024763.27941
  20847447.720   109554155.25909  20847445.120    85366884.56547
  20478216.700   107613811.99809  20478218.480    83854953.68548
 15 03 01 02 05  0.0000000  0  8G04G11G16G18G19G21G22G27
  22759729.960   119603209.85607  22759732.160    93197325.97944
  24386150.660   128150102.08606  24386153.880    99857212.04943
  20994965.400   110329329.36609  20994964.960    85970884.57147
  22347590.240   117437438.49408  22347589.280    91509717.95444
  21544630.040   113217828.40809  21544628.040    88221697.50846
  24441134.420   128439034.66706  24441134.000   100082365.89442
  20845019.500   109541394.95309  20845016.960    85356941.48447
  20474514.680   107594357.81209  20474516.460    83839794.58148
 15 03 01 02 05 30.0000000  0  8G04G11G16G18G19G21G22G27
  22744372.820   119522508.12707  22744375.120    93134441.58844
  24368886.660   128059380.17406  24368889.920    99786519.74443
  21005627.740   110385360.34109  21005627.380    86014545.05747
  22357500.780   117489519.20908  22357499.980    91550300.33545
  21533965.380   113161785.32009  21533963.400    88178027.57746
  24455200.240   128512950.89506  24455199.720   100139962.95142
  20842692.860   109529168.54209  20842690.340    85347414.41747
  20470867.420   107575191.34009  20470869.220    83824859.67148
 15 03 01 02 06  0.0000000  0  9G04G11G16G18G19G21G22G27G32
  22729059.680   119442037.37407  22729061.880    93071737.16145
  24351639.240   127968744.52706  24351642.620    99715894.65543
  21016385.120   110441890.92009  21016384.840    86058594.85347
  22367488.840   117542007.03908  22367488.080    91591199.94344
  21523336.640   113105930.74409  21523334.620    88134504.54146
  24469264.880   128586861.52905  24469264.140   100197555.58341
  20840468.600   109517480.04309  20840466.060    85338306.50847
  20467275.660   107556316.52109  20467277.440    83810152.02048
  24486232.080   128676023.96806  24486235.820   100267018.70742
 15 03 01 02 06 30.0000000  0  9G04G11G16G18G19G21G22G27G32
  22713787.300   119361780.64708  22713789.460    93009199.51944
  24334405.100   127878178.04506  24334408.280    99645323.45241
  21027233.900   110498901.78809  21027233.640    86103018.88747
  22377550.620   117594882.31008  22377549.960    91632401.45345
  21512740.620   113050248.18008  21512738.520    88091115.52847
  24483325.080   128660748.84405  24483324.060   100255130.18341
  20838343.300   109506311.32709  20838340.660    85329603.63247
  20463736.260   107537716.91709  20463738.020    83795658.82648
  24463561.060   128556887.59506  24463564.420   100174185.56542
 15 03 01 02 07  0.0000000  0  9G04G11G16G18G19G21G22G27G32
  22698561.340   119281767.72107  22698563.500    92946851.82844
  24317189.740   127787710.30006  24317192.940    99574829.19541
  21038179.360   110556420.38009  21038179.020    86147838.55747
  22387691.380   117648172.86008  22387690.840    91673926.55144
  21502182.980   112994767.68109  21502180.940    88047883.99347
  24497386.240   128734641.19805  24497384.700   100312708.60443
  20836322.500   109495691.88609  20836319.840    85321328.74947
  20460255.000   107519422.89109  20460256.700    83781403.74748
  24440897.280   128437789.01906  24440900.840   100081381.84843
 15 03 01 02 07 30.0000000  0  9G04G11G16G18G19G21G22G27G32
  22683379.280   119201985.46808  22683381.440    92884683.91644
  24299990.540   127697328.38805  24299993.620    99504401.85041
  21049218.800   110614432.47109  21049218.400    86193042.77247
  22397908.340   117701863.82508  22397907.840    91715763.66545
  21491661.580   112939477.37209  21491659.560    88004800.64746
  24511445.860   128808525.37105  24511444.720   100370280.65042
  20834403.700   109485608.54509  20834401.040    85313471.61347
  20456829.600   107501422.20309  20456831.240    83767377.24148
  24418238.540   128318717.45606  24418242.160    99988599.22243
 15 03 01 02 08  0.0000000  0  9G04G11G16G18G19G21G22G27G32
  22668240.880   119122432.85408  22668242.980    92822694.92844
  24282807.560   127607031.21606  24282810.440    99434040.45643
  21060351.500   110672934.49509  21060351.000    86238628.74847
  22408200.780   117755951.29908  22408200.240    91757909.75445
  21481176.200   112884376.42009  21481174.180    87961864.85346
  24525503.520   128882398.80105  24525502.560   100427844.32143
  20832586.680   109476060.06109  20832584.000    85306031.24847
  20453459.900   107483714.40709  20453461.580    83753578.96248
  24395585.240   128199674.02406  24395588.440    99895838.47241
 15 03 01 02 08 30.0000000  0  9G04G11G16G18G19G21G22G27G32
  22653146.400   119043110.86807  22653148.480    92760885.63344
  24265641.040   127516819.36706  24265643.620    99363745.54643
  21071577.100   110731924.99109  21071576.600    86284595.35347
  22418568.500   117810434.13008  22418567.900    91800363.91044
  21470727.200   112829466.63109  21470725.120    87919078.01946
  24539559.080   128956260.83406  24539558.420   100485399.16243
  20830871.500   109467046.87109  20830868.840    85299007.99447
  20450146.260   107466301.10609  20450147.940    83740010.16348
  24372937.820   128080661.80906  24372940.760    99803102.05041
 15 03 01 02 09  0.0000000  0  9G04G11G16G18G19G21G22G27G32
  22638096.400   118964022.44508  22638098.420    92699258.36043
  24248491.480   127426695.93506  24248493.560    99293519.60943
  21082895.660   110791404.29909  21082895.200    86330942.84847
  22429011.640   117865312.97208  22429010.820    91843126.64744
  21460315.160   112774751.12509  21460313.060    87876442.57046
  24553612.900   129030113.15106  24553612.400   100542946.38743
  20829258.620   109458571.24809  20829256.000    85292403.62047
  20446889.320   107449185.76509  20446891.000    83726673.53648
  24350297.060   127961685.75106  24350300.120    99710393.81642
 15 03 01 02 09 30.0000000  0  9G04G11G16G18G19G21G22G27G32
  22623090.740   118885167.33508  22623092.660    92637812.87544
  24231358.460   127336660.51405  24231360.400    99223362.24141
  21094306.820   110851370.44909  21094306.400    86377669.71047
  22439529.640   117920585.49008  22439528.800    91886196.13744
  21449940.200   112720230.22409  21449938.060    87833958.76546
  24567664.880   129103955.44506  24567664.400   100600485.81743
  20827747.940   109450632.55809  20827745.340    85286217.64447
  20443689.140   107432368.84309  20443690.880    83713569.44248
  24327663.480   127842747.87106  24327666.940    99617715.28541
 15 03 01 02 10  0.0000000  0  9G04G11G16G18G19G21G22G27G32
  22608129.500   118806545.36208  22608131.340    92576549.04844
  24214242.140   127246713.03506  24214243.940    99153273.41543
  21105810.080   110911820.89009  21105809.680    86424773.93647
  22450122.140   117976249.34808  22450121.320    91929570.56045
  21439602.380   112665904.71009  21439600.300    87791627.21146
  24581714.540   129177786.05306  24581713.820   100658016.14442
  20826339.420   109443230.75909  20826336.820    85280450.02347
  20440545.880   107415850.92609  20440547.660    83700698.34248
  24305037.640   127723850.32906  24305041.020    99525068.17241
 15 03 01 02 10 30.0000000  0  9G04G11G16G18G19G21G22G27G32
  22593212.600   118728156.35608  22593214.400    92515466.76244
  24197142.460   127156852.92206  24197144.140    99083252.61143
  21117405.000   110972752.84809  21117404.640    86472253.36547
  22460788.580   118032301.66908  22460787.720    91973247.69344
  21429301.760   112611774.83409  21429299.720    87749448.09446
  24595761.700   129251603.76505  24595761.000   100715536.43143
  20825032.880   109436364.83209  20825030.320    85275099.95247
  20437459.540   107399632.34209  20437461.380    83688060.49348
  24282419.940   127604995.01306  24282423.260    99432453.97343
 15 03 01 02 11  0.0000000  0  9G04G11G16G18G19G21G22G27G32
  22578340.260   118650001.72908  22578342.000    92454567.10644
  24180059.660   127067082.18605  24180061.360    99013301.49943
  21129091.600   111034166.37409  21129091.260    86520108.05047
  22471528.840   118088742.00608  22471527.960    92017227.18744
  21419038.820   112557842.89909  21419036.780    87707423.21846
  24609806.620   129325409.35106  24609805.860   100773047.25141
  20823828.560   109430035.99009  20823825.940    85270168.40147
  20434430.620   107383715.55909  20434432.500    83675657.80948
  24259811.100   127486185.82706  24259814.620    99339875.70343
 15 03 01 02 11 30.0000000  0  9G04G11G16G18G19G21G22G27G32
  22563512.960   118572083.55008  22563514.560    92393851.68944
  24162993.920   126977402.59406  24162995.960    98943421.37341
  21140869.840   111096061.05709  21140869.480    86568337.65747
  22482342.760   118145569.58908  22482341.840    92061508.40844
  21408814.040   112504111.52809  21408812.020    87665554.62746
  24623849.380   129399203.54405  24623848.540   100830549.20344
  20822726.720   109424245.61409  20822724.000    85265656.43247
  20431459.720   107368103.07709  20431461.480    83663492.23948
  24237211.740   127367426.72006  24237215.400    99247336.45743
 15 03 01 02 12  0.0000000  0  9G04G11G16G18G19G21G22G27G32
  22548730.220   118494399.42208  22548731.660    92333318.65144
  24145945.180   126887811.50706  24145947.440    98873610.21842
  21152738.580   111158431.50509  21152738.220    86616937.98947
  22493229.700   118202780.44008  22493228.660    92106088.29645
  21398627.040   112450578.55209  21398625.020    87623840.62547
  24637889.280   129472982.96505  24637888.160   100888039.64242
  20821726.740   109418990.66009  20821723.980    85261561.67347
  20428546.340   107352793.05209  20428548.120    83651562.35748
  24214621.880   127248717.56606  24214625.380    99154836.03242
 15 03 01 02 12 30.0000000  0  9G04G11G16G18G19G21G22G27G32
  22533992.300   118416951.22908  22533993.740    92272969.46644
  24128913.660   126798311.09806  24128916.060    98803869.71644
  21164697.760   111221277.79509  21164697.500    86665909.10847
  22504189.480   118260374.19708  22504188.420    92150966.54245
  21388478.360   112397246.93409  21388476.400    87582283.53247
  24651926.580   129546748.88805  24651925.500   100945519.57241
  20820829.000   109414273.04109  20820826.220    85257885.62047
  20425691.080   107337788.40409  20425692.800    83639870.41848
  24192042.360   127130062.86706  24192046.060    99062378.09743
 15 03 01 02 13  0.0000000  0  9G04G11G16G18G19G21G22G27G32
  22519299.660   118339740.68508  22519301.080    92212805.45044
  24111899.800   126708903.08106  24111902.080    98734201.22943
  21176747.520   111284599.88209  21176747.280    86715250.98647
  22515221.820   118318349.55408  22515220.820    92196142.13644
  21378368.480   112344119.16109  21378366.520    87540885.27847
  24665961.180   129620501.95805  24665960.400   101002989.47443
  20820033.680   109410093.66109  20820030.940    85254628.96347
  20422894.360   107323091.30009  20422896.020    83628418.13348
  24169473.840   127011466.33606  24169477.640    98969965.45841
 15 03 01 02 13 30.0000000  0  9G04G11G16G18G19G21G22G27G32
  22504651.860   118262766.23208  22504653.260    92152825.40844
  24094903.120   126619585.42906  24094905.340    98664603.15143
  21188887.080   111348393.50409  21188886.780    86764960.28147
  22526326.120   118376703.18308  22526325.200    92241612.49945
  21368297.140   112291194.06209  21368295.160    87499644.95347
  24679992.940   129694239.82505  24679992.460   101060447.53244
  20819340.320   109406450.36909  20819337.700    85251790.05247
  20420156.060   107308700.94209  20420157.580    83617204.86348
  24146916.540   126892928.55006  24146920.300    98877598.52842
 15 03 01 02 14  0.0000000  0  9G04G11G16G18G19G21G22G27G32
  22490048.960   118186027.55808  22490050.360    92093029.09644
  24077923.780   126530358.38206  24077925.900    98595075.67042
  21201115.840   111412655.51409  21201115.420    86815034.54846
  22537501.960   118435432.70808  22537501.020    92287375.75344
  21358264.460   112238472.28609  21358262.440    87458563.05547
  24694021.620   129767961.24605  24694021.340   101117892.82643
  20818748.840   109403342.58009  20818746.280    85249368.40347
  20417476.140   107294617.91009  20417477.660    83606231.06748
  24124370.840   126774451.87906  24124374.720    98785279.31441
 15 03 01 02 14 30.0000000  0  9G04G11G16G18G19G21G22G27G32
  22475491.020   118109526.03908  22475492.500    92033417.57644
  24060961.980   126441223.13207  24060963.780    98525619.72842
  21213433.660   111477385.36209  21213433.160    86865473.37647
  22548749.060   118494536.65408  22548748.120    92333430.77644
  21348270.740   112185955.41609  21348268.780    87417640.84047
  24708047.380   129841666.93306  24708047.040   101175325.79841
  20818259.300   109400770.36109  20818256.680    85247364.08747
  20414855.020   107280843.88109  20414856.580    83595498.05848
  24101837.400   126656039.47106  24101841.200    98693010.13141
 15 03 01 02 15  0.0000000  0  9G04G11G16G18G19G21G22G27G32
  22460978.440   118033262.69208  22460980.080    91973991.63844
  24044017.840   126352181.13906  24044019.380    98456236.41343
  21225840.300   111542582.48209  21225839.840    86916276.30547
  22560067.280   118554014.18608  22560066.400    92379776.89244
  21338316.520   112133645.87109  21338314.720    87376880.17147
  24722070.100   129915356.22006  24722069.460   101232746.02441
  20817872.000   109398735.26709  20817869.300    85245778.31647
  20412293.120   107267381.15509  20412294.800    83585007.63048
  24079316.960   126537695.06806  24079320.300    98600793.85641
 15 03 01 02 15 30.0000000  0  9G04G11G16G18G19G21G22G27G32
  22446511.180   117957237.46608  22446513.000    91914751.24144
  24027091.300   126263231.69707  24027092.480    98386925.24044
  21238335.140   111608243.49109  21238334.740    86967440.72346
  22571456.220   118613862.38208  22571455.120    92426411.84044
  21328401.940   112081544.12509  21328400.120    87336281.41947
  24736089.620   129989028.69006  24736088.200   101290153.11941
  20817586.700   109397235.85109  20817583.960    85244609.94347
  20409790.420   107254229.88509  20409792.200    83574759.88948
  24056809.760   126419420.65506  24056813.260    98508632.20141
 15 03 01 02 16  0.0000000  0  9G04G11G16G18G19G21G22G27G32
  22432089.400   117881450.61108  22432091.200    91855696.59444
  24010182.480   126174375.32707  24010183.440    98317686.59043
  21250917.880   111674366.39409  21250917.480    87018965.03846
  22582915.260   118674079.51308  22582913.980    92473334.29244
  21318527.060   112029650.89709  21318525.140    87295845.14547
  24750105.840   130062683.42806  24750103.760   101347546.36443
  20817403.320   109396272.19809  20817400.600    85243859.05347
  20407347.320   107241391.31809  20407349.100    83564755.81448
  24034316.460   126301218.92906  24034319.980    98416527.12042
 15 03 01 02 16 30.0000000  0  9G04G11G16G18G19G21G22G27G32
  22417713.340   117805903.25108  22417714.960    91796828.56944
  23993291.700   126085613.59507  23993292.500    98248521.69043
  21263588.360   111740950.26509  21263587.860    87070848.55846
  22594444.260   118734664.56708  22594442.920    92520543.41744
  21308692.280   111977968.55109  21308690.260    87255573.19747
  24764118.820   130136320.91006  24764116.380   101404926.20441
  20817322.040   109395844.87709  20817319.320    85243526.08447
  20404964.040   107228867.42309  20404965.940    83554996.94748
  24011837.660   126183093.54406  24011841.220    98324481.51043
 15 03 01 02 17  0.0000000  0  9G04G11G16G18G19G21G22G27G32
  22403382.840   117730596.14108  22403384.520    91738147.73344
  23976418.860   125996946.49007  23976419.760    98179430.52142
  21276346.260   111807993.63509  21276345.720    87123090.12447
  22606042.960   118795615.79008  22606041.580    92568037.87644
  21298897.800   111926497.96109  21298895.700    87215466.25947
  24778128.380   130209941.02805  24778126.000   101462292.50041
  20817342.800   109395953.72409  20817340.060    85243610.91047
  20402640.960   107216659.30309  20402642.880    83545484.11848
  23989373.940   126065047.01806  23989377.680    98232497.40143
 15 03 01 02 17 30.0000000  0  9G04G11G16G18G19G21G22G27G32
  22389098.340   117655530.76308  22389100.060    91679655.28644
  23959564.380   125908376.09107  23959565.340    98110414.70044
  21289191.340   111875495.27209  21289190.840    87175688.79546
  22617711.080   118856932.30808  22617709.700    92615816.97744
  21289144.100   111875241.78809  21289142.000    87175526.40247
  24792134.720   130283544.78105  24792132.680   101519646.02144
  20817465.680   109396599.49509  20817462.960    85244114.11447
  20400378.420   107204769.34909  20400380.320    83536219.21448
  23966926.100   125947083.58706  23966929.840    98140578.04142
 15 03 01 02 18  0.0000000  0  9G04G11G16G18G19G21G22G27G32
  22374859.340   117580704.73908  22374860.920    91621349.32144
  23942727.960   125819900.15407  23942728.920    98041472.48543
  21302122.680   111943450.28509  21302122.300    87228640.73046
  22629447.740   118918609.52208  22629446.480    92663877.12744
  21279430.840   111824198.32509  21279428.780    87135752.27947
  24806137.220   130357128.63005  24806135.620   101576984.12243
  20817690.140   109397779.02909  20817687.440    85245033.24647
  20398176.060   107193195.98009  20398177.920    83527201.01048
  23944494.000   125829203.13606  23944497.620    98048723.32242
 15 03 01 02 18 30.0000000  0  9G04G11G16G18G19G21G22G27G32
  22360666.320   117506120.27508  22360667.820    91563231.60744
  23925909.740   125731520.78706  23925910.700    97972605.54144
  21315140.420   112011858.67909  21315140.080    87281945.95846
  22641253.200   118980647.79108  22641251.980    92712218.63544
  21269758.760   111773371.08309  21269756.660    87096146.64447
  24820136.060   130430694.07405  24820135.240   101634307.80241
  20818016.460   109399493.94209  20818013.760    85246369.55047
  20396034.480   107181942.24809  20396036.380    83518431.87348
  23922078.740   125711410.39106  23922082.140    97956936.92843
 15 03 01 02 19  0.0000000  0  9G04G11G16G18G19G21G22G27G32
  22346519.300   117431777.17308  22346520.720    91505301.96244
  23909109.900   125643238.04607  23909110.980    97903813.82443
  21328244.020   112080717.96509  21328243.620    87335602.52246
  22653126.780   119043044.08708  22653125.720    92760839.13044
  21260127.880   111722760.06309  21260125.620    87056709.49447
  24834131.240   130504239.94305  24834131.000   101691616.25741
  20818444.580   109401743.92509  20818441.880    85248122.79247
  20393953.900   107171008.62909  20393955.720    83509912.16548
  23899680.060   125593667.30706  23899685.000    97865209.42742
 15 03 01 02 19 30.0000000  0  9G04G11G16G18G19G21G22G27G32
  22332418.100   117357674.93008  22332419.400    91447559.99344
  23892328.180   125555050.95406  23892329.400    97835096.67141
  21341432.780   112150024.93109  21341432.320    87389607.92746
  22665067.960   119105795.51708  22665067.140    92809736.31644
  21250538.100   111672365.44709  21250535.700    87017440.96847
  24848122.380   130577764.81805  24848122.280   101748908.41044
  20818974.140   109404527.01809  20818971.460    85250291.44047
  20391934.240   107160395.15709  20391935.980    83501641.92648
  23877299.760   125476055.53806  23877303.020    97773563.94442
 15 03 01 02 20  0.0000000  0  9G04G11G16G18G19G21G22G27G32
  22318363.160   117283816.30208  22318364.440    91390007.84244
  23875565.320   125466962.65506  23875566.740    97766456.49943
  21354706.720   112219780.23509  21354706.300    87443962.68746
  22677076.920   119168902.68608  22677076.200    92858910.74344
  21240990.160   111622191.14109  21240987.800    86978344.12347
  24862110.000   130651271.15305  24862109.760   101806186.00642
  20819605.620   109407845.60709  20819602.980    85252877.36647
  20389976.180   107150105.56409  20389977.880    83493624.06148
  23854937.220   125358540.47206  23854940.220    97681993.92643
 15 03 01 02 20 30.0000000  0  9G04G11G16G18G19G21G22G27G32
  22304353.920   117210197.87208  22304355.280    91332642.88144
  23858820.760   125378970.10806  23858822.240    97697890.93641
  21368064.760   112289977.67609  21368064.420    87498661.98446
  22689152.400   119232359.60208  22689151.800    92908357.68844
  21231483.600   111572234.39809  21231481.420    86939416.80747
  24876093.640   130724754.92305  24876093.100   101863446.05441
  20820338.160   109411695.44909  20820335.580    85255877.24847
  20388079.180   107140137.01709  20388080.920    83485856.36648
  23832592.840   125241120.97606  23832596.180    97590498.39643
 15 03 01 02 21  0.0000000  0  9G04G11G16G18G19G21G22G27G32
  22290391.080   117136823.12608  22290392.460    91275467.78444
  23842095.020   125291076.57307  23842096.460    97629402.54342
  21381507.160   112360618.11209  21381506.860    87553706.46546
  22701294.660   119296167.71908  22701294.280    92958078.28544
  21222019.340   111522499.61309  21222017.260    86900662.43747
  24890073.320   130798218.28005  24890072.880   101920690.16742
  20821172.380   109416079.32009  20821169.820    85259293.26247
  20386244.140   107130493.80309  20386245.880    83478342.16748
  23810267.920   125123802.93206  23810270.840    97499081.76743
 15 03 01 02 21 30.0000000  0  9G04G11G16G18G19G21G22G27G32
  22276474.680   117063692.42608  22276476.160    91218482.86844
  23825388.320   125203282.59506  23825389.520    97560991.72744
  21395033.740   112431700.15809  21395033.300    87609095.03946
  22713503.340   119360325.07808  22713503.120    93008071.03444
  21212597.620   111472988.14509  21212595.620    86862082.08347
  24904048.960   130871660.89805  24904048.500   101977918.12144
  20822108.040   109420996.59109  20822105.560    85263124.90847
  20384471.300   107121177.15309  20384472.980    83471082.43848
  23787962.840   125006589.17206  23787965.680    97407746.50043
 15 03 01 02 22  0.0000000  0  9G04G11G16G18G19G21G22G27G32
  22262604.640   116990805.68308  22262606.380    91161688.04944
  23808700.640   125115588.19507  23808701.720    97492658.49543
  21408643.720   112503220.56009  21408643.200    87664825.20246
  22725778.120   119424829.24608  22725777.760    93058334.01844
  21203218.500   111423700.57709  21203216.520    86823676.19147
  24918020.480   130945082.11704  24918019.760   102035129.46541
  20823145.100   109426446.53309  20823142.660    85267371.62647
  20382760.740   107112187.64809  20382762.400    83464077.62948
  23765678.060   124889482.03606  23765680.660    97316494.31743
 15 03 01 02 22 30.0000000  0  9G04G11G16G18G19G21G22G27G32
  22248781.100   116918162.67608  22248782.940    91105083.13545
  23792031.940   125027993.37006  23792032.980    97424402.87144
  21422336.620   112575177.18009  21422336.180    87720895.27346
  22738118.360   119489677.58208  22738117.880    93108865.17944
  21193882.060   111374637.54009  21193880.160    86785445.27047
  24931987.420   131018480.95804  24931987.400   102092323.41043
  20824283.340   109432428.14509  20824280.900    85272032.62947
  20381112.500   107103525.80709  20381114.100    83457328.13848
  23743414.060   124772483.56106  23743416.440    97225326.77943
 15 03 01 02 23  0.0000000  0  9G04G11G16G18G19G21G22G27G32
  22235004.500   116845765.75808  22235006.220    91048670.00745
  23775382.680   124940500.53707  23775383.560    97356226.67943
  21436112.380   112647569.64209  21436112.100    87777304.96846
  22750524.140   119554870.36108  22750523.580    93159664.74344
  21184589.020   111325802.60809  21184587.120    86747392.08947
  24945950.320   131091859.37504  24945951.280   102149501.35044
  20825523.120   109438943.12309  20825520.600    85277109.24347
  20379527.200   107095194.91009  20379528.840    83450836.53448
  23721171.580   124655598.69206  23721173.900    97134247.76542
 15 03 01 02 23 30.0000000  0  9G04G11G16G18G19G21G22G27G32
  22221274.240   116773612.14008  22221275.820    90992446.42945
  23758752.240   124853107.00907  23758753.040    97288127.88542
  21449970.120   112720392.74409  21449969.900    87834050.22346
  22762994.460   119620402.10108  22762993.700    93210728.43344
  21175339.000   111277193.68009  21175337.060    86709515.01447
  24959908.620   131165213.68204  24959910.580   102206660.51443
  20826863.640   109445987.47709  20826861.080    85282598.35647
  20378004.440   107087192.86009  20378006.120    83444601.16748
  23698950.640   124538827.00106  23698952.920    97043256.94343
 15 03 01 02 24  0.0000000  0  9G04G11G16G18G19G21G22G27G32
  22207590.500   116701703.23808  22207591.940    90936413.57644
  23742140.940   124765814.13306  23742141.700    97220107.54443
  21463909.620   112793644.95309  21463909.300    87891129.85146
  22775529.220   119686272.43708  22775528.340    93262055.95844
  21166132.460   111228812.82809  21166130.360    86671815.65547
  24973862.740   131238544.69404  24973863.980   102263797.49441
  20828305.100   109453562.02209  20828302.420    85288500.59947
  20376544.680   107079521.69109  20376546.380    83438623.62648
  23676752.020   124422172.15806  23676754.240    96952357.10941
 15 03 01 02 24 30.0000000  0  9G04G11G16G18G19G21G22G27G32
  22193953.200   116630038.17308  22193954.500    90880570.69945
  23725548.500   124678621.16506  23725549.520    97152165.01343
  21477930.160   112867322.84509  21477929.760    87948541.16846
  22788127.620   119752477.45408  22788126.900    93313644.28044
  21156969.360   111180660.18909  21156967.180    86634294.12847
  24987812.480   131311850.61205  24987816.080   102320919.04841
  20829847.080   109461664.70309  20829844.300    85294814.38947
  20375147.760   107072181.33409  20375149.560    83432903.87148
  23654576.020   124305635.87906  23654577.960    96861549.68843
 15 03 01 02 25  0.0000000  0  9G04G11G16G18G19G21G22G27G32
  22180362.860   116558619.97308  22180364.040    90824920.17844
  23708975.680   124591531.53806  23708976.840    97084303.03443
  21492031.920   112941427.89109  21492031.440    88006285.33646
  22800789.800   119819018.07508  22800789.360    93365494.11244
  21147850.400   111132739.65509  21147848.300    86596953.46347
  25001758.080   131385134.38405                                
  20831489.960   109470297.80409  20831487.120    85301541.48547
  20373814.580   107065175.74909  20373816.440    83427444.97048
  23632423.560   124189223.64006  23632425.140    96770838.90642
 15 03 01 02 25 30.0000000  0  9G04G11G16G18G19G21G22G27G32
  22166819.060   116487446.81308  22166820.160    90769460.60844
  23692422.240   124504543.39406  23692423.320    97016520.13343
  21506213.980   113015954.99309  21506213.440    88064358.38446
  22813515.040   119885890.16108  22813514.720    93417602.21344
  21138775.480   111085050.49109  21138773.460    86559793.09647
  25015698.980   131458392.92005  25015702.500   102435100.86141
  20833233.300   109479458.88409  20833230.460    85308679.99347
  20372544.900   107058503.73509  20372546.780    83422246.00248
  23610294.760   124072935.98307  23610296.300    96680225.22943
 15 03 01 02 26  0.0000000  0  9G04G11G16G18G19G21G22G27G32
  22153322.300   116416520.99208  22153323.340    90714193.75945
  23675888.720   124417659.28106  23675889.840    96948818.25043
  21520476.180   113090903.64109  21520475.640    88122759.89946
  22826303.500   119953093.59108  22826303.000    93469968.52044
  21129745.120   111037595.69209  21129743.100    86522815.33747
  25029635.320   131531627.79604  25029638.580   102492166.97641
  20835077.320   109489148.92009  20835074.420    85316230.67847
  20371339.300   107052168.29809  20371341.160    83417309.29248
  23588190.660   123956777.75907  23588192.120    96589712.40143
 15 03 01 02 26 30.0000000  0  9G04G11G16G18G19G21G22G27G32
  22139872.640   116345842.84108  22139873.680    90659119.91444
  23659375.200   124330879.89006  23659376.220    96881198.06041
  21534818.400   113166272.29309  21534817.820    88181488.69246
  22839154.780   120020626.83208  22839154.000    93522591.83144
  21120759.680   110990377.11509  21120757.600    86486021.65347
  25043567.160   131604839.27405  25043569.500   102549214.81943
  20837021.900   109499367.68309  20837019.000    85324193.35347
  20370198.000   107046170.91509  20370199.800    83412636.00948
  23566111.620   123840751.85207  23566113.100    96499302.63043
 15 03 01 02 27  0.0000000  0  8G04G11G16G18G19G22G27G32
  22126469.000   116275406.59208  22126470.040    90604234.53745
  23642880.380   124244199.25706  23642881.260    96813654.73643
  21549238.860   113242052.10909  21549238.340    88240537.88346
  22852067.120   120088481.59808  22852066.200    93575465.66644
  21111818.260   110943389.46009  21111816.160    86449407.90547
  20839065.680   109510107.98209  20839062.820    85332562.42647
  20369120.040   107040506.07909  20369121.720    83408221.83848
  23544057.080   123724854.56707  23544058.560    96408993.15143
 15 03 01 02 27 30.0000000  0  8G04G11G16G18G19G22G27G32
  22113113.220   116205222.04308  22113114.360    90549545.33845
  23626406.380   124157627.53707  23626407.080    96746196.31043
  21563738.840   113318250.59909  21563738.600    88299913.30746
  22865041.940   120156665.22608  22865041.120    93628595.75544
  21102922.760   110896643.63109  21102920.740    86412982.60247
  20841210.440   109521379.11109  20841207.620    85341345.12947
  20368107.500   107035184.78309  20368109.100    83404075.36648
  23522029.280   123609098.55306  23522030.880    96318793.75644
 15 03 01 02 28  0.0000000  0  9G01G04G11G16G18G19G22G27G32
  24595256.300   129248948.13005  24595264.440   100713478.09643
  22099807.620   116135301.22208  22099808.820    90495061.59744
  23609955.500   124071176.79107  23609955.780    96678832.12541
  21578320.240   113394876.90109  21578320.260    88359622.10346
  22878081.180   120225187.23308  22878080.540    93681989.51944
  21094075.700   110850152.40009  21094073.660    86376755.68247
  20843458.220   109533191.76109  20843455.560    85350549.79447
  20367162.740   107030219.63909  20367164.240    83400206.41648
  23500031.160   123493498.29607  23500032.960    96228715.78943
 15 03 01 02 28 30.0000000  0  9G01G04G11G16G18G19G22G27G32
  24579183.640   129164487.23705  24579191.680   100647664.65143
  22086546.160   116065611.97608  22086547.400    90440758.31544
  23593521.420   123984815.26206  23593521.660    96611537.47343
  21592976.680   113471897.02409  21592976.760    88419637.76546
  22891178.260   120294013.43408  22891177.900    93735620.33144
  21085271.260   110803884.80609  21085269.140    86340703.01947
  20845802.740   109545512.77709  20845800.260    85360150.59247
  20366279.760   107025579.29509  20366281.280    83396590.55448
  23478057.120   123378024.08607  23478059.060    96138736.00443
 15 03 01 02 29  0.0000000  0  9G01G04G11G16G18G19G22G27G32
  24563135.900   129080156.56405  24563142.980   100581952.56543
  22073331.660   115996169.63808  22073332.900    90386647.44044
  23577107.220   123898558.27707  23577107.360    96544324.28743
  21607710.540   113549323.12409  21607710.440    88479969.75846
  22904335.700   120363156.71608  22904335.580    93789498.19644
  21076512.560   110757857.18209  21076510.380    86304837.34747
  20848246.820   109558356.96709  20848244.480    85370159.06447
  20365461.580   107021279.87509  20365463.180    83393240.35848
  23456110.380   123262693.90907  23456112.620    96048868.61843
 15 03 01 02 29 30.0000000  0  9G01G04G11G16G18G19G22G27G32
  24547113.600   128995957.31205  24547119.900   100516342.91343
  22060164.380   115926975.48308  22060165.660    90332729.95344
  23560713.180   123812407.29907  23560713.320    96477193.71843
  21622521.380   113627153.48609  21622521.060    88540616.76346
  22917553.380   120432616.00908  22917553.320    93843622.31744
  21067799.840   110712071.33509  21067797.580    86269160.07147
  20850790.420   109571724.15109  20850788.220    85380575.05147
  20364708.580   107017323.29109  20364710.340    83390157.30348
  23434191.620   123147510.98907  23434193.940    95959115.81443
 15 03 01 02 30  0.0000000  0  9G01G04G11G16G18G19G22G27G32
  24531116.760   128911892.52505  24531122.300   100450838.08543
  22047044.860   115858032.38908  22047046.240    90279008.09944
  23544339.940   123726365.52407  23544339.940    96410148.23042
  21637409.160   113705388.87008  21637408.660    88601579.37946
  22930831.340   120502391.95208  22930831.160    93897993.17144
  21059133.940   110666531.54209  21059131.600    86233674.52447
  20853433.940   109585616.13709  20853431.760    85391399.98147
  20364021.580   107013713.36209  20364023.420    83387344.37048
  23412301.920   123032480.91107  23412304.440    95869482.08844
 15 03 01 02 30 30.0000000  0  9G01G04G11G16G18G19G22G27G32
  24515145.120   128827961.46905  24515150.460   100385437.43242
  22033973.040   115789339.61408  22033974.420    90225481.27744
  23527987.300   123640432.43007  23527987.240    96343187.44143
  21652373.200   113784026.08508  21652372.800    88662855.11346
  22944168.900   120572481.31108  22944168.600    93952608.27444
  21050514.840   110621238.10009  21050512.560    86198380.94547
  20856177.060   109600031.21609  20856174.820    85402632.51747
  20363400.580   107010450.05109  20363402.520    83384801.53048
  23390441.740   122917605.64907  23390444.360    95779969.07543
 15 03 01 02 31  0.0000000  0  9G01G04G11G16G18G19G22G27G32
  24499198.780   128744163.70405  24499204.160   100320140.52742
  22020948.720   115720896.64208  22020950.140    90172149.11644
  23511655.300   123554607.77707  23511655.400    96276311.13143
  21667413.020   113863061.86008  21667412.820    88724441.40946
  22957565.560   120642881.26308  22957565.120    94007465.36444
  21041942.700   110576191.38409  21041940.460    86163279.61247
  20859019.400   109614967.48309  20859017.020    85414271.16647
  20362845.600   107007533.68009  20362847.600    83382529.03148
  23368611.400   122802887.10807  23368614.160    95690578.24943
 15 03 01 02 31 30.0000000  0  9G01G04G11G16G18G19G22G27G32
  24483277.860   128660499.60005  24483283.620   100254947.91843
  22007972.000   115652703.75208  22007973.360    90119011.82745
  23495344.000   123468891.97107  23495344.260    96209519.63943
  21682528.260   113942493.41909  21682528.260    88786336.11846
  22971021.020   120713589.81508  22971020.500    94062562.95344
  21033417.840   110531392.81109  21033415.600    86128371.63747
  20861960.940   109630424.78109  20861958.400    85426315.81847
  20362356.840   107004965.27809  20362358.880    83380527.67748
  23346811.380   122688327.70507  23346814.240    95601311.23844
 15 03 01 02 32  0.0000000  0  9G01G04G11G16G18G19G22G27G32
  24467382.520   128576969.80805  24467388.440   100189859.92042
  21995043.020   115584761.48508  21995044.340    90066069.82845
  23479053.660   123383285.89307  23479053.840    96142813.65943
  21697718.780   114022319.55209  21697718.760    88848538.27146
  22984534.780   120784605.09707  22984534.200    94117899.50244
  21024940.460   110486843.91509  21024938.260    86093658.21847
  20865001.440   109646402.34809  20864998.780    85438765.87947
  20361934.580   107002746.24809  20361936.620    83378798.56048
  23325042.340   122573930.81407  23325045.060    95512170.82243
 15 03 01 02 32 30.0000000  0  9G01G04G11G16G18G19G22G27G32
  24451512.920   128493576.38305  24451519.020   100124878.21543
  21982162.120   115517072.16108  21982163.500    90013324.91744
  23462784.780   123297791.92307  23462784.840    96076195.03543
  21712984.300   114102539.19009  21712984.060    88911047.05346
  22998106.800   120855927.26107  22998106.220    94173475.21444
  21016511.220   110442547.93409  21016509.040    86059141.87347
  20868141.120   109662901.08709  20868138.360    85451622.04547
  20361579.360   107000879.40709  20361581.380    83377343.87348
  23303305.160   122459701.09707  23303307.840    95423160.66643
 15 03 01 02 33  0.0000000  0  9G01G04G11G16G18G19G22G27G32
  24435668.620   128410314.56905  24435674.740   100059998.94244
  21969328.420   115449630.61308  21969329.800    89960773.10045
  23446536.320   123212404.96707  23446536.300    96009659.78543
  21728323.200   114183144.90708  21728322.820    88973856.67246
  23011735.780   120927548.65507  23011735.100    94229284.10244
  21008129.360   110398501.08309  21008127.260    86024819.66647
  20871378.820   109679915.10009  20871375.980    85464879.71947
  20361290.440   106999360.73609  20361292.360    83376160.49548
  23281599.420   122345636.39807  23281601.900    95334279.18143
 15 03 01 02 33 30.0000000  0  9G01G04G11G16G18G19G22G27G32
  24419849.960   128327186.63905  24419855.980    99995224.13144
  21956542.340   115382439.23008  21956543.680    89908416.19844
  23430308.640   123127127.97207  23430308.440    95943210.20643
  21743735.300   114264135.82408  21743734.900    89036966.46346
  23025421.780   120999469.60307  23025421.120    94285326.40044
  20999795.560   110354706.82609  20999793.540    85990694.28347
  20874714.740   109697445.50109  20874711.860    85478539.77247
  20361068.340   106998193.22709  20361070.160    83375250.74648
  23259925.940   122231741.40007  23259928.280    95245529.94043
 15 03 01 02 34  0.0000000  0  9G01G04G11G16G18G19G22G27G32
  24404056.840   128244192.11705  24404062.680    99930553.23043
  21943803.660   115315497.33008  21943805.020    89856253.69345
  23414101.880   123041960.42508  23414101.480    95876845.94843
  21759219.960   114345509.03908  21759219.740    89100374.13846
  23039164.320   121071687.12308  23039163.680    94341599.78844
  20991509.820   110311164.92409  20991507.800    85956765.53147
  20878148.560   109715490.33609  20878145.600    85492600.69347
  20360913.060   106997377.09409  20360914.780    83374614.79248
  23238285.120   122118017.92607  23238287.540    95156914.30243
 15 03 01 02 34 30.0000000  0  9G01G04G11G16G18G19G22G27G32
  24388289.520   128161333.48705  24388294.860    99865988.20543
  21931112.960   115248807.73508  21931114.340    89804287.81644
  23397916.440   122956905.55507  23397916.120    95810569.48843
  21774777.440   114427264.91508  21774777.340    89164079.99846
  23052963.400   121144201.33108  23052962.860    94398104.36643
  20983272.880   110267879.64109  20983270.840    85923036.75147
  20881680.540   109734051.27209  20881677.640    85507063.76147
  20360825.240   106996915.69409  20360826.940    83374255.25548
  23216677.940   122004471.23207  23216680.160    95068436.43844
 15 03 01 02 35  0.0000000  0  9G01G04G11G16G18G19G22G27G32
  24372548.300   128078614.06305  24372553.820    99801531.64244
  21918470.840   115182373.43508  21918472.240    89752520.86244
  23381753.000   122871966.36707  23381752.820    95744383.14943
  21790407.820   114509403.55308  21790407.700    89228084.10445
  23066819.040   121217012.88207  23066818.580    94454840.62944
  20975085.560   110224854.91509  20975083.440    85889510.99347
  20885311.100   109753130.21109  20885308.220    85521930.47447
  20360805.640   106996812.87409  20360807.320    83374175.13248
  23195105.380   121891106.78707  23195107.400    94980100.60444
 15 03 01 02 35 30.0000000  0  9G01G04G11G16G18G19G22G27G32
  24356832.600   127996029.08105  24356838.740    99737179.82744
  21905876.400   115116189.63108  21905877.760    89700949.08945
  23365610.720   122787138.48107  23365610.480    95678283.56343
  21806109.740   114591917.58108  21806109.480    89292380.72145
  23080729.940   121290115.13407  23080729.400    94511803.44144
  20966947.120   110182087.10609  20966944.960    85856185.42747
  20889039.060   109772720.99709  20889036.260    85537196.02147
  20360853.560   106997064.71909  20360855.220    83374371.36848
  23173567.040   121777922.56407  23173568.880    94891905.18344
 15 03 01 02 36  0.0000000  0  9G01G04G11G16G18G19G22G27G32
  24341143.100   127913581.94705  24341149.480    99672935.38343
  21893330.320   115050259.60408  21893331.740    89649575.07345
  23349490.180   122702425.40507  23349489.980    95612273.39243
  21821883.200   114674807.59408  21821882.940    89356970.31945
  23094696.280   121363508.88007  23094695.600    94568993.36543
  20958858.460   110139580.79309  20958856.280    85823063.63147
  20892864.780   109792825.77409  20892862.100    85552862.08447
  20360969.720   106997675.23309  20360971.400    83374847.09448
  23152064.080   121664924.27707  23152065.920    94803854.65044
 15 03 01 02 36 30.0000000  0  9G01G04G11G16G18G19G22G27G32
  24325479.540   127831270.81305  24325486.000    99608796.90241
  21880832.220   114984581.80008  21880833.700    89598397.60244
  23333391.280   122617825.87607  23333391.200    95546351.75143
  21837727.380   114758068.91708  21837727.080    89421849.24946
  23108717.260   121437189.87207  23108716.540    94626407.09444
  20950819.420   110097335.28109  20950817.240    85790145.06147
  20896787.760   109813441.41509  20896785.120    85568926.22347
  20361153.960   106998643.41309  20361155.660    83375601.52048
  23130596.680   121552112.81007  23130598.500    94715949.66743
 15 03 01 02 37  0.0000000  0  9G01G04G11G16G18G19G22G27G32
  24309841.840   127749094.34206  24309848.020    99544763.39943
  21868381.920   114919154.60108  21868383.300    89547415.39445
  23317313.740   122533338.63706  23317313.780    95480517.60444
  21853641.360   114841697.10208  21853641.100    89487014.03445
  23122792.240   121511154.29107  23122791.380    94684041.72144
  20942829.760   110055349.97609  20942827.700    85757429.24647
  20900807.560   109834565.66709  20900804.980    85585386.67947
  20361406.100   106999968.58109  20361407.860    83376634.11648
  23109165.000   121439489.03907  23109166.740    94628190.91043
 15 03 01 02 37 30.0000000  0  9G01G04G11G16G18G19G22G27G32
  24294230.460   127667054.70206  24294236.180    99480836.54243
  21855979.600   114853979.98608  21855980.960    89496630.01445
  23301257.800   122448965.97106  23301258.040    95414772.75643
  21869625.280   114925692.49409  21869625.000    89552464.96045
  23136921.200   121585402.15107  23136920.260    94741897.19444
  20934890.300   110013628.24709  20934888.360    85724918.82347
  20904924.280   109856199.11909  20904921.740    85602243.91547
  20361726.800   107001653.71509  20361728.580    83377947.20648
  23087769.920   121327057.97807  23087771.640    94540582.31943
 15 03 01 02 38  0.0000000  0  9G01G04G11G16G18G19G22G27G32
  24278646.780   127585160.44206  24278652.180    99417022.93944
  21843627.040   114789066.74208  21843628.300    89446048.29744
  23285225.380   122364716.23907  23285225.640    95349123.65243
  21885680.200   115010060.70109  21885679.900    89618206.39545
  23151105.180   121659939.46107  23151104.260    94799978.23544
  20927002.900   109972179.79109  20927000.980    85692621.34347
  20909139.300   109878348.96209  20909136.720    85619503.53347
  20362117.760   107003708.00309  20362119.580    83379547.94548
  23066413.620   121214830.59707  23066415.460    94453132.53144
 15 03 01 02 38 30.0000000  0 10G01G04G11G14G16G18G19G22G27G32
  24263086.400   127503389.26006  24263091.580    99353305.26041
  21831319.900   114724392.29008  21831321.140    89395652.64645
  23269212.340   122280568.15207  23269212.600    95283553.77443
  24696011.100   129778409.13904  24696007.880   101126038.37441
  21901801.080   115094776.00008  21901800.860    89684218.28846
  23165339.680   121734741.70107  23165338.640    94858265.68544
  20919163.520   109930983.43909  20919161.540    85660520.28647
  20913448.180   109900991.86909  20913445.520    85637147.36347
  20362574.820   107006109.85909  20362576.680    83381419.52248
  23045092.320   121102787.08507  23045094.120    94365825.99444
 15 03 01 02 39  0.0000000  0 10G01G04G11G14G16G18G19G22G27G32
  24247554.280   127421766.51206  24247559.260    99289703.23344
  21819063.040   114659982.19308  21819064.240    89345462.99145
  23253223.660   122196547.32607  23253223.980    95218083.06444
  24681885.700   129704180.82204  24681884.360   101068209.05242
  21917992.220   115179861.09108  21917992.040    89750518.33746
  23179628.940   121809831.95707  23179627.780    94916777.58344
  20911377.200   109890065.64709  20911375.100    85628636.30047
  20917855.340   109924151.43609  20917852.660    85655193.78247
  20363103.000   107008885.34309  20363104.900    83383582.24048
  23023811.280   120990955.15607  23023813.080    94278684.33043
 15 03 01 02 39 30.0000000  0 10G01G04G11G14G16G18G19G22G27G32
  24232047.060   127340275.27106  24232051.920    99226203.66843
  21806853.260   114595819.27908  21806854.300    89295465.93645
  23237256.020   122112636.69907  23237256.440    95152698.23343
  24667769.880   129630001.41704  24667769.400   101010406.98541
  21934249.920   115265296.64908  21934249.880    89817091.48446
  23193969.300   121885191.01007  23193968.260    94975498.91044
  20903640.740   109849409.89909  20903638.560    85596956.50547
  20922357.380   109947809.55809  20922354.640    85673628.69547
  20363699.240   107012018.29309  20363701.060    83386023.49648
  23002567.760   120879320.40107  23002569.640    94191696.24644
 15 03 01 02 40  0.0000000  0 10G01G04G11G14G16G18G19G22G27G32
  24216566.640   127258925.49906  24216571.600    99162814.36143
  21794692.360   114531913.63608  21794693.320    89245669.34945
  23221311.400   122028846.70307  23221311.840    95087407.36543
  24653665.920   129555883.10404  24653665.800   100952652.55043
  21950575.760   115351090.17108  21950575.760    89883943.55545
  23208362.160   121960826.24407  23208361.340    95034435.45844
  20895956.280   109809027.81809  20895954.140    85565489.96047
  20926955.860   109971974.88609  20926953.100    85692458.82347
  20364365.500   107015519.37309  20364367.160    83388751.60248
  22981364.240   120767895.64307  22981366.160    94104871.81644
 15 03 01 02 40 30.0000000  0 10G01G04G11G14G16G18G19G22G27G32
  24201112.520   127177714.56906  24201117.560    99099533.23543
  21782579.860   114468262.31408  21782580.800    89196070.94045
  23205389.280   121945174.90707  23205389.520    95022208.61343
  24639573.680   129481826.38804  24639573.840   100894946.01242
  21966968.680   115437235.60808  21966968.560    89951069.83045
  23222806.640   122036732.52207  23222806.020    95093583.20844
  20888323.620   109768917.93509  20888321.480    85534235.51447
  20931650.060   109996643.23909  20931647.300    85711680.92047
  20365101.400   107019386.61209  20365103.080    83391765.03748
  22960200.780   120656680.46807  22960202.720    94018210.69044
 15 03 01 02 41  0.0000000  0 10G01G04G11G14G16G18G19G22G27G32
  24185684.820   127096642.60206  24185689.960    99036360.37144
  21770515.800   114404865.56808  21770516.880    89146670.91245
  23189489.700   121861621.76907  23189489.720    94957102.28843
  24625493.520   129407834.11705  24625493.400   100837289.61741
  21983428.240   115523730.52508  21983427.860    90018468.44045
  23237302.440   122112908.05007  23237302.020    95152940.76644
  20880742.960   109729081.42709  20880740.720    85503194.08147
  20936439.800   110021813.67909  20936437.040    85731294.25047
  20365907.100   107023620.92009  20365908.860    83395064.49348
  22939077.620   120545677.70807  22939079.680    93931715.13743
 15 03 01 02 41 30.0000000  0 10G01G04G11G14G16G18G19G22G27G32
  24170283.400   127015708.62106  24170288.400    98973295.01744
  21758500.060   114341722.40008  21758501.220    89097468.47645
  23173612.580   121778186.60307  23173612.500    94892087.93143
  24611425.800   129333907.58105  24611424.880   100779684.63741
  21999953.660   115610571.30008  21999953.140    90086136.55845
  23251848.720   122189349.25707  23251848.400    95212505.32544
  20873214.320   109689518.56109  20873212.120    85472365.88647
  20941324.560   110047483.47909  20941321.760    85751296.69647
  20366782.580   107028221.85809  20366784.440    83398649.64048
  22917995.100   120434888.72207  22917997.300    93845386.12543
 15 03 01 02 42  0.0000000  0 10G01G04G11G14G16G18G19G22G27G32
  24154908.920   126934916.80406  24154914.100    98910340.43744
  21746533.400   114278836.89308  21746534.500    89048466.79945
  23157758.820   121694874.20907  23157758.700    94827169.21943
  24597371.940   129260053.79404  24597371.220   100722136.22341
  22016544.980   115697758.70008  22016544.520    90154074.75745
  23266445.840   122266058.02907  23266445.400    95272278.40243
  20865738.700   109650234.32809  20865736.600    85441754.81447
  20946304.900   110073655.52409  20946302.120    85771690.50947
  20367728.800   107033194.49109  20367730.620    83402524.41748
  22896954.520   120324320.36407  22896956.820    93759229.00044
 15 03 01 02 42 30.0000000  0 10G01G04G11G14G16G18G19G22G27G32
  24139560.700   126854262.27506  24139565.800    98847492.88744
  21734614.720   114216204.15108  21734615.940    88999662.09144
  23141927.420   121611679.62207  23141927.160    94762342.30543
  24583331.460   129186270.59905  24583331.100   100664642.75744
  22033200.800   115785285.60908  22033200.560    90222277.51945
  23281092.680   122343027.26208  23281091.880    95332254.42143
  20858315.400   109611224.89109  20858313.380    85411357.86147
  20951379.560   110100323.34409  20951376.820    85792470.63347
  20368744.960   107038534.56609  20368746.760    83406685.51048
  22875955.460   120213970.32908  22875957.680    93673242.04544
 15 03 01 02 43  0.0000000  0 10G01G04G11G14G16G18G19G22G27G32
  24124239.140   126773747.48306  24124244.200    98784754.20344
  21722744.600   114153826.53908  21722745.840    88951056.18245
  23126119.040   121528605.59607  23126118.500    94697609.34743
  24569305.180   129112563.02804  24569305.180   100607208.37041
  22049921.020   115873151.28908  22049921.040    90290744.25445
  23295789.240   122420256.91607  23295788.140    95392433.37943
  20850945.180   109572494.09509  20850943.200    85381178.03147
  20956548.760   110127488.10709  20956546.180    85813637.98347
  20369831.640   107044245.19209  20369833.440    83411135.34348
  22854998.940   120103843.38807  22855001.140    93587428.85543
 15 03 01 02 43 30.0000000  0 10G01G04G11G14G16G18G19G22G27G32
  24108944.260   126693372.57006  24108949.340    98722124.50744
  21710923.080   114091704.32908  21710924.380    88902649.29445
  23110333.680   121445652.83608  23110332.820    94632970.87143
  24555294.000   129038934.17705  24555293.820   100549835.23341
  22066705.260   115961353.49408  22066705.440    90359473.22845
  23310534.920   122497744.74207  23310533.660    95452813.51343
  20843628.300   109534043.34709  20843626.280    85351216.41447
  20961812.340   110155148.68309  20961809.880    85835191.68247
  20370989.040   107050327.26509  20370990.780    83415874.61448
  22834085.500   119993942.45307  22834087.560    93501791.74743
 15 03 01 02 44  0.0000000  0 10G01G04G11G14G16G18G19G22G27G32
  24093676.300   126613137.76606  24093681.080    98659604.00943
  21699150.140   114029837.46308  21699151.540    88854441.37345
  23094571.480   121362821.76108  23094570.560    94568427.19543
  24541298.440   128965386.86305  24541298.120   100492525.65241
  22083553.120   116049889.88208  22083553.380    90428462.59345
  23325329.220   122575488.75607  23325327.860    95513393.25244
  20836364.920   109495873.79909  20836362.860    85321473.91947
  20967170.000   110183303.57809  20967167.600    85857130.56447
  20372217.280   107056781.66009  20372219.000    83420904.01548
  22813215.620   119884270.26007  22813217.520    93416332.95044
 15 03 01 02 44 30.0000000  0 10G01G04G11G14G16G18G19G22G27G32
  24078435.140   126533044.14706  24078439.580    98597193.47143
  21687426.100   113968227.23008  21687427.460    88806433.42845
  23078832.720   121280113.79508  23078831.900    94503979.46043
  24527319.080   128891924.44905  24527318.680   100435259.24341
  22100464.100   116138757.95208  22100464.420    90497710.41145
  23340171.940   122653487.94207  23340170.680    95574171.84243
  20829155.440   109457987.66309  20829153.300    85291952.26747
  20972621.740   110211952.60509  20972619.360    85879454.48347
  20373516.720   107063610.18209  20373518.420    83426224.93748
  22792389.860   119774830.34208  22792391.740    93331055.11044
 15 03 01 02 45  0.0000000  0 10G01G04G11G14G16G18G19G22G27G32
  24063220.760   126453091.68006  24063224.840    98534892.98243
  21675750.840   113906873.22308  21675752.120    88758625.13545
  23063117.340   121197529.30007  23063116.740    94439627.96344
  24513356.460   128818550.11505  24513357.740   100378105.36243
  22117437.840   116227955.35808  22117438.100    90567214.85945
  23355062.700   122731739.74207  23355061.580    95635147.26744
  20822000.120   109420386.03409  20821997.920    85262652.29947
  20978167.180   110241093.96809  20978164.720    85902162.04247
  20374887.460   107070813.40609  20374889.220    83431837.83748
  22771608.840   119665625.16607  22771610.680    93245960.18244
 15 03 01 02 45 30.0000000  0 10G01G04G11G14G16G18G19G22G27G32
  24048033.500   126373281.83006  24048037.200    98472703.59343
  21664124.540   113845777.01408  21664125.880    88711017.73445
  23047425.640   121115069.98907  23047425.300    94375373.99243
  24499411.400   128745268.03605  24499411.740   100321011.53141
  22134473.940   116317480.48708  22134474.040    90636974.67945
  23370001.240   122810243.34007  23370000.380    95696318.93143
  20814899.380   109383071.57509  20814897.220    85233576.10547
  20983806.280   110270727.46809  20983803.720    85925253.08947
  20376329.920   107078393.50809  20376331.700    83437744.40248
  22750873.280   119556658.78407  22750875.160    93161051.31344
 15 03 01 02 46  0.0000000  0 10G01G04G11G14G16G18G19G22G27G32
  24032872.740   126293612.13206  24032876.380    98410623.40743
  21652546.860   113784936.42008  21652548.320    88663609.49845
  23031757.500   121032733.98607  23031757.200    94311216.08744
  24485483.860   128672078.39805  24485483.960   100263980.64743
  22151571.360   116407328.07708  22151571.460    90706985.75445
  23384986.600   122888993.29707  23384986.260    95757682.50344
  20807853.040   109346043.02109  20807850.940    85204722.69447
  20989538.360   110300849.41509  20989535.680    85948724.74547
  20377843.760   107086348.75909  20377845.540    83443943.29748
  22730183.240   119447931.54008  22730185.160    93076328.88644
 15 03 01 02 46 30.0000000  0 10G01G04G11G14G16G18G19G22G27G32
  24017739.220   126214085.65406  24017742.960    98348654.81144
  21641018.360   113724353.83008  21641019.820    88616402.31445
  23016113.500   120950524.30807  23016113.300    94247156.64944
  24471574.740   128598986.91905  24471572.960   100206985.34841
  22168730.260   116497498.67908  22168730.340    90777248.53645
  23400019.100   122967991.01607  23400019.300    95819239.16044
  20800862.000   109309304.84209  20800859.880    85176095.55047
  20995363.640   110331461.39209  20995360.860    85972578.23547
  20379429.660   107094682.77509  20379431.440    83450437.33148
  22709539.720   119339448.71407  22709541.400    92991796.88344
 15 03 01 02 47  0.0000000  0 10G01G04G11G14G16G18G19G22G27G32
  24002632.300   126134699.38106  24002636.380    98286795.47243
  21629538.480   113664026.70408  21629539.920    88569394.20645
  23000492.980   120868438.64207  23000492.980    94183193.84543
  24457684.440   128525993.43605  24457685.040   100150135.24241
  22185949.460   116587986.07308  22185949.500    90847758.17145
  23415097.760   123047231.19607  23415098.320    95880984.76844
  20793925.800   109272854.82909  20793923.660    85147692.94847
  21001281.280   110362558.62109  21001278.420    85996809.84947
  20381087.220   107103393.33009  20381089.000    83457224.77048
  22688942.520   119231209.90208  22688944.040    92907455.02844
 15 03 01 02 47 30.0000000  0 10G01G04G11G14G16G18G19G22G27G32
  23987552.660   126055456.48107  23987556.960    98225047.89943
  21618107.800   113603958.10608  21618109.160    88522587.53045
  22984896.720   120786480.61707  22984897.180    94119330.49544
  24443813.740   128453103.77104  24443814.460   100093338.08543
  22203229.080   116678790.28208  22203228.980    90918514.66345
  23430222.780   123126714.82907  23430223.480    95942920.06843
  20787045.200   109236697.24709  20787043.080    85119518.22247
  21007291.540   110394142.90309  21007288.700    86021420.98047
  20382817.160   107112484.22909  20382818.980    83464308.58348
  22668392.760   119123220.78407  22668394.260    92823307.64844
 15 03 01 02 48  0.0000000  0 10G01G04G11G14G16G18G19G22G27G32
  23972500.140   125976355.77906  23972504.560    98163411.08543
  21606726.000   113544146.65608  21606727.420    88475981.23445
  22969324.480   120704648.95207  22969325.220    94055565.60444
  24429962.720   128380318.52904  24429965.760   100036622.27141
  22220568.380   116769908.11208  22220568.180    90989515.54645
  23445393.640   123206438.49407  23445394.440    96005042.41744
  20780220.380   109200832.41809  20780218.220    85091571.60447
  21013393.940   110426211.40009  21013391.100    86046409.42347
  20384619.400   107121954.84609  20384621.220    83471688.27948
  22647890.740   119015482.69308  22647892.260    92739355.89144
 15 03 01 02 48 30.0000000  0 10G01G04G11G14G16G18G19G22G27G32
  23957473.780   125897392.11606  23957478.060    98101881.04643
  21595392.220   113484587.30408  21595393.520    88429571.37345
  22953775.640   120622939.51707  22953776.300    93991895.97244
  24416132.360   128307637.31904  24416135.020    99979992.53043
  22237965.680   116861331.24408  22237965.420    91060754.32445
  23460608.740   123286394.25807  23460609.540    96067345.57143
  20773450.480   109165256.22509  20773448.280    85063849.90347
  21019587.240   110458757.42909  21019584.400    86071769.97147
  20386493.060   107131800.80709  20386494.880    83479360.45248
  22627436.120   118907993.17108  22627437.680    92655597.81144
 15 03 01 02 49  0.0000000  0 10G01G04G11G14G16G18G19G22G27G32
  23942474.460   125818570.76706  23942478.600    98040461.92343
  21584107.460   113425285.24508  21584108.660    88383362.00345
  22938251.100   120541357.56407  22938251.700    93928325.65844
  24402323.180   128235067.04205  24402325.500    99923444.21441
  22255421.440   116953062.26008  22255421.320    91132233.00945
  23475868.660   123366585.31707  23475869.320    96129832.12643
  20766736.700   109129975.18309  20766734.520    85036358.18648
  21025872.100   110491784.57909  21025869.240    86097505.41247
  20388439.200   107142027.98909  20388441.080    83487329.68248
  22607030.300   118800760.11008  22607031.940    92572039.63944
 15 03 01 02 49 30.0000000  0 10G01G04G11G14G16G18G19G22G27G32
  23927502.640   125739893.68207  23927506.600    97979155.19043
  21572872.000   113366242.14208  21572873.120    88337354.42745
  22922751.220   120459905.57107  22922751.880    93864856.62544
  24388535.620   128162612.50005  24388537.580    99866986.27841
  22272935.520   117045099.87108  22272935.600    91203950.61645
  23491173.340   123447011.17807  23491173.480    96192501.63044
  20760079.720   109094992.29409  20760077.520    85009098.79248
  21032248.640   110525293.23909  21032245.680    86123616.06247
  20390458.340   107152638.95609  20390460.280    83495597.95948
  22586674.180   118693787.82708  22586675.780    92488684.65744
 15 03 01 02 50  0.0000000  0 10G01G04G11G14G16G18G19G22G27G32
  23912557.940   125661358.95606  23912561.660    97917959.41443
  21561685.520   113307456.42208  21561686.560    88291547.39745
  22907275.920   120378582.17807  22907276.540    93801487.76044
  24374770.260   128090274.69005  24374770.580    99810619.11941
  22290507.000   117137439.26808  22290507.260    91275903.39745
  23506521.960   123527667.73507  23506521.580    96255350.91643
  20753479.240   109060306.90509  20753477.060    84982071.23547
  21038716.240   110559280.22809  21038713.160    86150099.43547
  20392550.260   107163632.49309  20392552.280    83504164.34948
  22566367.760   118587077.03007  22566369.420    92405533.46744
 15 03 01 02 50 30.0000000  0 10G01G04G11G14G16G18G19G22G27G32
  23897640.160   125582965.76606  23897643.720    97856873.88743
  21550547.780   113248927.03008  21550548.780    88245940.10545
  22891824.960   120297386.77007  22891825.580    93738218.65244
  24361027.440   128018055.32605  24361027.520    99754344.26143
  22308135.340   117230076.89108  22308135.720    91348088.54745
  23521913.860   123608552.15607  23521913.020    96318377.75043
  20746935.480   109025919.53509  20746933.300    84955275.88347
  21045274.260   110593742.78509  21045271.180    86176953.37547
  20394715.020   107175008.32309  20394717.000    83513028.62848
  22546111.460   118480629.78908  22546113.180    92322587.84144
 15 03 01 02 51  0.0000000  0  9G04G11G14G16G18G19G22G27G32
  21539459.700   113190658.47408  21539460.720    88200536.06145
  22876399.280   120216324.08507  22876399.820    93675052.98344
  24347308.540   127945961.95706                                
  22325820.820   117323014.58908  22325821.160    91420507.52745
  23537349.440   123689666.45007  23537348.420    96381583.70043
  20740449.500   108991835.64009  20740447.300    84928717.01047
  21051923.360   110628683.71809  21051920.300    86204180.08647
  20396953.560   107186771.66509  20396955.480    83522194.86048
  22525906.420   118374452.33608  22525908.180    92239852.22544
 15 03 01 02 51 30.0000000  0 10G01G04G11G14G16G18G19G22G27G32
  23867886.640   125426594.49506  23867890.440    97735018.16744
  21528420.420   113132646.66608  21528421.500    88155332.08545
  22860998.240   120135390.69007  22860998.620    93611988.04344
  24333613.340   127873993.20805  24333613.180    99642079.13041
  22343562.200   117416245.71608  22343562.360    91493155.15645
  23552827.520   123771004.33307  23552826.320    96444963.85443
  20734020.800   108958052.73009  20734018.640    84902392.67748
  21058662.280   110664097.22309  21058659.360    86231775.02847
  20399265.200   107198919.17109  20399267.040    83531660.44148
  22505752.520   118268543.65708  22505754.180    92157326.02044
 15 03 01 02 52  0.0000000  0 10G01G04G11G14G16G18G19G22G27G32
  23853051.000   125348633.53406  23853054.940    97674269.44643
  21517430.420   113074893.77109  21517431.500    88110329.86245
  22845622.200   120054589.29607  22845622.400    93549025.95743
  24319942.720   127802153.96505  24319942.920    99586100.50542
  22361359.140   117509768.81808  22361359.080    91566030.28645
  23568348.080   123852565.62107  23568346.900    96508518.12343
  20727649.960   108924573.87909  20727647.920    84876305.27148
  21065491.260   110699983.88409  21065488.440    86259738.66247
  20401650.420   107211453.51809  20401652.200    83541427.46148
  22485650.700   118162908.40308  22485652.380    92075012.86244
 15 03 01 02 52 30.0000000  0 10G01G04G11G14G16G18G19G22G27G32
  23838242.960   125270817.37606  23838247.000    97613633.58343
  21506489.760   113017400.22008  21506490.820    88065529.71945
  22830271.580   119973921.26007  22830271.640    93486167.78143
  24306297.240   127730447.50505  24306297.760    99530225.40843
  22379211.180   117603582.20208  22379211.020    91639131.60845
  23583910.820   123934348.68707  23583909.660    96572245.18543
  20721337.380   108891400.89809  20721335.360    84850456.20348
  21072410.080   110736342.88609  21072407.300    86288070.36247
  20404109.480   107224375.95509  20404111.260    83551496.88448
  22465601.580   118057549.67108  22465603.280    91992915.18144
 15 03 01 02 53  0.0000000  0 10G01G04G11G14G16G18G19G22G27G32
  23823461.840   125193143.30706  23823466.220    97553108.44144
  21495597.940   112960163.44808  21495599.000    88020929.66445
  22814945.880   119893383.70808  22814945.720    93423411.28244
  24292677.120   127658874.26405  24292677.960    99474454.13743
  22397117.380   117697679.91608  22397117.160    91712454.48545
  23599514.720   124016348.31607  23599513.840    96636141.01044
  20715082.760   108858532.60609  20715080.780    84824844.55948
  21079417.940   110773169.80709  21079415.200    86316766.66847
  20406642.040   107237684.38509  20406643.760    83561867.08348
  22445605.200   117952467.44408  22445606.720    91911032.96144
 15 03 01 02 53 30.0000000  0 10G01G04G11G14G16G18G19G22G27G32
  23808708.240   125115613.83506  23808713.060    97492695.91043
  21484755.360   112903185.84508  21484756.440    87976531.57045
  22799645.720   119812979.92308  22799645.360    93360759.03944
  24279083.340   127587439.29305  24279084.380    99418790.44742
  22415077.620   117792061.84008  22415077.480    91785998.83544
  23615160.020   124098565.33407  23615159.200    96700206.21343
  20708886.760   108825972.48509  20708884.800    84799473.04348
  21086515.000   110810465.33209  21086512.280    86345828.11647
  20409248.600   107251381.87909  20409250.360    83572540.44948
  22425662.220   117847666.73108  22425663.640    91829370.20144
 15 03 01 02 54  0.0000000  0 10G01G04G11G14G16G18G19G22G27G32
  23793981.780   125038226.23806  23793986.780    97432394.01143
  21473961.640   112846464.82008  21473962.680    87932333.41645
  22784370.480   119732707.69808  22784370.120    93298209.30944
  24265516.080   127516142.93405  24265516.920    99363234.88842
  22433091.000   117886722.64608  22433090.780    91859760.49244
  23630845.780   124180994.62007  23630844.940    96764436.83143
  20702749.160   108793719.29009  20702747.280    84774340.69748
  21093700.480   110848225.28209  21093697.720    86375251.45947
  20411928.800   107265466.42509  20411930.600    83583515.41648
  22405772.780   117743147.24208  22405774.180    91747926.50944
 15 03 01 02 54 30.0000000  0 10G01G04G11G14G16G18G19G22G27G32
  23779282.800   124960983.62506  23779288.180    97372205.03643
  21463217.300   112790003.06708  21463218.220    87888337.26946
  22769120.820   119652570.33608  22769120.520    93235764.64044
  24251976.360   127444990.91505  24251977.280    99307791.78541
  22451157.500   117981662.38408  22451157.300    91933739.50345
  23646572.060   124263636.76907  23646571.200    96828833.31542
  20696670.840   108761777.20509  20696668.900    84749450.77348
  21100974.660   110886450.70409  21100971.780    86405037.51147
  20414683.320   107279941.62809  20414685.120    83594794.78448
  22385937.920   117638914.76208  22385939.320    91666706.53844
 15 03 01 02 55  0.0000000  0 10G01G04G11G14G16G18G19G22G27G32
  23764611.560   124883886.52906  23764617.180    97312129.45144
  21452522.440   112733801.36908  21452523.340    87844543.77145
  22753897.000   119572568.68808  22753896.760    93173425.74444
  24238464.640   127373986.43405  24238465.640    99252463.65741
  22469276.520   118076878.26408  22469276.380    92007933.67144
  23662338.580   124346490.23007  23662337.660    96893394.44843
  20690652.040   108730147.81409  20690649.960    84724804.49948
  21108337.220   110925140.54809  21108334.240    86435185.44947
  20417512.420   107294808.60209  20417514.220    83606379.43548
  22366158.260   117534972.22508  22366159.660    91585712.43744
 15 03 01 02 55 30.0000000  0 10G01G04G11G14G16G18G19G22G27G32
  23749967.560   124806932.73306  23749973.180    97252165.54243
  21441876.620   112677857.47508  21441877.560    87800951.15545
  22738698.580   119492701.45508  22738698.560    93111191.56044
  24224981.120   127303130.22905  24224982.640    99197251.01941
  22487447.080   118172365.18908  22487447.080    92082339.04445
  23678144.480   124429550.47507  23678143.580    96958116.73743
  20684692.500   108698830.32309  20684690.340    84700401.27348
  21115787.340   110964291.00609  21115784.320    86465692.30247
  20420415.780   107310065.82709  20420417.560    83618268.18048
  22346433.840   117431320.03008  22346435.160    91504944.62044
 15 03 01 02 56  0.0000000  0 10G01G04G11G14G16G18G19G22G27G32
  23735351.160   124730123.26706  23735356.600    97192314.11244
  21431280.020   112622172.33908  21431281.000    87757560.17745
  22723526.060   119412969.93908  22723526.140    93049063.15944
  24211526.640   127232426.26806  24211528.420    99142157.03541
  22505668.940   118268122.01908  22505669.200    92156954.75845
  23693989.480   124512816.21007  23693988.340    97022999.15643
  20678792.720   108667826.91709  20678790.520    84676242.77948
  21123324.900   111003901.22709  21123321.860    86496557.41647
  20423393.740   107325714.77109  20423395.440    83630462.15248
  22326765.160   117327961.49108  22326766.560    91424405.58745
 15 03 01 02 56 30.0000000  0 10G01G04G11G14G16G18G19G22G27G32
  23720762.060   124653457.62206  23720767.360    97132574.70443
  21420732.520   112566745.25208  21420733.500    87714370.27445
  22708379.440   119333374.11608  22708379.560    92987040.48344
  24198101.700   127161876.55506  24198103.200    99087183.28842
  22523941.460   118364145.15908  22523941.920    92231777.99045
  23709873.180   124596284.95207  23709871.940    97088039.73043
  20672952.800   108637138.26409  20672950.660    84652329.55948
  21130949.460   111043968.83609  21130946.480    86527778.93847
  20426446.240   107341755.52509  20426447.880    83642961.44348
  22307152.840   117224898.95508  22307154.300    91344097.21345
 15 03 01 02 57  0.0000000  0 10G01G04G11G14G16G18G19G22G27G32
  23706200.860   124576937.64006  23706205.720    97072948.82644
  21410234.520   112511578.24208  21410235.460    87671383.03445
  22693259.060   119253916.59807  22693259.260    92925125.58044
  24184706.800   127091485.79105  24184708.320    99032333.37143
  22542264.360   118460433.20008  22542264.860    92306807.59445
  23725795.400   124679956.20707  23725794.260    97153238.11744
  20667173.480   108606767.74009  20667171.340    84628664.22648
  21138661.160   111084494.16709  21138658.220    86559357.12547
  20429573.720   107358190.51709  20429575.360    83655767.92448
  22287597.700   117122136.51008  22287599.120    91264022.67344
 15 03 01 02 57 30.0000000  0 10G01G04G11G14G16G18G19G22G27G32
  23691667.280   124500563.52406  23691672.020    97013436.62844
  21399786.000   112456671.46108  21399786.960    87628598.55845
  22678165.000   119174597.97307  22678165.340    92863318.89044
  24171342.620   127021257.04505  24171343.960    98977609.62642
  22560637.400   118556983.54108  22560637.720    92382041.59344
  23741755.720   124763827.82907  23741754.520    97218592.62442
  20661454.880   108576716.40509  20661452.760    84605247.61348
  21146459.640   111125475.51109  21146456.800    86591290.64947
  20432776.320   107375020.49909  20432777.980    83668882.18748
  22268100.200   117019676.98208  22268101.580    91184184.12544
 15 03 01 02 58  0.0000000  0 10G01G04G11G14G16G18G19G22G27G32
  23677161.140   124424333.93806  23677165.900    96954037.02843
  21389386.780   112402023.48308  21389387.760    87586015.75145
  22663097.280   119095417.30507  22663097.740    92801619.72844
  24158009.340   126951192.09805  24158010.620    98923013.62541
  22579059.800   118653792.23308  22579059.760    92457476.89644
  23757753.460   124847896.47607  23757752.000    97284100.67642
  20655797.080   108546984.25209  20655794.880    84582079.70848
  21154344.300   111166909.89209  21154341.640    86623577.18147
  20436053.940   107392244.69209  20436055.620    83682303.63348
  22248660.540   116917521.51708  22248662.020    91104582.51344
 15 03 01 02 58 30.0000000  0 10G01G04G11G14G16G18G19G22G27G32
  23662682.940   124348250.95106  23662687.900    96894751.65543
  21379037.200   112347636.30708  21379038.220    87543636.17445
  22648056.280   119016376.90007  22648056.740    92740029.85144
  24144708.300   126881295.59905  24144709.680    98868548.82143
  22597531.240   118750858.26708  22597530.760    92533112.71944
  23773788.640   124932162.04107  23773786.880    97349762.20142
  20650200.660   108517574.58809  20650198.340    84559163.09748
  21162315.180   111208797.33809  21162312.580    86656216.76447
  20439407.000   107409865.61909  20439408.820    83696034.21948
  22229279.620   116815674.51808  22229281.200    91025221.20944
 15 03 01 02 59  0.0000000  0 10G01G04G11G14G16G18G19G22G27G32
  23648232.060   124272311.08006  23648236.900    96835577.83243
  21368736.600   112293506.41408  21368737.640    87501457.06645
  22633041.440   118937474.17407  22633041.960    92678547.27144
  24131439.280   126811566.99105  24131440.760    98814214.85041
  22616050.380   118848175.33008  22616049.640    92608944.14444
  23789860.060   125016618.31007  23789858.080    97415572.27443
  20644665.200   108488485.34709  20644662.900    84536496.16748
  21170371.280   111251132.61109  21170368.740    86689205.29047
  20442835.040   107427880.40409  20442836.980    83710071.70848
  22209957.300   116714135.18608  22209958.880    90946099.61044
 15 03 01 02 59 30.0000000  0 10G01G04G11G14G16G18G19G22G27G32
  23633808.980   124196517.19306  23633813.760    96776517.71444
  21358485.560   112239636.74908  21358486.540    87459480.74445
  22618053.460   118858712.55407  22618054.060    92617174.64244
  24118203.320   126742012.02705  24118204.620    98760016.28443
  22634617.040   118945743.37508  22634616.220    92684971.17744
  23805967.980   125101266.31107  23805966.040    97481531.76442
  20639191.420   108459720.53309  20639189.180    84514082.03848
  21178512.880   111293917.14209  21178510.380    86722543.89847
  20446338.780   107446292.46909  20446340.700    83724418.76948
  22190694.640   116612908.96908  22190696.160    90867222.02345
 15 03 01 03 00  0.0000000  0 10G01G04G11G14G16G18G19G22G27G32
  23619413.580   124120868.93206  23619418.400    96717571.13044
  21348283.980   112186026.90309  21348284.820    87417706.87945
  22603092.440   118780092.00307  22603093.040    92555911.93644
  24105000.960   126672632.74705  24105001.860    98705954.42943
  22653230.560   119043559.12308  22653230.020    92761191.20444
  23822111.940   125186103.53807  23822110.060    97547638.69643
  20633779.520   108431280.94909  20633777.260    84491921.32948
  21186739.520   111337148.41309  21186737.000    86756230.60547
  20449918.180   107465101.93809  20449920.020    83739075.48848
  22171492.000   116511998.10508  22171493.460    90788590.23045
 15 03 01 03 00 30.0000000  0 10G01G04G11G14G16G18G19G22G27G32
  23605045.660   124045365.61006  23605050.220    96658737.44844
  21338131.780   112132676.14608  21338132.520    87376134.90146
  22588158.320   118701612.38607  22588158.840    92494759.04544
  24091832.580   126603431.79406  24091833.500    98652031.67743
  22671890.460   119141619.27508  22671890.380    92837601.75745
  23838291.340   125271127.07906  23838289.600    97613890.80643
  20628429.720   108403167.42109  20628427.400    84470014.68248
  21195050.740   111380823.88809  21195048.120    86790263.45947
  20453573.120   107484308.65709  20453574.940    83754041.75848
  22152349.680   116411404.21908  22152351.020    90710205.41644
 15 03 01 03 01  0.0000000  0 10G01G04G11G14G16G18G19G22G27G32
  23590705.720   123970008.91906  23590710.060    96600018.05344
  21328029.080   112079585.93909  21328029.820    87334765.93645
  22573251.380   118623275.81907  22573251.860    92433717.61144
  24078698.980   126534413.32206  24078699.960    98598251.05941
  22690596.580   119239922.13408  22690596.900    92914201.38744
  23854506.020   125356336.27306  23854504.400    97680287.56942
  20623142.460   108375382.77409  20623140.160    84448364.32448
  21203446.480   111424943.45609  21203443.780    86824642.34947
  20457304.060   107503914.72109  20457305.880    83769319.20148
  22133268.440   116311131.45508  22133269.740    90632070.83845
 15 03 01 03 01 30.0000000  0 10G01G04G11G14G16G18G19G22G27G32
  23576393.440   123894798.10006  23576397.680    96541412.30243
  21317975.840   112026755.78209  21317976.520    87293599.61146
  22558371.720   118545082.34708  22558372.000    92372787.67644
  24065600.480   126465579.53606  24065601.380    98544614.39643
  22709348.400   119338464.23308  22709348.920    92990987.40044
  23870755.500   125441728.46406  23870754.060    97746826.96241
  20617917.840   108347927.50009  20617915.560    84426970.61248
  21211926.220   111469504.54609  21211923.420    86859365.28047
  20461110.980   107523919.96609  20461112.800    83784907.70148
  22114248.760   116211181.53208  22114249.920    90554187.77144
 15 03 01 03 02  0.0000000  0 10G01G04G11G14G16G18G19G22G27G32
  23562108.880   123819732.95806  23562113.400    96482920.05544
  21307972.000   111974185.15409  21307972.700    87252635.52546
  22543519.300   118467032.25908  22543519.400    92311969.47443
  24052537.560   126396933.18406  24052538.180    98491123.72843
  22728145.420   119437242.91908  22728145.880    93067957.71745
  23887039.400   125527301.29307  23887038.040    97813507.07743
  20612756.060   108320802.47509  20612753.800    84405834.24048
  21220489.540   111514505.21209  21220486.740    86894430.74047
  20464993.900   107544324.69309  20464995.720    83800807.48748
  22095290.980   116111556.87508  22095292.000    90476558.17644
 15 03 01 03 02 30.0000000  0 10G01G04G11G14G16G18G19G22G27G32
  23547851.980   123744812.86306  23547856.620    96424540.84744
  21298017.480   111921873.70309  21298018.140    87211873.37945
  22528694.240   118389125.68008  22528694.160    92251263.10344
  24039510.620   126328476.43106  24039511.220    98437780.81143
  22746986.800   119536254.25108  22746987.020    93145109.36544
  23903357.320   125613051.75007  23903355.980    97880325.62343
  20607657.380   108294008.65509  20607655.080    84384955.94448
  21229136.020   111559942.95209  21229133.200    86929836.77447
  20468952.740   107565128.65609  20468954.580    83817018.35748
  22076395.380   116012259.13508  22076396.380    90399183.34345
 15 03 01 03 03  0.0000000  0 10G01G04G11G14G16G18G19G22G27G32
  23533622.720   123670037.77606  23533627.360    96366274.61043
  21288112.160   111869821.17109  21288112.780    87171313.00345
  22513896.520   118311362.67908  22513896.360    92190668.58544
  24026520.000   126260215.93205  24026518.440    98384574.71643
  22765872.000   119635495.18108  22765871.820    93222439.91544
  23919708.660   125698977.70807  23919707.220    97947280.92741
  20602621.900   108267546.77909  20602619.580    84364336.30548
  21237865.260   111605815.92009  21237862.500    86965581.95847
  20472987.640   107586332.40909  20472989.560    83833540.76448
  22057562.440   115913290.89508  22057563.380    90322065.24344
 15 03 01 03 03 30.0000000  0 10G01G04G11G14G16G18G19G22G27G32
  23519421.900   123595412.52306  23519426.740    96308125.13043
  21278257.040   111818032.43409  21278257.600    87130958.17045
  22499127.120   118233748.86108  22499126.980    92130190.36144
  24013566.900   126192146.48006  24013567.420    98331537.55843
  22784801.280   119734967.94208  22784800.820    93299951.13444
  23936093.860   125785081.82106  23936092.480    98014375.04143
  20597650.700   108241423.14909  20597648.380    84343980.23648
  21246677.780   111652126.85009  21246675.120    87001668.39946
  20477099.620   107607941.13609  20477101.540    83850378.72648
  22038793.500   115814659.48908  22038794.460    90245209.65144
 15 03 01 03 04  0.0000000  0 10G01G04G11G14G16G18G19G22G27G32
  23505248.500   123520930.88206  23505253.300    96250087.58844
  21268450.920   111766501.28109  21268451.480    87090804.06345
  22484384.980   118156278.75808  22484384.920    92069824.10044
  24000652.520   126124278.68006  24000653.100    98278653.58142
  22803772.900   119834663.45008  22803772.240    93377635.91844
  23952511.380   125871355.67007  23952509.960    98081601.41742
  20592742.960   108215632.94909  20592740.620    84323883.98048
  21255572.200   111698867.85509  21255569.620    87038089.97846
  20481287.580   107629949.15109  20481289.560    83867527.82548
  22020087.800   115716361.09208  22020088.860    90168613.53744
 15 03 01 03 04 30.0000000  0 10G01G04G11G14G16G18G19G22G27G32
  23491102.800   123446594.18506  23491107.380    96192162.99243
  21258694.020   111715228.71409  21258694.600    87050851.44645
  22469670.660   118078954.26408  22469670.460    92009571.28744
  23987776.700   126056615.60505  23987777.600    98225948.03743
  22822786.240   119934579.91708  22822785.720    93455492.88245
  23968961.100   125957798.56707  23968959.460    98148959.52942
  20587899.140   108190178.51909  20587896.840    84304049.36748
  21264548.320   111746038.17509  21264545.760    87074846.07846
  20485551.860   107652358.18809  20485553.800    83884989.41448
  22001446.180   115618399.49308  22001447.300    90092279.90545
 15 03 01 03 05  0.0000000  0 10G01G04G11G14G16G18G19G22G27G32
  23476985.460   123372406.83207  23476989.960    96134354.71344
  21248987.240   111664219.48809  21248987.840    87011104.02645
  22454984.920   118001780.17408  22454984.760    91949435.68544
  23974939.560   125989156.54905  23974940.040    98173382.50643
  22841841.780   120034718.68308  22841841.540    93533523.07144
  23985443.460   126044412.62207  23985441.540    98216450.99443
  20583120.260   108165065.70509  20583118.080    84284480.95148
  21273606.680   111793640.40709  21273604.080    87111938.73846
  20489893.400   107675173.11909  20489895.240    83902767.27248
  21982869.940   115520781.50708  21982871.080    90016214.01644
 15 03 01 03 05 30.0000000  0 10G01G04G11G14G16G18G19G22G27G32
  23462895.880   123298365.12707  23462900.460    96076659.98944
  21239329.860   111613469.73209  21239330.540    86971558.78446
  22440327.200   117924753.56108  22440327.020    91889414.99544
  23962141.820   125921904.68605  23962142.260    98120978.47643
  22860938.320   120135073.27608  22860938.460    93611721.49244
  24001957.320   126131191.83607  24001955.440    98284071.15342
  20578405.960   108140292.13009  20578403.780    84265176.87148
  21282746.240   111841668.81409  21282743.540    87149363.47346
  20494311.600   107698390.65109  20494313.320    83920858.84648
  21964358.860   115423505.82708  21964359.920    89940414.84445
 15 03 01 03 06  0.0000000  0 10G01G04G11G14G16G18G19G22G27G32
  23448834.080   123224469.61407  23448838.660    96019079.17244
  21229721.960   111562979.94209  21229722.660    86932216.13046
  22425697.720   117847875.51608  22425697.480    91829510.06644
  23949384.380   125854863.29005  23949384.660    98068738.51543
  22880075.580   120235641.69808  22880076.040    93690086.46844
  24018502.180   126218134.85307  24018500.280    98351818.96242
  20573756.620   108115859.46309  20573754.360    84246138.43348
  21291966.700   111890122.22209  21291963.880    87187119.38146
  20498806.560   107722011.71009  20498808.320    83939264.86348
  21945913.500   115326575.45708  21945914.640    89864884.78045
 15 03 01 03 06 30.0000000  0  9G01G04G11G16G18G19G22G27G32
  23434800.740   123150723.76007  23434805.120    95961614.90944
  21220164.200   111512753.52409  21220164.900    86893078.69045
  22411097.280   117771149.86808  22411096.960    91769723.90243
  22899253.800   120336424.57608  22899254.420    93768618.55444
  24035078.340   126305242.97806  24035076.520    98419695.40542
  20569173.040   108091772.30709  20569170.700    84227369.22948
  21301268.300   111939002.12409  21301265.440    87225207.63346
  20503379.100   107746040.27509  20503380.900    83957988.41948
  21927534.960   115229996.31908  21927536.060    89789628.37444
 15 03 01 03 07  0.0000000  0 10G01G04G11G14G16G18G19G22G27G32
  23420795.360   123077124.57107  23420799.500    95904264.96943
  21210655.940   111462787.43309  21210656.680    86854144.11246
  22396525.400   117694574.31608  22396525.000    91710054.67644
  23923992.360   125721431.74606  23923992.860    97964753.10643
  22918471.800   120437415.64808  22918472.420    93847312.82644
  24051684.860   126392510.99807  24051683.180    98487696.48843
  20564654.860   108068028.99009  20564652.500    84208867.95348
  21310650.080   111988303.80009  21310647.300    87263624.52746
  20508028.620   107770473.62909  20508030.500    83977027.38948
  21909223.100   115133767.66208  21909224.320    89714645.03445
 15 03 01 03 07 30.0000000  0 10G01G04G11G14G16G18G19G22G27G32
  23406817.520   123003670.72507  23406821.700    95847028.27844
  21201196.940   111413080.51509  21201197.800    86815411.47846
  22381981.940   117618148.62708  22381981.640    91650502.24244
  23911358.880   125655041.97206  23911359.500    97913020.88642
  22937728.720   120538610.78308  22937729.240    93926166.15644
  24068321.220   126479935.76007  24068319.680    98555819.68141
  20560202.040   108044629.26309  20560199.720    84190634.41048
  21320111.440   112038023.75509  21320108.740    87302367.35246
  20512754.960   107795310.97009  20512756.880    83996381.16248
  21890978.260   115037890.82508  21890979.600    89639935.83045
 15 03 01 03 08  0.0000000  0 10G01G04G11G14G16G18G19G22G27G32
  23392867.720   122930364.09207  23392871.860    95789906.27844
  21191787.620   111363634.41809  21191788.480    86776882.07846
  22367467.300   117541874.96408  22367467.200    91591068.24344
  23898767.880   125588875.20006  23898768.740    97861462.39943
  22957024.400   120640009.06808  22957024.720    94005177.77744
  24084987.400   126567516.88207  24084985.980    98624064.70942
  20555815.320   108021576.63109  20555813.000    84172671.33048
  21329652.400   112088161.87309  21329649.720    87341436.02946
  20517558.640   107820554.51909  20517560.540    84016051.45748
  21872801.220   114942369.99808  21872802.500    89565504.00745
 15 03 01 03 08 30.0000000  0 10G01G04G11G14G16G18G19G22G27G32
  23378945.780   122857204.08507  23378949.840    95732898.54544
  21182427.860   111314448.57609  21182428.740    86738555.47846
  22352981.620   117465753.26908  22352981.620    91531752.70244
  23886219.740   125522933.47606  23886220.660    97810079.25941
  22976358.020   120741606.82908  22976358.040    94084344.85144
  24101682.860   126655251.72507  24101681.520    98692429.52842
  20551494.740   107998871.62409  20551492.400    84154979.12648
  21339272.420   112138715.43509  21339269.760    87380828.41946
  20522439.560   107846204.03709  20522441.480    84036038.09148
  21854692.300   114847207.02008  21854693.540    89491351.04844
 15 03 01 03 09  0.0000000  0 10G01G04G11G14G16G18G19G22G27G32
  23365051.980   122784192.18307  23365056.080    95676006.22044
  21173117.840   111265524.36409  21173118.780    86700432.75346
  22338525.380   117389785.71608  22338525.500    91472557.27244
  23873715.040   125457221.09406  23873716.160    97758874.81243
  22995729.300   120843402.48608  22995729.100    94163666.14044
  24118407.280   126743139.45306  24118405.820    98760913.44943
  20547240.740   107976516.92409  20547238.460    84137559.88148
  21348971.480   112189684.22109  21348968.800    87420544.37346
  20527398.080   107872261.34509  20527400.000    84056342.48148
  21836652.320   114752405.80208  21836653.560    89417480.01245
 15 03 01 03 09 30.0000000  0 10G01G04G11G14G16G18G19G22G27G32
  23351186.280   122711328.39907  23351190.320    95619229.32144
  21163857.680   111216861.95209  21163858.620    86662514.01946
  22324098.760   117313973.01208  22324098.760    91413482.48944
  23861254.460   125391740.85606  23861255.500    97707851.27043
  23015137.760   120945393.67508  23015137.380    94243139.79644
  24135160.360   126831178.15306  24135158.860    98829515.02943
  20543053.640   107954513.76809  20543051.380    84120414.57248
  21358749.060   112241066.27409  21358746.500    87460582.34246
  20532434.300   107898726.88909  20532436.140    84076964.98348
  21818681.580   114657968.62908  21818682.820    89343892.63345
 15 03 01 03 10  0.0000000  0 10G01G04G11G14G16G18G19G22G27G32
  23337348.420   122638610.80806  23337352.580    95562566.33744
  21154646.900   111168459.23909  21154647.780    86624797.65646
  22309701.340   117238313.93608  22309701.280    91354527.41044
  23848838.280   125326493.85206  23848839.260    97657009.48443
  23034582.440   121047575.33908  23034581.920    94322761.94144
  24151941.360   126919363.69406  24151940.120    98898231.05043
  20538933.260   107932861.37709  20538931.040    84103542.59348
  21368604.480   112292857.56209  21368602.100    87500939.19847
  20537547.940   107925599.04109  20537549.640    84097904.31248
  21800780.260   114563896.03708  21800781.420    89270589.35145
 15 03 01 03 10 30.0000000  0 10G01G04G11G14G16G18G19G22G27G32
  23323538.420   122566039.14406  23323542.620    95506017.06844
  21145485.440   111120315.83909  21145486.220    86587283.34545
  22295333.240   117162808.50908  22295332.960    91295692.06344
  23836467.140   125261482.56506  23836467.900    97606351.36142
  23054062.540   121149944.17308  23054062.240    94402529.89344
  24168749.900   127007693.95606  24168748.860    98967059.82843
  20534879.860   107911560.70309  20534877.620    84086944.67248
  21378537.380   112345056.13709  21378535.160    87541613.41747
  20542738.980   107952877.92209  20542740.720    84119160.58548
  21782948.640   114470190.15808  21782949.740    89197571.84045
 15 03 01 03 11  0.0000000  0 10G01G04G11G14G16G18G19G22G27G32
  23309756.780   122493617.14606  23309761.100    95449584.40844
  21136374.140   111072435.87909  21136374.820    86549974.32046
  22280995.280   117087461.57608  22280994.840    91236980.20944
  23824142.100   125196713.39106  23824142.740    97555881.90043
  23073578.420   121252501.65508  23073578.420    94482444.95844
  24185586.320   127096170.31806  24185585.380    99036002.43141
  20530894.420   107890616.93209  20530892.220    84070624.86748
  21388548.160   112397663.74809  21388546.080    87582606.37046
  20548008.180   107980567.56109  20548009.940    84140736.92248
  21765187.880   114376857.13308  21765188.920    89124844.89445
 15 03 01 03 11 30.0000000  0 10G01G04G11G14G16G18G19G22G27G32
  23296003.220   122421342.29406  23296007.680    95393266.41544
  21127312.440   111024816.42609  21127313.020    86512868.27746
  22266687.040   117012270.98708  22266686.600    91178390.16544
  23811863.020   125132186.74806  23811863.640    97505601.44341
  23093128.980   121355241.69507  23093129.340    94562502.27144
  24202449.660   127184788.14706  24202448.640    99105055.28941
  20526976.640   107870028.69909  20526974.380    84054582.09048
  21398635.860   112450675.60709  21398633.980    87623914.31346
  20553355.100   108008665.74409  20553356.820    84162631.60748
  21747498.020   114283896.70708  21747499.020    89052408.30045
 15 03 01 03 12  0.0000000  0 10G01G04G11G14G16G18G19G22G27G32
  23282277.680   122349214.43906  23282282.340    95337062.95944
  21118300.300   110977457.49709  21118300.840    86475965.24546
  22252408.620   116937237.45908  22252408.240    91119922.52944
  23799630.640   125067905.29107  23799631.240    97455512.02543
  23112713.720   121458161.39108  23112714.560    94642699.49044
  24219339.520   127273545.44906  24219338.760    99174216.86441
  20523126.700   107849796.80709  20523124.360    84038816.99048
  21408800.180   112504089.54809  21408798.420    87665535.57246
  20558779.760   108037172.66909  20558781.520    84184844.79548
  21729879.500   114191311.02708  21729880.420    88980263.69745
 15 03 01 03 12 30.0000000  0 10G01G04G11G14G16G18G19G22G27G32
  23268580.480   122277235.56107  23268585.280    95280975.58344
  21109338.060   110930361.01009  21109338.700    86439266.72446
  22238160.540   116862363.45608  22238160.160    91061579.18944
  23787445.900   125003873.80606  23787446.560    97405617.39643
  23132332.480   121561260.31307  23132333.540    94723036.47244
  24236255.780   127362441.95406  24236255.100    99243486.82742
  20519345.200   107829924.85409  20519342.860    84023332.35548
  21419041.080   112557905.58409  21419039.260    87707470.14346
  20564282.640   108066090.57009  20564284.380    84207378.22648
  21712333.140   114099104.33808  21712334.000    88908414.34745
 15 03 01 03 13  0.0000000  0 10G01G04G11G14G16G18G19G22G27G32
  23254911.280   122205403.91607  23254916.080    95225002.94144
  21100425.460   110883525.27309  21100426.180    86402771.37546
  22223942.700   116787648.30008  22223942.380    91003359.62144
  23775308.940   124940093.40306  23775309.500    97355918.37743
  23151984.360   121664532.98508  23151985.560    94803508.78244
  24253197.680   127451473.97106  24253197.420    99312862.41241
  20515632.040   107810412.56009  20515629.800    84008127.98748
  21429357.880   112612120.22909  21429355.960    87749715.32546
  20569863.420   108095418.04809  20569865.240    84230230.80448
  21694858.960   114007277.26508  21694859.880    88836860.77445
 15 03 01 03 13 30.0000000  0 10G01G04G11G14G16G18G19G22G27G32
  23241270.320   122133720.33507  23241275.160    95169145.67444
  21091562.620   110836951.02909  21091563.440    86366479.78546
  22209755.260   116713093.20208  22209754.920    90945264.78744
  23763220.220   124876567.58906  23763220.780    97306417.77943
  23171669.220   121767978.21107  23171670.440    94884115.53544
  24270165.220   127540640.58806  24270165.320    99382342.84844
  20511987.680   107791261.33509  20511985.400    83993204.96248
  21439750.260   112666731.94209  21439748.200    87792269.91746
  20575522.340   108125156.16009  20575524.200    84253403.35748
  21677457.600   113915832.97708  21677458.640    88765605.44945
 15 03 01 03 14  0.0000000  0 10G01G04G11G14G16G18G19G22G27G32
  23227657.320   122062183.42607  23227662.160    95113402.69844
  21082749.280   110790636.53509  21082750.120    86330390.59246
  22195598.160   116638697.47008  22195597.800    90887294.12844
  23751180.280   124813297.68206  23751181.000    97257116.58044
  23191386.080   121871591.33008  23191387.080    94964853.16244
  24287157.240   127629873.88805  24287155.780    99451851.19043
  20508412.080   107772471.21209  20508409.740    83978563.31848
  21450217.440   112721737.41308  21450215.360    87835131.32146
  20581259.220   108155303.77009  20581261.140    84276894.99748
  21660129.340   113824772.35608  21660130.440    88694649.04145
 15 03 01 03 14 30.0000000  0 10G01G04G11G14G16G18G19G22G27G32
  23214072.360   121990793.77007  23214077.140    95057774.44145
  21073985.620   110744582.81009  21073986.400    86294504.59946
  22181471.680   116564462.45908  22181471.360    90829448.71144
  23739189.760   124750287.34206  23739190.520    97208017.65542
  23211134.500   121975369.53608  23211135.000    95045719.53844
  24304174.600   127719297.43406  24304174.280    99521539.17841
  20504905.520   107754044.10209  20504903.120    83964204.53948
  21460759.380   112777135.37909  21460757.240    87878298.57146
  20587074.200   108185861.79909  20587076.140    84300706.45048
  21642874.680   113734098.41108  21642875.800    88623993.96645
 15 03 01 03 15  0.0000000  0 10G01G04G11G14G16G18G19G22G27G32
  23200515.180   121919550.62607  23200519.960    95002260.35244
  21065271.440   110698788.95209  21065272.100    86258821.10046
  22167375.780   116490388.08608  22167375.520    90771728.44144
  23727249.080   124687538.70606  23727249.740    97159122.65043
  23230913.700   122079309.87107  23230913.840    95126712.15243
  24321216.320   127808850.79006  24321216.080    99591321.00142
  20501468.160   107735980.69509  20501465.680    83950129.15948
  21471375.380   112832922.97509  21471373.240    87921769.43146
  20592967.180   108216829.70709  20592969.160    84324837.28648
  21625693.940   113643812.70308  21625695.060    88553641.43445
 15 03 01 03 15 30.0000000  0 10G01G04G11G14G16G18G19G22G27G32
  23186986.300   121848456.30707  23186991.080    94946862.24244
  21056607.100   110653257.22309  21056607.660    86223341.85546
  22153311.060   116416477.36508  22153310.880    90714135.70444
  23715359.140   124625056.47906  23715359.600    97110435.19443
  23250723.460   122183411.27507  23250723.340    95207830.07644
  24338282.040   127898530.98906  24338281.460    99661201.64842
  20498100.640   107718284.11609  20498098.120    83936339.61948
  21482065.560   112889100.36009  21482063.440    87965544.01946
  20598938.680   108248210.01709  20598940.660    84349289.47148
  21608587.920   113553919.86608  21608589.100    88483595.08245
 15 03 01 03 16  0.0000000  0 10G01G04G11G14G16G18G19G22G27G32
  23173485.740   121777510.53007  23173490.600    94891579.87144
  21047992.580   110607987.24109  21047993.040    86188066.57746
  22139277.400   116342730.53608  22139277.440    90656670.69244
  23703520.380   124562843.32206  23703520.800    97061957.43743
  23270563.560   122287671.48107  23270563.040    95289071.87743
  24355371.380   127988335.82806  24355371.120    99731179.47443
  20494803.020   107700955.26909  20494800.540    83922836.62548
  21492829.460   112945665.19708  21492827.340    88009620.51146
  20604988.660   108280002.71609  20604990.600    84374062.99348
  21591557.020   113464421.92708  21591558.220    88413856.47945
 15 03 01 03 16 30.0000000  0 10G01G04G11G14G16G18G19G22G27G32
  23160013.380   121706713.26007  23160018.280    94836413.20844
  21039427.820   110562978.99509  21039428.300    86152995.23946
  22125275.180   116269148.67208  22125275.160    90599334.20044
  23691733.440   124500901.82006  23691733.800    97013691.39442
  23290433.060   122392086.68907  23290432.500    95370434.42243
  24372483.900   128078263.11106  24372483.620    99801252.68241
  20491575.600   107683995.36209  20491573.180    83909621.11848
  21503666.760   113002615.33009  21503664.600    88053997.25346
  20611117.140   108312207.92009  20611119.020    84399157.95148
  21574601.700   113375320.94108  21574602.780    88344427.20345
 15 03 01 03 17  0.0000000  0 10G01G04G11G14G16G18G19G22G27G32
  23146569.080   121636063.34407  23146574.040    94781361.38344
  21030912.620   110518231.31409  21030913.040    86118126.94346
  22111304.380   116195731.43908  22111304.220    90542126.00944
  23679998.500   124439233.83906  23679998.900    96965638.47443
  23310331.200   122496652.99808  23310330.840    95451914.65444
  24389619.220   128168310.00706  24389618.900    99871419.11741
  20488418.460   107667404.81809  20488416.080    83896693.42748
  21514576.840   113059947.85109  21514574.640    88098671.94546
  20617323.980   108344824.75909  20617325.760    84424573.66548
  21557722.100   113286618.04108  21557723.040    88275308.09545
 15 03 01 03 17 30.0000000  0 10G01G04G11G14G16G18G19G22G27G32
  23133153.340   121565563.93507  23133158.400    94726426.84444
  21022447.620   110473747.51009  21022448.020    86083464.26546
  22097365.580   116122482.49008  22097365.240    90485048.94544
  23668316.440   124377845.06706  23668317.040    96917803.12044
  23330258.140   122601370.96707  23330258.000    95533513.04744
  24406777.360   128258477.20005  24406777.060    99941679.26443
  20485332.460   107651187.67909  20485330.080    83884056.70248
  21525559.800   113117663.74008  21525557.620    88143645.35846
  20623609.720   108377856.51609  20623611.520    84450312.69348
  21540919.280   113198318.56608  21540920.100    88206503.32945
 15 03 01 03 18  0.0000000  0 10G01G04G11G14G16G18G19G22G27G32
  23119765.440   121495210.00907  23119770.360    94671605.65044
  21014031.780   110429522.42409  21014032.200    86049003.18446
  22083457.900   116049397.33008  22083457.440    90428099.50044
  23656687.220   124316733.58406  23656688.060    96870183.82343
  23350212.400   122706232.10507  23350212.660    95615222.98244
  24423957.100   128348757.86905  24423957.280   100012027.78542
  20482316.760   107635340.10009  20482314.420    83871707.94548
  21536614.380   113175756.01108  21536612.220    88188912.06146
  20629973.440   108411298.36609  20629975.320    84476371.27548
  21524192.740   113110419.75508  21524193.500    88138010.80345
 15 03 01 03 18 30.0000000  0 10G01G04G11G14G16G18G19G22G27G32
  23106405.660   121425003.62107  23106410.440    94616899.42244
  21005665.520   110385558.06509  21005666.040    86014745.26246
  22069581.880   115976478.89208  22069581.340    90371279.96444
  23645111.680   124255903.93406  23645112.660    96822784.10443
  23370194.080   122811236.55807  23370194.440    95697044.55344
  24441158.580   128439152.26405  24441158.820   100082464.95443
  20479372.060   107619865.51009  20479369.740    83859649.82548
  21547740.580   113234224.41309  21547738.440    88234471.86746
  20636415.660   108445152.59809  20636417.580    84502751.18448
  21507543.220   113022926.07408  21507544.060    88069833.95545
 15 03 01 03 19  0.0000000  0 10G01G04G11G14G16G18G19G22G27G32
  23093074.380   121354946.67007  23093079.040    94562309.65444
  20997349.280   110341856.25209  20997349.880    85980691.92146
  22055738.000   115903729.73308  22055737.500    90314592.36044
  23633590.580   124195360.67006  23633591.640    96775607.53543
  23390202.720   122916382.47907  23390203.120    95778976.32544
  24458381.680   128529660.05805  24458381.640   100152990.47543
  20476498.920   107604766.83709  20476496.540    83847884.62348
  21558938.280   113293068.91808  21558936.180    88280324.72446
  20642936.760   108479421.15709  20642938.680    84529453.95348
  21490971.480   112935841.33708  21490972.440    88001975.77045
 15 03 01 03 19 30.0000000  0 10G01G04G11G14G16G18G19G22G27G32
  23079771.060   121285037.42507  23079775.740    94507834.97144
  20989082.680   110298415.16709  20989083.340    85946841.75246
  22041926.100   115831149.13108  22041925.740    90258036.06644
  23622124.300   124135105.04606  23622125.100    96728655.15043
  23410237.680   123021666.18407  23410238.020    95861015.53543
  24475625.780   128620277.82905  24475625.460   100223601.70741
  20473697.200   107590043.57809  20473694.780    83836411.96048
  21570206.780   113352285.73208  21570204.760    88326467.70046
  20649536.420   108514102.54909  20649538.320    84556478.40648
  21474477.680   112849166.26308  21474478.740    87934436.79545
 15 03 01 03 20  0.0000000  0 10G01G04G11G14G16G18G19G22G27G32
  23066495.960   121215276.44207  23066500.500    94453475.80744
  20980865.900   110255235.61009  20980866.540    85913195.36546
  22028146.680   115758738.27808  22028146.380    90201612.06444
  23610713.220   124075140.13906  23610713.900    96681929.28543
  23430298.240   123127084.38507  23430298.400    95943159.47944
  24492890.500   128711003.93605  24492890.080   100294297.34543
  20470967.260   107575697.51509  20470964.820    83825233.21048
  21581545.820   113411873.07609  21581543.800    88372899.39446
  20656214.840   108549197.43409  20656216.640    84583825.06148
  21458062.260   112762903.40108  21458063.440    87867219.02245
 15 03 01 03 20 30.0000000  0 10G01G04G11G14G16G18G19G22G27G32
  23053249.000   121145663.37607  23053253.460    94399231.90044
  20972698.760   110212317.04409  20972699.380    85879752.35146
  22014399.700   115686497.30308  22014399.460    90145320.42044
  23599358.020   124015468.51007  23599358.460    96635431.91843
  23450383.920   123232634.22107  23450383.660    96025405.92043
  24510175.300   128801836.14905  24510174.880   100365075.67741
  20468309.240   107561729.38409  20468306.780    83814348.95248
  21592955.040   113471828.70308  21592952.920    88419618.07346
  20662971.880   108584705.58509  20662973.620    84611493.73848
  21441725.640   112677054.60308  21441726.940    87800323.90345
 15 03 01 03 21  0.0000000  0 10G01G04G11G14G16G18G19G22G27G32
  23040030.660   121076200.61207  23040034.900    94345105.12444
  20964581.700   110169661.94509  20964582.340    85846514.62446
  22000685.720   115614429.74408  22000685.440    90089163.90944
  23588059.700   123956095.46606  23588060.040    96589167.24741
  23470494.580   123338315.55607  23470494.000    96107754.84743
  24527480.280   128892774.85105  24527479.700   100435937.00743
  20465723.820   107548142.88609  20465721.340    83803762.07048
  21604434.380   113532152.81009  21604432.160    88466623.86546
  20669808.020   108620629.52209  20669809.700    84639486.40948
  21425468.780   112591624.50008  21425470.100    87733755.02445
 15 03 01 03 21 30.0000000  0 10G01G04G11G14G16G18G19G22G27G32
  23026840.020   121006883.25007  23026844.280    94291091.64045
  20956513.820   110127265.14409  20956514.360    85813478.18046
  21987003.900   115542531.12908  21987003.660    90033139.05744
  23576817.640   123897018.47306  23576818.140    96543133.22543
  23490628.700   123444120.48307  23490627.880    96190200.13844
  24544804.260   128983813.13005  24544803.820   100506875.87343
  20463210.280   107534934.03709  20463207.640    83793469.45848
  21615982.500   113592838.31509  21615980.260    88513911.26546
  20676722.260   108656964.38509  20676724.020    84667799.28148
  21409291.060   112506610.28408  21409292.320    87667510.22545
 15 03 01 03 22  0.0000000  0 10G01G04G11G14G16G18G19G22G27G32
  23013677.840   120937715.68707  23013682.140    94237194.88544
  20948495.980   110085131.17909  20948496.360    85780646.54746
  21973355.360   115470807.05508  21973355.080    89977250.20144
  23565633.300   123838244.76606  23565634.260    96497335.60144
  23510786.580   123550050.40807  23510785.740    96272742.81444
  24562147.720   129074953.56405  24562147.020   100577894.51443
  20460769.640   107522108.51609  20460766.960    83783475.54648
  21627599.860   113653887.79108  21627597.520    88561482.28546
  20683715.580   108693714.74009  20683717.420    84696435.91348
  21393193.760   112422018.48508  21393194.940    87601594.57745
 15 03 01 03 22 30.0000000  0 10G01G04G11G14G16G18G19G22G27G32
  23000543.860   120868696.81407  23000548.280    94183414.01044
  20940527.960   110043258.82809  20940528.240    85748018.75746
  21959739.800   115399256.80208  21959739.440    89921496.76944
  23554506.880   123779775.73106  23554508.140    96451775.31843
  23530967.460   123656101.40107  23530966.740    96355379.87143
  24579510.040   129166192.77705  24579509.240   100648989.90041
  20458401.880   107509666.34209  20458399.240    83773780.35148
  21639285.820   113715297.79608  21639283.300    88609334.24346
  20690787.780   108730879.48909  20690789.660    84725395.45148
  21377177.060   112337850.12708  21377178.160    87536008.88645
 15 03 01 03 23  0.0000000  0 10G01G04G11G14G16G18G19G22G27G32
  22987438.080   120799825.89307  22987442.520    94129748.38444
  20932609.640   110001647.62009  20932609.900    85715594.44846
  21946157.340   115327880.63508  21946156.980    89865879.01444
  23543438.960   123721613.39006  23543440.040    96406454.04641
  23551170.800   123762270.35107  23551170.240    96438108.90143
  24596890.660   129257528.37605  24596890.100   100720160.49943
  20456107.200   107497607.88309  20456104.620    83764384.15148
  21651039.920   113777065.70609  21651037.400    88657465.07846
  20697938.720   108768457.99809  20697940.660    84754677.39148
  21361241.220   112254106.51008  21361242.220    87470754.15746
 15 03 01 03 23 30.0000000  0 10G01G04G11G14G16G18G19G22G27G32
  22974360.600   120731102.90907  22974365.040    94076198.05844
  20924740.960   109960297.32309  20924741.220    85683373.45846
  21932608.200   115256679.39408  21932607.820    89810397.56144
  23532430.000   123663760.51506  23532430.780    96361373.90843
  23571395.960   123868554.12707  23571395.620    96520927.41343
  24614289.280   129348958.67305  24614289.200   100791404.88243
  20453885.780   107485934.24709  20453883.220    83755287.81048
  21662861.700   113839189.55908  21662859.260    88705873.27346
  20705168.420   108806450.34309  20705170.380    84784281.80848
  21345386.680   112170789.93808  21345387.520    87405832.18145
 15 03 01 03 24  0.0000000  0 10G01G04G11G14G16G18G19G22G27G32
  22961311.520   120662528.77407  22961315.820    94022763.71345
  20916922.020   109919208.73109  20916922.340    85651356.39046
  21919092.620   115185654.72908  21919092.280    89755053.70044
  23521480.660   123606220.94607  23521481.220    96316537.89042
  23591642.540   123974950.23407  23591642.300    96603833.43043
  24631705.980   129440487.38305  24631706.920   100862717.05743
  20451738.000   107474647.60009  20451735.500    83746493.02248
  21674750.900   113901667.82608  21674748.520    88754557.63546
  20712477.080   108844857.39809  20712479.000    84814209.37948
  21329613.960   112087903.17009  21329614.660    87341245.13045
 15 03 01 03 24 30.0000000  0 10G01G04G11G14G16G18G19G22G27G32
  22948290.480   120594102.52107  22948294.720    93969444.58345
  20909152.760   109878381.13309  20909153.020    85619542.69446
  21905610.640   115114806.50908  21905610.280    89699847.32845
  23510591.180   123548996.05307  23510591.520    96271947.10443
  23611909.880   124081455.65107  23611909.680    96686824.65243
  24649139.380   129532101.53605  24649139.900   100934104.72843
  20449663.860   107463748.06809  20449661.460    83737999.88848
  21686706.920   113964497.24808  21686704.640    88803515.62946
  20719864.460   108883678.27609  20719866.360    84844459.40848
  21313923.240   112005447.48609  21313923.820    87276993.98445
 15 03 01 03 25  0.0000000  0 10G01G04G11G14G16G18G19G22G27G32
  22935297.980   120525826.38807  22935302.080    93916242.44744
  20901433.540   109837816.55009  20901433.800    85587933.94446
  21892162.680   115044137.32508  21892162.220    89644780.46845
  23499762.480   123492090.77706  23499762.840    96227605.35344
  23632197.820   124188069.00907  23632197.600    96769900.01044
  24666590.200   129623806.49505  24666590.580   101005563.08743
  20447664.040   107453239.02909  20447661.720    83729811.02948
  21698729.840   114027678.06908  21698727.620    88852747.43146
  20727331.000   108922915.13009  20727332.880    84875033.57448
  21298315.300   111923426.96809  21298315.800    87213081.93645
 15 03 01 03 25 30.0000000  0 10G01G04G11G14G16G18G19G22G27G32
  22922333.440   120457697.36807  22922337.280    93863154.92544
  20893763.800   109797512.19409  20893764.060    85556527.97046
  21878748.480   114973645.29708  21878747.880    89589851.64344
  23488994.540   123435505.02306  23488994.800    96183512.57641
  23652505.360   124294785.03007  23652505.160    96853055.39443
  24684057.420   129715597.58105  24684057.580   101077088.57042
  20445738.200   107443118.50109  20445735.920    83721924.90648
  21710818.700   114091205.25008  21710816.540    88902249.13446
  20734876.120   108962565.07409  20734878.020    84905929.62248
  21282789.960   111841840.93708  21282790.420    87149508.43846
 15 03 01 03 26  0.0000000  0 10G01G04G11G14G16G18G19G22G27G32
  22909397.480   120389718.10807  22909401.100    93810184.10244
  20886144.100   109757470.28209  20886144.400    85525326.49946
  21865368.740   114903334.22508  21865367.960    89535063.82444
  23478288.380   123379243.81707  23478288.460    96139672.69943
  23672832.260   124401603.14307  23672831.980    96936290.26443
  24701541.080   129807475.25505  24701541.020   101148681.57941
  20443887.020   107433390.20609  20443884.760    83714344.41848
  21722973.520   114155079.13908  21722971.360    88952021.00046
  20742500.340   109002630.70509  20742502.260    84937149.58248
  21267348.040   111760693.83809  21267348.560    87086276.97945
 15 03 01 03 26 30.0000000  0 10G01G04G11G14G16G18G19G22G27G32
  22896489.540   120321886.13207  22896493.040    93757328.05744
  20878573.940   109717688.56209  20878574.200    85494327.78146
  21852023.160   114833202.25908  21852022.300    89480415.57345
  23467644.020   123323307.21506  23467643.960    96096085.77344
  23693177.740   124508518.30807  23693177.260    97019600.78944
  24719040.340   129899435.20705  24719040.280   101220338.70341
  20442110.200   107424052.88309  20442107.920    83707068.58248
  21735193.440   114219295.30208  21735191.340    89002059.55646
  20750203.240   109043109.54409  20750205.120    84968691.52448
  21251989.560   111679985.37208  21251990.220    87023387.28645
 15 03 01 03 27  0.0000000  0 10G01G04G11G14G16G18G19G22G27G32
  22883609.900   120254203.35007  22883613.380    93704588.26744
  20871053.600   109678168.88309  20871053.920    85463533.24246
  21838712.120   114763251.83808  21838711.120    89425908.77045
  23457062.340   123267700.12106  23457062.320    96052755.60443
  23713541.540   124615529.64307  23713540.840    97102986.26343
  24736555.300   129991477.41105  24736555.340   101292059.87842
  20440408.340   107415109.48309  20440406.020    83700099.69848
  21747478.540   114283853.53908  21747476.280    89052364.68646
  20757985.160   109084003.45009  20757987.000    85000556.89948
  21236715.300   111599719.35608  21236716.220    86960842.37946
 15 03 01 03 27 30.0000000  0 10G01G04G11G14G16G18G19G22G27G32
  22870758.580   120186669.49208  22870762.060    93651964.52644
  20863583.020   109638911.06109  20863583.440    85432942.75246
  21825435.680   114693483.78008  21825434.880    89371544.08145
  23446543.820   123212424.64207  23446543.920    96009683.82843
  23733922.920   124722633.86407  23733922.140    97186444.07143
  24754085.520   130083599.80104  24754085.680   101363843.62041
  20438781.540   107406560.61709  20438779.140    83693438.24748
  21759828.240   114348751.46408  21759825.900    89102934.49446
  20765845.960   109125312.03809  20765847.780    85032745.40348
  21221525.580   111519897.52708  21221526.680    86898643.57446
 15 03 01 03 28  0.0000000  0 10G01G04G11G14G16G18G19G22G27G32
  22857935.760   120119285.38907  22857939.380    93599457.46345
  20856162.340   109599915.74009  20856162.860    85402556.80446
  21812194.260   114623899.51408  21812193.620    89317322.59345
  23436089.020   123157484.35007  23436089.280    95966873.23143
  23754321.500   124829828.99907  23754320.600    97269972.69043
  24771630.760   130175801.44504  24771631.040   101435689.05544
  20437230.280   107398408.51009  20437227.800    83687085.95148
  21772242.220   114413987.39808  21772239.940    89153767.68946
  20773785.740   109167036.15009  20773787.600    85065257.68848
  21206421.020   111440522.69709  21206422.180    86836793.09245
 15 03 01 03 28 30.0000000  0 10G01G04G11G14G16G18G19G22G27G32
  22845141.300   120052050.62507  22845145.040    93547066.77645
  20848791.580   109561182.62109  20848792.220    85372375.16546
  21798987.900   114554499.77408  21798987.400    89263244.91445
  23425698.420   123102881.31807  23425698.900    95924325.44343
  23774736.760   124937111.97507  23774735.880    97353569.80243
  24789190.560   130268079.67904  24789191.720   101507568.23543
  20435754.640   107390653.81409  20435752.100    83681043.33348
  21784720.080   114479559.13708  21784717.800    89204862.54946
  20781804.500   109209175.28409  20781806.440    85098093.37048
  21191401.940   111361596.47509  21191403.020    86775292.16546
 15 03 01 03 29  0.0000000  0 10G01G04G11G14G16G18G19G22G27G32
  22832374.780   119984962.19408  22832378.420    93494790.12144
  20841470.160   109522708.65909  20841470.880    85342395.47946
  21785816.160   114485282.17008  21785815.760    89209309.14845
  23415371.960   123048615.26707  23415372.600    95882040.24843
  23795167.480   125044476.58207  23795166.820    97437230.53343
  24806764.200   130360429.96204  24806763.140   101579558.40443
  20434354.200   107383294.38909  20434351.640    83675308.70448
  21797260.820   114545461.37308  21797258.600    89256214.93646
  20789901.680   109251726.33109  20789903.740    85131250.02648
  21176468.060   111283117.63109  21176468.960    86714139.85746
 15 03 01 03 29 30.0000000  0 10G01G04G11G14G16G18G19G22G27G32
  22819636.800   119918023.47908  22819640.320    93442630.11244
  20834198.700   109484497.19609  20834199.420    85312620.34446
  21772679.820   114416250.95508  21772679.440    89155518.62844
  23405110.640   122994691.89807  23405111.220    95840022.04643
  23815613.860   125151923.67306  23815613.400    97520955.52743
  24824351.840   130452853.86804  24824351.740   101651577.19443
  20433029.760   107376334.67309  20433027.240    83669885.55948
  21809864.760   114611695.43309  21809862.540    89307825.89646
  20798077.920   109294692.58609  20798079.980    85164730.21548
  21161620.300   111205091.64509  21161620.980    86653340.42446
 15 03 01 03 30  0.0000000  0 10G01G04G11G14G16G18G19G22G27G32
  22806927.260   119851233.98508  22806930.700    93390586.39345
  20826977.120   109446547.76109  20826977.880    85283049.37146
  21759579.080   114347406.65308  21759578.720    89101873.74845
  23394915.060   122941113.41407  23394915.440    95798272.59943
  23836075.040   125259449.43107  23836075.020    97604741.81143
  24841953.040   130545348.99804  24841954.120   101723651.23543
  20431781.440   107369775.23809  20431778.980    83664774.30448
  21822531.280   114678258.49408  21822528.980    89359693.21746
  20806333.060   109338073.44709  20806335.040    85198533.47548
  21146858.900   111127519.91209  21146859.400    86592894.95345
 15 03 01 03 30 30.0000000  0 10G01G04G11G14G16G18G19G22G27G32
  22794246.000   119784593.82708  22794249.540    93338659.02045
  20819805.460   109408860.36009  20819806.180    85253682.58046
  21746514.020   114278749.91408  21746513.660    89048375.02345
  23384785.620   122887882.63507  23384785.840    95756794.08244
  23856550.720   125367051.52506  23856551.100    97688587.53743
  24859567.520   130637913.58304  24859566.600   101795779.37841
  20430609.560   107363617.20809  20430607.120    83659975.84248
  21835260.000   114745148.56108  21835257.620    89411815.34546
  20814667.060   109381868.87109  20814668.980    85232659.77148
  21132184.180   111050404.36308  21132184.700    86532804.95246
 15 03 01 03 31  0.0000000  0 10G01G04G11G14G16G18G19G22G27G32
  22781592.920   119718101.95308  22781596.480    93286847.22145
  20812683.500   109371433.86809  20812684.160    85224519.10246
  21733484.700   114210280.63808  21733484.300    88995022.35745
  23374722.720   122835001.12107  23374722.740    95715587.71743
  23877040.320   125474726.44706  23877040.980    97772489.96344
  24877194.600   130730544.57204  24877192.980   101867965.52143
  20429514.160   107357860.82909  20429511.700    83655490.35248
  21848050.420   114812362.49608  21848047.940    89464189.84146
  20823079.700   109426077.69509  20823081.580    85267108.20047
  21117596.380   110973745.96308  21117597.080    86473071.16246
 15 03 01 03 31 30.0000000  0 10G01G04G11G14G16G18G19G22G27G32
  22768968.140   119651759.10307  22768971.720    93235151.53745
  20805611.400   109334269.35309  20805611.940    85195559.74846
  21720491.400   114142000.66408  21720491.120    88941817.20745
  23364726.780   122782472.06507  23364726.840    95674656.05343
  23897543.580   125582472.19507  23897544.420    97856447.69942
  24894834.140   130823240.83604  24894836.160   101940209.35744
  20428495.540   107352507.87709  20428493.120    83651319.22248
  21860902.180   114879898.87208  21860899.680    89516815.57846
  20831571.120   109470700.54509  20831573.020    85301879.23747
  21103096.040   110897547.25008  21103096.960    86413695.56846
 15 03 01 03 32  0.0000000  0 11G01G03G04G11G14G16G18G19G22G27G32
  22756375.140   119585583.31407  22756378.860    93183586.01144
  24642441.120   129496901.89706  24642444.780   100906692.37842
  20798592.460   109297384.42809  20798592.960    85166818.26846
  21707537.800   114073928.66108  21707537.460    88888774.11045
  23354801.600   122730315.89607  23354801.920    95634014.88843
  23918063.200   125690303.22307  23918064.140    97940471.87342
  24912489.240   130916018.71004  24912490.660   102012503.86844
  20427557.260   107347576.95109  20427554.800    83647476.93248
  21873818.320   114947773.49808  21873815.780    89569704.89046
  20840144.740   109515755.18809  20840146.660    85336986.74148
  21088686.980   110821827.99009  21088688.080    86354693.57646
 15 03 01 03 32 30.0000000  0 10G01G03G04G11G14G16G19G22G27G32
  22743802.460   119519514.05707  22743806.280    93132103.52344
  24621907.560   129388997.03506  24621911.740   100822610.81443
  20791615.240   109260718.86009  20791615.620    85138247.71346
  21694612.380   114006005.09708  21694612.060    88835846.68845
  23344936.440   122678474.75807  23344936.860    95593619.23943
  23938587.240   125798156.77207  23938588.120    98024513.47742
  20426688.000   107343008.75409  20426685.520    83643917.30448
  21886786.940   115015923.72308  21886784.280    89622808.96346
  20848789.020   109561181.01009  20848790.940    85372383.47147
  21074358.160   110746529.68509  21074359.340    86296019.60346
 15 03 01 03 33  0.0000000  0 10G01G03G04G11G14G16G19G22G27G32
  22731262.920   119453618.74207  22731266.740    93080756.56344
  24601399.080   129281224.26906  24601403.500   100738632.26541
  20784692.600   109224339.95809  20784692.880    85109900.53446
  21681728.160   113938298.11408  21681727.840    88783088.02345
  23335144.520   122627018.54907  23335144.760    95553523.48644
  23959127.880   125906096.98007  23959128.580    98108622.47343
  20425900.800   107338871.84509  20425898.280    83640693.72948
  21899820.460   115084414.77608  21899817.660    89676178.61246
  20857516.780   109607045.20209  20857518.640    85408121.79448
  21060122.660   110671721.48609  21060123.840    86237727.52046
 15 03 01 03 33 30.0000000  0 10G01G03G04G11G14G16G19G22G27G32
  22718751.320   119387870.37607  22718755.140    93029524.11144
  24580911.040   129173558.46406  24580915.780   100654737.00843
  20777819.340   109188220.65409  20777819.600    85081755.62846
  21668880.200   113870781.76008  21668879.860    88730477.88145
  23325421.200   122575922.63607  23325421.320    95513708.49543
  23979679.600   126014094.59307  23979679.920    98192776.30843
  20425190.640   107335139.97909  20425188.120    83637785.77548
  21912913.260   115153217.50708  21912910.340    89729791.12446
  20866322.700   109653320.53709  20866324.560    85444180.48248
  21045975.680   110597378.16609  21045976.880    86179797.69746
 15 03 01 03 34  0.0000000  0 10G01G03G04G11G14G16G19G22G27G32
  22706268.160   119322270.87807  22706271.940    92978407.65044
  24560443.940   129066003.31106  24560448.780   100570927.94243
  20770995.780   109152362.68309  20770996.060    85053814.37146
  21656069.020   113803458.48908  21656068.600    88678018.21845
  23315767.380   122525191.57707  23315767.440    95474177.81643
  24000241.940   126122148.48307  24000241.960    98276974.00743
  20424558.120   107331816.03509  20424555.660    83635195.68748
  21926065.280   115222331.73408  21926062.260    89783646.36445
  20875207.160   109700008.68409  20875209.060    85480560.84548
  21031917.900   110523503.49409  21031918.940    86122233.04546
 15 03 01 03 34 30.0000000  0 10G01G03G04G11G14G16G19G22G27G32
  22693813.320   119256820.41207  22693817.200    92927407.33244
  24539998.320   128958560.99206  24540003.260   100487206.87343
  20764222.040   109116766.47509  20764222.300    85026077.07946
  21643294.900   113736329.86708  21643294.320    88625710.21545
  23306183.420   122474827.77907  23306183.520    95434933.33143
  24020814.440   126230255.99506  24020814.080    98361213.49043
  20424003.500   107328901.30109  20424001.020    83632924.46748
  21939276.120   115291755.27208  21939273.020    89837742.62746
  20884170.140   109747109.63809  20884172.140    85517262.87847
  21017949.640   110450099.33609  21017950.500    86065035.03446
 15 03 01 03 35  0.0000000  0 10G01G03G04G11G14G16G19G22G27G32
  22681386.960   119191519.93107  22681390.860    92876523.88944
  24519574.780   128851234.29406  24519579.900   100403575.91643
  20757498.220   109081432.96809  20757498.620    84998544.49146
  21630558.100   113669397.37908  21630557.340    88573555.04844
  23296669.980   122424834.82707  23296670.220    95395977.79841
  24041396.700   126338415.46807  24041396.100    98445493.52942
  20423527.140   107326397.89909  20423524.680    83630973.75948
  21952545.560   115361486.80708  21952542.500    89892078.87845
  20893211.780   109794624.07109  20893213.880    85554287.09847
  21004071.400   110377168.45309  21004072.100    86008205.80746
 15 03 01 03 35 30.0000000  0 10G01G03G04G11G14G16G19G22G27G32
  22668988.880   119126367.93807  22668992.760    92825756.12144
  24499173.200   128744023.46506  24499178.380   100320035.19243
  20750824.140   109046360.47509  20750824.520    84971215.28246
  21617858.540   113602660.57508  21617857.620    88521552.36445
  23287227.420   122375213.67407  23287227.660    95357312.00044
  24061987.840   126446622.24306  24061987.180    98529810.40444
  20423128.880   107324305.02609  20423126.460    83629342.94648
  21965872.960   115431522.84608  21965869.960    89946652.40245
  20902331.780   109842550.22309  20902333.900    85591632.14347
  20990283.200   110304711.07009  20990283.880    85951745.53846
 15 03 01 03 36  0.0000000  0 10G01G03G04G11G14G16G19G22G27G32
  22656619.000   119061363.54007  22656622.740    92775103.40744
  24478793.760   128636929.28706  24478798.860   100236585.32444
  20744199.560   109011547.93809  20744199.880    84944088.64046
  21605196.220   113536119.50808  21605195.180    88469702.18845
  23277856.020   122325966.03307  23277856.060    95318937.23943
  24082587.260   126554872.95406  24082586.700    98614161.59643
  20422808.740   107322622.60009  20422806.320    83628031.95748
  21979257.700   115501860.16108  21979254.660    90001460.70445
  20911529.900   109890886.91209  20911532.040    85629297.07747
  20976585.180   110232728.00209  20976585.900    85895654.85346
 15 03 01 03 36 30.0000000  0 10G01G03G04G11G14G16G19G22G27G32
  22644277.840   118996510.77507  22644281.760    92724568.82544
  24458437.580   128529957.85606  24458442.620   100153231.04843
  20737625.320   108976999.78209  20737625.600    84917168.01846
  21592572.020   113469778.85508  21592571.000    88418008.18944
  23268556.840   122277098.36007  23268556.840    95280858.55942
  24103195.040   126663168.88006  24103194.720    98698547.92743
  20422567.660   107321355.81609  20422565.260    83627044.84848
  21992700.160   115572500.67008  21992697.080    90056505.25145
  20920806.900   109939637.91509  20920808.980    85667284.85347
  20962978.460   110161224.96509  20962979.260    85839938.23846
 15 03 01 03 37  0.0000000  0 10G01G03G04G11G14G16G19G22G27G32
  22631965.000   118931806.54507  22631968.940    92674149.99445
  24438104.440   128423107.80006  24438109.280   100069971.34744
  20731100.740   108942712.78509  20731101.020    84890450.89046
  21579985.600   113403636.67508  21579984.580    88366468.84045
  23259329.780   122228609.66707  23259330.060    95243075.17444
  24123810.060   126771504.06406  24123810.200    98782964.81243
  20422405.200   107320502.28309  20422402.840    83626379.75748
  22006199.420   115643439.47408  22006196.300    90111782.23645
  20930162.080   109988799.81809  20930164.180    85705592.81747
  20949462.880   110090200.66709  20949463.740    85784594.65446
 15 03 01 03 37 30.0000000  0 10G01G03G04G11G14G16G19G22G27G32
  22619680.740   118867252.28408  22619684.640    92623848.00745
  24417794.940   128316382.59106  24417799.820    99986808.99644
  20724626.080   108908688.31709  20724626.340    84863938.33246
  21567437.260   113337695.17108  21567436.400    88315085.87645
  23250175.580   122180503.75807  23250175.860    95205590.08143
  24144432.420   126879877.25206  24144432.600    98867411.35843
  20422321.800   107320064.15009  20422319.440    83626038.34748
  22019755.180   115714675.26808  22019752.020    90167290.64646
  20939595.780   110038373.70209  20939597.860    85744221.81647
  20936038.980   110019658.05909  20936039.940    85729626.41546
 15 03 01 03 38  0.0000000  0 10G01G03G04G11G14G16G19G22G27G32
  22607425.020   118802847.43108  22607428.800    92573662.43844
  24397509.320   128209783.38206  24397514.300    99903744.80244
  20718201.260   108874925.70209  20718201.440    84837629.81146
  21554927.160   113271954.65308  21554926.400    88263859.50345
  23241094.580   122132782.73607  23241094.720    95168404.87644
  24165061.500   126988284.58206  24165062.000    98951884.45143
  20422317.620   107320042.26509  20422315.280    83626021.29248
  22033366.940   115786205.57908  22033363.820    90223028.54845
  20949107.720   110088358.69009  20949109.780    85783171.14547
  20922707.040   109949598.23609  20922707.980    85675034.38046
 15 03 01 03 38 30.0000000  0 10G01G03G04G11G14G16G19G22G27G32
  22595197.500   118738590.75908  22595201.060    92523592.34545
  24377247.860   128103310.67306  24377252.660    99820779.18343
  20711826.080   108841423.81009  20711826.140    84811524.45146
  21542455.260   113206414.98108  21542454.540    88212789.64145
  23232086.980   122085447.58707  23232087.140    95131520.37443
  24185696.660   127096722.82206  24185697.280    99036381.69943
  20422392.580   107320436.13809  20422390.200    83626328.20148
  22047034.060   115858026.84808  22047030.960    90278993.16145
  20958697.520   110138753.20309  20958699.560    85822439.58847
  20909467.120   109880021.71309  20909468.020    85620818.93046
 15 03 01 03 39  0.0000000  0 10G01G03G04G11G14G16G19G22G27G32
  22582998.160   118674482.71108  22583001.580    92473638.05144
  24357011.040   127996966.72706  24357015.740    99737913.85144
  20705500.560   108808182.96509  20705500.560    84785622.50246
  21530021.880   113141077.28008  21530021.160    88161877.16845
  23223153.280   122038501.25207  23223153.360    95094938.82943
  24206337.380   127205189.39507  24206337.880    99120901.08043
  20422546.900   107321247.01909  20422544.480    83626960.05948
  22060756.240   115930137.36108  22060753.160    90335183.16745
  20968365.240   110189557.31809  20968367.260    85862027.19447
  20896319.580   109810930.43609  20896320.320    85566981.59746
 15 03 01 03 39 30.0000000  0 10G01G03G04G11G14G16G19G22G27G32
  22570827.340   118610524.54908  22570830.800    92423800.54545
  24336799.500   127890754.70106  24336804.040    99655151.32941
  20699224.940   108775204.52509  20699224.980    84759925.02646
  21517627.440   113075943.95808  21517626.700    88111123.95045
  23214294.200   121991947.14507  23214294.320    95058662.91044
  24226983.280   127313682.82406  24226983.340    99205441.36043
  20422780.980   107322477.15409  20422778.540    83627918.60048
  22074533.240   116002536.16608  22074530.240    90391597.81245
  20978111.100   110240771.91609  20978113.020    85901934.66947
  20883264.900   109742327.41409  20883265.580    85513524.72446
 15 03 01 03 40  0.0000000  0 10G01G03G04G11G14G16G19G22G27G32
  22558684.420   118546713.08408  22558687.940    92374077.37645
  24316612.920   127784673.26806  24316617.060    99572490.55042
  20692998.640   108742485.19009  20692998.700    84734429.44646
  21505271.340   113011012.59008  21505270.680    88060528.11045
  23205509.700   121945784.51707  23205509.860    95022692.07644
  24247633.200   127422197.56106  24247632.900    99289998.43441
  20423094.400   107324124.18209  20423091.920    83629201.99248
  22088364.120   116075217.93108  22088361.200    90448232.95245
  20987934.360   110292393.44009  20987936.180    85942159.21547
  20870302.800   109674210.89309  20870303.360    85460446.95046
 15 03 01 03 40 30.0000000  0 10G01G03G04G11G14G16G19G22G27G32
  22546570.060   118483051.80108  22546573.500    92324471.19845
  24296452.260   127678727.72806  24296456.000    99489935.77643
  20686822.340   108710028.43809  20686822.440    84709138.48546
  21492954.560   112946287.65308  21492953.940    88010093.10445
  23196800.740   121900019.04107  23196801.080    94987030.67844
  24268287.200   127530733.74006  24268286.780    99374572.20041
  20423487.960   107326192.19609  20423485.440    83630813.43048
  22102249.100   116148184.10908  22102246.260    90505089.70145
  20997835.600   110344424.97309  20997837.460    85982703.25647
  20857434.180   109606585.91709  20857434.700    85407752.19446
 15 03 01 03 41  0.0000000  0 10G01G03G04G11G14G16G19G22G27G32
  22534484.200   118419540.66608  22534487.640    92274982.04344
  24276317.720   127572919.68806  24276321.460    99407488.10444
  20680696.000   108677834.14409  20680696.120    84684052.03446
  21480677.220   112881770.03308  21480676.640    87959819.66445
  23188168.000   121854653.22907  23188168.300    94951680.71743
  24288944.720   127639288.87806  24288944.300    99459160.71043
  20423961.800   107328682.20309  20423959.260    83632753.69248
  22116187.680   116221432.25108  22116184.880    90562166.17046
  21007814.800   110396866.03609  21007816.660    86023566.41447
  20844659.360   109539454.08209  20844659.920    85355441.69246
 15 03 01 03 41 30.0000000  0 10G01G03G04G11G14G16G19G22G27G32
  22522426.740   118356178.95608  22522430.140    92225609.31944
  24256209.540   127467250.37806  24256213.340    99325148.52843
  20674619.440   108645901.82109  20674619.700    84659169.71946
  21468439.380   112817459.92508  21468438.760    87909707.90945
  23179611.540   121809688.50207  23179611.780    94916643.29543
  24309604.960   127747859.01506  24309604.480    99543760.96843
  20424515.980   107331594.48109  20424513.460    83635022.99348
  22130179.340   116294959.26508  22130176.640    90619459.95545
  21017871.720   110449715.45009  21017873.620    86064747.76147
  20831978.520   109472816.03009  20831979.160    85303515.95446
 15 03 01 03 42  0.0000000  0 10G01G03G04G11G14G16G19G22G27G32
  22510397.760   118292967.02608  22510401.260    92176353.31645
  24236128.020   127361721.79606  24236132.080    99242918.60543
  20668592.800   108614231.74809  20668593.120    84634491.74946
  21456241.300   112753358.75108  21456240.680    87859758.96645
  23171131.820   121765127.59907  23171132.140    94881920.52544
  24330267.660   127856442.48606  24330267.400    99628371.77841
  20425150.700   107334929.78809  20425148.180    83637621.92948
  22144223.820   116368763.52108  22144221.140    90676969.75145
  21028006.320   110502973.19509  21028008.260    86106247.28447
  20819391.960   109406673.73409  20819392.740    85251976.52746
 15 03 01 03 42 30.0000000  0 10G01G03G04G11G14G16G19G22G27G32
  22498397.540   118229906.00308  22498401.220    92127214.90845
  24216073.820   127256336.83706  24216078.040    99160800.53342
  20662616.260   108582824.89209  20662616.580    84610018.88646
  21444083.360   112689468.45008  21444082.780    87809974.33445
  23162729.580   121720973.74507  23162729.880    94847514.94543
  24350932.220   127965036.79006  24350932.240    99712990.85142
  20425866.380   107338690.40509  20425863.860    83640552.27148
  22158320.920   116442844.07208  22158318.260    90734694.85345
  21038218.780   110556639.84809  21038220.680    86148065.44147
  20806900.300   109341029.75709  20806901.140    85200825.39646
 15 03 01 03 43  0.0000000  0 10G01G03G04G11G14G16G19G22G27G32
  22486425.560   118166993.39408  22486429.380    92078192.11445
  24196046.820   127151094.84606  24196051.220    99078793.88944
  20656689.340   108551678.95109  20656689.640    84585749.33646
  21431965.300   112625787.54608  21431964.800    87760352.87245
  23154404.800   121677226.88807  23154405.080    94813426.50243
  24371598.020   128073637.94906  24371598.160    99797615.59841
  20426662.580   107342874.33009  20426660.020    83643812.47048
  22172469.580   116517195.85008  22172467.020    90792631.29945
  21048508.480   110610712.47709  21048510.380    86190199.94847
  20794503.300   109275883.08709  20794504.100    85150061.79146
 15 03 01 03 43 30.0000000  0 10G01G03G04G11G14G16G19G22G27G32
  22474482.100   118104230.65608  22474485.960    92029286.12145
  24176047.580   127045999.03406  24176052.520    98996901.16143
  20650812.240   108520794.88209  20650812.560    84561683.83846
  21419887.580   112562318.41608  21419887.040    87710896.42345
  23146158.060   121633890.36607  23146158.460    94779657.79743
  24392264.720   128182243.93305  24392264.920    99882244.21143
  20427539.740   107347483.83209  20427537.180    83647404.28648
  22186669.740   116591818.59108  22186667.240    90850778.87645
  21058875.600   110665192.02009  21058877.540    86232651.52747
  20782201.520   109211236.64009  20782202.260    85099687.95246
 15 03 01 03 44  0.0000000  0 10G01G03G04G11G14G16G19G22G27G32
  22462566.920   118041616.13608  22462570.780    91980495.62545
  24156076.260   126941049.61706  24156081.460    98915122.48744
  20644984.740   108490171.50709  20644985.140    84537821.46946
  21407850.040   112499060.24308  21407849.460    87661604.36545
  23137989.580   121590965.03707  23137990.080    94746209.51443
  24412931.260   128290850.48606  24412931.800    99966873.37642
  20428497.720   107352518.15809  20428495.160    83651327.13148
  22200920.640   116666707.82608  22200918.180    90909134.11945
  21069319.720   110720076.37309  21069321.680    86275418.54847
  20769994.860   109147090.15609  20769995.540    85049703.70146
 15 03 01 03 44 30.0000000  0 10G01G03G04G11G14G16G19G22G27G32
  22450680.580   117979153.51008  22450684.380    91931823.47245
  24136133.680   126836251.88906  24136139.120    98833461.99844
  20639207.560   108459812.27609  20639207.960    84514164.94546
  21395853.540   112436017.87108  21395852.940    87612480.45945
  23129900.380   121548456.64307  23129901.000    94713086.11644
  24433597.980   128399457.66806  24433598.600   100051502.67841
  20429537.380   107357981.74809  20429534.820    83655584.46848
  22215222.740   116741865.50908  22215220.220    90967698.54745
  21079841.480   110775368.64209  21079843.460    86318503.41747
  20757884.280   109083448.67809  20757884.960    85000112.96846
 15 03 01 03 45  0.0000000  0 10G01G03G04G11G14G16G19G22G27G32
  22438822.600   117916839.32508  22438826.320    91883266.99745
  24116219.620   126731604.16906  24116225.160    98751918.41444
  20633480.040   108429713.82909  20633480.400    84490711.61746
  21383897.520   112373188.53308  21383896.940    87563522.54545
  23121890.300   121506363.92707  23121891.000    94680286.60744
  24454263.760   128508058.89106  24454264.300   100136126.72743
  20430658.220   107363871.88109  20430655.640    83660174.17948
  22229574.840   116817286.07508  22229572.340    91026467.82045
  21090440.100   110831064.79809  21090442.100    86361903.01747
  20745869.420   109020310.06009  20745870.080    84950914.05946
 15 03 01 03 45 30.0000000  0 10G01G03G04G11G14G16G19G22G27G32
  22426994.620   117854682.32408  22426998.180    91834832.99945
  24096336.240   126627117.04606  24096341.540    98670499.91542
  20627803.700   108399884.81009  20627804.100    84467468.23046
  21371983.860   112310582.04008  21371983.240    87514738.29245
  23113961.520   121464697.79907  23113962.240    94647819.50543
  24474929.860   128616660.31806  24474930.340   100220750.71843
  20431862.040   107370197.91309  20431859.540    83665103.54948
  22243978.040   116892975.77208  22243975.680    91085446.79045
  21101117.200   110887173.09309  21101119.160    86405623.75047
  20733952.200   108957684.61509  20733952.840    84902115.03746
 15 03 01 03 46  0.0000000  0 10G01G03G04G11G14G16G19G22G27G32
  22415192.040   117792658.79108  22415195.500    91786502.99545
  24076479.280   126522768.44806  24076484.320    98589189.41744
  20622174.120   108370301.45209  20622174.500    84444416.26746
  21360108.320   112248175.66408  21360107.560    87466109.95745
  23106109.840   121423436.63707  23106110.320    94615668.00844
  24495591.500   128725237.30406  24495591.960   100305355.89843
  20433144.440   107376936.98409  20433141.960    83670354.76548
  22258427.600   116968908.78808  22258425.280    91144615.37445
  21111868.120   110943669.19609  21111870.020    86449646.67347
  20722128.260   108895549.72209  20722128.940    84853698.26446
 15 03 01 03 46 30.0000000  0 10G01G03G04G11G14G16G19G22G27G32
  22403418.980   117730790.32008  22403422.360    91738293.83845
  24056653.080   126418581.83806  24056658.140    98508005.12943
  20616595.440   108340985.40109  20616595.800    84421572.60546
  21348275.180   112185991.90409  21348274.320    87417655.08845
  23098339.780   121382604.34207  23098340.100    94583850.63543
  24516252.140   128833809.36405  24516253.100   100389957.84943
  20434509.660   107384111.27409  20434507.180    83675945.12148
  22272927.280   117045104.72108  22272924.980    91203988.82045
  21122696.860   111000574.15109  21122698.640    86493988.18947
  20710402.040   108833928.45909  20710402.780    84805681.70846
 15 03 01 03 47  0.0000000  0 10G01G03G04G11G14G16G19G22G27G32
  22391674.620   117669072.64008  22391677.840    91690202.17545
  24036857.440   126314554.54906  24036862.280    98426944.98144
  20611066.760   108311932.44109  20611067.240    84398933.94746
  21336483.780   112124027.33209  21336482.880    87369371.03445
  23090650.920   121342198.74707  23090651.180    94552365.76044
  24536910.100   128942367.51405  24536910.800   100474548.68542
  20435957.040   107391717.24109  20435954.520    83681871.83948
  22287475.640   117121556.58008  22287473.380    91263561.70145
  21133602.420   111057883.06709  21133604.160    86538644.46847
  20698772.960   108772817.88009  20698773.740    84758063.09846
 15 03 01 03 47 30.0000000  0 10G01G03G04G11G14G16G19G22G27G32
  22379958.700   117607505.01508  22379961.900    91642227.42045
  24017092.340   126210687.65406  24017096.960    98346009.85444
  20605587.960   108283141.69609  20605588.580    84376499.61346
  21324734.160   112062282.39209  21324733.240    87321258.10445
  23083043.420   121302221.01507  23083043.760    94521214.31344
  24557564.900   129050909.22306  24557565.640   100559127.17043
  20437486.480   107399754.69709  20437484.000    83688134.78748
  22302072.160   117198261.72908  22302069.960    91323331.94145
  21144584.560   111115594.61809  21144586.340    86583614.50247
  20687241.160   108712218.39809  20687241.960    84710842.74046
 15 03 01 03 48  0.0000000  0 10G01G03G04G11G14G16G19G22G27G32
  22368271.440   117546088.22008  22368274.760    91594370.21045
  23997358.160   126106983.65406  23997362.780    98265201.64744
  20600159.220   108254613.78809  20600159.900    84354270.07846
  21313026.680   112000758.74309  21313025.740    87273317.61745
  23075517.920   121262673.98507  23075518.300    94490398.49343
  24578216.000   129159431.89306  24578216.440   100643690.49543
  20439098.300   107408225.20009  20439095.940    83694735.17948
  22316716.600   117275218.73308  22316714.500    91383298.43045
  21155643.320   111173708.89409  21155645.140    86628898.34347
  20675807.020   108652132.00409  20675807.820    84664022.18846
 15 03 01 03 48 30.0000000  0 10G01G03G04G11G14G16G19G22G27G32
  22356612.880   117484822.38708  22356616.160    91546630.65145
  23977655.340   126003444.30706  23977660.100    98184521.71744
  20594780.660   108226348.93609  20594781.260    84332245.52646
  21301361.520   111939457.68509  21301360.540    87225550.56945
  23068074.740   121223559.91007  23068075.120    94459920.01344
  24598863.020   129267932.97605  24598863.280   100728236.95642
  20440792.760   107417129.68409  20440790.420    83701673.73448
  22331408.520   117352425.47008  22331406.500    91443459.51345
  21166778.620   111232225.42209  21166780.500    86674495.62747
  20664470.900   108592560.16309  20664471.640    84617602.59246
 15 03 01 03 49  0.0000000  0 10G01G03G04G11G14G16G19G22G27G32
  22344982.780   117423706.24508  22344986.000    91499007.70845
  23957983.900   125900070.13206  23957988.780    98103970.53643
  20589452.020   108198346.05209  20589452.500    84310425.10646
  21289738.580   111878378.63709  21289737.580    87177956.52145
  23060714.140   121184879.74107  23060714.480    94429779.64844
  24619505.140   129376408.88405  24619504.980   100812763.69141
  20442569.700   107426467.57709  20442567.360    83708950.00848
  22346147.400   117429878.51608  22346145.280    91503812.54245
  21177990.120   111291142.31209  21177992.060    86720404.87847
  20653232.720   108533502.89509  20653233.420    84571583.97246
 15 03 01 03 49 30.0000000  0 10G01G03G04G11G14G16G19G22G27G32
  22333381.360   117362741.39608  22333384.620    91451502.66845
  23938344.460   125796864.37006  23938349.580    98023550.58343
  20584173.400   108170606.52009  20584173.920    84288809.89446
  21278158.360   111817524.21209  21278157.280    87130537.50545
  23053436.740   121146637.09507  23053437.000    94399980.19444
  24640142.160   129484858.23105  24640142.240   100897269.64543
  20444429.460   107436240.56609  20444427.100    83716565.32048
  22360932.960   117507577.17608  22360930.780    91564356.95345
  21189277.920   111350460.38809  21189279.980    86766626.73747
  20642093.000   108474962.83709  20642093.620    84525968.36246
 15 03 01 03 50  0.0000000  0 10G01G03G04G11G14G16G19G22G27G32
  22321808.380   117301924.72408  22321811.640    91404113.07345
  23918736.780   125693825.63406  23918742.160    97943260.78243
  20578944.280   108143127.27209  20578944.820    84267397.49746
  21266620.480   111756892.30609  21266619.320    87083291.87145
  23046242.360   121108830.40207  23046242.520    94370520.47044
  24660773.140   129593275.38805  24660773.700   100981750.86844
  20446371.660   107446446.43109  20446369.180    83724517.93048
  22375764.180   117585516.20008  22375761.960    91625088.64745
  21200641.400   111410175.88909  21200643.520    86813158.29247
  20631051.280   108416938.07609  20631051.840    84480754.28046
 15 03 01 03 50 30.0000000  0 10G01G03G04G11G14G16G19G22G27G32
  22310264.100   117241259.35108  22310267.360    91356841.38545
  23899161.740   125590958.71206  23899167.060    97863104.83243
  20573765.220   108115911.14609  20573765.660    84246190.13546
  21255125.700   111696487.15609  21255124.540    87036222.92645
  23039131.920   121071465.19707  23039131.980    94341404.71043
  24681398.080   129701660.36806  24681398.480   101066206.68143
  20448396.880   107457088.97109  20448394.380    83732810.82048
  22390641.440   117663696.61608  22390639.060    91686008.45245
  21212080.920   111470291.27409  21212083.100    86860001.43347
  20620108.420   108359432.88509  20620108.880    84435945.05546
 15 03 01 03 51  0.0000000  0 10G01G03G04G11G14G16G19G22G27G32
  22298748.420   117180744.00808  22298751.680    91309686.59745
  23879619.420   125488263.97306  23879624.500    97783083.04644
  20568636.060   108088957.21309  20568636.380    84225187.08246
  21243673.980   111636308.44709  21243672.920    86989330.43845
  23032105.620   121034542.09907  23032105.660    94312633.51044
  24702016.180   129810009.52805  24702016.800   101150634.39941
  20450505.040   107468167.50309  20450502.540    83741443.43848
  22405563.940   117742114.66908  22405561.380    91747113.43345
  21223596.200   111530804.46909  21223598.320    86907154.55947
  20609264.400   108302447.11709  20609264.820    84391540.57746
 15 03 01 03 51 30.0000000  0 10G01G03G04G11G14G16G19G22G27G32
  22287261.600   117120379.76508  22287264.680    91262649.55545
  23860110.360   125385744.19806  23860115.260    97703197.62443
  20563556.960   108062266.24409  20563557.240    84204388.93346
  21232265.680   111576357.92209  21232264.820    86942615.76045
  23025163.860   120998063.85307  23025164.080    94284208.91644
  24722627.220   129918321.46305  24722628.080   101235033.20543
  20452696.540   107479683.73409  20452693.980    83750417.11748
  22420531.400   117820769.42908  22420528.800    91808402.83745
  21235187.200   111591715.85309  21235189.320    86954617.95947
  20598519.620   108245982.90709  20598520.080    84347542.51946
 15 03 01 03 52  0.0000000  0 10G01G03G04G11G14G16G19G22G27G32
  22275802.920   117060163.74308  22275805.960    91215728.00045
  23840634.380   125283398.19706  23840639.120    97623447.57544
  20558527.420   108035835.58609  20558527.680    84183793.62346
  21220900.480   111516633.88509  21220899.720    86896077.56345
  23018306.740   120962029.91907  23018306.960    94256130.55943
  24743230.180   130026590.29706  24743231.000   101319398.30543
  20454970.780   107491634.93809  20454968.220    83759729.73348
  22435542.980   117899655.72708  22435540.200    91869872.68645
  21246853.320   111653021.79809  21246855.480    87002388.81547
  20587873.740   108190038.54009  20587874.300    84303949.52946
 15 03 01 03 52 30.0000000  0 10G01G03G04G11G14G16G19G22G27G32
  22264372.840   117000098.72708  22264375.980    91168924.11445
  23821192.240   125181230.37006  23821196.940    97543836.39444
  20553547.860   108009667.76409  20553548.160    84163403.13046
  21209579.200   111457140.30409  21209578.480    86849718.94145
  23011535.140   120926444.91907  23011535.400    94228402.01643
  24763825.040   130134815.96306  24763825.960   101403729.76741
  20457328.500   107504024.88009  20457325.960    83769384.23148
  22450598.800   117978774.20908  22450595.880    91931523.46245
  21258594.940   111714724.33609  21258597.120    87050468.70447
  20577327.500   108134617.76409  20577328.120    84260764.52746
 15 03 01 03 53  0.0000000  0 10G01G03G04G11G14G16G19G22G27G32
  22252971.580   116940184.65108  22252974.540    91122237.84845
  23801784.340   125079242.33606  23801789.040    97464365.30144
  20548618.320   107983762.87709  20548618.640    84143217.50446
  21198301.940   111397877.86609  21198301.120    86803540.42845
  23004849.320   120891310.48707  23004849.580    94201024.54343
  24784411.240   130242996.01005  24784412.280   101488025.61142
  20459769.820   107516853.97709  20459767.260    83779380.91848
  22465698.320   118058122.55908  22465695.360    91993353.33745
  21270411.900   111776822.57509  21270414.040    87098856.92847
  20566881.040   108079721.65609  20566881.680    84217988.36446
 15 03 01 03 53 30.0000000  0 10G01G03G04G11G14G16G19G22G27G32
  22241598.620   116880419.60108  22241601.600    91075667.71745
  23782410.680   124977433.78006  23782415.380    97385034.05543
  20543738.480   107958118.92209  20543738.700    84123235.20846
  21187068.380   111338845.29109  21187067.480    86757541.02745
  22998249.140   120856626.65907  22998249.560    94173998.21043
  24804988.060   130351126.46805  24804989.140   101572282.99243
  20462294.380   107530120.55609  20462291.860    83789718.50748
  22480840.740   118137696.65008  22480837.740    92055359.11645
  21282303.620   111839313.84309  21282305.780    87147551.40547
  20556534.260   108025349.27009  20556534.860    84175620.28146
 15 03 01 03 54  0.0000000  0 10G01G03G04G11G14G16G19G22G27G32
  22230254.680   116820807.71808  22230257.840    91029216.91445
  23763072.240   124875810.49906  23763076.920    97305847.18344
  20538909.040   107932739.89309  20538909.180    84103459.35646
  21175879.640   111280048.46709  21175878.720    86711725.32945
  22991735.860   120822399.54407  22991736.420    94147327.74744
  24825555.620   130459208.43305  24825556.360   101656502.55942
  20464903.060   107543829.21209  20464900.540    83800400.57348
  22496026.540   118217498.43908  22496023.480    92117542.32045
  21294270.720   111902201.43609  21294272.880    87196554.71247
  20546288.160   107971505.70909  20546288.660    84133664.28046
 15 03 01 03 54 30.0000000  0 10G01G03G04G11G14G16G19G22G27G32
  22218939.060   116761344.31508  22218942.400    90982881.81545
  23743768.580   124774369.49306  23743773.220    97226802.32144
  20534129.100   107907621.17909  20534129.200    84083886.34346
  21164735.080   111221483.56909  21164734.120    86666090.36245
  22985309.000   120788626.21607  22985309.540    94121010.89744
  24846112.560   130567234.41506  24846112.460   101740678.49243
  20467595.100   107557975.98509  20467592.560    83811424.02748
  22511254.400   118297521.00508  22511251.220    92179897.55645
  21306312.280   111965479.83009  21306314.380    87245862.54747
  20536142.060   107918187.26609  20536142.460    84092117.46746
 15 03 01 03 55  0.0000000  0 10G01G03G04G11G14G16G19G22G27G32
  22207652.260   116702032.25808  22207655.660    90936664.66145
  23724500.540   124673115.19906  23724505.320    97147902.94543
  20529399.220   107882765.59109  20529399.320    84064518.36646
  21153635.320   111163154.11808  21153634.340    86620638.85445
  22978969.340   120755311.30207  22978970.000    94095051.24243
  24866658.820   130675204.46306  24866658.640   101824810.76042
  20470371.160   107572564.27909  20470368.600    83822791.51848
  22526524.340   118377765.16508  22526521.160    92242425.46944
  21318428.520   112029151.08309  21318430.640    87295476.48747
  20526096.540   107865397.68609  20526096.900    84050982.75046
 15 03 01 03 55 30.0000000  0 10G01G03G04G11G14G16G19G22G27G32
  22196394.120   116642871.02208  22196397.660    90890565.03945
  23705268.180   124572048.68107  23705273.140    97069149.93344
  20524719.320   107858172.65309  20524719.360    84045355.04346
  21142580.480   111105060.55509  21142579.480    86575371.14745
  22972717.200   120722455.99207  22972717.700    94069449.73344
  24887193.840   130783115.58105  24887193.480   101908897.17941
  20473231.200   107587593.90409  20473228.580    83834502.91048
  22541835.980   118458228.13508  22541832.820    92305123.88245
  21330619.260   112093213.75909  21330621.340    87345395.45247
  20516151.700   107813137.42509  20516152.080    84010260.49846
 15 03 01 03 56  0.0000000  0 10G01G03G04G11G14G16G19G22G27G32
  22185164.400   116583858.81008  22185168.040    90844581.53245
  23686071.520   124471169.75106  23686076.500    96990543.09743
  20520089.060   107833840.35209  20520089.080    84026394.82146
  21131570.400   111047202.05509  21131569.480    86530286.62545
  22966552.660   120690060.71607  22966552.860    94044206.67144
  24907716.860   130890963.34506  24907716.520   101992934.24441
  20476174.920   107603063.34409  20476172.360    83846557.01548
  22557188.560   118538905.90408  22557185.340    92367989.66844
  21342883.960   112157665.23209  21342886.040    87395617.35647
  20506307.400   107761405.65509  20506307.880    83969950.04246
 15 03 01 03 56 30.0000000  0 10G01G03G04G11G14G16G19G22G27G32
  22173963.880   116524999.48908  22173967.540    90798717.14245
  23666911.480   124370483.92906  23666916.540    96912086.69044
  20515509.160   107809772.62809  20515509.260    84007640.76146
  21120606.020   110989583.67009  21120605.120    86485389.19145
  22960476.620   120658130.46907  22960476.680    94019326.00444
  24928228.000   130998748.62806  24928227.820   102076922.63941
  20479203.200   107618977.10209  20479200.720    83858957.33848
  22572582.260   118619800.14908  22572579.080    92431024.13744
  21355223.340   112222508.44409  21355225.360    87446144.52747
  20496564.520   107710207.01909  20496565.140    83930055.02146
 15 03 01 03 57  0.0000000  0 10G01G03G04G11G14G16G19G22G27G32
  22162791.940   116466290.20108  22162795.440    90752969.66645
  23647788.040   124269989.87507  23647792.920    96833779.71343
  20510979.040   107785966.60609  20510979.220    83989090.61946
  21109686.960   110932203.54109  21109686.080    86440677.41945
  22954488.980   120626664.51507  22954488.880    93994807.11143
  24948726.200   131106466.18805  24948726.100   102160858.32043
  20482315.520   107635332.64309  20482313.060    83871701.90748
  22588016.140   118700905.61808  22588012.940    92494223.19545
  21367636.520   112287739.64909  21367638.460    87496974.00847
  20486922.740   107659539.47009  20486923.420    83890573.83546
 15 03 01 03 57 30.0000000  0  9G01G03G04G11G14G19G22G27G32
  22151650.540   116407741.64308  22151653.860    90707347.44845
  23628703.440   124169699.91206  23628708.240    96755631.80244
  20506500.720   107762432.93609  20506500.900    83970752.70546
  21098815.360   110875073.38909  21098814.620    86396160.43146
  22948592.040   120595675.15107  22948591.700    93970659.56943
  20485514.000   107652140.84809  20485511.560    83884799.21148
  22603491.920   118782230.83108  22603488.480    92557593.49545
  21380125.380   112353368.63609  21380127.300    87548113.46647
  20477384.300   107609414.65009  20477384.960    83851515.54846
 15 03 01 03 58  0.0000000  0  9G01G03G04G11G14G19G22G27G32
  22140536.320   116349336.37008  22140539.640    90661836.87645
  23609654.680   124069598.10807  23609659.100    96677630.48944
  20502070.840   107739154.08209  20502071.040    83952613.35146
  21087988.140   110818176.50009  21087987.540    86351825.21146
  22942782.740   120565146.62407  22942782.260    93946871.13543
  20488795.400   107669384.71609  20488792.960    83898235.98248
  22619005.880   118863756.46308  22619002.360    92621119.95644
  21392686.380   112419376.96309  21392688.260    87599548.51847
  20467945.980   107559815.82609  20467946.500    83812867.12646
 15 03 01 03 58 30.0000000  0 10G01G03G04G11G14G19G22G27G28G32
  22129451.220   116291083.75508  22129454.460    90616445.26145
  23590643.820   123969695.43207  23590647.780    96599784.31243
  20497691.280   107716139.42109  20497691.480    83934679.85746
  21077207.420   110761523.61309  21077206.880    86307680.11745
  22937063.020   120535089.91207  22937062.660    93923450.33544
  20492161.640   107687074.30309  20492159.220    83912020.06948
  22634559.240   118945489.41508  22634555.680    92684807.95745
  21405321.120   112485773.07809  21405323.020    87651285.73446
  24735222.180   129984470.67005  24735222.120   101286597.42041
  20458609.700   107510753.13009  20458610.180    83774636.47746
 15 03 01 03 59  0.0000000  0 10G01G03G04G11G14G19G22G27G28G32
  22118394.280   116232979.55308  22118397.600    90571169.29245
  23571670.360   123869989.20107  23571674.100    96522091.23843
  20493361.220   107693384.74109  20493361.460    83916948.95046
  21066472.580   110705111.35109  21066471.900    86263722.52445
  22931432.600   120505502.57807  22931432.440    93900395.28843
  20495611.920   107705205.69909  20495609.560    83926148.42648
  22650150.800   119027423.41808  22650147.200    92748652.63645
  21418028.640   112552551.79309  21418030.620    87703321.08246
  24722060.700   129915308.71704                                
  20449374.760   107462223.10109  20449375.240    83736820.88446
 15 03 01 03 59 30.0000000  0 10G01G03G04G11G14G19G22G27G28G32
  22107366.500   116175028.28908  22107369.820    90526012.48745
  23552735.460   123770485.37707  23552739.120    96444555.83544
  20489081.440   107670894.39509  20489081.680    83899424.01946
  21055784.580   110648945.11909  21055783.700    86219956.63645
  22925892.640   120476390.70107  22925892.720    93877710.74443
  20499147.160   107723783.51609  20499144.860    83940624.64548
  22665781.000   119109560.55308  22665777.380    92812655.60044
  21430809.640   112619716.51709  21430811.580    87755657.22046
  24708968.560   129846510.08705                                
  20440242.180   107414230.89609  20440242.680    83699424.37746
 15 03 01 04 00  0.0000000  0 10G01G03G04G11G14G19G22G27G28G32
  22096365.440   116117217.40408  22096368.820    90480965.08045
  23533836.980   123671173.12907  23533840.660    96367169.77843
  20484849.600   107648656.09409  20484849.800    83882095.47746
  21045141.220   110593013.28809  21045140.160    86176373.39945
  22920441.060   120447743.34807  22920441.240    93855388.14744
  20502765.000   107742795.34609  20502762.700    83955439.05848
  22681447.060   119191886.58008  22681443.540    92876805.73844
  21443661.560   112687253.92509  21443663.520    87808283.75646
  24695943.880   129778064.20905  24695945.000   101125746.12342
  20431209.760   107366764.99809  20431210.240    83662437.98146
 15 03 01 04 00 30.0000000  0 10G01G03G04G11G14G19G22G27G28G32
  22085395.240   116059568.21708  22085398.540    90436043.66245
  23514979.400   123572075.29107  23514983.300    96289950.76344
  20480669.700   107626690.74809  20480669.840    83864979.63146
  21034546.680   110537338.34509  21034545.480    86132990.33546
  22915082.340   120419583.28207  22915082.620    93833445.25544
  20506469.620   107762263.07709  20506467.280    83970608.70848
  22697152.640   119274420.24308  22697149.220    92941117.67845
  21456588.240   112755184.17609  21456590.220    87861216.40147
  24682990.500   129709994.47304  24682988.900   101072709.74241
  20422281.580   107319847.11409  20422282.060    83625878.60346
 15 03 01 04 01  0.0000000  0 10G01G03G04G11G14G19G22G27G28G32
  22074454.500   116002073.94908  22074457.680    90391242.96245
  23496161.380   123473186.43907  23496165.560    96212894.59844
  20476540.460   107604991.66309  20476540.640    83848071.26646
  21023999.800   110481914.58909  21023998.660    86089803.00745
  22909815.380   120391905.47207  22909815.720    93811878.16144
  20510259.720   107782180.15809  20510257.360    83986128.50948
  22712896.040   119357152.61308  22712892.640    93005584.44544
  21469588.180   112823499.45909  21469590.240    87914449.07847
  24670107.620   129642295.62805  24670105.620   101019957.45441
  20413456.480   107273471.24209  20413457.020    83589741.57246
 15 03 01 04 01 30.0000000  0 10G01G03G04G11G14G19G22G27G28G32
  22063542.400   115944730.35008  22063545.400    90346559.65345
  23477382.580   123374503.88807  23477387.000    96135999.14144
  20472461.040   107583554.62609  20472461.380    83831367.09946
  21013500.120   110426738.80109  21013499.060    86046808.90046
  22904639.700   120364707.05607  22904639.880    93790684.60743
  20514134.540   107802542.56409  20514132.180    84001995.31348
  22728676.060   119440077.12808  22728672.640    93070200.95244
  21482660.360   112892194.48309  21482662.500    87967977.64246
  24657295.220   129574965.79105  24657294.940   100967488.57643
  20404733.780   107227633.65709  20404734.360    83554023.98846
 15 03 01 04 02  0.0000000  0 10G01G03G04G11G14G19G22G27G28G32
  22052659.900   115887542.39808  22052662.800    90301997.63745
  23458644.340   123276034.21907  23458648.920    96059269.60644
  20468432.420   107562384.47109  20468432.780    83814870.88946
  21003048.840   110371816.82209  21003047.780    86004012.55545
  22899556.560   120337994.66207  22899556.580    93769869.78144
  20518095.100   107823355.44509  20518092.760    84018213.13848
  22744493.060   119523196.33908  22744489.840    93134969.16545
  21495805.620   112961273.15709  21495807.700    88021805.17047
  24644554.160   129508011.58305  24644554.600   100915316.53645
  20396114.580   107182340.00709  20396115.220    83518730.25146
 15 03 01 04 02 30.0000000  0 10G01G03G04G11G14G19G22G27G28G32
  22041805.840   115830503.69408  22041808.700    90257551.91645
  23439945.700   123177772.46507  23439950.380    95982702.09644
  20464453.420   107541474.83009  20464453.760    83798577.66846
  20992644.820   110317143.24709  20992643.720    85961409.79046
  22894564.980   120311763.43307  22894564.900    93749429.89144
  20522140.260   107844612.70709  20522137.900    84034777.23648
  22760345.620   119606502.38308  22760342.660    93199882.94945
  21509022.480   113030728.04409  21509024.480    88075925.83646
  24631883.700   129441428.45305  24631884.220   100863433.58143
  20387597.840   107137584.47209  20387598.460    83483855.82546
 15 03 01 04 03  0.0000000  0 10G01G03G04G11G14G19G22G27G28G32
  22030980.580   115773616.81608  22030983.520    90213224.50345
  23421287.400   123079722.70007  23421291.980    95906299.76644
  20460524.560   107520828.18909  20460524.840    83782489.38547
  20982288.680   110262721.36609  20982287.580    85919003.14646
  22889665.620   120286017.18007  22889665.660    93729367.92944
  20526270.500   107866317.07509  20526268.080    84051689.72748
  22776233.660   119689995.32708  22776230.940    93264942.37944
  21522311.200   113100560.58109  21522313.140    88130340.79446
  24619284.880   129375220.75506  24619285.540   100811843.15743
  20379184.180   107093370.22009  20379184.660    83449403.17146
 15 03 01 04 03 30.0000000  0 10G01G03G04G11G14G19G22G27G28G32
  22020184.440   115716882.89808  22020187.400    90169016.29045
  23402669.960   122981887.41307  23402674.260    95830064.53344
  20456645.900   107500445.60709  20456646.160    83766606.87246
  20971980.960   110208553.85809  20971979.860    85876794.71146
  22884859.060   120260758.59507  22884859.160    93709685.91244
  20530486.100   107888469.90909  20530483.620    84068951.67348
  22792157.140   119773674.08108  22792154.560    93330146.60844
  21535671.740   113170770.79209  21535673.800    88185050.02746
  24606757.960   129309391.39306  24606758.420   100760547.54042
  20370873.900   107049698.92309  20370874.260    83415373.60346
 15 03 01 04 04  0.0000000  0 10G01G03G04G11G14G19G22G27G28G32
  22009417.200   115660301.09308  22009420.240    90124926.61145
  23384093.440   122884267.29107  23384097.420    95753996.97143
  20452817.280   107480326.22809  20452817.520    83750929.43646
  20961721.580   110154640.64209  20961720.560    85834784.41846
  22880145.400   120235988.26207  22880145.640    93690384.37344
  20534786.900   107911070.57309  20534784.380    84086562.57748
  22808115.420   119857535.83708  22808113.060    93395493.42044
  21549103.880   113241356.74409  21549105.900    88240052.05146
  24594303.160   129243941.45506  24594303.460   100709547.61542
  20362666.840   107006570.14309  20362667.100    83381766.78046
 15 03 01 04 04 30.0000000  0 10G01G03G04G11G14G19G22G27G28G32
  21998678.780   115603870.31308  21998681.840    90080954.60145
  23365558.080   122786862.77607  23365561.740    95678097.37144
  20449038.560   107460469.02809  20449038.800    83735456.30146
  20951510.580   110100981.70809  20951509.640    85792972.28146
  22875524.640   120211706.64807  22875524.940    93671463.64544
  20539172.740   107934118.22309  20539170.220    84104521.78348
  22824107.900   119941577.05208  22824105.640    93460980.07745
  21562607.060   113312316.19209  21562609.020    88295345.10746
  24581920.820   129178871.85106  24581920.920   100658843.99543
  20354562.880   106963983.38009  20354563.160    83348582.30446
 15 03 01 04 05  0.0000000  0 10G01G03G04G11G14G19G22G27G28G32
  21987969.640   115547593.33408  21987972.640    90037102.43845
  23347064.460   122689678.07107  23347067.940    95602369.13244
  20445310.220   107440876.50909  20445310.480    83720189.40546
  20941348.700   110047580.68409  20941347.840    85751361.10146
  22870997.740   120187917.56307  22870998.040    93652926.72244
  20543644.160   107957615.63909  20543641.640    84122831.45348
  22840134.660   120025798.48608  22840132.420    93526607.16045
  21576181.640   113383650.70809  21576183.500    88350930.44246
  24569611.680   129114186.92606  24569611.980   100608440.14042
  20346562.620   106921941.83509  20346562.920    83315822.67546
 15 03 01 04 05 30.0000000  0 10G01G03G04G11G14G19G22G27G28G32
  21977289.400   115491468.49108  21977292.440    89993368.82545
  23328612.540   122592712.85807  23328615.960    95526811.89844
  20441631.900   107421547.01409  20441632.180    83705127.48046
  20931235.760   109994436.95209  20931234.860    85709950.41346
  22866564.640   120164621.09207  22866564.800    93634773.64643
  20548200.840   107981561.30909  20548198.340    84141490.40848
  22856194.920   120110196.14008  22856192.660    93592371.57844
  21589826.980   113455357.50109  21589828.880    88406805.84346
  24557375.700   129049886.79805  24557376.100   100558336.16541
  20338665.840   106880444.27509  20338666.220    83283486.92846
 15 03 01 04 06  0.0000000  0 10G01G03G04G11G14G19G22G27G28G32
  21966638.220   115435496.23808  21966641.180    89949754.11345
  23310202.780   122495969.09507  23310206.120    95451427.19543
  20438003.740   107402480.98609  20438004.000    83690270.84746
  20921172.060   109941552.06409  20921171.100    85668741.40646
  22862225.640   120141818.90407  22862225.620    93617005.72844
  20552842.900   108005955.90909  20552840.500    84160499.18148
  22872288.460   120194768.23708  22872286.060    93658271.90544
  21603543.040   113527435.78809  21603545.020    88462970.72746
  24545213.360   128985973.48005  24545213.700   100508533.64742
  20330872.760   106839491.57109  20330873.180    83251575.74746
 15 03 01 04 06 30.0000000  0 10G01G03G04G11G14G19G22G27G28G32
  21956016.500   115379678.86508  21956019.480    89906260.09146
  23291835.840   122399450.42807  23291839.300    95376217.91044
  20434426.180   107383680.72909  20434426.420    83675621.29847
  20911158.180   109888929.22209  20911157.280    85627736.60846
  22857981.300   120119514.43507  22857981.200    93599625.65244
  20557570.860   108030801.70909  20557568.500    84179859.53948
  22888415.320   120279515.03508  22888412.840    93724308.38044
  21617330.020   113599886.74909  21617332.000    88519426.00546
  24533125.380   128922451.01105  24533126.140   100459035.55842
  20323183.840   106799086.40509  20323184.360    83220091.21446
 15 03 01 04 07  0.0000000  0 10G01G03G04G11G14G19G22G27G28G32
  21945423.820   115324013.78008  21945426.820    89862884.71446
  23273511.500   122303155.68207  23273515.060    95301183.10244
  20430898.720   107365143.56809  20430898.900    83661176.76246
  20901193.800   109836566.81309  20901193.020    85586934.74946
  22853831.340   120097706.62607  22853831.120    93582632.58343
  20562384.180   108056096.08409  20562381.840    84199569.43748
  22904574.540   120364431.90808  22904572.000    93790477.36544
  21631187.200   113672706.45609  21631189.180    88576168.61846
  24521111.680   128859318.82205  24521112.020   100409847.61941
  20315598.700   106759226.60409  20315599.300    83189031.64546
 15 03 01 04 07 30.0000000  0 10G01G03G04G11G14G19G22G27G28G32
  21934860.260   115268501.82608  21934863.280    89819628.67746
  23255230.220   122207087.11207  23255233.860    95226324.52844
  20427421.500   107346870.20409  20427421.620    83646937.79047
  20891279.460   109784466.81309  20891278.660    85546337.35846
  22849776.280   120076397.44907  22849775.940    93566028.06144
  20567283.060   108081839.96609  20567280.700    84219629.59948
  22920765.740   120449517.12808  22920763.160    93856777.52644
  21645114.500   113745894.56808  21645116.460    88633198.30146
  24509172.780   128796579.40305  24509171.920   100360959.81541
  20308117.600   106719913.19709  20308118.200    83158397.83246
 15 03 01 04 08  0.0000000  0 10G01G03G04G11G14G19G22G27G28G32
  21924325.980   115213144.13408  21924329.060    89776492.83845
  23236992.420   122111247.17507  23236996.040    95151644.11944
  20423994.640   107328861.74109  20423994.740    83632905.22246
  20881415.540   109732631.25309  20881414.580    85505946.02246
  22845816.520   120055589.04107  22845816.060    93549813.73744
  20572267.820   108108034.80709  20572265.400    84240041.15848
  22936988.880   120534770.15408  22936986.220    93923208.45444
  21659111.800   113819450.99608  21659113.760    88690514.97646
  24497309.280   128734235.67805  24497308.400   100312380.21541
  20300740.840   106681147.72009  20300741.360    83128190.97947
